~Version Information
VERS.                      2.0: CWLS Log ASCII Standard - VERSION 2.0
WRAP.                       NO: One line per depth step
~Well Information Block
STRT.FT               830.0000: 
STOP.FT              3122.7000: 
STEP.FT                 0.1000: 
NULL.                -999.2500: 
COMP.          Pioneer Natural Resources: COMPANY
WELL.              Stones 24-8: WELL
FLD.           Purgatoire River: FIELD
LOC.           648' FSL & 2264' FWL: LOCATION
PROV.                 Colorado: PROVINCE
CNTY.               Las Animas: COUNTRY
SRVC.                Patterson: SERVICE COMPANY
DATE.          Wed Jan 19 15:33:00 2005: LOG DATE
UWI.           05 071 07945 00: UNIQUE WELL ID
~Curve Information Block
DEPT.FT            0 000 00 00: Depth
DCAL.in                       : CDL Caliper
RHOB.g/cc                     : CDL Bulk Density
RHOC.g/cc                     : CDL Density Correction
DPOR.pu                       : CDL Density Porosity
NPOR.pu                       : Neutron Porosity
GR.GAPI                       : Gamma Ray
~Parameter Information Block
~A  Depth       DCAL        RHOB        RHOC        DPOR        NPOR         GR     
# ...
  1127.6000      8.2084      2.3193      0.0053     20.0421     16.1286     54.6227
  1127.7000      8.2084      2.3282      0.0181     19.5023     16.0613     54.3808
  1127.8000      8.2090      2.3522      0.0864     18.0471     16.2319     52.3924
  1127.9000      8.2090      2.3601      0.0649     17.5721     16.3862     50.6896
  1128.0000      8.2063      2.3450      0.0419     18.4828     16.4289     50.4855
  1128.1000      8.2063      2.3279      0.0136     19.5229     16.5880     52.7050
  1128.2000      8.2063      2.3237      0.0561     19.7784     16.8090     57.6129
  1128.3000      8.2014      2.3313      0.0326     19.3153     16.9205     61.7757
  1128.4000      8.2014      2.3357      0.0959     19.0458     17.1241     61.2290
  1128.5000      8.1965      2.3243      0.0081     19.7400     17.3877     58.0330
  1128.6000      8.1965      2.3097      0.0223     20.6217     17.3909     56.4122
  1128.7000      8.1965      2.3052      0.0408     20.8968     17.3410     55.5197
  1128.8000      8.1959      2.3080      0.0431     20.7244     17.6406     54.7322
  1128.9000      8.1959      2.3113      0.0515     20.5271     18.1021     54.2812
  1129.0000      8.1996      2.3071      0.0751     20.7814     18.0061     52.9896
  1129.1000      8.1996      2.2968     -0.0035     21.4076     17.1072     52.5933
  1129.2000      8.1996      2.2889      0.0376     21.8875     16.2517     53.8953
  1129.3000      8.2022      2.2917     -0.0123     21.7152     16.2641     54.6007
  1129.4000      8.2022      2.3080      0.0763     20.7281     17.1068     54.8793
  1129.5000      8.2022      2.3224      0.0916     19.8563     18.0375     55.9588
  1129.6000      8.2022      2.3254      0.0420     19.6734     18.2393     57.2588
  1129.7000      8.2022      2.3263      0.0504     19.6208     17.9166     57.8180
  1129.8000      8.2026      2.3330      0.0644     19.2136     17.7822     59.5813
  1129.9000      8.2026      2.3467      0.0713     18.3844     18.1322     64.0584
  1130.0000      8.2039      2.3647      0.0722     17.2930     19.0448     66.8483
  1130.1000      8.2039      2.3835      0.0606     16.1534     19.9721     65.2320
  1130.2000      8.2039      2.4041      0.0600     14.9049     20.1715     64.0664
  1130.3000      8.2041      2.4309      0.0691     13.2795     20.0903     65.6648
  1130.4000      8.2041      2.4630      0.0832     11.3310     20.4725     66.5659
  1130.5000      8.2031      2.4922      0.0951      9.5657     21.2487     66.2804
  1130.6000      8.2031      2.5103      0.1044      8.4655     21.8325     68.0643
  1130.7000      8.2031      2.5167      0.0597      8.0781     21.9344     73.6432
  1130.8000      8.2021      2.5124      0.0675      8.3372     21.6946     81.8743
  1130.9000      8.2021      2.4995      0.0148      9.1186     21.1071     88.9497
  1131.0000      8.2006      2.4833      0.0486     10.1004     20.5042     91.3065
  1131.1000      8.2006      2.4636      0.0096     11.2968     20.4725     88.6225
  1131.2000      8.2006      2.4413      0.0202     12.6459     20.6839     82.7550
  1131.3000      8.1994      2.4224     -0.0152     13.7946     20.3845     76.3873
  1131.4000      8.1994      2.4090      0.0121     14.6036     19.6566     70.6594
  1131.5000      8.2024      2.3971     -0.0064     15.3258     19.1058     66.8287
  1131.6000      8.2024      2.3862      0.0014     15.9850     18.9234     67.3139
  1131.7000      8.2024      2.3814      0.0242     16.2769     18.7528     69.8174
  1131.8000      8.2037      2.3895      0.0119     15.7871     18.2273     69.4728
  1131.9000      8.2037      2.4100      0.0592     14.5475     17.3756     67.2836
  1132.0000      8.2018      2.4227      0.1170     13.7763     16.5748     67.3538
  1132.1000      8.2018      2.4139      0.0691     14.3069     16.1458     69.8686
  1132.2000      8.2018      2.4007      0.0333     15.1069     16.1654     70.9254
  1132.3000      8.1992      2.3991      0.0801     15.2043     16.4273     69.0336
  1132.4000      8.1992      2.3988      0.0986     15.2251     16.3344     66.1931
  1132.5000      8.1982      2.3890      0.0601     15.8165     15.9099     64.3860
  1132.6000      8.1982      2.3749      0.0546     16.6708     15.7347     64.3556
  1132.7000      8.1982      2.3639      0.0521     17.3421     15.8662     65.1603
  1132.8000      8.2023      2.3590      0.0258     17.6339     16.2582     66.1122
  1132.9000      8.2023      2.3550      0.0519     17.8765     16.8235     64.9699
  1133.0000      8.2101      2.3397      0.0354     18.8062     17.0345     60.6629
  1133.1000      8.2101      2.3178      0.0262     20.1326     16.6595     57.2433
  1133.2000      8.2101      2.3141      0.0004     20.3563     16.2373     56.5342
  1133.3000      8.2165      2.3358      0.0591     19.0428     16.1586     56.6598
  1133.4000      8.2165      2.3561      0.0722     17.8106     16.2961     56.6029
  1133.5000      8.2200      2.3558      0.0234     17.8317     16.5596     57.7258
  1133.6000      8.2200      2.3489     -0.0005     18.2482     17.0541     60.2630
  1133.7000      8.2200      2.3514      0.0310     18.0943     17.5546     62.5365
  1133.8000      8.2217      2.3562      0.0525     17.8068     17.5694     64.1060
  1133.9000      8.2217      2.3504      0.0576     18.1558     17.0365     65.1158
  1134.0000      8.2249      2.3316      0.0545     19.2940     16.6893     65.1207
  1134.1000      8.2249      2.3090      0.0221     20.6675     16.9321     64.4480
  1134.2000      8.2249      2.2957      0.0639     21.4725     17.1060     63.6989
  1134.3000      8.2284      2.2948      0.0341     21.5256     16.8741     62.2099
  1134.4000      8.2284      2.3021      0.0573     21.0855     16.6668     60.4722
  1134.5000      8.2315      2.3102      0.0492     20.5945     16.6988     60.3273
  1134.6000      8.2315      2.3121      0.0542     20.4792     16.7830     61.6674
  1134.7000      8.2315      2.3092      0.0300     20.6546     16.7651     63.3697
  1134.8000      8.2346      2.3057      0.0383     20.8683     16.8564     64.0695
  1134.9000      8.2346      2.3081      0.0070     20.7223     17.0281     62.9355
  1135.0000      8.2347      2.3283      0.0147     19.4951     17.0317     61.1540
  1135.1000      8.2347      2.3586      0.0790     17.6578     17.0162     59.2783
  1135.2000      8.2347      2.3769      0.0426     16.5501     16.8252     57.6635
  1135.3000      8.2330      2.3795      0.0676     16.3931     16.2808     57.3116
  1135.4000      8.2330      2.3730      0.0651     16.7852     15.9400     58.2808
  1135.5000      8.2313      2.3678      0.0364     17.1035     16.0975     59.5390
  1135.6000      8.2313      2.3746      0.0712     16.6923     16.2731     60.8196
  1135.7000      8.2313      2.3899      0.0476     15.7619     15.9538     62.3020
  1135.8000      8.2295      2.4046      0.0637     14.8749     15.2740     62.8265
  1135.9000      8.2295      2.4150      0.0810     14.2451     14.7284     61.1075
  1136.0000      8.2293      2.4250      0.0721     13.6357     14.5116     58.1586
  1136.1000      8.2293      2.4383      0.1010     12.8311     14.6433     55.2176
  1136.2000      8.2293      2.4464      0.1047     12.3423     15.1904     53.8492
  1136.3000      8.2308      2.4419      0.0864     12.6143     15.7341     55.5822
  1136.4000      8.2308      2.4301      0.0822     13.3291     15.7119     58.0531
  1136.5000      8.2313      2.4202      0.0748     13.9299     15.4337     59.3522
  1136.6000      8.2313      2.4151      0.0870     14.2383     15.6089     59.8451
  1136.7000      8.2313      2.4073      0.0750     14.7099     16.1417     60.0962
  1136.8000      8.2304      2.3927      0.0305     15.5918     16.5206     61.0364
  1136.9000      8.2304      2.3735      0.0452     16.7573     16.9657     62.4359
  1137.0000      8.2292      2.3500      0.0175     18.1842     17.5648     63.4924
  1137.1000      8.2292      2.3230      0.0231     19.8204     17.5849     62.7379
