~Version Information
 VERS.                                  2.0 : CWLS LAS VERSION
 WRAP.                                   NO : WRAPING MODE
 SWARE .                 MController 2.5.0J : SOFTWARE VERSION
~Well Information
 WELL.                       Beacon 11-18TR : WELL
 COMP.        Pioneer Natural Resources Inc : COMPANY
 FLD.                      Purgatoire River : FIELD
 LOC.                NW/NW Sec 18 T32S R66W : LOCATION
 DATE.                           1/15-16/05 : DATE(S) LOGGED
 SRVC.       Blanco Geological Services LLC : SERVICE COMPANY
 STAT.                                   CO : STATE
 CNTY.                           Las Animas : COUNTY
 CTRY.                                  USA : COUNTRY
 API.                          05-071-08251 : API NUMBER
 STRT.FT                             283.00 : START DEPTH
 STOP.FT                            2753.00 : STOP DEPTH
 STEP.FT                               1.00 : DEPTH INCREMENT
 NULL.                                -9999 : NULL VALUE
~Curve information
 DEPTH.FT                                   :
 ROP.MIN/FT                                 :
 GAS.UNITS                                  :
~ASCII Log data
# ...
       883.0         0.30          4.3 
       884.0         0.30          4.0 
       885.0         0.17          3.8 
       886.0         0.27          4.3 
       887.0         0.27          4.2 
       888.0         0.27          4.2 
       889.0         0.27          4.2 
       890.0         0.27          4.2 
       891.0         0.27          4.5 
       892.0         0.20          4.3 
       893.0         0.28          4.3 
       894.0         0.20          4.0 
       895.0         0.17          3.9 
       896.0         0.20          4.1 
       897.0         0.33          4.1 
       898.0         0.33          3.9 
       899.0         0.28          3.9 
       900.0         0.30          4.1 
       901.0         0.30          4.1 
       902.0         0.30          4.0 
       903.0         0.23          3.7 
       904.0         0.23          4.0 
       905.0         0.20          3.9 
       906.0         0.20          4.1 
       907.0         0.23          3.9 
       908.0         0.23          4.1 
       909.0         0.23          4.1 
       910.0         0.20          4.1 
       911.0         0.20          4.1 
       912.0         0.23          4.1 
       913.0         0.28          3.9 
       914.0         0.23          3.9 
       915.0         0.27          3.4 
       916.0         0.27          6.5 
       917.0         0.20          5.7 
       918.0         0.20          6.0 
       919.0         0.20          5.9 
       920.0         0.23          5.7 
       921.0         0.23          5.7 
       922.0         0.23          5.7 
       923.0         0.27          5.7 
       924.0         0.30          5.6 
       925.0         0.27          5.4 
       926.0         0.22          5.2 
       927.0         0.27          5.3 
       928.0         0.27          5.2 
       929.0         0.23          5.2 
       930.0         0.27          5.3 
       931.0         0.27          5.1 
       932.0         0.27          5.4 
       933.0         0.27          5.2 
       934.0         0.23          5.0 
       935.0         0.25          5.1 
       936.0         0.20          5.3 
       937.0         0.23          4.8 
       938.0         0.27          5.0 
       939.0         0.23          5.0 
       940.0         0.23          4.9 
       941.0         0.23          7.8 
       942.0         0.23         81.8 
       943.0         0.23         91.3 
       944.0         0.27         46.8 
       945.0         0.27         15.0 
       946.0         0.20          8.3 
       947.0         0.23          7.1 
       948.0         0.25          6.3 
       949.0         0.23          5.0 
       950.0         0.23          5.0 
       951.0         0.23          5.1 
       952.0         0.23          5.3 
       953.0         0.27          5.2 
       954.0         0.27          5.0 
       955.0         0.27          5.2 
       956.0         0.23          5.0 
       957.0         0.27          5.3 
       958.0         0.20          5.3 
       959.0         0.20          5.1 
       960.0         0.17          5.2 
       961.0         0.20          5.2 
       962.0         0.33          5.4 
       963.0         0.30          5.7 
       964.0         0.17          5.2 
       965.0         0.27          5.6 
       966.0         0.25          5.3 
       967.0         0.23          5.5 
       968.0         0.27          6.3 
       969.0         0.20          6.4 
       970.0         0.23          6.4 
       971.0         0.23          5.9 
       972.0         0.23          5.5 
       973.0         0.23          5.6 
       974.0         0.23          5.4 
       975.0         0.30          5.3 
       976.0         0.30          5.5 
       977.0         0.27          5.5 
       978.0         0.20          5.1 
       979.0         0.25          5.4 
       980.0         0.20          5.0 
       981.0         0.20          5.2 
       982.0         0.23          5.4 
       983.0         0.20          5.0 
       984.0         0.23          5.3 
       985.0         0.20          5.0 
       986.0         0.20          5.1 
       987.0         0.27          5.3 
       988.0         0.30          5.1 
       989.0         0.33          5.3 
       990.0         0.23          4.9 
       991.0         0.23          4.8 
       992.0         0.30          4.9 
       993.0         0.17          4.7 
       994.0         0.20          5.2 
       995.0         0.20          4.8 
       996.0         0.20          5.2 
       997.0         0.20          5.1 
       998.0         0.23          4.7 
       999.0         0.28          5.4 
      1000.0         0.27          5.3 
      1001.0         0.23          5.4 
      1002.0         0.23          5.2 
      1003.0         0.20          5.3 
      1004.0         0.23          5.3 
      1005.0         0.23          5.4 
      1006.0         0.23          5.3 
      1007.0         0.23          5.7 
      1008.0         0.30          5.6 
      1009.0         0.20          5.5 
      1010.0         0.20          5.7 
      1011.0         0.20          5.9 
      1012.0         0.20          5.8 
      1013.0         0.22          5.6 
      1014.0         0.20          5.7 
      1015.0         0.23          5.7 
      1016.0         0.17          5.7 
      1017.0         0.30          5.9 
      1018.0         0.15          5.9 
      1019.0         0.13          6.1 
      1020.0         0.20          6.0 
      1021.0         0.20          5.7 
      1022.0         0.17          6.1 
      1023.0         0.20          5.8 
      1024.0         0.20          5.8 
      1025.0         0.20          5.7 
      1026.0         0.27          5.7 
      1027.0         0.27          5.8 
      1028.0         0.27          5.8 
      1029.0         0.27          5.8 
      1030.0         0.27          5.8 
      1031.0         0.23          5.5 
      1032.0         0.22          5.6 
      1033.0         0.20          5.7 
      1034.0         0.20          5.3 
      1035.0         0.20          5.7 
      1036.0         0.20          6.0 
      1037.0         0.23          5.6 
      1038.0         0.20          5.3 
      1039.0         0.20          5.4 
      1040.0         0.23          5.4 
      1041.0         0.20          5.4 
      1042.0         0.17          5.6 
      1043.0         0.20          5.8 
      1044.0         0.20          5.8 
      1045.0         0.17          5.7 
      1046.0         0.17          5.9 
      1047.0         0.35          5.8 
      1048.0         0.30          6.2 
      1049.0         0.20          5.7 
      1050.0         0.23          5.8 
      1051.0         0.17          6.0 
      1052.0         0.18          5.7 
      1053.0         0.23          5.6 
      1054.0         0.23          5.9 
      1055.0         0.23          5.8 
      1056.0         0.23          5.9 
      1057.0         0.23          5.8 
      1058.0         0.20          5.9 
      1059.0         0.20          5.7 
      1060.0         0.20          5.7 
      1061.0         0.20          5.8 
      1062.0         0.23          5.6 
      1063.0         0.20          5.9 
      1064.0         0.27          5.7 
      1065.0         0.20          5.8 
      1066.0         0.32          5.9 
      1067.0         0.27          6.2 
      1068.0         0.23          6.2 
      1069.0         0.20          6.1 
      1070.0         0.20          5.5 
      1071.0         0.17          6.1 
      1072.0         0.20          6.0 
      1073.0         0.20          6.0 
      1074.0         0.20          6.0 
      1075.0         0.23          5.9 
      1076.0         0.20          6.1 
      1077.0         0.27          5.7 
      1078.0         0.20          6.0 
      1079.0         0.17          5.9 
      1080.0         0.30          6.1 
      1081.0         0.27          6.1 
      1082.0         0.23          5.9 
