~Version Information
VERS.                      2.0: CWLS Log ASCII Standard - VERSION 2.0
WRAP.                       NO: One line per depth step
~Well Information Block
STRT.FT               768.0000: 
STOP.FT              2635.5000: 
STEP.FT                 0.1000: 
NULL.                -999.2500: 
COMP.          Pioneer Natural Resources: COMPANY
WELL.               Zink 44-10: WELL
FLD.           Purgatoire River: FIELD
LOC.           548' FSL & 473' FEL: LOCATION
PROV.                 Colorado: PROVINCE
CNTY.               Las Animas: COUNTRY
SRVC.                Patterson: SERVICE COMPANY
DATE.          Tue May 31 07:05:25 2005: LOG DATE
UWI.           05 071 08380 00: UNIQUE WELL ID
~Curve Information Block
DEPT.FT            0 000 00 00: Depth
DCAL.in                       : CDL Caliper
RHOB.g/cc                     : CDL Bulk Density
RHOC.g/cc                     : CDL Density Correction
DPOR.pu                       : CDL Density Porosity
GR.GAPI                       : Gamma Ray
NPOR.pu                       : Neutron Porosity
~Parameter Information Block
~A  Depth       DCAL        RHOB        RHOC        DPOR         GR         NPOR    
# ...
  1017.6000      8.0595      2.5083      0.1391      8.5883     79.8572     20.6520
  1017.7000      8.0595      2.4880      0.1367      9.8172     81.3492     20.9515
  1017.8000      8.0965      2.4695      0.0869     10.9367     79.0954     20.8962
  1017.9000      8.0965      2.4535      0.0505     11.9075     76.7477     21.0137
  1018.0000      8.0711      2.4516     -0.0146     12.0245     76.3724     21.3475
  1018.1000      8.0711      2.4760      0.0736     10.5485     76.3472     21.6130
  1018.2000      8.0711      2.5220      0.0740      7.7587     76.2967     21.7688
  1018.3000      8.0249      2.5767      0.1322      4.4423     74.4278     21.7313
  1018.4000      8.0249      2.6167      0.2743      2.0162     69.4822     21.5196
  1018.5000      7.9926      2.6342      0.2736      0.9596     64.7284     21.3032
  1018.6000      7.9926      2.6484      0.2302      0.0977     62.7204     21.0282
  1018.7000      7.9926      2.6547      0.2517     -0.2862     61.4129     20.6921
  1018.8000      7.9452      2.6397      0.1659      0.6262     61.0844     20.5206
  1018.9000      7.9452      2.6257      0.0895      1.4748     63.8092     20.4758
  1019.0000      7.9124      2.6256      0.0975      1.4761     65.8692     20.2868
  1019.1000      7.9124      2.6212      0.0765      1.7453     63.4820     19.8941
  1019.2000      7.9124      2.5987      0.1290      3.1093     60.7566     19.4794
  1019.3000      7.9949      2.5623      0.0166      5.3149     61.4478     18.9516
  1019.4000      7.9949      2.5351     -0.0018      6.9631     61.2920     18.0989
  1019.5000      8.1283      2.5299      0.0257      7.2787     57.5946     17.1806
  1019.6000      8.1283      2.5297      0.0491      7.2934     55.2283     16.7271
  1019.7000      8.1283      2.5099      0.0878      8.4905     59.7079     16.8345
  1019.8000      8.1521      2.4649      0.0222     11.2165     67.3491     17.0079
  1019.9000      8.1521      2.4195     -0.0381     13.9721     70.3447     16.9030
  1020.0000      8.1552      2.4051     -0.0302     14.8403     68.0234     16.6311
  1020.1000      8.1552      2.4196      0.0484     13.9635     63.1053     16.3954
  1020.2000      8.1552      2.4351      0.0694     13.0214     58.2861     16.2369
  1020.3000      8.1339      2.4374      0.0843     12.8849     56.5844     15.9873
  1020.4000      8.1339      2.4281      0.0611     13.4464     58.3362     15.7387
  1020.5000      8.1042      2.4214      0.0654     13.8539     60.8128     15.7992
  1020.6000      8.1042      2.4314      0.0798     13.2459     61.7488     16.0896
  1020.7000      8.1042      2.4504      0.0912     12.1000     62.5649     16.3249
  1020.8000      8.0452      2.4535      0.1117     11.9110     65.0449     16.3875
  1020.9000      8.0452      2.4301      0.1185     13.3259     65.9396     16.4147
  1021.0000      8.0492      2.4050      0.0634     14.8502     63.0288     16.6777
  1021.1000      8.0492      2.4112      0.0331     14.4708     60.6731     17.0879
  1021.2000      8.0492      2.4394      0.1267     12.7612     60.7922     17.3967
  1021.3000      8.0461      2.4542      0.1444     11.8637     61.2413     17.6097
  1021.4000      8.0461      2.4533      0.0771     11.9202     60.7705     17.6762
  1021.5000      8.0486      2.4520      0.1162     12.0004     59.0330     17.5289
  1021.6000      8.0486      2.4456      0.1101     12.3849     57.0084     17.3849
  1021.7000      8.0486      2.4315      0.0748     13.2398     55.4070     17.3853
  1021.8000      8.0562      2.4269      0.0312     13.5211     54.3531     17.4819
  1021.9000      8.0562      2.4378      0.0752     12.8633     54.5154     17.6982
  1022.0000      8.0628      2.4431      0.0940     12.5389     55.8823     17.9672
  1022.1000      8.0628      2.4337      0.0090     13.1069     57.4336     17.9828
  1022.2000      8.0628      2.4241      0.0669     13.6925     58.7510     17.6515
  1022.3000      8.0768      2.4264     -0.0034     13.5535     60.3945     17.2046
  1022.4000      8.0768      2.4378      0.0745     12.8625     62.0213     16.9386
  1022.5000      8.1186      2.4460      0.0292     12.3648     63.9787     17.1602
  1022.6000      8.1186      2.4508      0.0897     12.0724     67.0080     17.7082
  1022.7000      8.1186      2.4541      0.0784     11.8754     69.0491     17.8800
  1022.8000      8.1350      2.4556      0.0328     11.7828     67.9043     17.6549
  1022.9000      8.1350      2.4588      0.0493     11.5890     65.3384     17.6368
  1023.0000      8.1487      2.4621      0.0307     11.3888     63.6029     17.8646
  1023.1000      8.1487      2.4653      0.0593     11.1930     61.9235     17.9195
  1023.2000      8.1487      2.4701      0.0931     10.9016     59.4817     17.9474
  1023.3000      8.1467      2.4755      0.0577     10.5731     58.5493     18.3707
  1023.4000      8.1467      2.4820      0.1105     10.1797     62.6207     18.8650
  1023.5000      8.1344      2.4937      0.0795      9.4753     68.6278     18.9570
  1023.6000      8.1344      2.5105      0.0905      8.4541     69.9485     18.8337
  1023.7000      8.1344      2.5188      0.1532      7.9485     66.9733     18.8510
  1023.8000      8.1454      2.5076      0.1440      8.6275     63.4963     18.9527
  1023.9000      8.1454      2.4892      0.0789      9.7440     62.0031     19.0864
  1024.0000      8.1563      2.4791      0.0698     10.3559     63.9896     19.3981
  1024.1000      8.1563      2.4735      0.0939     10.6995     67.3285     19.6819
  1024.2000      8.1563      2.4586      0.0712     11.6024     68.5084     19.7442
  1024.3000      8.1642      2.4418     -0.0075     12.6205     68.8648     19.8179
  1024.4000      8.1642      2.4489      0.0305     12.1860     69.8281     19.8476
  1024.5000      8.1677      2.4754      0.0540     10.5847     70.3241     19.5652
  1024.6000      8.1677      2.4853      0.0562      9.9816     70.7632     19.3316
  1024.7000      8.1677      2.4666      0.0449     11.1178     71.0370     19.5065
  1024.8000      8.1507      2.4411     -0.0083     12.6588     68.8819     19.8521
  1024.9000      8.1507      2.4317      0.0420     13.2304     64.3876     20.1428
  1025.0000      8.1313      2.4477     -0.0006     12.2636     60.8667     20.2257
  1025.1000      8.1313      2.4854      0.0523      9.9769     61.6350     19.9498
  1025.2000      8.1313      2.5185      0.0805      7.9722     68.3375     19.5285
  1025.3000      8.1406      2.5164      0.0846      8.0986     77.8169     19.2925
  1025.4000      8.1406      2.4844      0.0053     10.0343     84.3196     19.3108
  1025.5000      8.1565      2.4476      0.0360     12.2652     88.0412     19.5645
  1025.6000      8.1565      2.4106      0.0529     14.5065     93.3879     20.0723
  1025.7000      8.1565      2.3696      0.0360     16.9922    100.9918     20.6272
  1025.8000      8.1587      2.3287     -0.0112     19.4730    109.4885     21.0631
  1025.9000      8.1587      2.2924     -0.0361     21.6730    117.7668     21.4786
  1026.0000      8.1559      2.2688     -0.0081     23.1008    124.1622     21.8519
  1026.1000      8.1559      2.2710     -0.0199     22.9681    129.2798     22.1179
  1026.2000      8.1559      2.2926      0.0784     21.6580    134.4109     22.4831
  1026.3000      8.1452      2.3102      0.0854     20.5929    140.7642     23.1709
  1026.4000      8.1452      2.3223      0.0884     19.8580    147.6201     24.0229
  1026.5000      8.1559      2.3432      0.1353     18.5960    151.2588     24.6830
  1026.6000      8.1559      2.3751      0.1128     16.6621    152.0714     25.0386
  1026.7000      8.1559      2.4096      0.1651     14.5674    157.5258     25.1724
  1026.8000      8.2025      2.4361      0.2069     12.9623    167.0943     25.1425
  1026.9000      8.2025      2.4602      0.1617     11.5016    171.5957     25.1169
  1027.0000      8.1863      2.4936      0.2018      9.4766    169.8571     25.4223
  1027.1000      8.1863      2.5320      0.2264      7.1490    168.9082     26.2675
