~Version Information
 VERS.                                  2.0 : CWLS LAS VERSION
 WRAP.                                   NO : WRAPING MODE
 SWARE .                 MController 2.5.0E : SOFTWARE VERSION
~Well Information
 WELL.                                  N/A : WELL
 COMP.                                  N/A : COMPANY
 FLD.                                   N/A : FIELD
 LOC.                                   N/A : LOCATION
 DATE.                                  N/A : DATE(S) LOGGED
 SRVC.                                  N/A : SERVICE COMPANY
 STAT.                                  N/A : STATE
 CNTY.                                  N/A : COUNTY
 CTRY.                                  N/A : COUNTRY
 API.                                   N/A : API NUMBER
 STRT.FT                             951.00 : START DEPTH
 STOP.FT                            2600.00 : STOP DEPTH
 STEP.FT                               1.00 : DEPTH INCREMENT
 NULL.                                -9999 : NULL VALUE
~Curve information
 DEPTH.FT                                   :
 ROP.MIN/FT                                 :
 GAS.UNITS                                  :
~ASCII Log data
# ...
     2151.00        0.317         64.7 
     2152.00        0.267         79.6 
     2153.00        0.367        117.5 
     2154.00        0.367        179.0 
     2155.00        0.400        185.4 
     2156.00        6.600        160.7 
     2157.00        1.067        -11.1 
     2158.00        0.767        -11.1 
     2159.00        0.917        -11.1 
     2160.00        0.867        -11.1 
     2161.00        0.800        -11.1 
     2162.00        0.800         -6.1 
     2163.00        0.917          5.5 
     2164.00        0.733         41.4 
     2165.00        0.533         52.3 
     2166.00        0.533         52.3 
     2167.00        0.433         39.5 
     2168.00        0.450         23.9 
     2169.00        0.433         21.0 
     2170.00        0.400         13.6 
     2171.00        0.333        -11.1 
     2172.00        0.333        -11.3 
     2173.00        0.333        -11.1 
     2174.00        0.267        -11.3 
     2175.00        0.267         -4.7 
     2176.00        0.333          2.7 
     2177.00        0.433         15.3 
     2178.00        0.450         32.8 
     2179.00        0.433         56.7 
     2180.00        0.467         92.9 
     2181.00        0.267        147.5 
     2182.00        0.267        248.6 
     2183.00        0.333        338.7 
     2184.00        0.167        340.0 
     2185.00        0.167        319.2 
     2186.00        7.167        271.7 
     2187.00        0.783        -11.1 
     2188.00        0.733        -11.1 
     2189.00        0.667        -11.1 
     2190.00        0.733          4.4 
     2191.00        0.600         28.7 
     2192.00        0.683         77.3 
     2193.00        0.533         95.7 
     2194.00        0.533         95.9 
     2195.00        0.533         74.6 
     2196.00        0.533         67.2 
     2197.00        0.400         32.5 
     2198.00        0.333          5.1 
     2199.00        0.283         -0.1 
     2200.00        0.233          3.0 
     2201.00        0.233         10.1 
     2202.00        0.233         17.2 
     2203.00        0.200         24.6 
     2204.00        0.267         32.6 
     2205.00        0.300         36.5 
     2206.00        0.267         36.6 
     2207.00        0.267         36.9 
     2208.00        0.267         39.8 
     2209.00        0.300         47.7 
     2210.00        0.267         57.2 
     2211.00        0.283         70.8 
     2212.00        0.233         86.0 
     2213.00        0.267        105.8 
     2214.00        0.300        139.5 
     2215.00        0.300        193.6 
     2216.00        7.367       1504.5 
     2217.00        1.033          4.6 
     2218.00        0.850          6.2 
     2219.00        1.633         12.7 
     2220.00        2.617         13.9 
     2221.00        0.633         18.7 
     2222.00        0.800         19.8 
     2223.00        0.717         10.3 
     2224.00        0.667          9.2 
     2225.00        0.533         10.0 
     2226.00        0.533          9.2 
     2227.00        0.500         29.3 
     2228.00        0.467         55.1 
     2229.00        0.367         69.2 
     2230.00        0.450         72.9 
     2231.00        0.400         72.2 
     2232.00        0.400         65.2 
     2233.00        0.367         58.0 
     2234.00        0.367         26.1 
     2235.00        0.467          4.3 
     2236.00       17.283       3666.8 
     2237.00        0.467         25.5 
     2238.00        1.083         19.0 
     2239.00        0.567         26.4 
     2240.00        0.500         31.4 
     2241.00        0.500         36.0 
     2242.00        0.500         36.6 
     2243.00        0.517         39.1 
     2244.00        0.467         37.4 
     2245.00        0.533         31.8 
     2246.00        0.500         28.4 
     2247.00        0.400         32.1 
     2248.00        0.600         35.4 
     2249.00        0.400         35.3 
     2250.00        0.283         29.7 
     2251.00        0.300         12.8 
     2252.00        0.300          2.3 
     2253.00        0.333         -1.1 
     2254.00        0.333          0.2 
     2255.00        0.300          3.7 
     2256.00        0.267          6.9 
     2257.00        0.300          9.9 
     2258.00        0.267         13.4 
     2259.00        0.133         15.3 
     2260.00        0.233         19.3 
     2261.00        0.333         27.1 
     2262.00        0.350         40.4 
     2263.00        0.333         57.0 
     2264.00        0.367         98.2 
     2265.00        0.367        181.0 
     2266.00        7.100        209.8 
     2267.00        1.233         37.2 
     2268.00        0.683         18.5 
     2269.00        0.567         16.7 
     2270.00        0.533          9.7 
     2271.00        0.267          8.2 
     2272.00        0.233         13.7 
     2273.00        0.333         24.4 
     2274.00        0.400         41.4 
     2275.00        0.467         58.3 
     2276.00        0.750         65.3 
     2277.00        0.767         73.1 
     2278.00        0.667         56.4 
     2279.00        0.467          7.5 
     2280.00        0.300          6.7 
     2281.00        0.133          7.6 
     2282.00        0.133          9.1 
     2283.00        0.133         11.3 
     2284.00        0.167         14.7 
     2285.00        0.183         18.3 
     2286.00        0.200         23.3 
     2287.00        0.300         33.0 
     2288.00        0.300         48.0 
     2289.00        0.300         66.1 
     2290.00        0.367         96.0 
     2291.00        0.367        126.7 
     2292.00        0.333        163.0 
     2293.00        0.333        239.9 
     2294.00        0.300        323.8 
     2295.00        0.300        332.4 
     2296.00        6.667        314.3 
     2297.00        0.250         28.0 
     2298.00        0.100         15.9 
     2299.00        0.100         12.4 
     2300.00        0.900          9.1 
     2301.00        0.833         19.3 
     2302.00        0.767         28.2 
     2303.00        0.783         36.3 
     2304.00        0.833         46.5 
     2305.00        0.600         49.6 
     2306.00        0.567         47.9 
     2307.00        0.533         42.3 
     2308.00        0.433         58.6 
     2309.00        0.383         65.0 
     2310.00        0.367         64.8 
     2311.00        0.333         47.9 
     2312.00        0.300         27.9 
     2313.00        0.300         14.4 
     2314.00        0.300          5.8 
     2315.00        0.300          5.5 
     2316.00        0.300          8.1 
     2317.00        0.300         11.9 
     2318.00        0.367         19.6 
     2319.00        0.450         31.1 
     2320.00        0.367         42.7 
     2321.00        0.400         57.0 
     2322.00        0.600         87.6 
     2323.00        0.533        134.1 
     2324.00        0.300        178.0 
     2325.00        0.300        241.4 
     2326.00        6.967        303.6 
     2327.00        1.583         34.7 
     2328.00        0.433          7.4 
     2329.00        0.600          0.9 
     2330.00        0.700          6.4 
     2331.00        0.483         15.7 
     2332.00        0.433         42.0 
     2333.00        0.367         83.6 
     2334.00        0.400        141.6 
     2335.00        0.367        191.1 
     2336.00      374.533       5327.4 
     2337.00        6.967          1.8 
     2338.00        0.167          1.2 
     2339.00        0.800          1.5 
     2340.00        0.367          1.3 
     2341.00        0.683          1.5 
     2342.00        0.367          1.4 
     2343.00        0.533          1.4 
     2344.00        0.133          1.3 
     2345.00        0.667          1.3 
     2346.00        0.300          1.4 
     2347.00        0.333          1.1 
     2348.00        0.783         20.7 
     2349.00        0.633         28.1 
     2350.00        0.600         31.6 
