~Version Information
VERS.                      2.0: CWLS Log ASCII Standard - VERSION 2.0
WRAP.                       NO: One line per depth step
~Well Information Block
STRT.FT               259.0000: 
STOP.FT              2382.0000: 
STEP.FT                 0.2500: 
NULL.                -999.2500: 
COMP.          Pioneer Natural Resources: COMPANY
WELL.          Foothills 12-36: WELL
FLD.           Purgatoire River: FIELD
LOC.           2450' FNL & 201' FWL: LOCATION
PROV.                 Colorado: PROVINCE
CNTY.               Las Animas: COUNTRY
SRVC.                Patterson: SERVICE COMPANY
DATE.          Thu Apr 21 03:00:58 2005: LOG DATE
UWI.           05 071 08339 00: UNIQUE WELL ID
~Curve Information Block
DEPT.FT            0 000 00 00: Depth
SN.Ohm-m                      : IEL Short Normal
SP.mV                         : IEL Spontaneous Potential
DIR.Ohm-m                     : IEL Induction Resistivity
GR.GAPI                       : Gamma Ray
~Parameter Information Block
~A  Depth        SN          SP         DIR          GR     
# ...
  2202.0000     24.0526     21.0925     14.4233     51.0259
  2202.2500     24.2997     20.4604     13.9214     49.6098
  2202.5000     24.4927     19.6517     13.4055     47.3030
  2202.7500     24.7198     18.6595     12.8747     46.0165
  2203.0000     25.0740     17.4836     12.3418     44.8213
  2203.2500     25.6141     16.1183     11.8243     44.5323
  2203.5000     26.3051     14.5432     11.3350     44.6855
  2203.7500     27.0093     12.7236     10.8747     45.0093
  2204.0000     27.6045     10.6231     10.4334     45.4589
  2204.2500     28.0512      8.2167      9.9954     45.4954
  2204.5000     28.3745      5.4896      9.5457     44.8520
  2204.7500     28.6483      2.4184      9.0744     43.9771
  2205.0000     28.9111     -1.0530      8.5794     42.5440
  2205.2500     29.0884     -5.0283      8.0659     42.0014
  2205.5000     29.0322     -9.6556      7.5458     42.2953
  2205.7500     28.6163    -15.1101      7.0342     43.1164
  2206.0000     27.8079    -21.5683      6.5468     44.8823
  2206.2500     26.6095    -29.1842      6.0982     46.4462
  2206.5000     24.9514    -38.0616      5.7019     49.8484
  2206.7500     22.7594    -48.2053      5.3702     52.9895
  2207.0000     20.1080    -59.4381      5.1125     58.7503
  2207.2500     17.2603    -71.3130      4.9317     62.9060
  2207.5000     14.6164    -83.0382      4.8212     68.7082
  2207.7500     12.5544    -93.4215      4.7656     71.5742
  2208.0000     11.2229   -100.9184      4.7456     73.0219
  2208.2500     10.5179   -103.9615      4.7446     71.6064
  2208.5000     10.2406   -101.5687      4.7537     66.1583
  2208.7500     10.2485    -93.8657      4.7716     60.9488
  2209.0000     10.5472    -82.1024      4.8020     52.1095
  2209.2500     11.3415    -68.1408      4.8503     46.3210
  2209.5000     12.9185    -53.7902      4.9225     39.1179
  2209.7500     15.2711    -40.3653      5.0263     35.8988
  2210.0000     17.8892    -28.5763      5.1708     33.7879
  2210.2500     20.1378    -18.6398      5.3654     34.0379
  2210.5000     21.7336    -10.4617      5.6175     36.4767
  2210.7500     22.6951     -3.7988      5.9292     39.3186
  2211.0000     23.0744      1.6409      6.2948     45.2839
  2211.2500     22.9374      6.1595      6.7006     50.3417
  2211.5000     22.4400     10.0700      7.1275     59.2725
  2211.7500     21.7393     13.6934      7.5550     65.6883
  2212.0000     20.8759     17.3151      7.9641     74.7843
  2212.2500     19.8587     21.0991      8.3379     79.8146
  2212.5000     18.8039     25.0169      8.6623     85.1344
  2212.7500     17.8936     28.8633      8.9280     86.8932
  2213.0000     17.2495     32.3673      9.1326     86.1069
  2213.2500     16.8689     35.3245      9.2811     83.1512
  2213.5000     16.6488     37.6675      9.3836     76.4900
  2213.7500     16.4677     39.4522      9.4511     72.2524
  2214.0000     16.2460     40.7983      9.4924     68.8286
  2214.2500     15.9675     41.8331      9.5127     69.0346
  2214.5000     15.6439     42.6650      9.5147     72.1334
  2214.7500     15.2342     43.3779      9.5021     74.9300
  2215.0000     14.6607     44.0294      9.4806     78.5354
  2215.2500     13.9140     44.6447      9.4574     80.2387
  2215.5000     13.1001     45.2160      9.4387     82.3374
  2215.7500     12.4034     45.7216      9.4276     83.7835
  2216.0000     11.9723     46.1560      9.4248     85.5368
  2216.2500     11.7935     46.5436      9.4300     85.6796
  2216.5000     11.7080     46.9231      9.4440     83.6548
  2216.7500     11.5673     47.3213      9.4693     81.2482
  2217.0000     11.3378     47.7452      9.5072     77.8509
  2217.2500     11.0808     48.1866      9.5547     76.6768
  2217.5000     10.9065     48.6284      9.6037     76.9216
  2217.7500     10.9384     49.0481      9.6469     77.9121
  2218.0000     11.2145     49.4226      9.6864     79.3987
  2218.2500     11.6364     49.7362      9.7378     79.8512
  2218.5000     12.1306     49.9849      9.8235     79.2133
  2218.7500     12.7472     50.1720      9.9594     77.8381
  2219.0000     13.4731     50.2991     10.1457     74.7394
  2219.2500     14.1189     50.3619     10.3655     72.4161
  2219.5000     14.5022     50.3567     10.5940     69.1531
  2219.7500     14.6099     50.2917     10.8099     67.3410
  2220.0000     14.5464     50.1932     11.0020     65.7248
  2220.2500     14.4247     50.0994     11.1689     65.8685
  2220.5000     14.3354     50.0435     11.3150     68.2706
  2220.7500     14.3486     50.0361     11.4463     70.9068
  2221.0000     14.4736     50.0601     11.5672     75.0587
  2221.2500     14.6705     50.0821     11.6758     77.3628
  2221.5000     14.9483     50.0739     11.7628     79.8601
  2221.7500     15.3753     50.0318     11.8179     80.9988
  2222.0000     15.9893     49.9805     11.8420     82.1573
  2222.2500     16.7169     49.9585     11.8528     82.6440
  2222.5000     17.3632     49.9953     11.8765     83.0480
  2222.7500     17.7509     50.0965     11.9306     83.2383
  2223.0000     17.8902     50.2418     12.0137     83.8889
  2223.2500     17.9408     50.3940     12.1104     84.8263
  2223.5000     18.0326     50.5113     12.2062     86.9063
  2223.7500     18.1752     50.5578     12.2980     88.3499
  2224.0000     18.3266     50.5131     12.3927     89.8235
  2224.2500     18.4509     50.3791     12.4981     90.0699
  2224.5000     18.4702     50.1780     12.6138     89.3036
  2224.7500     18.2936     49.9404     12.7302     88.2547
  2225.0000     17.9392     49.6916     12.8352     86.4119
  2225.2500     17.5087     49.4481     12.9220     85.1213
  2225.5000     17.0324     49.2227     12.9923     82.6445
  2225.7500     16.4395     49.0328     13.0509     80.2433
  2226.0000     15.7317     48.9055     13.0989     75.4932
  2226.2500     15.1080     48.8722     13.1327     72.0857
  2226.5000     14.8396     48.9497     13.1516     67.7680
  2226.7500     15.0589     49.1185     13.1667     65.7664
  2227.0000     15.7025     49.3222     13.2007     64.0595
  2227.2500     16.6025     49.4902     13.2775     63.7630
  2227.5000     17.5490     49.5714     13.4104     64.6908
  2227.7500     18.2955     49.5558     13.5976     66.0481
  2228.0000     18.6832     49.4721     13.8255     68.1864
  2228.2500     18.7965     49.3605     14.0738     69.0705
  2228.5000     18.8431     49.2421     14.3168     69.3403
  2228.7500     18.9238     49.1092     14.5225     69.0473
  2229.0000     19.0205     48.9394     14.6549     68.0265
  2229.2500     19.0934     48.7217     14.6845     66.6236
  2229.5000     19.1150     48.4754     14.6020     62.6875
  2229.7500     19.0597     48.2522     14.4256     58.8004
  2230.0000     18.9217     48.1240     14.1945     52.1781
  2230.2500     18.7687     48.1578     13.9526     48.4207
  2230.5000     18.6537     48.3882     13.7349     45.7892
  2230.7500     18.4510     48.8010     13.5607     46.5786
  2231.0000     17.9834     49.3380     13.4341     50.9214
  2231.2500     17.2511     49.9156     13.3470     54.9225
  2231.5000     16.4026     50.4474     13.2843     60.7765
  2231.7500     15.6339     50.8714     13.2278     63.8160
  2232.0000     15.1171     51.1695     13.1579     66.4811
  2232.2500     14.9042     51.3683     13.0551     67.0523
  2232.5000     14.9188     51.5143     12.9045     66.6051
  2232.7500     15.0284     51.6460     12.7050     65.7501
  2233.0000     15.1311     51.7786     12.4743     64.0013
  2233.2500     15.2287     51.9081     12.2426     62.6931
  2233.5000     15.3620     52.0235     12.0387     60.8185
  2233.7500     15.4647     52.1189     11.8790     59.7523
  2234.0000     15.4130     52.1928     11.7630     58.4682
  2234.2500     15.2055     52.2379     11.6770     57.8471
  2234.5000     14.9399     52.2348     11.6018     57.4869
  2234.7500     14.6692     52.1630     11.5204     57.7400
  2235.0000     14.4382     52.0196     11.4222     58.7245
  2235.2500     14.3548     51.8302     11.3009     59.5759
