~Version Information
VERS.                      2.0: CWLS Log ASCII Standard - VERSION 2.0
WRAP.                       NO: One line per depth step
~Well Information Block
STRT.FT               780.0000: 
STOP.FT              3152.2500: 
STEP.FT                 0.2500: 
NULL.                -999.2500: 
COMP.          Pioneer Natural Resources: COMPANY
WELL.            Paradise 13-8: WELL
FLD.           Purgatoire River: FIELD
LOC.           1896' FSL & 1120' FWL: LOCATION
PROV.                 Colorado: PROVINCE
CNTY.               Las Animas: COUNTRY
SRVC.                Patterson: SERVICE COMPANY
DATE.          Sat Jan 22 20:39:47 2005: LOG DATE
UWI.           05 071 07946 00: UNIQUE WELL ID
~Curve Information Block
DEPT.FT            0 000 00 00: Depth
SN.Ohm-m                      : IEL Short Normal
SP.mV                         : IEL Spontaneous Potential
DIR.Ohm-m                     : IEL Induction Resistivity
GR.GAPI                       : Gamma Ray
~Parameter Information Block
~A  Depth        SN          SP         DIR          GR     
# ...
  1885.5000     15.9284   -315.0509     13.6016    103.9933
  1885.7500     15.8827   -314.4892     13.6322    102.8031
  1886.0000     15.8253   -313.7144     13.6346    104.5800
  1886.2500     15.6622   -312.8160     13.5838    108.0506
  1886.5000     15.3212   -311.8895     13.4646    115.5515
  1886.7500     14.8000   -311.0152     13.2740    121.2598
  1887.0000     14.1737   -310.2462     13.0187    129.7553
  1887.2500     13.5581   -309.6058     12.7138    134.6836
  1887.5000     13.0544   -309.0920     12.3812    139.2779
  1887.7500     12.7097   -308.6872     12.0470    139.5837
  1888.0000     12.5153   -308.3686     11.7370    136.0806
  1888.2500     12.4317   -308.1188     11.4710    132.4413
  1888.5000     12.4157   -307.9310     11.2597    127.9672
  1888.7500     12.4319   -307.8108     11.1026    126.6072
  1889.0000     12.4530   -307.7723     10.9892    126.6310
  1889.2500     12.4623   -307.8329     10.9024    127.1040
  1889.5000     12.4557   -308.0084     10.8258    126.9672
  1889.7500     12.4399   -308.3106     10.7510    125.8648
  1890.0000     12.4269   -308.7485     10.6817    123.0176
  1890.2500     12.4318   -309.3290     10.6316    121.0290
  1890.5000     12.4730   -310.0582     10.6189    119.2037
  1890.7500     12.5689   -310.9386     10.6636    119.0939
  1891.0000     12.7323   -311.9658     10.7859    120.1334
  1891.2500     12.9640   -313.1238     11.0023    120.8970
  1891.5000     13.2489   -314.3832     11.3153    120.7737
  1891.7500     13.5567   -315.7005     11.7034    119.5269
  1892.0000     13.8486   -317.0210     12.1216    116.8199
  1892.2500     14.0883   -318.2823     12.5159    115.4565
  1892.5000     14.2513   -319.4204     12.8419    114.9629
  1892.7500     14.3294   -320.3738     13.0763    115.2417
  1893.0000     14.3317   -321.0908     13.2181    115.0310
  1893.2500     14.2796   -321.5378     13.2828    113.9832
  1893.5000     14.1942   -321.7103     13.2948    111.8297
  1893.7500     14.0828   -321.6423     13.2769    111.0360
  1894.0000     13.9328   -321.4100     13.2421    111.9977
  1894.2500     13.7208   -321.1228     13.1880    113.9780
  1894.5000     13.4323   -320.9035     13.1019    117.9582
  1894.7500     13.0852   -320.8609     12.9712    120.7017
  1895.0000     12.7440   -321.0645     12.7985    124.1889
  1895.2500     12.5098   -321.5298     12.6068    125.6675
  1895.5000     12.4807   -322.2194     12.4320    125.9031
  1895.7500     12.7016   -323.0581     12.3081    124.5163
  1896.0000     13.1347   -323.9593     12.2574    120.3359
  1896.2500     13.6710   -324.8516     12.2866    116.5528
  1896.5000     14.1767   -325.6958     12.3866    110.0872
  1896.7500     14.5523   -326.4852     12.5356    105.4572
  1897.0000     14.7707   -327.2284     12.7052     98.2896
  1897.2500     14.8749   -327.9254     12.8721     93.9481
  1897.5000     14.9408   -328.5516     13.0253     90.2087
  1897.7500     15.0254   -329.0601     13.1653     90.7359
  1898.0000     15.1288   -329.4029     13.2946     95.9604
  1898.2500     15.1886   -329.5563     13.4068    100.9106
  1898.5000     15.1171   -329.5372     13.4811    107.2594
  1898.7500     14.8567   -329.3981     13.4867    109.5261
  1899.0000     14.4199   -329.2059     13.3993    109.8686
  1899.2500     13.8926   -329.0164     13.2183    109.0753
  1899.5000     13.4021   -328.8571     12.9736    108.9079
  1899.7500     13.0664   -328.7251     12.7132    110.5130
  1900.0000     12.9463   -328.5977     12.4833    115.2182
  1900.2500     13.0176   -328.4488     12.3125    118.6835
  1900.5000     13.1772   -328.2623     12.2068    122.1054
  1900.7500     13.2859   -328.0365     12.1525    122.5906
  1901.0000     13.2325   -327.7796     12.1260    121.3026
  1901.2500     12.9863   -327.4981     12.1068    120.1407
  1901.5000     12.6099   -327.1852     12.0887    119.5039
  1901.7500     12.2299   -326.8165     12.0826    120.0007
  1902.0000     11.9849   -326.3564     12.1097    121.0927
  1902.2500     11.9746   -325.7736     12.1897    121.1401
  1902.5000     12.2262   -325.0582     12.3297    119.2023
  1902.7500     12.6826   -324.2315     12.5185    116.6445
  1903.0000     13.2185   -323.3422     12.7283    112.0035
  1903.2500     13.6878   -322.4504     12.9245    109.2686
  1903.5000     13.9907   -321.6069     13.0800    106.9974
  1903.7500     14.1167   -320.8376     13.1831    107.0005
  1904.0000     14.1292   -320.1422     13.2355    108.7219
  1904.2500     14.1060   -319.5056     13.2445    110.1731
  1904.5000     14.0886   -318.9156     13.2172    111.2887
  1904.7500     14.0778   -318.3768     13.1618    110.9215
  1905.0000     14.0619   -317.9109     13.0907    109.2014
  1905.2500     14.0431   -317.5475     13.0220    108.0145
  1905.5000     14.0380   -317.3082     12.9769    107.4656
  1905.7500     14.0616   -317.1962     12.9751    108.2977
  1906.0000     14.1197   -317.1945     13.0296    110.8849
  1906.2500     14.2085   -317.2734     13.1435    112.7355
  1906.5000     14.3143   -317.4019     13.3082    114.3801
  1906.7500     14.4168   -317.5581     13.5047    114.2212
  1907.0000     14.5028   -317.7320     13.7074    111.7187
  1907.2500     14.5764   -317.9206     13.8914    108.7806
  1907.5000     14.6508   -318.1165     14.0380    104.0776
  1907.7500     14.7276   -318.2973     14.1381    101.9855
  1908.0000     14.7801   -318.4222     14.1881    101.4716
  1908.2500     14.7517   -318.4398     14.1841    102.5329
  1908.5000     14.5750   -318.3052     14.1172    104.7893
  1908.7500     14.2079   -317.9968     13.9741    105.9112
  1909.0000     13.6656   -317.5252     13.7431    106.1035
  1909.2500     13.0235   -316.9287     13.4204    105.3118
  1909.5000     12.3847   -316.2601     13.0135    104.3466
  1909.7500     11.8339   -315.5725     12.5432    105.1955
  1910.0000     11.4076   -314.9104     12.0418    109.8552
  1910.2500     11.0930   -314.3066     11.5476    114.6454
  1910.5000     10.8476   -313.7831     11.0954    121.9062
  1910.7500     10.6270   -313.3511     10.7076    125.3736
  1911.0000     10.4084   -313.0111     10.3914    127.3819
  1911.2500     10.1955   -312.7529     10.1411    126.8992
  1911.5000     10.0058   -312.5599      9.9450    125.2006
  1911.7500      9.8524   -312.4155      9.7915    124.7123
  1912.0000      9.7352   -312.3101      9.6727    126.5522
  1912.2500      9.6428   -312.2452      9.5834    129.4629
  1912.5000      9.5635   -312.2350      9.5199    134.3006
  1912.7500      9.4957   -312.3021      9.4807    136.1062
  1913.0000      9.4525   -312.4718      9.4688    134.9056
  1913.2500      9.4572   -312.7633      9.4937    131.9448
  1913.5000      9.5342   -313.1817      9.5712    127.0007
  1913.7500      9.6974   -313.7128      9.7188    124.8939
  1914.0000      9.9442   -314.3235      9.9493    123.9833
  1914.2500     10.2559   -314.9671     10.2645    123.8469
  1914.5000     10.6028   -315.5905     10.6500    122.1214
  1914.7500     10.9518   -316.1427     11.0757    119.5195
  1915.0000     11.2759   -316.5822     11.5033    114.8485
  1915.2500     11.5655   -316.8830     11.8985    112.6572
  1915.5000     11.8344   -317.0389     12.2423    112.3376
  1915.7500     12.1096   -317.0645     12.5335    114.0390
  1916.0000     12.4078   -316.9908     12.7806    118.2202
  1916.2500     12.7189   -316.8568     12.9885    121.1984
  1916.5000     13.0087   -316.7000     13.1516    124.5499
  1916.7500     13.2367   -316.5486     13.2583    125.5099
  1917.0000     13.3733   -316.4193     13.3051    125.1591
  1917.2500     13.4096   -316.3194     13.3039    124.3225
  1917.5000     13.3616   -316.2508     13.2767    122.9629
  1917.7500     13.2676   -316.2126     13.2424    121.8985
  1918.0000     13.1742   -316.2016     13.2121    119.4909
  1918.2500     13.1153   -316.2099     13.1947    117.3577
  1918.5000     13.0994   -316.2256     13.2013    114.2666
  1918.7500     13.1109   -316.2333     13.2411    112.8823
