~Version Information
VERS.                      2.0: CWLS Log ASCII Standard - VERSION 2.0
WRAP.                       NO: One line per depth step
~Well Information Block
STRT.FT               360.0000: 
STOP.FT              1622.7500: 
STEP.FT                 0.2500: 
NULL.                -999.2500: 
COMP.          Pioneer Natural Resources: COMPANY
WELL.                Eric 42-9: WELL
FLD.           Purgatoire River: FIELD
LOC.           2050' FNL & 850' FEL: LOCATION
PROV.                 Colorado: PROVINCE
CNTY.               Las Animas: COUNTRY
SRVC.                Patterson: SERVICE COMPANY
DATE.          Sun Oct 31 17:26:46 2004: LOG DATE
UWI.           05 071 07999 00: UNIQUE WELL ID
~Curve Information Block
DEPT.FT            0 000 00 00: Depth
SN.Ohm-m                      : IEL Short Normal
SP.mV                         : IEL Spontaneous Potential
DIR.Ohm-m                     : IEL Induction Resistivity
GR.GAPI                       : Gamma Ray
~Parameter Information Block
~A  Depth        SN          SP         DIR          GR     
# ...
   762.0000   2000.0000   2100.0000      5.7194    112.3239
   762.2500   2000.0000   2100.0000      5.5812    115.7872
   762.5000   2000.0000   2100.0000      5.4344    121.3493
   762.7500   2000.0000   2100.0000      5.2958    125.1993
   763.0000   2000.0000   2100.0000      5.1779    130.3161
   763.2500   2000.0000   2100.0000      5.0869    132.6620
   763.5000   2000.0000   2100.0000      5.0221    133.9290
   763.7500   2000.0000   2100.0000      4.9779    133.3624
   764.0000   2000.0000   2100.0000      4.9467    131.2842
   764.2500   2000.0000   2100.0000      4.9211    129.7426
   764.5000   2000.0000   2100.0000      4.8950    128.0586
   764.7500   2000.0000   2100.0000      4.8633    127.5354
   765.0000   2000.0000   2100.0000      4.8232    127.3416
   765.2500   2000.0000   2100.0000      4.7746    127.2422
   765.5000   2000.0000   2100.0000      4.7212    126.7371
   765.7500   2000.0000   2100.0000      4.6695    126.1828
   766.0000   2000.0000   2100.0000      4.6260    125.2144
   766.2500   2000.0000   2100.0000      4.5951    124.5034
   766.5000   2000.0000   2100.0000      4.5776    123.1962
   766.7500   2000.0000   2100.0000      4.5713    122.0599
   767.0000   2000.0000   2100.0000      4.5725    119.9598
   767.2500   2000.0000   2100.0000      4.5794    118.4731
   767.5000   2000.0000   2100.0000      4.5928    116.6190
   767.7500   2000.0000   2100.0000      4.6160    115.8787
   768.0000   2000.0000   2100.0000      4.6510    115.6117
   768.2500   2000.0000   2100.0000      4.6973    115.9101
   768.5000   2000.0000   2100.0000      4.7513    116.9966
   768.7500   2000.0000   2100.0000      4.8083    118.2577
   769.0000   2000.0000   2100.0000      4.8639    121.0476
   769.2500   2000.0000   2100.0000      4.9149    123.1691
   769.5000   2000.0000   2100.0000      4.9588    125.5016
   769.7500   2000.0000   2100.0000      4.9933    125.8845
   770.0000   2000.0000   2100.0000      5.0166    124.7758
   770.2500   2000.0000   2100.0000      5.0289    123.5772
   770.5000   2000.0000   2100.0000      5.0322    122.4848
   770.7500   2000.0000   2100.0000      5.0308    122.7727
   771.0000   2000.0000   2100.0000      5.0295    124.7141
   771.2500   2000.0000   2100.0000      5.0330    126.4172
   771.5000   2000.0000   2100.0000      5.0455    128.2316
   771.7500   2000.0000   2100.0000      5.0710    128.5246
   772.0000   2000.0000   2100.0000      5.1133    127.8030
   772.2500   2000.0000   2100.0000      5.1763    126.8427
   772.5000   2000.0000   2100.0000      5.2644    124.6929
   772.7500   2000.0000   2100.0000      5.3813    122.4395
   773.0000   2000.0000   2100.0000      5.5283    117.0721
   773.2500   2000.0000   2100.0000      5.7021    111.9404
   773.5000   2000.0000   2100.0000      5.8950    102.4225
   773.7500   2000.0000   2100.0000      6.0962     95.8349
   774.0000   2000.0000   2100.0000      6.2950     87.8741
   774.2500   2000.0000   2100.0000      6.4833     84.8379
   774.5000   2000.0000   2100.0000      6.6564     83.9141
   774.7500   2000.0000   2100.0000      6.8110     85.1895
   775.0000   2000.0000   2100.0000      6.9420     88.9614
   775.2500   2000.0000   2100.0000      7.0415     92.3806
   775.5000   2000.0000   2100.0000      7.1006     98.3205
   775.7500   2000.0000   2100.0000      7.1128    102.3108
   776.0000   2000.0000   2100.0000      7.0784    107.4541
   776.2500   2000.0000   2100.0000      7.0059    110.0909
   776.5000   2000.0000   2100.0000      6.9098    112.9475
   776.7500   2000.0000   2100.0000      6.8068    114.2320
   777.0000   2000.0000   2100.0000      6.7124    115.3672
   777.2500   2000.0000   2100.0000      6.6381    115.7237
   777.5000   2000.0000   2100.0000      6.5903    115.9529
   777.7500   2000.0000   2100.0000      6.5700    115.9687
   778.0000   2000.0000   2100.0000      6.5742    115.6652
   778.2500   2000.0000   2100.0000      6.5974    115.2817
   778.5000   2000.0000   2100.0000      6.6341    115.1084
   778.7500   2000.0000   2100.0000      6.6807    115.7748
   779.0000   2000.0000   2100.0000      6.7366    118.0184
   779.2500   2000.0000   2100.0000      6.8041    119.7411
   779.5000   2000.0000   2100.0000      6.8876    121.3917
   779.7500   2000.0000   2100.0000      6.9908    121.5508
   780.0000   2000.0000   2100.0000      7.1145    120.7311
   780.2500   2000.0000   2100.0000      7.2543    119.8784
   780.5000   2000.0000   2100.0000      7.4012    118.5394
   780.7500   2000.0000   2100.0000      7.5442    117.6116
   781.0000   2000.0000   2100.0000      7.6742    116.0744
   781.2500   2000.0000   2100.0000      7.7871    114.9973
   781.5000   2000.0000   2100.0000      7.8838    113.6200
   781.7500   2000.0000   2100.0000      7.9680    113.0974
   782.0000   2000.0000   2100.0000      8.0423    113.0175
   782.2500   2000.0000   2100.0000      8.1060    113.1892
   782.5000   2000.0000   2100.0000      8.1564    113.1154
   782.7500   2000.0000   2100.0000      8.1909    112.6678
   783.0000   2000.0000   2100.0000      8.2093    111.8699
   783.2500   2000.0000   2100.0000      8.2139    111.8134
   783.5000   2000.0000   2100.0000      8.2075    113.0277
   783.7500   2000.0000   2100.0000      8.1924    114.4381
   784.0000   2000.0000   2100.0000      8.1706    116.1340
   784.2500   2000.0000   2100.0000      8.1454    116.2430
   784.5000   2000.0000   2100.0000      8.1213    114.4923
   784.7500   2000.0000   2100.0000      8.1015    112.3624
   785.0000   2000.0000   2100.0000      8.0862    108.7070
   785.2500   2000.0000   2100.0000      8.0723    106.5441
   785.5000   2000.0000   2100.0000      8.0572    104.4468
   785.7500   2000.0000   2100.0000      8.0412    104.0490
   786.0000   2000.0000   2100.0000      8.0285    105.1031
   786.2500   2000.0000   2100.0000      8.0259    106.8000
   786.5000   2000.0000   2100.0000      8.0421    110.1664
   786.7500   2000.0000   2100.0000      8.0873    112.3728
   787.0000   2000.0000   2100.0000      8.1735    114.7064
   787.2500   2000.0000   2100.0000      8.3136    115.2645
   787.5000   2000.0000   2100.0000      8.5209    114.3844
   787.7500   2000.0000   2100.0000      8.8067    112.7018
   788.0000   2000.0000   2100.0000      9.1796    108.6826
   788.2500   2000.0000   2100.0000      9.6451    105.0169
   788.5000   2000.0000   2100.0000     10.2052     98.1967
   788.7500   2000.0000   2100.0000     10.8580     93.2041
   789.0000   2000.0000   2100.0000     11.5941     86.2886
   789.2500   2000.0000   2100.0000     12.3950     82.6700
   789.5000   2000.0000   2100.0000     13.2329     78.9288
   789.7500   2000.0000   2100.0000     14.0724     77.2435
   790.0000   2000.0000   2100.0000     14.8709     75.2952
   790.2500   2000.0000   2100.0000     15.5761     74.2640
   790.5000   2000.0000   2100.0000     16.1246     73.2986
   790.7500   2000.0000   2100.0000     16.4495     73.1177
   791.0000   2000.0000   2100.0000     16.4959     73.3436
   791.2500   2000.0000   2100.0000     16.2372     73.6075
   791.5000   2000.0000   2100.0000     15.6834     73.9028
   791.7500   2000.0000   2100.0000     14.8787     74.0781
   792.0000   2000.0000   2100.0000     13.8962     75.1905
   792.2500   2000.0000   2100.0000     12.8281     77.5935
   792.5000   2000.0000   2100.0000     11.7704     85.6235
   792.7500   2000.0000   2100.0000     10.8008     94.1171
   793.0000   2000.0000   2100.0000      9.9629    109.3484
   793.2500   2000.0000   2100.0000      9.2633    118.9606
   793.5000   2000.0000   2100.0000      8.6813    129.5435
   793.7500   2000.0000   2100.0000      8.1852    133.5693
   794.0000   2000.0000   2100.0000      7.7478    136.1180
   794.2500   2000.0000   2100.0000      7.3555    136.4046
   794.5000   2000.0000   2100.0000      7.0081    135.9608
   794.7500   2000.0000   2100.0000      6.7106    135.6942
   795.0000   2000.0000   2100.0000      6.4661    136.2597
   795.2500   2000.0000   2100.0000      6.2715    137.4753
