~Version Information
VERS.                      2.0: CWLS Log ASCII Standard - VERSION 2.0
WRAP.                       NO: One line per depth step
~Well Information Block
STRT.FT               630.0000: 
STOP.FT              1156.0000: 
STEP.FT                 0.2500: 
NULL.                -999.2500: 
COMP.          Pioneer Natural Resources: COMPANY
WELL.          Drewmeister 34-34: WELL
FLD.           Purgatoire River: FIELD
LOC.           958' FSL & 1857' FEL: LOCATION
STAT.                 Colorado: State
CNTY.               Las Animas: COUNTY
CTRY. USA : Country
SECT. 34 : Section
TOWN. 32S : Township
RANG. 65W : Range
SRVC.                Patterson: SERVICE COMPANY
DATE.          Mon Oct 03 23:24:37 2005: LOG DATE
API.           05 071 08131 00: UNIQUE WELL ID
~Curve Information Block
DEPT.FT            0 000 00 00: Depth
SN.Ohm-m                      : IEL Short Normal
SP.mV                         : IEL Spontaneous Potential
DIR.Ohm-m                     : IEL Induction Resistivity
GR.GAPI                       : Gamma Ray
~Parameter Information Block
~A  Depth        SN          SP         DIR          GR     
# ...
   697.0000     12.3917    775.4441     11.7340    117.8461
   697.2500     12.9193    771.3146     12.2573    117.9136
   697.5000     13.7371    767.0416     12.8617    115.2049
   697.7500     14.7062    762.7049     13.5446    112.1539
   698.0000     15.5732    758.3996     14.2989    106.0211
   698.2500     16.1760    753.9893     15.1226    100.7766
   698.5000     16.6215    748.7856     16.0328     91.3940
   698.7500     17.1615    741.4193     17.0738     84.6821
   699.0000     18.0645    730.0000     18.3115     75.0542
   699.2500     19.7376    712.5742     19.8099     69.3529
   699.5000     22.6277    688.0629     21.5984     62.1142
   699.7500     27.0220    657.8005     23.6459     58.1573
   700.0000     33.7395    626.9752     25.8597     53.4669
   700.2500     45.5672    604.2587     28.1252     51.1282
   700.5000     69.1922    598.3782     30.3598     48.6136
   700.7500    117.8772    613.0921     32.5332     47.3274
   701.0000    207.6361    644.4684     34.6227     45.2510
   701.2500    329.2940    682.9719     36.5488     43.3681
   701.5000    417.6726    718.5361     38.1638     39.6999
   701.7500    398.6903    744.6136     39.3176     37.1514
   702.0000    284.1457    759.1539     39.9439     34.5003
   702.2500    158.9068    763.2964     40.0833     34.1218
   702.5000     81.1175    759.4689     39.8369     35.6025
   702.7500     48.3559    749.9546     39.3069     37.2615
   703.0000     37.1238    736.1125     38.5573     39.2131
   703.2500     33.2782    718.0101     37.6082     39.6724
   703.5000     32.8981    694.5506     36.4580     39.5527
   703.7500     35.8716    664.5978     35.1219     39.6793
   704.0000     44.6062    628.9914     33.6481     41.1985
   704.2500     68.8439    591.9634     32.1014     43.1898
   704.5000    129.3268    560.3011     30.5344     47.2990
   704.7500    238.2274    540.5716     28.9771     50.8110
   705.0000    355.7057    536.6405     27.4423     58.1195
   705.2500    395.9309    548.9056     25.9307     64.9630
   705.5000    321.7751    574.5074     24.4348     78.0852
   705.7500    195.1946    607.6481     22.9504     87.6850
   706.0000     96.4812    640.5031     21.4879    100.6877
   706.2500     48.3190    665.1948     20.0732    107.1664
   706.5000     32.3584    676.3298     18.7349    112.9033
   706.7500     27.9253    673.2767     17.4941    114.5399
   707.0000     25.3356    661.0801     16.3685    115.5091
   707.2500     24.3924    648.6430     15.3802    116.3241
   707.5000     27.5627    644.3394     14.5591    118.9408
   707.7500     33.1034    651.7398     13.9321    121.5383
   708.0000     35.0329    668.2917     13.5047    125.9284
   708.2500     30.3173    687.2039     13.2477    128.7631
   708.5000     22.6822    700.7689     13.0978    132.1152
   708.7500     17.1358    703.5160     12.9771    133.0835
   709.0000     14.7508    694.3039     12.8225    131.8335
   709.2500     13.8386    676.6624     12.6071    129.6283
   709.5000     12.8317    657.0919     12.3399    126.4199
   709.7500     11.4795    641.9536     12.0497    125.5036
   710.0000     10.5071    634.6127     11.7699    126.5259
   710.2500     10.6297    634.7994     11.5287    128.5849
   710.5000     11.9369    640.7072     11.3422    133.4018
   710.7500     13.8574    651.6583     11.2089    137.4529
   711.0000     15.5605    668.4098     11.1103    143.2515
   711.2500     16.4234    690.9567     11.0192    145.7481
   711.5000     16.0618    716.6974     10.9121    146.6040
   711.7500     14.4872    741.2029     10.7788    145.7796
   712.0000     12.4728    760.7499     10.6231    143.8276
   712.2500     11.0102    774.0944     10.4566    142.3535
   712.5000     10.3971    782.1801     10.2928    139.4984
   712.7500     10.2841    786.6700     10.1439    136.9866
   713.0000     10.2923    788.7969     10.0204    133.0467
   713.2500     10.3003    788.9943      9.9284    131.2253
   713.5000     10.3381    786.9330      9.8678    130.8495
   713.7500     10.4307    781.6766      9.8327    132.1180
   714.0000     10.6398    771.9324      9.8142    135.4078
   714.2500     11.2469    756.3754      9.8037    138.0321
   714.5000     12.7623    734.0532      9.7939    142.1608
   714.7500     15.3347    704.9414      9.7788    144.8894
   715.0000     18.1757    670.3403      9.7552    148.3865
   715.2500     20.5352    632.3777      9.7247    149.6553
   715.5000     23.1386    592.6618      9.6943    148.9333
   715.7500     27.9235    551.6588      9.6750    146.8543
   716.0000     37.8335    509.9489      9.6778    142.9946
   716.2500     57.1277    469.9915      9.7109    140.9517
   716.5000     91.3410    436.3497      9.7769    139.4701
   716.7500    148.5177    414.3954      9.8704    139.5617
   717.0000    228.9293    408.4663      9.9769    140.9072
   717.2500    298.6570    419.6290     10.0759    141.9588
   717.5000    300.8285    443.9459     10.1452    142.2567
   717.7500    225.1748    473.6230     10.1686    141.1108
   718.0000    130.3345    501.5417     10.1407    137.6236
   718.2500     73.6204    525.5983     10.0706    134.5167
   718.5000     62.5068    548.7241      9.9799    129.4737
   718.7500     73.6438    574.9777      9.8943    126.6301
   719.0000     81.4544    606.0781      9.8358    124.6290
   719.2500     74.4206    641.1503      9.8169    125.0271
   719.5000     57.4439    678.1014      9.8415    126.8828
   719.7500     39.3669    714.1656      9.9092    127.7175
   720.0000     24.8852    745.9132     10.0193    127.0223
   720.2500     15.8110    770.2429     10.1723    125.4222
   720.5000     11.8903    785.9803     10.3681    122.8367
   720.7500     11.2139    794.3159     10.6046    121.8302
   721.0000     11.7848    797.5952     10.8771    121.6775
   721.2500     12.4095    797.7049     11.1827    122.1289
   721.5000     12.6544    795.3078     11.5242    122.9867
   721.7500     12.6033    790.0893     11.9124    123.3495
   722.0000     12.6800    781.4114     12.3635    122.9413
   722.2500     13.3397    768.6470     12.8974    121.8115
   722.5000     14.6474    750.7808     13.5368    118.9612
   722.7500     16.2969    725.6746     14.3069    116.2756
   723.0000     18.0241    690.2102     15.2308    110.2440
   723.2500     20.0545    642.3473     16.3196    104.3486
   723.5000     24.7203    584.4376     17.5665     93.0217
   723.7500     40.0944    525.2177     18.9506     84.7709
   724.0000     80.2340    477.9764     20.4488     73.1362
   724.2500    150.8958    455.1935     22.0449     66.5503
   724.5000    228.6922    463.0706     23.7271     59.0359
   724.7500    270.3986    499.4121     25.4786     55.7664
   725.0000    254.2865    555.2399     27.2655     53.3895
   725.2500    198.2931    618.1486     29.0268     53.2386
   725.5000    135.7432    675.7495     30.6665     54.5798
   725.7500     88.5163    718.5612     32.0526     56.1652
   726.0000     61.5379    741.6586     33.0191     59.1268
   726.2500     49.4974    744.3115     33.3759     61.4537
   726.5000     44.7906    727.9248     32.9510     65.8421
   726.7500     42.7774    693.9433     31.6895     69.6525
   727.0000     44.0504    643.3928     29.7407     76.9508
   727.2500     56.5856    578.2580     27.4228     82.8737
   727.5000    100.0903    503.1975     25.0698     93.1609
   727.7500    202.6058    425.7068     22.9025    100.7077
   728.0000    372.7128    354.2122     21.0064    112.3405
   728.2500    569.2329    295.4753     19.3800    119.7910
   728.5000    725.1760    253.1102     17.9922    129.6635
   728.7500    808.5703    227.6997     16.8143    134.9677
   729.0000    836.0239    217.6574     15.8271    140.6353
   729.2500    838.1137    220.0002     15.0125    142.9388
   729.5000    835.0125    231.1373     14.3465    144.6629
   729.7500    829.3708    248.1600     13.7983    145.0222
   730.0000    803.3869    270.1290     13.3376    144.6518
   730.2500    733.8206    297.7909     12.9449    143.5060
