~Version Information
VERS.                      2.0: CWLS Log ASCII Standard - VERSION 2.0
WRAP.                       NO: One line per depth step
~Well Information Block
STRT.FT               806.0000: 
STOP.FT              1812.2000: 
STEP.FT                 0.1000: 
NULL.                -999.2500: 
COMP.          Pioneer Natural Resources: COMPANY
WELL.            Hill 33-22 Tr: WELL
FLD.           Purgatoire River: FIELD
LOC.           1573' FSL & 1585' FEL: LOCATION
PROV.                 Colorado: PROVINCE
CNTY.               Las Animas: COUNTRY
SRVC.                Patterson: SERVICE COMPANY
DATE.          Thu Apr 14 12:25:33 2005: LOG DATE
UWI.           05 071 08316 00: UNIQUE WELL ID
~Curve Information Block
DEPT.FT            0 000 00 00: Depth
DCAL.in                       : CDL Caliper
RHOB.g/cc                     : CDL Bulk Density
RHOC.g/cc                     : CDL Density Correction
DPOR.pu                       : CDL Density Porosity
GR.GAPI                       : Gamma Ray
NPOR.pu                       : Neutron Porosity
~Parameter Information Block
~A  Depth       DCAL        RHOB        RHOC        DPOR         GR         NPOR    
# ...
  1794.8000      7.8963      2.2858      0.0344     22.0713     10.8261     29.8060
  1794.9000      7.8963      2.1916     -0.0263     27.7847      1.9215     29.7923
  1795.0000      7.8904      2.1131     -0.0332     32.5376      0.1904     30.1494
  1795.1000      7.8904      2.0634     -0.0057     35.5539      0.0099     30.5785
  1795.2000      7.8904      2.0190      0.0223     38.2423      0.0000     31.0582
  1795.3000      7.8282      1.9664     -0.0201     41.4305   -999.2500     31.5655
  1795.4000      7.8282      1.9279     -0.0038     43.7651   -999.2500     31.8052
  1795.5000      7.8036      1.9268      0.0596     43.8274   -999.2500     31.6438
  1795.6000      7.8036      1.9586      0.1244     41.9053   -999.2500     31.1971
  1795.7000      7.8036      2.0143      0.1273     38.5296   -999.2500     30.6896
  1795.8000      7.7619      2.0961      0.1607     33.5709   -999.2500     30.4848
  1795.9000      7.7619      2.1790      0.2195     28.5430   -999.2500     30.8345
  1796.0000      7.8373      2.2240      0.1307     25.8156   -999.2500     31.6032
  1796.1000      7.8373      2.2509     -0.0338     24.1906   -999.2500     32.0000
  1796.2000      7.8373      2.3123      0.0100     20.4677   -999.2500     31.7058
  1796.3000      7.9931      2.4101      0.0167     14.5389   -999.2500     31.1922
  1796.4000      7.9931      2.5044      0.0877      8.8265   -999.2500     30.6291
  1796.5000      7.9901      2.5624      0.1224      5.3120   -999.2500     30.1012
  1796.6000      7.9901      2.5809      0.1010      4.1903   -999.2500     29.7876
  1796.7000      7.9901      2.5787      0.1421      4.3197   -999.2500     29.6388
  1796.8000      7.8635      2.5693      0.1149      4.8928   -999.2500     29.5835
  1796.9000      7.8635      2.5575      0.0639      5.6074   -999.2500     29.5888
  1797.0000      7.8482      2.5469      0.0608      6.2455   -999.2500     29.5043
  1797.1000      7.8482      2.5386      0.0797      6.7537   -999.2500     29.2014
  1797.2000      7.8482      2.5367      0.0402      6.8642   -999.2500     28.9975
  1797.3000      7.8891      2.5429      0.1104      6.4903   -999.2500     29.4191
  1797.4000      7.8891      2.5500      0.0722      6.0581   -999.2500     30.3906
  1797.5000      7.9101      2.5604      0.0729      5.4308   -999.2500     32.2848
  1797.6000      7.9101      2.5812      0.0775      4.1669   -999.2500     37.0157
  1797.7000      7.9101      2.6101      0.0997      2.4185   -999.2500     43.9118
  1797.8000      7.9051      2.6313      0.1443      1.1314   -999.2500     48.8281
  1797.9000      7.9051      2.6307      0.1180      1.1689   -999.2500     50.6336
  1798.0000      7.8448      2.6150      0.0810      2.1216   -999.2500     50.9918
  1798.1000      7.8448      2.5923      0.0764      3.4941   -999.2500     51.0299
  1798.2000      7.8448      2.5608      0.0237      5.4068   -999.2500     51.0321
  1798.3000      7.8577      2.5302     -0.0023      7.2593   -999.2500   -999.2500
  1798.4000      7.8577      2.5159      0.0032      8.1268   -999.2500   -999.2500
  1798.5000      7.8602      2.5202     -0.0185      7.8666   -999.2500   -999.2500
  1798.6000      7.8602      2.5343      0.0133      7.0150   -999.2500   -999.2500
  1798.7000      7.8602      2.5428      0.0427      6.4980   -999.2500   -999.2500
  1798.8000      7.8627      2.5397      0.0400      6.6850   -999.2500   -999.2500
  1798.9000      7.8627      2.5321      0.0488      7.1454   -999.2500   -999.2500
  1799.0000      7.8539      2.5118      0.0904      8.3744   -999.2500   -999.2500
  1799.1000      7.8539      2.4546      0.0440     11.8396   -999.2500   -999.2500
  1799.2000      7.8539      2.3541      0.0310     17.9362   -999.2500   -999.2500
  1799.3000      7.8445      2.2356     -0.0336     25.1176   -999.2500   -999.2500
  1799.4000      7.8445      2.1391     -0.0873     30.9610   -999.2500   -999.2500
  1799.5000      7.8538      2.0858     -0.1005     34.1941   -999.2500   -999.2500
  1799.6000      7.8538      2.0703     -0.0931     35.1311   -999.2500   -999.2500
  1799.7000      7.8538      2.0887     -0.1137     34.0157   -999.2500   -999.2500
  1799.8000      7.8533      2.1456     -0.0141     30.5680   -999.2500   -999.2500
  1799.9000      7.8533      2.2299      0.0981     25.4623   -999.2500   -999.2500
  1800.0000      7.8813      2.3143      0.1829     20.3430   -999.2500   -999.2500
  1800.1000      7.8813      2.3781      0.1959     16.4772   -999.2500   -999.2500
  1800.2000      7.8813      2.4155      0.1966     14.2135   -999.2500   -999.2500
  1800.3000      7.9181      2.4318      0.1645     13.2237   -999.2500   -999.2500
  1800.4000      7.9181      2.4377      0.0565     12.8681   -999.2500   -999.2500
  1800.5000      7.8819      2.4431      0.0533     12.5397   -999.2500   -999.2500
  1800.6000      7.8819      2.4527      0.0605     11.9564   -999.2500   -999.2500
  1800.7000      7.8819      2.4591      0.0627     11.5694   -999.2500   -999.2500
  1800.8000      7.8619      2.4565      0.0484     11.7271   -999.2500   -999.2500
  1800.9000      7.8619      2.4605      0.0593     11.4833   -999.2500   -999.2500
  1801.0000      7.8347      2.4828      0.0684     10.1333   -999.2500   -999.2500
  1801.1000      7.8347      2.5143      0.1173      8.2232   -999.2500   -999.2500
  1801.2000      7.8347      2.5391      0.1612      6.7224   -999.2500   -999.2500
  1801.3000      7.7915      2.5401      0.1512      6.6630   -999.2500   -999.2500
  1801.4000      7.7915      2.5188      0.0816      7.9540   -999.2500   -999.2500
  1801.5000      7.7633      2.4969      0.1110      9.2779   -999.2500   -999.2500
  1801.6000      7.7633      2.4899      0.0694      9.7034   -999.2500   -999.2500
  1801.7000      7.7633      2.5022      0.0827      8.9567   -999.2500   -999.2500
  1801.8000      7.8010      2.5219      0.1284      7.7649   -999.2500   -999.2500
  1801.9000      7.8010      2.5296      0.1015      7.2995   -999.2500   -999.2500
  1802.0000      7.8222      2.5217      0.0448      7.7748   -999.2500   -999.2500
  1802.1000      7.8222      2.5137      0.0716      8.2622   -999.2500   -999.2500
  1802.2000      7.8222      2.5254      0.0272      7.5499   -999.2500   -999.2500
  1802.3000      7.8499      2.5549      0.0627      5.7641   -999.2500   -999.2500
  1802.4000      7.8499      2.5698      0.1421      4.8630   -999.2500   -999.2500
  1802.5000      7.8428      2.5550      0.0999      5.7556   -999.2500   -999.2500
  1802.6000      7.8428      2.5303      0.0881      7.2541   -999.2500   -999.2500
  1802.7000      7.8428      2.5025      0.0524      8.9379   -999.2500   -999.2500
  1802.8000      7.8263      2.4715      0.0013     10.8193   -999.2500   -999.2500
  1802.9000      7.8263      2.4554      0.0091     11.7965   -999.2500   -999.2500
  1803.0000      7.8369      2.4658     -0.0119     11.1653   -999.2500   -999.2500
  1803.1000      7.8369      2.4895      0.0541      9.7249   -999.2500   -999.2500
  1803.2000      7.8369      2.5041      0.0657      8.8397   -999.2500   -999.2500
  1803.3000      7.8294      2.5086      0.0197      8.5702   -999.2500   -999.2500
  1803.4000      7.8294      2.5174      0.0440      8.0366   -999.2500   -999.2500
  1803.5000      7.8447      2.5284      0.0766      7.3697   -999.2500   -999.2500
  1803.6000      7.8447      2.5293      0.0906      7.3166   -999.2500   -999.2500
  1803.7000      7.8447      2.5185      0.0457      7.9696   -999.2500   -999.2500
  1803.8000      7.8193      2.5028      0.0615      8.9190   -999.2500   -999.2500
  1803.9000      7.8193      2.4914      0.0174      9.6117   -999.2500   -999.2500
  1804.0000      7.8107      2.4950      0.0430      9.3912   -999.2500   -999.2500
  1804.1000      7.8107      2.5139      0.0268      8.2483   -999.2500   -999.2500
  1804.2000      7.8107      2.5362      0.0703      6.8978   -999.2500   -999.2500
  1804.3000      7.7975      2.5479      0.0970      6.1903   -999.2500   -999.2500
