~Version Information
VERS.                      2.0: CWLS Log ASCII Standard - VERSION 2.0
WRAP.                       NO: One line per depth step
~Well Information Block
STRT.FT                -7.5000: 
STOP.FT              1129.7500: 
STEP.FT                 0.2500: 
NULL.                -999.2500: 
COMP.          Pioneer Natural Resources: COMPANY
WELL.          Drewmeister 34-34: WELL
FLD.           Purgatorie River: FIELD
LOC.           958' FSL & 1857' FEL: LOCATION
STAT.                       CO: State
CNTY.               Las Animas: COUNTRY
CTRY. USA : Country
SECT. 34 : Section
TOWN. 32S : Township
RANG. 65W : Range
SRVC.          Patterson Wireline: SERVICE COMPANY
DATE.          Fri Oct 14 14:02:00 2005: LOG DATE
API.           05 071 08131 00: UNIQUE WELL ID
~Curve Information Block
DEPT.FT            0 000 00 00: Depth
CCL.                          : Casing Collar Locator
TT3.usec                      : CBL 3' Travel Time
AMP3.mV                       : CBL 3' Amplitude
GR.GAPI                       : Gamma Ray
~Parameter Information Block
~A  Depth       CCL         TT3         AMP3         GR     
# ...
   964.0000      0.0000    823.5112      5.0416     76.1608
   964.2500      0.0000    850.9046      5.1006     69.5698
   964.5000      0.0000    881.8540      5.1898     66.6092
   964.7500      0.0000    908.7299      5.2839     66.7974
   965.0000      0.0000    924.4775      5.3733     68.3147
   965.2500      0.0000    925.9236      5.4633     69.5405
   965.5000      0.0000    914.6864      5.5550     69.7660
   965.7500      0.0000    896.0359      5.6421     68.8901
   966.0000      0.0000    875.9611      5.7254     67.0423
   966.2500      0.0000    857.9977      5.8186     64.7328
   966.5000      0.0000    842.5112      5.9354     63.0302
   966.7500      0.0000    828.5529      6.0764     63.0043
   967.0000      0.0000    815.6354      6.2330     64.7452
   967.2500      0.0000    803.9968      6.3998     67.1700
   967.5000      0.0000    794.2288      6.5722     68.8603
   967.7500      0.0000    786.9343      6.7342     68.9167
   968.0000      0.0000    782.3486      6.8560     67.3526
   968.2500      0.0000    780.0995      6.9146     65.2532
   968.5000      0.0000    779.4177      6.9150     64.5287
   968.7500      0.0000    779.5443      6.8872     66.9543
   969.0000      0.0000    779.9506      6.8611     72.8256
   969.2500      0.0000    780.2929      6.8408     80.0996
   969.5000      0.0000    780.2530      6.8043     85.0810
   969.7500      0.0000    779.2936      6.7225     84.8733
   970.0000      0.0000    776.4482      6.5772     79.6249
   970.2500      0.0000    770.4711      6.3575     72.1541
   970.5000      0.0000    760.7308      6.0606     65.5416
   970.7500      0.0000    748.5981      5.7247     61.3245
   971.0000      0.0000    738.1655      5.4492     59.4101
   971.2500      0.0000    735.1502      5.3290     58.9482
   971.5000      0.0000    744.1385      5.3579     59.1082
   971.7500      0.0000    765.2863      5.4419     59.2521
   972.0000      0.0000    792.1325      5.5073     58.7744
   972.2500      0.0000    813.6729      5.5474     57.3154
   972.5000      0.0000    822.1155      5.5692     55.2443
   972.7500      0.0000    820.0446      5.5546     53.5496
   973.0000      0.0000    818.2987      5.5035     53.0964
   973.2500      0.0000    826.4464      5.5017     54.1315
   973.5000      0.0000    845.8298      5.7051     56.3985
   973.7500      0.0000    869.4897      6.2149     59.3987
   974.0000      0.0000    886.6240      6.9446     62.4854
   974.2500      0.0000    888.9265      7.6398     65.0364
   974.5000      0.0000    875.3340      8.0771     66.8379
   974.7500      0.0000    851.5995      8.2339     68.1310
   975.0000      0.0000    825.7524      8.2472     69.0538
   975.2500      0.0000    803.7000      8.2470     69.2818
   975.5000      0.0000    787.4994      8.2662     68.5308
   975.7500      0.0000    776.2068      8.2758     67.2598
   976.0000      0.0000    767.8945      8.2441     66.5324
   976.2500      0.0000    761.2584      8.1531     67.1464
   976.5000      0.0000    756.1774      7.9961     69.0214
   976.7500      0.0000    753.4073      7.7896     71.3715
   977.0000      0.0000    753.5945      7.5824     73.3179
   977.2500      0.0000    756.2253      7.4328     74.4286
   977.5000      0.0000    759.6214      7.3765     74.9275
   977.7500      0.0000    762.1083      7.4183     75.3535
   978.0000      0.0000    762.9707      7.5425     75.8442
   978.2500      0.0000    762.2632      7.7202     75.7929
   978.5000      0.0000    760.4351      7.9151     74.3750
   978.7500      0.0000    758.6235      8.0960     71.4625
   979.0000      0.0000    758.5614      8.2488     67.9211
   979.2500      0.0000    761.3184      8.3759     64.8993
   979.5000      0.0000    766.2037      8.4828     62.9626
   979.7500      0.0000    771.2801      8.5704     62.0821
   980.0000      0.0000    774.8384      8.6366     62.2693
   980.2500      0.0000    776.2692      8.6790     63.9092
   980.5000      0.0000    775.9345      8.6927     67.3087
   980.7500      0.0000    774.6044      8.6738     71.8439
   981.0000      0.0000    772.7928      8.6274     75.7103
   981.2500      0.0000    770.3007      8.5676     76.9925
   981.5000      0.0000    766.6014      8.5033     75.2767
   981.7500      0.0000    761.9125      8.4261     72.0497
   982.0000      0.0000    757.6449      8.3185     69.4070
   982.2500      0.0000    755.5585      8.1739     68.4579
   982.5000      0.0000    756.5022      8.0035     68.8671
   982.7500      0.0000    759.7191      7.8218     69.5877
   983.0000      0.0000    763.0297      7.6346     69.8578
   983.2500      0.0000    763.9847      7.4476     69.6256
   983.5000      0.0000    761.5131      7.2811     69.4138
   983.7500      0.0000    756.7655      7.1641     70.0880
   984.0000      0.0000    752.2292      7.1114     72.4820
   984.2500      0.0000    749.8506      7.1105     76.6102
   984.5000      0.0000    749.9319      7.1322     81.0773
   984.7500      0.0000    751.7264      7.1512     83.7268
   985.0000      0.0000    754.7518      7.1566     83.3621
   985.2500      0.0000    759.0641      7.1489     80.8256
   985.5000      0.0000    764.3510      7.1311     78.2257
   985.7500      0.0000    769.4811      7.1010     77.1132
   986.0000      0.0000    773.2941      7.0486     77.4151
   986.2500      0.0000    775.4643      6.9649     78.0423
   986.5000      0.0000    776.4274      6.8553     78.2210
   986.7500      0.0000    776.7827      6.7411     77.9417
   987.0000      0.0000    776.9330      6.6470     77.4941
   987.2500      0.0000    777.0728      6.5869     77.2555
   987.5000      0.0000    777.2689      6.5568     77.7781
   987.7500      0.0000    777.5195      6.5391     79.2934
   988.0000      0.0000    777.7902      6.5138     81.1011
   988.2500      0.0000    778.0380      6.4701     82.0969
   988.5000      0.0000    778.2238      6.4112     82.0279
   988.7500      0.0000    778.3176      6.3499     81.8119
   989.0000      0.0000    778.2809      6.2992     82.4198
   989.2500      0.0000    777.9895      6.2641     83.6213
   989.5000      0.0000    777.0947      6.2408     84.1505
   989.7500      0.0000    774.9783      6.2252     83.2107
   990.0000      0.0000    771.0757      6.2198     81.5820
   990.2500      0.0000    765.5710      6.2294     81.0029
   990.5000      0.0000    759.8745      6.2537     82.4460
   990.7500      0.0000    756.1357      6.2871     85.1084
   991.0000      0.0000    755.8630      6.3257     87.0937
   991.2500      0.0000    758.6664      6.3721     87.0225
   991.5000      0.0000    762.2117      6.4315     85.0684
   991.7500      0.0000    763.6525      6.5068     82.6301
   992.0000      0.0000    761.5735      6.5941     81.1377
   992.2500      0.0000    756.8283      6.6821     81.1231
   992.5000      0.0000    751.6024      6.7560     82.1656
   992.7500      0.0000    747.8055      6.8040     83.2526
   993.0000      0.0000    746.3112      6.8239     82.9912
   993.2500      0.0000    747.2230      6.8238     80.2342
   993.5000      0.0000    750.1500      6.8168     75.3670
   993.7500      0.0000    753.9650      6.8130     70.5424
   994.0000      0.0000    756.7918      6.8150     67.8304
   994.2500      0.0000    757.0224      6.8181     67.3974
   994.5000      0.0000    754.5944      6.8144     67.9849
   994.7500      0.0000    750.9684      6.7973     68.6269
   995.0000      0.0000    747.8087      6.7635     69.2986
   995.2500      0.0000    745.9254      6.7131     70.2855
   995.5000      0.0000    745.3548      6.6459     71.5270
   995.7500      0.0000    746.0229      6.5595     72.4112
   996.0000      0.0000    748.1574      6.4518     72.0428
   996.2500      0.0000    752.0924      6.3250     70.0507
   996.5000      0.0000    757.6400      6.1857     67.1981
   996.7500      0.0000    763.7050      6.0448     64.8661
   997.0000      0.0000    768.7279      5.9152     64.0355
   997.2500      0.0000    771.5616      5.8078     65.1217
