~Version Information
VERS.                      2.0: CWLS Log ASCII Standard - VERSION 2.0
WRAP.                       NO: One line per depth step
~Well Information Block
STRT.FT                -4.7500: 
STOP.FT              1784.7500: 
STEP.FT                 0.2500: 
NULL.                -999.2500: 
COMP.          Pioneer Natural Resources: COMPANY
WELL.          Buckeye 11-13 Tr: WELL
FLD.           Purgatorie River: FIELD
LOC.           211' FNL & 1054' FWL--: LOCATION
STAT.                       CO: State
CNTY.               Las Animas: COUNTY
CTRY. USA : Country
SECT. 13 : Section
TOWN. 33S : Township
RANG. 67W : range
SRVC.          Patterson Wireline: SERVICE COMPANY
DATE.          Wed Mar 16 09:19:21 2005: LOG DATE
API.           05 071 08317 00: UNIQUE WELL ID
~Curve Information Block
DEPT.FT            0 000 00 00: Depth
CCL.                          : Casing Collar Locator
TT3.usec                      : CBL 3' Travel Time
AMP3.mV                       : CBL 3' Amplitude
GR.GAPI                       : Gamma Ray
~Parameter Information Block
~A  Depth       CCL         TT3         AMP3         GR     
# ...
  1502.7500      0.0000    743.4012      6.5199    109.8787
  1503.0000      0.0000    727.9427      6.3895    108.9482
  1503.2500      0.0000    719.4493      6.2481    114.4980
  1503.5000      0.0000    719.8091      6.1250    124.1558
  1503.7500      0.0000    726.8681      6.0365    134.2979
  1504.0000      0.0000    736.7852      5.9734    141.5749
  1504.2500      0.0000    747.1158      5.9115    144.1293
  1504.5000      0.0000    757.3137      5.8349    142.4114
  1504.7500      0.0000    766.7434      5.7450    138.9496
  1505.0000      0.0000    773.2267      5.6459    136.7299
  1505.2500      0.0000    773.9508      5.5299    137.3965
  1505.5000      0.0000    767.7396      5.3861    140.8866
  1505.7500      0.0000    756.4471      5.2317    146.2897
  1506.0000      0.0000    744.1205      5.1210    152.2578
  1506.2500      0.0000    734.5871      5.1042    156.7057
  1506.5000      0.0000    729.4799      5.1683    157.2602
  1506.7500      0.0000    727.8616      5.2370    152.8624
  1507.0000      0.0000    726.7079      5.2445    144.7490
  1507.2500      0.0000    722.0726      5.2025    135.4739
  1507.5000      0.0000    712.2354      5.1826    127.0237
  1507.7500      0.0000    701.3052      5.2434    120.0522
  1508.0000      0.0000    697.4562      5.3837    114.7404
  1508.2500      0.0000    704.7567      5.5635    111.9404
  1508.5000      0.0000    718.0463      5.7536    113.1326
  1508.7500      0.0000    728.1078      5.9506    119.1471
  1509.0000      0.0000    730.3791      6.1438    129.1122
  1509.2500      0.0000    726.9176      6.2964    140.7888
  1509.5000      0.0000    722.0990      6.3632    151.8028
  1509.7500      0.0000    719.1785      6.3091    160.4178
  1510.0000      0.0000    720.2294      6.1147    165.5762
  1510.2500      0.0000    726.3277      5.7918    166.8231
  1510.5000      0.0000    736.0145      5.4038    164.2975
  1510.7500      0.0000    744.6359      5.0503    158.5468
  1511.0000      0.0000    747.2910      4.8112    150.3157
  1511.2500      0.0000    742.9892      4.7020    140.7472
  1511.5000      0.0000    734.9578      4.6850    131.7600
  1511.7500      0.0000    726.9258      4.7134    125.6465
  1512.0000      0.0000    720.0161      4.7681    123.6977
  1512.2500      0.0000    713.4265      4.8645    125.2818
  1512.5000      0.0000    707.5277      5.0327    128.7435
  1512.7500      0.0000    705.4321      5.2763    133.1208
  1513.0000      0.0000    710.2170      5.5398    138.5328
  1513.2500      0.0000    720.2866      5.7314    145.1750
  1513.5000      0.0000    729.4052      5.8000    152.6430
  1513.7500      0.0000    732.5083      5.7732    160.1131
  1514.0000      0.0000    729.9937      5.7028    166.6499
  1514.2500      0.0000    725.6796      5.6049    171.5477
  1514.5000      0.0000    722.4737      5.4764    174.8414
  1514.7500      0.0000    720.9039      5.3329    177.3439
  1515.0000      0.0000    720.3059      5.1868    179.8510
  1515.2500      0.0000    720.0685      5.0169    182.3793
  1515.5000      0.0000    719.9359      4.8097    184.3680
  1515.7500      0.0000    719.8760      4.6232    185.3136
  1516.0000      0.0000    719.9875      4.5708    184.7425
  1516.2500      0.0000    720.6115      4.7278    181.9814
  1516.5000      0.0000    722.5078      5.0582    176.9167
  1516.7500      0.0000    726.7446      5.4316    170.8925
  1517.0000      0.0000    733.7952      5.7006    165.8089
  1517.2500      0.0000    742.1010      5.7661    162.0868
  1517.5000      0.0000    747.9093      5.5996    158.0351
  1517.7500      0.0000    747.7742      5.2532    151.1450
  1518.0000      0.0000    741.6687      4.8587    139.6789
  1518.2500      0.0000    733.0215      4.5744    123.6331
  1518.5000      0.0000    725.6378      4.4943    105.0520
  1518.7500      0.0000    721.1633      4.6031     87.4003
  1519.0000      0.0000    719.2348      4.8162     74.0045
  1519.2500      0.0000    719.0284      5.0487     66.8394
  1519.5000      0.0000    720.3292      5.2550     66.5697
  1519.7500      0.0000    723.5889      5.4205     73.0879
  1520.0000      0.0000    729.1208      5.5201     85.3618
  1520.2500      0.0000    735.8757      5.5045    100.8541
  1520.5000      0.0000    741.0800      5.3494    115.8368
  1520.7500      0.0000    741.9797      5.1043    126.9864
  1521.0000      0.0000    738.5627      4.8651    132.8173
  1521.2500      0.0000    734.2784      4.7037    133.6760
  1521.5000      0.0000    733.7278      4.6292    130.8311
  1521.7500      0.0000    739.4934      4.6047    125.8994
  1522.0000      0.0000    750.2815      4.5896    120.6933
  1522.2500      0.0000    760.8303      4.5711    116.9065
  1522.5000      0.0000    763.3695      4.5796    115.5059
  1522.7500      0.0000    750.4504      4.6829    116.2062
  1523.0000      0.0000    718.7281      4.9338    117.7325
  1523.2500      0.0000    672.2086      5.2947    118.8867
  1523.5000      0.0000    621.8248      5.6281    119.0932
  1523.7500      0.0000    579.9271      5.7863    117.8942
  1524.0000      0.0000    553.9672      5.7199    114.7414
  1524.2500      0.0000    545.4731      5.5128    109.7973
  1524.5000      0.0000    553.9680      5.3297    104.3162
  1524.7500      0.0000    579.4578      5.3112     99.6313
  1525.0000      0.0000    619.7417      5.4802     96.0052
  1525.2500      0.0000    666.6572      5.7280     92.8540
  1525.5000      0.0000    708.1867      5.9005     89.9651
  1525.7500      0.0000    736.3406      5.9097     88.0797
  1526.0000      0.0000    752.2960      5.7814     88.0874
  1526.2500      0.0000    762.7875      5.6133     89.8637
  1526.5000      0.0000    772.3721      5.4945     92.1968
  1526.7500      0.0000    780.2471      5.4590     93.7258
  1527.0000      0.0000    783.2841      5.4999     93.7079
  1527.2500      0.0000    780.0258      5.6015     92.1049
  1527.5000      0.0000    771.5711      5.7550     89.3787
  1527.7500      0.0000    760.0814      5.9541     86.2505
  1528.0000      0.0000    747.5049      6.1684     83.4448
  1528.2500      0.0000    735.4692      6.3145     81.6338
  1528.5000      0.0000    725.4718      6.2811     81.5496
  1528.7500      0.0000    718.6855      6.0130     83.9590
  1529.0000      0.0000    715.5853      5.5886     89.4432
  1529.2500      0.0000    715.5700      5.2030     98.0502
  1529.5000      0.0000    716.8378      5.0456    108.8823
  1529.7500      0.0000    717.0891      5.1622    120.1988
  1530.0000      0.0000    714.7739      5.4296    130.5210
  1530.2500      0.0000    709.8702      5.6551    139.6212
  1530.5000      0.0000    704.1061      5.7083    147.9555
  1530.7500      0.0000    700.9316      5.5859    155.2270
  1531.0000      0.0000    704.4852      5.3968    160.2136
  1531.2500      0.0000    717.1055      5.2912    162.2889
  1531.5000      0.0000    737.0793      5.3684    162.6745
  1531.7500      0.0000    759.0720      5.6078    163.7504
  1532.0000      0.0000    777.4161      5.8864    167.1876
  1532.2500      0.0000    789.3980      6.0711    172.7733
  1532.5000      0.0000    795.7712      6.0957    178.7814
  1532.7500      0.0000    798.8047      5.9593    183.3797
  1533.0000      0.0000    800.3143      5.6903    185.8938
  1533.2500      0.0000    801.0490      5.3386    186.9368
  1533.5000      0.0000    800.9999      4.9871    187.5046
  1533.7500      0.0000    799.7140      4.7430    188.1389
  1534.0000      0.0000    796.4948      4.6906    188.7457
  1534.2500      0.0000    790.6036      4.8236    188.6970
  1534.5000      0.0000    781.1436      5.0182    186.9747
  1534.7500      0.0000    766.4658      5.1086    182.6599
  1535.0000      0.0000    744.7725      5.0246    175.8166
  1535.2500      0.0000    717.3749      4.8597    167.9421
  1535.5000      0.0000    691.3894      4.7816    161.0449
  1535.7500      0.0000    676.1683      4.8667    155.7930
  1536.0000      0.0000    674.7975      5.0436    150.6523
