~Version Information
VERS.                      2.0: CWLS Log ASCII Standard - VERSION 2.0
WRAP.                       NO: One line per depth step
~Well Information Block
STRT.FT               546.2500: 
STOP.FT              2496.7500: 
STEP.FT                 0.2500: 
NULL.                -999.2500: 
COMP.          Petrogulf Corporation: COMPANY
WELL.               Egan 9-11V: WELL
FLD.           Purgatorie River: FIELD
LOC.           724' FNL & 1379' FWL: LOCATION
PROV.                 Colorado: PROVINCE
CNTY.               Las Animas: COUNTRY
SRVC.          Patterson Wireline: SERVICE COMPANY
DATE.          Fri Jul 11 23:32:41 2003: LOG DATE
UWI.           05 071 07875 00: UNIQUE WELL ID
~Curve Information Block
DEPT.FT            0 000 00 00: Depth
SP.mV                         : DIL Spontaneous Potential
RILD.Ohm-m                    : DIL Deep Resistivity
RILM.Ohm-m                    : DIL Medium Resistivity
RLL3.Ohm-m                    : DIL Shallow Resistivity
GR.GAPI                       : Gamma Ray
~Parameter Information Block
~A  Depth        SP         RILD        RILM        RLL3         GR     
# ...
   826.2500   2000.0000     37.7245     41.9440   2000.0000     80.1184
   826.5000   2000.0000     38.0298     41.3827   2000.0000     87.9396
   826.7500   2000.0000     38.4638     41.0827   2000.0000     93.8414
   827.0000   2000.0000     38.9484     41.0530   2000.0000    102.0246
   827.2500   2000.0000     39.4025     41.2930   2000.0000    105.8245
   827.5000   2000.0000     39.7713     41.7953   2000.0000    108.1131
   827.7500   2000.0000     40.0517     42.5475   2000.0000    107.6884
   828.0000   2000.0000     40.2967     43.5344   2000.0000    105.4114
   828.2500   2000.0000     40.5949     44.7395   2000.0000    103.5518
   828.5000   2000.0000     41.0379     46.1445   2000.0000    101.2008
   828.7500   2000.0000     41.6930     47.7289   2000.0000    100.2414
   829.0000   2000.0000     42.5861     49.4671   2000.0000     99.8892
   829.2500   2000.0000     43.6919     51.3241   2000.0000    100.2655
   829.5000   2000.0000     44.9308     53.2506   2000.0000    101.1823
   829.7500   2000.0000     46.1744     55.1774   2000.0000    101.6352
   830.0000   2000.0000     47.2650     57.0134   2000.0000    101.7832
   830.2500   2000.0000     48.0447     58.6462   2000.0000    101.6840
   830.5000   2000.0000     48.3870     59.9509   2000.0000    101.6793
   830.7500   2000.0000     48.2256     60.8055   2000.0000    101.8450
   831.0000   2000.0000     47.5715     61.1112   2000.0000    102.1402
   831.2500   2000.0000     46.5139     60.8122   2000.0000    102.3059
   831.5000   2000.0000     45.1983     59.9099   2000.0000    102.8920
   831.7500   2000.0000     43.7905     58.4631   2000.0000    103.9439
   832.0000   2000.0000     42.4342     56.5770   2000.0000    106.9211
   832.2500   2000.0000     41.2181     54.3819   2000.0000    109.6090
   832.5000   2000.0000     40.1634     52.0126   2000.0000    114.1123
   832.7500   2000.0000     39.2324     49.5895   2000.0000    117.5651
   833.0000   2000.0000     38.3564     47.2093   2000.0000    124.1504
   833.2500   2000.0000     37.4693     44.9423   2000.0000    129.2960
   833.5000   2000.0000     36.5334     42.8332   2000.0000    136.1858
   833.7500   2000.0000     35.5486     40.9070   2000.0000    138.8977
   834.0000   2000.0000     34.5457     39.1746   2000.0000    139.1869
   834.2500   2000.0000     33.5699     37.6378   2000.0000    137.1466
   834.5000   2000.0000     32.6638     36.2937   2000.0000    131.8468
   834.7500   2000.0000     31.8550     35.1373   2000.0000    127.4818
   835.0000   2000.0000     31.1556     34.1638   2000.0000    120.6218
   835.2500   2000.0000     30.5708     33.3682   2000.0000    116.2425
   835.5000   2000.0000     30.1096     32.7459   2000.0000    110.4805
   835.7500   2000.0000     29.7878     32.2911   2000.0000    107.4202
   836.0000   2000.0000     29.6174     31.9956   2000.0000    104.1822
   836.2500   2000.0000     29.5907     31.8471   2000.0000    102.8635
   836.5000   2000.0000     29.6735     31.8279   2000.0000    102.0718
   836.7500   2000.0000     29.8124     31.9118   2000.0000    102.3684
   837.0000   2000.0000     29.9509     32.0638   2000.0000    103.8554
   837.2500   2000.0000     30.0406     32.2384   2000.0000    105.2044
   837.5000   2000.0000     30.0425     32.3815   2000.0000    107.2885
   837.7500   2000.0000     29.9219     32.4336   2000.0000    108.6676
   838.0000   2000.0000     29.6515     32.3373   2000.0000    110.7127
   838.2500   2000.0000     29.2228     32.0465   2000.0000    111.9497
   838.5000   2000.0000     28.6575     31.5360   2000.0000    113.4604
   838.7500   2000.0000     28.0021     30.8080   2000.0000    114.4475
   839.0000   2000.0000     27.3084     29.8923   2000.0000    117.0579
   839.2500   2000.0000     26.6120     28.8406   2000.0000    120.4176
   839.5000   2000.0000     25.9255     27.7163   2000.0000    128.2982
   839.7500   2000.0000     25.2469     26.5838   2000.0000    134.5532
   840.0000   2000.0000     24.5773     25.4994   2000.0000    142.9833
   840.2500   2000.0000     23.9325     24.5073   2000.0000    147.0491
   840.5000   2000.0000     23.3413     23.6385   2000.0000    150.6004
   840.7500   2000.0000     22.8305     22.9116   2000.0000    151.3030
   841.0000   2000.0000     22.4108     22.3357   2000.0000    149.6532
   841.2500   2000.0000     22.0744     21.9122   2000.0000    147.0359
   841.5000   2000.0000     21.8053     21.6372   2000.0000    142.7442
   841.7500   2000.0000     21.5927     21.5024   2000.0000    140.9786
   842.0000   2000.0000     21.4367     21.4954   2000.0000    140.7648
   842.2500   2000.0000     21.3429     21.5999   2000.0000    141.4924
   842.5000   2000.0000     21.3112     21.7950   2000.0000    141.6860
   842.7500   2000.0000     21.3291     22.0550   2000.0000    140.2922
   843.0000   2000.0000     21.3740     22.3496   2000.0000    135.8425
   843.2500   2000.0000     21.4213     22.6446   2000.0000    132.0689
   843.5000   2000.0000     21.4531     22.9055   2000.0000    127.2657
   843.7500   2000.0000     21.4609     23.1009   2000.0000    125.7908
   844.0000   2000.0000     21.4445     23.2072   2000.0000    126.7433
   844.2500   2000.0000     21.4099     23.2135   2000.0000    128.4921
   844.5000   2000.0000     21.3702     23.1230   2000.0000    129.9061
   844.7500   2000.0000     21.3444     22.9527   2000.0000    129.3179
   845.0000   2000.0000     21.3506     22.7301   2000.0000    128.1964
   845.2500   2000.0000     21.3960     22.4878   2000.0000    129.3430
   845.5000   2000.0000     21.4715     22.2589   2000.0000    135.5272
   845.7500   2000.0000     21.5537     22.0726   2000.0000    141.8060
   846.0000   2000.0000     21.6137     21.9523   2000.0000    151.4034
   846.2500   2000.0000     21.6266     21.9141   2000.0000    156.2689
   846.5000   2000.0000     21.5801     21.9678   2000.0000    159.8216
   846.7500   2000.0000     21.4831     22.1175   2000.0000    159.6064
   847.0000   2000.0000     21.3714     22.3635   2000.0000    155.7128
   847.2500   2000.0000     21.3034     22.7034   2000.0000    151.0428
   847.5000   2000.0000     21.3446     23.1342   2000.0000    142.4064
   847.7500   2000.0000     21.5483     23.6534   2000.0000    137.1364
   848.0000   2000.0000     21.9435     24.2599   2000.0000    132.5611
   848.2500   2000.0000     22.5341     24.9542   2000.0000    132.2721
   848.5000   2000.0000     23.3051     25.7375   2000.0000    134.9656
   848.7500   2000.0000     24.2268     26.6106   2000.0000    137.6306
   849.0000   2000.0000     25.2523     27.5708   2000.0000    140.7886
   849.2500   2000.0000     26.3085     28.6100   2000.0000    141.4403
   849.5000   2000.0000     27.2981     29.7112   2000.0000    139.6478
   849.7500   2000.0000     28.1234     30.8468   2000.0000    136.7119
   850.0000   2000.0000     28.7253     31.9780   2000.0000    130.4121
   850.2500   2000.0000     29.1069     33.0567   2000.0000    125.7238
   850.5000   2000.0000     29.3209     34.0304   2000.0000    119.6865
   850.7500   2000.0000     29.4355     34.8498   2000.0000    117.1156
   851.0000   2000.0000     29.5074     35.4771   2000.0000    115.8705
   851.2500   2000.0000     29.5728     35.8939   2000.0000    116.6124
   851.5000   2000.0000     29.6492     36.1040   2000.0000    119.4290
   851.7500   2000.0000     29.7411     36.1330   2000.0000    121.9508
   852.0000   2000.0000     29.8440     36.0226   2000.0000    125.8477
   852.2500   2000.0000     29.9485     35.8224   2000.0000    128.0673
   852.5000   2000.0000     30.0406     35.5835   2000.0000    130.2052
   852.7500   2000.0000     30.1049     35.3515   2000.0000    130.7381
   853.0000   2000.0000     30.1295     35.1635   2000.0000    130.5235
   853.2500   2000.0000     30.1111     35.0460   2000.0000    129.8768
   853.5000   2000.0000     30.0561     35.0153   2000.0000    128.0963
   853.7500   2000.0000     29.9777     35.0775   2000.0000    126.3454
   854.0000   2000.0000     29.8930     35.2303   2000.0000    123.0788
