~Version Information
VERS.                      2.0: CWLS Log ASCII Standard - VERSION 2.0
WRAP.                       NO: One line per depth step
~Well Information Block
STRT.FT                -5.2500: 
STOP.FT               769.5000: 
STEP.FT                 0.2500: 
NULL.                -999.2500: 
COMP.          Pioneer Natural Resources: COMPANY
WELL.          HG Duran 34-27 Tr: WELL
FLD.           Purgatorie River: FIELD
LOC.           1076' FSL & 1465' FEL: LOCATION
PROV.                 Colorado: PROVINCE
CNTY.               Las Animas: COUNTRY
SRVC.          Patterson Wireline: SERVICE COMPANY
DATE.          Mon Apr 18 09:19:17 2005: LOG DATE
UWI.           05-071-08218-00: UNIQUE WELL ID
~Curve Information Block
DEPT.FT            0 000 00 00: Depth
CCL.                          : Casing Collar Locator
TT3.usec                      : CBL 3' Travel Time
AMP3.mV                       : CBL 3' Amplitude
GR.GAPI                       : Gamma Ray
~Parameter Information Block
~A  Depth       CCL         TT3         AMP3         GR     
# ...
   597.7500      0.0000    751.1820     10.0245     90.6121
   598.0000      0.0000    751.5545     10.2258     92.8200
   598.2500      0.0000    751.9567     10.6046     96.2171
   598.5000      0.0000    752.5398     11.0479    102.0807
   598.7500      0.0000    753.5087     11.4830    110.9938
   599.0000      0.0000    755.0733     11.9203    121.3900
   599.2500      0.0000    757.1689     12.4085    129.5513
   599.5000      0.0000    759.0978     12.9318    131.5728
   599.7500      0.0000    759.8364     13.3319    125.6478
   600.0000      0.0000    759.1431     13.3727    113.0079
   600.2500      0.0000    758.1422     12.9547     97.1931
   600.5000      0.0000    758.3181     12.2626     82.2515
   600.7500      0.0000    760.0483     11.6564     70.9436
   601.0000      0.0000    762.5359     11.4202     64.0223
   601.2500      0.0000    765.0291     11.6223     60.9641
   601.5000      0.0000    767.5179     12.1458     61.2719
   601.7500      0.0000    770.0969     12.7639     65.0386
   602.0000      0.0000    772.1061     13.1939     72.3090
   602.2500      0.0000    772.2505     13.1796     82.1293
   602.5000      0.0000    769.6976     12.6191     92.3893
   602.7500      0.0000    765.1461     11.6602    100.6762
   603.0000      0.0000    760.7058     10.6466    105.4114
   603.2500      0.0000    758.5546      9.8987    106.4866
   603.5000      0.0000    759.6633      9.5093    105.0669
   603.7500      0.0000    763.5879      9.3641    102.7360
   604.0000      0.0000    769.1721      9.3396    100.5646
   604.2500      0.0000    775.3387      9.4175     98.7927
   604.5000      0.0000    781.3384      9.6092     97.3300
   604.7500      0.0000    786.6324      9.8568     96.4487
   605.0000      0.0000    790.9969     10.0638     96.6849
   605.2500      0.0000    794.6958     10.1911     97.9998
   605.5000      0.0000    798.0643     10.2843     99.5961
   605.7500      0.0000    800.7707     10.4162    101.0625
   606.0000      0.0000    801.8573     10.6282    103.1817
   606.2500      0.0000    800.7271     10.9227    106.8686
   606.5000      0.0000    797.8034     11.2800    111.5997
   606.7500      0.0000    794.2725     11.6707    115.4703
   607.0000      0.0000    792.1056     12.0473    116.6510
   607.2500      0.0000    794.9656     12.3249    114.7428
   607.5000      0.0000    807.7470     12.3991    111.1227
   607.7500      0.0000    832.9169     12.2150    108.0232
   608.0000      0.0000    867.2343     11.8378    106.9775
   608.2500      0.0000    904.3174     11.4546    108.0061
   608.5000      0.0000    940.5979     11.2557    110.0191
   608.7500      0.0000    976.0494     11.2375    111.6596
   609.0000      0.0000   1009.1422     11.1397    112.0894
   609.2500      0.0000   1034.7052     10.6891    111.5080
   609.5000      0.0000   1047.5227      9.8986    110.8991
   609.7500      0.0000   1045.2098      9.0299    111.1222
   610.0000      0.0000   1027.4158      8.3016    112.4079
   610.2500      0.0000    996.1063      7.7334    114.7336
   610.5000     -5.0000    958.8178      7.2384    118.2497
   610.7500      0.0000    928.0811      6.7870    123.0378
   611.0000      0.0000    912.1036      6.4919    128.6854
   611.2500      0.0000    905.9969      6.5445    134.3789
   611.5000      0.0000    896.6019      7.0287    139.4093
   611.7500      0.0000    876.3843      7.7905    143.5860
   612.0000      0.0000    849.3557      8.5390    147.1674
   612.2500      0.0000    824.4326      9.0610    150.3147
   612.5000      0.0000    807.1047      9.3130    152.5078
   612.7500      0.0000    797.5486      9.3656    152.6533
   613.0000      0.0000    793.2700      9.3269    150.0607
   613.2500      0.0000    791.7307      9.2820    145.3883
   613.5000      0.0000    791.3335      9.2378    140.5363
   613.7500      0.0000    791.2886      9.1093    137.4546
   614.0000      0.0000    791.2256      8.7853    136.8134
   614.2500      0.0000    791.0054      8.2486    137.5104
   614.5000      0.0000    790.6590      7.6670    137.4075
   614.7500      0.0000    790.3120      7.3444    134.7973
   615.0000      0.0000    790.0824      7.5060    129.3318
   615.2500      0.0000    790.0031      8.0831    121.5823
   615.5000      0.0000    790.0563      8.7246    112.1066
   615.7500      0.0000    790.3580      9.0480    101.5950
   616.0000      0.0000    791.4001      8.8904     91.8480
   616.2500      0.0000    794.1041      8.3445     85.6750
   616.5000      0.0000    799.3538      7.6047     85.1152
   616.7500      0.0000    807.0685      6.8294     89.8868
   617.0000      0.0000    815.5219      6.1472     97.7626
   617.2500      0.0000    821.8024      5.7298    106.1440
   617.5000      0.0000    823.6082      5.7776    113.0432
   617.7500      0.0000    821.1471      6.3936    117.1530
   618.0000      0.0000    817.0207      7.4562    117.9635
   618.2500      0.0000    813.5673      8.6112    116.2947
   618.5000      0.0000    810.6675      9.4320    114.3937
   618.7500      0.0000    806.9594      9.6648    114.8830
   619.0000      0.0000    802.4526      9.3609    119.1457
   619.2500      0.0000    798.7753      8.7962    126.2430
   619.5000      0.0000    797.3416      8.2799    133.1275
   619.7500      0.0000    798.1068      8.0023    136.4620
   620.0000      0.0000    799.7886      7.9869    135.1687
   620.2500      0.0000    801.0129      8.1405    131.4886
   620.5000      0.0000    801.6863      8.3636    129.1962
   620.7500      0.0000    803.2814      8.6385    130.3372
   621.0000      0.0000    806.9031      9.0281    133.3626
   621.2500      0.0000    810.6757      9.6001    134.3410
   621.5000      0.0000    810.0759     10.3465    130.2816
   621.7500      0.0000    802.1915     11.1592    121.5854
   622.0000      0.0000    789.3190     11.8839    111.5228
   622.2500      0.0000    777.0852     12.4104    103.7438
   622.5000      0.0000    769.4128     12.7242    100.2093
   622.7500      0.0000    766.4509     12.8825    100.5681
   623.0000      0.0000    766.3147     12.9546    102.8382
   623.2500      0.0000    767.0025     12.9835    104.9918
   623.5000      0.0000    767.0516     12.9901    106.3617
   623.7500      0.0000    766.0482     13.0022    107.7134
   624.0000      0.0000    765.0945     13.0673    110.2161
   624.2500      0.0000    766.1866     13.2126    114.2749
   624.5000      0.0000    770.4930     13.3896    118.8760
   624.7500      0.0000    777.1525     13.4826    121.9830
   625.0000      0.0000    783.9637     13.3850    121.8068
   625.2500      0.0000    789.2847     13.0634    117.7068
   625.5000      0.0000    793.2485     12.5520    110.0932
   625.7500      0.0000    797.6309     11.9163    100.1474
   626.0000      0.0000    805.1598     11.2342     89.8040
   626.2500      0.0000    819.1783     10.5952     81.2381
   626.5000      0.0000    843.3865     10.0835     75.6904
   626.7500      0.0000    880.2788      9.7375     72.8358
   627.0000      0.0000    927.7584      9.5246     71.3437
   627.2500      0.0000    977.1280      9.3684     69.8640
   627.5000      0.0000   1016.5623      9.1992     67.6698
   627.7500      0.0000   1037.7175      8.9831     64.8949
   628.0000      0.0000   1038.3029      8.7248     62.3933
   628.2500      0.0000   1019.6300      8.4556     61.1868
   628.5000      0.0000    985.2868      8.2045     61.8159
   628.7500      0.0000    942.5845      7.9811     64.1563
   629.0000      0.0000    901.2784      7.8041     67.9432
   629.2500      0.0000    868.2843      7.7291     73.4751
   629.5000      0.0000    844.7569      7.8027     81.5520
   629.7500      0.0000    828.9542      7.9790     92.5715
   630.0000      0.0000    820.3261      8.1233    105.6975
   630.2500      0.0000    819.9748      8.1156    118.6457
   630.5000      0.0000    828.3939      7.9297    128.2436
   630.7500      0.0000    844.6022      7.6088    132.0347
   631.0000      0.0000    867.8654      7.1988    130.0150
