~Version Information
VERS.                      2.0: CWLS Log ASCII Standard - VERSION 2.0
WRAP.                       NO: One line per depth step
~Well Information Block
STRT.FT               260.0000: 
STOP.FT              1200.5000: 
STEP.FT                 0.2500: 
NULL.                -999.2500: 
COMP.          Evergreen Operating Corporation: COMPANY
WELL.             Justin 32-10: WELL
FLD.           Purgatorie River: FIELD
LOC.           2994' FNL & 1449' FEL: LOCATION
PROV.                 Colorado: PROVINCE
CNTY.               Las Animas: COUNTRY
SRVC.                         : SERVICE COMPANY
DATE.          Sun Aug 29 20:47:20 2004: LOG DATE
UWI.           05 071 08053 00: UNIQUE WELL ID
~Curve Information Block
DEPT.FT            0 000 00 00: Depth
LTEN.lb                       : Surface Line Tension
SN.Ohm-m                      : IEL Short Normal
SP.mV                         : IEL Spontaneous Potential
DIR.Ohm-m                     : IEL Induction Resistivity
GR.GAPI                       : Gamma Ray
~Parameter Information Block
~A  Depth       LTEN         SN          SP         DIR          GR     
# ...
  1184.0000    703.4147     27.6344     20.1340     26.1478   -999.2500
  1184.2500    703.1914     27.5715     20.1059     25.7584   -999.2500
  1184.5000    703.1984     27.4844     20.1012     25.3441   -999.2500
  1184.7500    703.3992     27.3745     20.1217     24.9672   -999.2500
  1185.0000    703.6525     27.2409     20.1672     24.6665   -999.2500
  1185.2500    703.8341     27.0807     20.2352     24.4510   -999.2500
  1185.5000    703.9419     26.8919     20.3211     24.3090   -999.2500
  1185.7500    704.0890     26.6762     20.4185     24.2209   -999.2500
  1186.0000    704.3719     26.4398     20.5200     24.1670   -999.2500
  1186.2500    704.7280     26.1938     20.6173     24.1273   -999.2500
  1186.5000    704.9241     25.9512     20.7018     24.0801   -999.2500
  1186.7500    704.6946     25.7236     20.7655     24.0045   -999.2500
  1187.0000    703.9364     25.5170     20.8014     24.0408   -999.2500
  1187.2500    702.8263     25.3294     20.8043     23.8589   -999.2500
  1187.5000    701.7373     25.1500     20.7714     23.6023   -999.2500
  1187.7500    701.0032     24.9628     20.7030     23.2528   -999.2500
  1188.0000    700.7693     24.7481     20.6021     22.7983   -999.2500
  1188.2500    701.0079     24.4857     20.4745     22.2494   -999.2500
  1188.5000    701.5536     24.1563     20.3282     21.6505   -999.2500
  1188.7500    702.1871     23.7450     20.1725     21.0744   -999.2500
  1189.0000    702.8453     23.2450     20.0170     20.6082   -999.2500
  1189.2500    703.6977     22.6635     19.8710     20.3427   -999.2500
  1189.5000    704.8954     22.0265     19.7429     20.3824   -999.2500
  1189.7500    706.2875     21.3804     19.6391     20.8848   -999.2500
  1190.0000    707.4156     20.7878     19.5638     22.1326   -999.2500
  1190.2500    707.7598     20.3183     19.5187     24.6549   -999.2500
  1190.5000    707.1149     20.0405     19.5028     29.2013   -999.2500
  1190.7500    705.8371     20.0183     19.5128     38.3418   -999.2500
  1191.0000    704.5935     20.3086     19.5432     57.1714   -999.2500
  1191.2500    703.7962     20.9502     19.5876    102.3898   -999.2500
  1191.5000    703.3962     21.9385     19.6392    260.5580   -999.2500
  1191.7500    703.1772     23.1966     19.6926 100000.0000   -999.2500
  1192.0000    703.0587     24.5711     19.7437 100000.0000   -999.2500
  1192.2500    703.0943     25.8654     19.7911 100000.0000   -999.2500
  1192.5000    703.3002     26.9009     19.8354 100000.0000   -999.2500
  1192.7500    703.5664     27.5714     19.8783 100000.0000   -999.2500
  1193.0000    703.7098     27.8632     19.9230 100000.0000   -999.2500
  1193.2500    703.5681     27.8371     19.9717 100000.0000   -999.2500
  1193.5000    703.1190     27.5911     20.0245   9159.7266   -999.2500
  1193.7500    702.5771     27.2249     20.0775 100000.0000   -999.2500
  1194.0000    702.2598     26.8200     20.1200 100000.0000   -999.2500
  1194.2500    702.2624     26.4351     20.1316 100000.0000   -999.2500
  1194.5000    702.3438     26.1103     20.0801 100000.0000   -999.2500
  1194.7500    702.1992     25.8708     19.9192 100000.0000   -999.2500
  1195.0000    701.7700     25.7293     19.5908 100000.0000   -999.2500
  1195.2500    701.2537     25.6781     19.0310 100000.0000   -999.2500
  1195.5000    700.9377     25.6710     18.1811 100000.0000   -999.2500
  1195.7500    701.0187     25.5904     17.0026 100000.0000   -999.2500
  1196.0000    701.4907     25.2089     15.4917 100000.0000   -999.2500
  1196.2500    702.1099     24.1852     13.6898 100000.0000   -999.2500
  1196.5000    702.4539     22.1521     11.6833 100000.0000   -999.2500
  1196.7500    701.5248     18.9096      9.5927 100000.0000   -999.2500
  1197.0000    696.2361     14.6248      7.5518 100000.0000   -999.2500
  1197.2500    678.7128      9.8700      5.6836 100000.0000   -999.2500
  1197.5000    635.2140      5.4107      4.0791 100000.0000   -999.2500
  1197.7500    552.0773      1.8643      2.7858 100000.0000   -999.2500
  1198.0000    429.0779     -0.5317      1.8071 100000.0000   -999.2500
  1198.2500    287.9215     -1.9082      1.1118  20634.7363   -999.2500
  1198.5000    162.1193     -2.5812      0.6478   6151.6484   -999.2500
  1198.7500     74.9852     -2.8613      0.3571   4586.4233   -999.2500
  1199.0000     28.0594     -2.9606      0.1860   4149.0142   -999.2500
  1199.2500      8.4017     -2.9906      0.0914   4013.8386   -999.2500
  1199.5000      1.9953     -2.9983      0.0423   3974.8660   -999.2500
  1199.7500      0.3702   -999.2500      0.0183   3964.9922   -999.2500
  1200.0000      0.0496   -999.2500      0.0074 100000.0000   -999.2500
  1200.2500   -999.2500   -999.2500      0.0026   -999.2500   -999.2500
  1200.5000   -999.2500   -999.2500      0.0007   -999.2500   -999.2500
