~Version Information
VERS.                      2.0: CWLS Log ASCII Standard - VERSION 2.0
WRAP.                       NO: One line per depth step
~Well Information Block
STRT.FT               360.0000: 
STOP.FT              2515.2000: 
STEP.FT                 0.1000: 
NULL.                -999.2500: 
COMP.          Pioneer Natural Resources: COMPANY
WELL.            Rancher 12-35: WELL
FLD.           Purgatoire River: FIELD
LOC.           2131' FNL & 297' FWL: LOCATION
PROV.                 Colorado: PROVINCE
CNTY.               Las Animas: COUNTRY
SRVC.                Patterson: SERVICE COMPANY
DATE.          Tue Oct 12 09:11:02 2004: LOG DATE
UWI.           05 071 08179 00: UNIQUE WELL ID
~Curve Information Block
DEPT.FT            0 000 00 00: Depth
DCAL.in                       : CDL Caliper
RHOB.g/cc                     : CDL Bulk Density
RHOC.g/cc                     : CDL Density Correction
DPOR.pu                       : CDL Density Porosity
NPOR.pu                       : Neutron Porosity
GR.GAPI                       : Gamma Ray
~Parameter Information Block
~A  Depth       DCAL        RHOB        RHOC        DPOR        NPOR         GR     
# ...
  2337.6000      7.9571      2.5629      0.0506      5.2788     18.0351     60.3723
  2337.7000      7.9571      2.5715      0.0602      4.7584     18.1924     66.8529
  2337.8000      7.9564      2.5688      0.0772      4.9200     18.7364     67.6948
  2337.9000      7.9564      2.5514      0.0441      5.9778     19.2458     66.8144
  2338.0000      7.9564      2.5298      0.0380      7.2831     19.2060     66.6920
  2338.1000      7.9564      2.5194      0.0305      7.9125     19.0301     65.6127
  2338.2000      7.9564      2.5258      0.0346      7.5243     19.5568     66.1774
  2338.3000      7.9571      2.5431      0.0167      6.4793     20.2808     69.1796
  2338.4000      7.9571      2.5603      0.0645      5.4362     20.2166     69.0477
  2338.5000      7.9576      2.5640      0.0888      5.2122     19.6331     64.5860
  2338.6000      7.9576      2.5513      0.0385      5.9796     19.2545     59.6517
  2338.7000      7.9576      2.5445      0.0059      6.3925     19.3193     54.1333
  2338.8000      7.9573      2.5654      0.0253      5.1261     19.6323     49.1842
  2338.9000      7.9573      2.6000      0.0820      3.0289     20.0668     48.3997
  2339.0000      7.9593      2.6108      0.0965      2.3760     20.7295     51.2481
  2339.1000      7.9593      2.5908      0.0010      3.5873     21.2423     56.1606
  2339.2000      7.9593      2.5780     -0.0202      4.3638     21.3552     59.7412
  2339.3000      7.9673      2.5938      0.0681      3.4055     21.7786     58.6273
  2339.4000      7.9673      2.6125      0.0777      2.2737     23.0004     56.2298
  2339.5000      7.9795      2.6102      0.0428      2.4123     24.4512     56.4759
  2339.6000      7.9795      2.5966      0.0544      3.2390     25.6972     60.6238
  2339.7000      7.9795      2.5949     -0.0092      3.3423     26.6051     69.1988
  2339.8000      7.9888      2.6043      0.0561      2.7695     26.7405     78.2801
  2339.9000      7.9888      2.5919      0.0599      3.5206     26.3291     82.7748
  2340.0000      7.9919      2.5418      0.0388      6.5592     26.3780     84.9855
  2340.1000      7.9919      2.4877     -0.0299      9.8342     27.0313     92.5669
  2340.2000      7.9919      2.4674     -0.0080     11.0680     27.3416    106.9680
  2340.3000      7.9894      2.4656      0.0547     11.1741     27.3275    123.0644
  2340.4000      7.9894      2.4511      0.0633     12.0546     27.6118    136.1463
  2340.5000      7.9881      2.4249      0.0304     13.6429     27.8496    141.8807
  2340.6000      7.9881      2.4007      0.0097     15.1106     27.8085    140.8236
  2340.7000      7.9881      2.3861      0.0107     15.9937     28.0329    138.3134
  2340.8000      7.9846      2.3836      0.0533     16.1471     28.2846    131.6563
  2340.9000      7.9846      2.3897      0.0072     15.7752     28.2570    120.4947
  2341.0000      7.9705      2.3976      0.0817     15.2987     28.5121    117.3955
  2341.1000      7.9705      2.4005      0.0550     15.1212     28.9791    121.3579
  2341.2000      7.9705      2.4034      0.0509     14.9458     28.8912    120.4198
  2341.3000      7.9584      2.4130      0.0701     14.3623     28.1391    117.1684
  2341.4000      7.9584      2.4255      0.0913     13.6032     27.3219    118.7495
  2341.5000      7.9528      2.4399      0.1154     12.7350     27.1579    121.0583
  2341.6000      7.9528      2.4597      0.1078     11.5305     27.6130    119.9244
  2341.7000      7.9528      2.4789      0.1349     10.3686     27.9162    119.3052
  2341.8000      7.9515      2.4863      0.1259      9.9214     27.8942    120.7795
  2341.9000      7.9515      2.4855      0.0754      9.9681     28.1475    122.0121
  2342.0000      7.9551      2.4853      0.1055      9.9805     28.5993    124.0326
  2342.1000      7.9551      2.4815      0.0804     10.2101     28.6318    127.5756
  2342.2000      7.9551      2.4711      0.1072     10.8399     28.2895    131.9738
  2342.3000      7.9571      2.4596      0.0963     11.5392     27.9313    136.1024
  2342.4000      7.9571      2.4538      0.0758     11.8913     27.8142    138.0121
  2342.5000      7.9558      2.4521      0.1014     11.9954     27.9961    136.1985
  2342.6000      7.9558      2.4479      0.0924     12.2497     28.1268    131.1641
  2342.7000      7.9558      2.4489      0.0335     12.1906     27.8788    126.6776
  2342.8000      7.9550      2.4658      0.0877     11.1646     27.2814    125.9595
  2342.9000      7.9550      2.4856      0.1058      9.9648     26.8408    128.2762
  2343.0000      7.9548      2.4879      0.0744      9.8245     26.8335    128.6846
  2343.1000      7.9548      2.4730      0.0619     10.7253     26.9172    122.5597
  2343.2000      7.9548      2.4582      0.0451     11.6258     26.7946    118.8569
  2343.3000      7.9534      2.4570      0.0325     11.6996     26.5790    124.9249
  2343.4000      7.9534      2.4655      0.0746     11.1822     26.6791    131.0887
  2343.5000      7.9535      2.4743      0.0493     10.6461     27.1607    128.5549
  2343.6000      7.9535      2.4828      0.0694     10.1355     27.4440    120.3136
  2343.7000      7.9535      2.4863      0.0766      9.9240     27.2843    113.3255
  2343.8000      7.9560      2.4760      0.0576     10.5464     27.0233    113.6164
  2343.9000      7.9560      2.4564      0.0232     11.7315     26.7583    117.4890
  2344.0000      7.9561      2.4468      0.0237     12.3161     26.4737    115.0977
  2344.1000      7.9561      2.4578      0.0538     11.6459     26.4424    110.6022
  2344.2000      7.9561      2.4760      0.0792     10.5485     26.5667    112.2317
  2344.3000      7.9557      2.4846      0.0608     10.0257     26.2825    112.7368
  2344.4000      7.9557      2.4862      0.0516      9.9262     25.7556    106.3169
  2344.5000      7.9557      2.4905      0.0519      9.6682     25.8193    101.7021
  2344.6000      7.9557      2.5003      0.0611      9.0700     26.5374    103.2557
  2344.7000      7.9557      2.5139      0.0427      8.2481     27.0580    103.9231
  2344.8000      7.9553      2.5249      0.0549      7.5846     26.8276    101.6510
  2344.9000      7.9553      2.5230      0.0494      7.6991     26.2135    101.7372
  2345.0000      7.9514      2.5130      0.0371      8.3002     25.7227    106.4020
  2345.1000      7.9514      2.5138      0.0308      8.2524     25.1875    111.8983
  2345.2000      7.9514      2.5243      0.0555      7.6176     24.4109    112.9748
  2345.3000      7.9403      2.5235      0.0612      7.6683     23.6044    109.2664
  2345.4000      7.9403      2.5088     -0.0026      8.5602     23.0011    105.9744
  2345.5000      7.9303      2.4988      0.0001      9.1610     22.8507    104.6838
  2345.6000      7.9303      2.4981      0.0167      9.2088     23.1535    102.0954
  2345.7000      7.9303      2.5019      0.0377      8.9783     23.1704     97.8637
  2345.8000      7.9273      2.5176      0.0381      8.0262     22.4149     92.6252
  2345.9000      7.9273      2.5440      0.1043      6.4229     21.5341     89.0833
  2346.0000      7.9264      2.5640      0.0921      5.2101     21.6743     89.3413
  2346.1000      7.9264      2.5681      0.1026      4.9625     22.8470     88.5806
  2346.2000      7.9264      2.5581      0.0866      5.5677     23.8648     82.9537
  2346.3000      7.9269      2.5459      0.0601      6.3095     23.9631     78.2572
  2346.4000      7.9269      2.5470      0.0855      6.2402     22.9185     81.7818
  2346.5000      7.9368      2.5628      0.0773      5.2878     21.4090     90.2746
  2346.6000      7.9368      2.5774      0.1031      4.4027     21.3473     95.3880
  2346.7000      7.9368      2.5777      0.0872      4.3838     23.2171     97.1460
  2346.8000      7.9545      2.5716      0.0475      4.7512     25.3839     99.8353
  2346.9000      7.9545      2.5748      0.0620      4.5551     26.2876    101.9735
  2347.0000      7.9693      2.5852      0.0782      3.9287     25.5952    102.9306
  2347.1000      7.9693      2.5861      0.1111      3.8729     24.6499    103.3057
