~Version Information
VERS.                      2.0: CWLS Log ASCII Standard - VERSION 2.0
WRAP.                       NO: One line per depth step
~Well Information Block
STRT.FT               840.0000: 
STOP.FT              2268.0000: 
STEP.FT                 0.2500: 
NULL.                -999.2500: 
COMP.          Pioneer Natural Resources: COMPANY
WELL.              Tonto 42-23: WELL
FLD.           Purgatoire River: FIELD
LOC.           2217' FNL & 423' FEL: LOCATION
PROV.                 Colorado: PROVINCE
CNTY.               Las Animas: COUNTRY
SRVC.                Patterson: SERVICE COMPANY
DATE.          Sun Apr 17 01:24:47 2005: LOG DATE
UWI.           05 071 08335 00: UNIQUE WELL ID
~Curve Information Block
DEPT.FT            0 000 00 00: Depth
SN.Ohm-m                      : IEL Short Normal
SP.mV                         : IEL Spontaneous Potential
DIR.Ohm-m                     : IEL Induction Resistivity
GR.GAPI                       : Gamma Ray
~Parameter Information Block
~A  Depth        SN          SP         DIR          GR     
# ...
  1041.0000   2000.0000   2000.0000     16.5242    123.7730
  1041.2500   2000.0000   2000.0000     16.3346    122.9574
  1041.5000   2000.0000   2000.0000     16.0060    122.9632
  1041.7500   2000.0000   2000.0000     15.6025    124.2322
  1042.0000   2000.0000   2000.0000     15.1894    127.6503
  1042.2500   2000.0000   2000.0000     14.8041    129.8151
  1042.5000   2000.0000   2000.0000     14.4511    130.7979
  1042.7500   2000.0000   2000.0000     14.1201    129.6929
  1043.0000   2000.0000   2000.0000     13.8095    127.1357
  1043.2500   2000.0000   2000.0000     13.5360    126.2828
  1043.5000   2000.0000   2000.0000     13.3239    127.4358
  1043.7500   2000.0000   2000.0000     13.1851    129.4077
  1044.0000   2000.0000   2000.0000     13.1095    132.9362
  1044.2500   2000.0000   2000.0000     13.0722    135.4331
  1044.5000   2000.0000   2000.0000     13.0508    139.6805
  1044.7500   2000.0000   2000.0000     13.0383    142.7826
  1045.0000   2000.0000   2000.0000     13.0411    146.8385
  1045.2500   2000.0000   2000.0000     13.0686    148.4294
  1045.5000   2000.0000   2000.0000     13.1234    148.6174
  1045.7500   2000.0000   2000.0000     13.2030    147.5354
  1046.0000   2000.0000   2000.0000     13.3092    145.2332
  1046.2500   2000.0000   2000.0000     13.4579    144.0200
  1046.5000   2000.0000   2000.0000     13.6771    143.3303
  1046.7500   2000.0000   2000.0000     13.9971    143.2404
  1047.0000   2000.0000   2000.0000     14.4404    142.1752
  1047.2500   2000.0000   2000.0000     15.0186    140.1842
  1047.5000   2000.0000   2000.0000     15.7352    135.0404
  1047.7500   2000.0000   2000.0000     16.5893    130.3094
  1048.0000   2000.0000   2000.0000     17.5768    121.6694
  1048.2500   2000.0000   2000.0000     18.6878    115.3906
  1048.5000   2000.0000   2000.0000     19.9033    106.6001
  1048.7500   2000.0000   2000.0000     21.1927    101.9274
  1049.0000   2000.0000   2000.0000     22.5165     97.1716
  1049.2500   2000.0000   2000.0000     23.8348     95.2107
  1049.5000   2000.0000   2000.0000     25.1137     93.0425
  1049.7500   2000.0000   2000.0000     26.3183     91.4885
  1050.0000   2000.0000   2000.0000     27.3962     88.3929
  1050.2500   2000.0000   2000.0000     28.2729     85.8865
  1050.5000   2000.0000   2000.0000     28.8684     82.1375
  1050.7500   2000.0000   2000.0000     29.1290     80.1145
  1051.0000   2000.0000   2000.0000     29.0508     78.6060
  1051.2500   2000.0000   2000.0000     28.6908     79.2361
  1051.5000   2000.0000   2000.0000     28.1590     83.7536
  1051.7500   2000.0000   2000.0000     27.5923     89.3159
  1052.0000   2000.0000   2000.0000     27.1127    100.2228
  1052.2500   2000.0000   2000.0000     26.7894    107.7872
  1052.5000   2000.0000   2000.0000     26.6228    116.9693
  1052.7500   2000.0000   2000.0000     26.5577    120.4058
  1053.0000   2000.0000   2000.0000     26.5171    120.4216
  1053.2500   2000.0000   2000.0000     26.4370    117.2445
  1053.5000   2000.0000   2000.0000     26.2867    109.4919
  1053.7500   2000.0000   2000.0000     26.0691    103.6540
  1054.0000   2000.0000   2000.0000     25.8098     95.6626
  1054.2500   2000.0000   2000.0000     25.5419     91.4495
  1054.5000   2000.0000   2000.0000     25.2977     87.2831
  1054.7500   2000.0000   2000.0000     25.1101     86.0340
  1055.0000   2000.0000   2000.0000     25.0208     86.4187
  1055.2500   2000.0000   2000.0000     25.0748     87.9625
  1055.5000   2000.0000   2000.0000     25.2918     91.3602
  1055.7500   2000.0000   2000.0000     25.6319     93.7711
  1056.0000   2000.0000   2000.0000     25.9875     97.1226
  1056.2500   2000.0000   2000.0000     26.2303     99.2997
  1056.5000   2000.0000   2000.0000     26.2919    102.9713
  1056.7500   2000.0000   2000.0000     26.2068    105.8452
  1057.0000   2000.0000   2000.0000     26.0721    110.6460
  1057.2500   2000.0000   2000.0000     25.9666    113.9586
  1057.5000   2000.0000   2000.0000     25.8992    118.7441
  1057.7500   2000.0000   2000.0000     25.8155    121.5764
  1058.0000   2000.0000   2000.0000     25.6405    124.7327
  1058.2500   2000.0000   2000.0000     25.3239    125.7667
  1058.5000   2000.0000   2000.0000     24.8619    125.3329
  1058.7500   2000.0000   2000.0000     24.2941    123.7394
  1059.0000   2000.0000   2000.0000     23.6879    119.9562
  1059.2500   2000.0000   2000.0000     23.1198    117.0701
  1059.5000   2000.0000   2000.0000     22.6566    113.1612
  1059.7500   2000.0000   2000.0000     22.3419    111.2093
  1060.0000   2000.0000   2000.0000     22.1900    109.6591
  1060.2500   2000.0000   2000.0000     22.1879    109.7901
  1060.5000   2000.0000   2000.0000     22.2977    112.1335
  1060.7500   2000.0000   2000.0000     22.4620    115.1166
  1061.0000   2000.0000   2000.0000     22.6162    120.9276
  1061.2500   2000.0000   2000.0000     22.7090    124.7626
  1061.5000   2000.0000   2000.0000     22.7220    128.4836
  1061.7500   2000.0000   2000.0000     22.6716    128.7804
  1062.0000   2000.0000   2000.0000     22.5936    125.9918
  1062.2500   2000.0000   2000.0000     22.5225    122.7932
  1062.5000   2000.0000   2000.0000     22.4778    117.7311
  1062.7500   2000.0000   2000.0000     22.4650    114.9505
  1063.0000   2000.0000   2000.0000     22.4840    112.3535
  1063.2500   2000.0000   2000.0000     22.5376    111.7122
  1063.5000   2000.0000   2000.0000     22.6295    111.9425
  1063.7500   2000.0000   2000.0000     22.7540    112.4488
  1064.0000   2000.0000   2000.0000     22.8908    112.8586
  1064.2500   2000.0000   2000.0000     23.0133    112.4642
  1064.5000   2000.0000   2000.0000     23.1112    110.7214
  1064.7500   2000.0000   2000.0000     23.2107    109.1100
  1065.0000   2000.0000   2000.0000     23.3723    106.5453
  1065.2500   2000.0000   2000.0000     23.6610    104.6534
  1065.5000   2000.0000   2000.0000     24.1018    100.9972
  1065.7500   2000.0000   2000.0000     24.6492     97.9242
  1066.0000   2000.0000   2000.0000     25.1946     93.0361
  1066.2500   2000.0000   2000.0000     25.6197     90.2650
  1066.5000   2000.0000   2000.0000     25.8671     87.7505
  1066.7500   2000.0000   2000.0000     25.9740     87.3512
  1067.0000   2000.0000   2000.0000     26.0402     88.6089
  1067.2500   2000.0000   2000.0000     26.1613     90.5732
  1067.5000   2000.0000   2000.0000     26.3760     94.7173
  1067.7500   2000.0000   2000.0000     26.6568     97.7367
  1068.0000   2000.0000   2000.0000     26.9429    101.5398
  1068.2500   2000.0000   2000.0000     27.1883    103.0656
  1068.5000   2000.0000   2000.0000     27.3857    103.5351
  1068.7500   2000.0000   2000.0000     27.5483    102.9135
  1069.0000   2000.0000   2000.0000     27.6747    101.4821
  1069.2500   2000.0000   2000.0000     27.7443    100.5525
  1069.5000   2000.0000   2000.0000     27.7477     99.1975
  1069.7500   2000.0000   2000.0000     27.7201     98.1629
  1070.0000   2000.0000   2000.0000     27.7366     96.3017
  1070.2500   2000.0000   2000.0000     27.8667     94.9131
  1070.5000   2000.0000   2000.0000     28.1203     92.7432
  1070.7500   2000.0000   2000.0000     28.4210     91.2619
  1071.0000   2000.0000   2000.0000     28.6337     88.9992
  1071.2500   2000.0000   2000.0000     28.6407     87.5648
  1071.5000   2000.0000   2000.0000     28.4163     85.9053
  1071.7500   2000.0000   2000.0000     28.0372     85.3179
  1072.0000   2000.0000   2000.0000     27.6279     85.2296
  1072.2500   2000.0000   2000.0000     27.2954     85.5677
  1072.5000   2000.0000   2000.0000     27.0945     86.4557
  1072.7500   2000.0000   2000.0000     27.0219     87.1545
  1073.0000   2000.0000   2000.0000     27.0271     87.7637
  1073.2500   2000.0000   2000.0000     27.0323     87.3616
  1073.5000   2000.0000   2000.0000     26.9618     85.0701
  1073.7500   2000.0000   2000.0000     26.7750     82.6935
  1074.0000   2000.0000   2000.0000     26.4887     78.9571
  1074.2500   2000.0000   2000.0000     26.1724     76.8691
