~Version Information
VERS.                      2.0: CWLS Log ASCII Standard - VERSION 2.0
WRAP.                       NO: One line per depth step
~Well Information Block
STRT.FT                -6.5000: 
STOP.FT              2698.5000: 
STEP.FT                 0.2500: 
NULL.                -999.2500: 
COMP.          Pioneer Natural Resources: COMPANY
WELL.              Cluck 21-25: WELL
FLD.           Purgatorie River: FIELD
LOC.           91' FNL & 1834' FWL--: LOCATION
PROV.                       CO: PROVINCE
CNTY.               Las Animas: COUNTRY
SRVC.          Patterson Wireline: SERVICE COMPANY
DATE.          Mon Jun 13 14:54:35 2005: LOG DATE
UWI.           05 071 08397 00: UNIQUE WELL ID
~Curve Information Block
DEPT.FT            0 000 00 00: Depth
CCL.                          : Casing Collar Locator
TT3.usec                      : CBL 3' Travel Time
AMP3.mV                       : CBL 3' Amplitude
GR.GAPI                       : Gamma Ray
~Parameter Information Block
~A  Depth       CCL         TT3         AMP3         GR     
# ...
  2506.0000      0.0000    741.8816      2.5521     79.1453
  2506.2500      0.0000    732.6242      2.6114     79.5875
  2506.5000      0.0000    722.1266      2.7464     80.6831
  2506.7500      0.0000    712.1248      2.8847     81.1838
  2507.0000      0.0000    704.1417      3.0097     81.2060
  2507.2500      0.0000    698.7410      3.1299     81.8696
  2507.5000      0.0000    696.1161      3.2231     83.5984
  2507.7500      0.0000    697.3923      3.2301     85.2806
  2508.0000      0.0000    704.5767      3.1137     85.1600
  2508.2500      0.0000    718.5391      2.9109     82.0821
  2508.5000      0.0000    737.1262      2.7217     76.1435
  2508.7500      0.0000    755.5123      2.6552     69.0102
  2509.0000      0.0000    768.7016      2.7693     63.6395
  2509.2500      0.0000    774.3493      3.0317     62.7459
  2509.5000      0.0000    773.5991      3.3235     66.7515
  2509.7500      0.0000    769.1700      3.4912     73.1800
  2510.0000      0.0000    762.6558      3.4255     78.3956
  2510.2500      0.0000    754.1141      3.1322     80.3089
  2510.5000      0.0000    743.7902      2.7525     79.4764
  2510.7500      0.0000    732.4656      2.4981     77.5779
  2511.0000      0.0000    719.4884      2.5212     75.2944
  2511.2500      0.0000    701.6160      2.8090     72.0491
  2511.5000      0.0000    674.5738      3.1954     67.3354
  2511.7500      0.0000    635.9720      3.4996     61.7137
  2512.0000      0.0000    588.5566      3.6693     56.6790
  2512.2500      0.0000    541.5465      3.7904     53.7189
  2512.5000      0.0000    505.6332      3.9651     53.3082
  2512.7500      0.0000    483.8039      4.2023     54.7369
  2513.0000      0.0000    469.3597      4.4249     56.9094
  2513.2500      0.0000    455.4546      4.5523     59.0280
  2513.5000      0.0000    444.6644      4.5585     60.4812
  2513.7500      0.0000    447.0929      4.4742     60.6142
  2514.0000      0.0000    469.6140      4.3678     59.0055
  2514.2500      0.0000    507.2051      4.3097     55.7961
  2514.5000      0.0000    545.1277      4.3107     51.7024
  2514.7500      0.0000    571.6654      4.2889     47.9091
  2515.0000      0.0000    588.3254      4.1338     45.7071
  2515.2500      0.0000    604.5959      3.8298     45.7302
  2515.5000      0.0000    624.6824      3.5049     47.4874
  2515.7500      0.0000    644.1351      3.3448     49.8499
  2516.0000      0.0000    657.9974      3.4520     51.9305
  2516.2500      0.0000    666.6269      3.7767     53.3742
  2516.5000      0.0000    672.9002      4.1653     53.9813
  2516.7500      0.0000    677.5397      4.4669     53.4625
  2517.0000      0.0000    679.0010      4.6116     51.8445
  2517.2500      0.0000    676.1648      4.6289     49.8313
  2517.5000      0.0000    669.0574      4.6150     48.2659
  2517.7500      0.0000    656.7333      4.6586     47.2696
  2518.0000      0.0000    635.5394      4.7718     46.2866
  2518.2500      0.0000    601.2359      4.8918     44.8918
  2518.5000      0.0000    555.1223      4.9593     43.2447
  2518.7500      0.0000    508.9409      4.9886     41.8517
  2519.0000      0.0000    481.4710      5.0485     41.1721
  2519.2500      0.0000    487.0365      5.1887     41.3745
  2519.5000      0.0000    524.8845      5.4047     42.2130
  2519.7500      0.0000    578.2316      5.6512     43.1111
  2520.0000      0.0000    624.0391      5.8497     43.5012
  2520.2500      0.0000    646.6514      5.9009     43.1582
  2520.5000      0.0000    646.1262      5.7502     42.3421
  2520.7500      0.0000    636.3428      5.4597     41.8462
  2521.0000      0.0000    634.1609      5.1881     42.7805
  2521.2500      0.0000    646.9395      5.0668     45.7919
  2521.5000      0.0000    668.8587      5.0947     50.2866
  2521.7500      0.0000    688.8652      5.1708     54.7414
  2522.0000      0.0000    700.3279      5.2146     57.8817
  2522.2500      0.0000    702.5641      5.2006     59.2717
  2522.5000      0.0000    696.4094      5.0873     58.8370
  2522.7500      0.0000    682.4329      4.7987     56.4256
  2523.0000      0.0000    663.9071      4.3354     52.2037
  2523.2500      0.0000    648.6786      3.8620     47.1173
  2523.5000      0.0000    645.2571      3.6317     42.3785
  2523.7500      0.0000    656.7165      3.8040     38.4667
  2524.0000      0.0000    679.3107      4.3223     35.0568
  2524.2500      0.0000    706.9568      4.9339     31.9404
  2524.5000      2.0000    735.2952      5.3224     29.6252
  2524.7500     -2.0000    760.5724      5.2908     28.8574
  2525.0000      0.0000    776.6633      4.9116     29.6744
  2525.2500      2.0000    776.3902      4.5206     31.0746
  2525.5000      0.0000    756.7603      4.4999     31.8481
  2525.7500     -2.0000    721.6942      4.9970     31.8518
  2526.0000      0.0000    678.6243      5.8340     32.1516
  2526.2500      0.0000    633.1172      6.7151     33.5972
  2526.5000      0.0000    586.5536      7.5607     35.5710
  2526.7500      0.0000    537.3982      8.6897     36.5621
  2527.0000      0.0000    484.7231     10.7254     35.8586
  2527.2500      0.0000    431.4586     14.2524     34.4312
  2527.5000      0.0000    383.5531     19.3941     34.2055
  2527.7500      0.0000    345.6785     25.6894     36.4665
  2528.0000      0.0000    318.3915     32.5586     40.7541
  2528.2500      0.0000    299.2333     39.8778     45.1695
  2528.5000      0.0000    285.5276     47.8094     47.8415
  2528.7500      0.0000    275.8625     56.0393     48.2397
  2529.0000      0.0000    269.6661     63.4964     47.2741
  2529.2500      0.0000    266.3431     68.9246     46.2749
  2529.5000      0.0000    265.0925     71.5395     45.8703
  2529.7500      0.0000    265.3418     71.1739     45.7699
  2530.0000      0.0000    266.8828     68.2007     45.5063
  2530.2500      0.0000    269.4266     63.6001     45.0937
  2530.5000      0.0000    272.0834     58.8421     44.8082
  2530.7500      0.0000    273.7360     55.1393     44.5344
  2531.0000      0.0000    274.3347     52.5503     43.7587
  2531.2500      0.0000    275.6698     49.9922     42.3074
  2531.5000      0.0000    280.3160     46.3187     40.8082
  2531.7500      0.0000    289.4549     41.3517     40.1425
  2532.0000      0.0000    301.8657     35.8867     40.5251
  2532.2500      0.0000    315.4046     30.8534     41.4248
  2532.5000      0.0000    329.8897     26.6234     42.4401
  2532.7500      0.0000    347.8155     23.1058     43.9146
  2533.0000      0.0000    370.2982     20.2477     46.4851
  2533.2500      0.0000    391.5926     18.2250     50.2077
  2533.5000      2.0000    400.4695     17.2457     54.3701
  2533.7500      0.0000    390.2355     17.3296     58.1591
  2534.0000      0.0000    366.1168     18.2685     61.2582
  2534.2500      0.0000    340.2905     19.7712     63.7316
  2534.5000      0.0000    321.2895     21.6401     65.6884
  2534.7500      0.0000    310.1224     23.7405     67.1475
  2535.0000      0.0000    304.1312     25.7995     67.9145
  2535.2500      0.0000    301.2499     27.4219     67.6469
  2535.5000      0.0000    300.6573     28.4472     66.4445
  2535.7500      0.0000    301.6093     29.1249     65.2613
  2536.0000      0.0000    303.0640     29.7824     65.2487
  2536.2500      0.0000    304.2083     30.4722     66.6618
  2536.5000      0.0000    304.8379     31.0710     68.7820
  2536.7500      0.0000    305.1248     31.5586     70.8497
  2537.0000      0.0000    305.2719     32.0594     72.5545
  2537.2500      0.0000    305.3687     32.6878     73.5572
  2537.5000      0.0000    305.4156     33.4572     73.2733
  2537.7500      0.0000    305.3601     34.3340     71.6215
  2538.0000      0.0000    305.0836     35.3102     69.4739
  2538.2500      0.0000    304.3228     36.3937     67.7994
  2538.5000      0.0000    302.6891     37.5524     66.5937
  2538.7500      0.0000    299.9269     38.7065     65.0228
  2539.0000      0.0000    296.2722     39.7706     62.4593
  2539.2500      0.0000    292.4150     40.6926     59.2554
