~Version Information
VERS.                      2.0: CWLS Log ASCII Standard - VERSION 2.0
WRAP.                       NO: One line per depth step
~Well Information Block
STRT.FT               -17.7500: 
STOP.FT              1590.5000: 
STEP.FT                 0.2500: 
NULL.                -999.2500: 
COMP.          Petrogulf Corporation: COMPANY
WELL.          Great Plains 22-21V: WELL
FLD.           Purgatorie River: FIELD
LOC.           63' FNL & 1895' FWL--: LOCATION
CNTY.               Las Animas: COUNTY
SRVC.          Superior Well Services: SERVICE COMPANY
DATE.          Fri Dec 08 14:45:19 2006: LOG DATE
UWI.           05 071 08346 00: UNIQUE WELL ID
STAT.                       CO: STATE
~Curve Information Block
DEPT.FT            0 000 00 00: Depth
CCL.                          : Casing Collar Locator
TT3.usec                      : CBL 3' Travel Time
AMP3.mV                       : CBL 3' Amplitude
GR.GAPI                       : Gamma Ray
~Parameter Information Block
~A  Depth       CCL         TT3         AMP3         GR     
# ...
  1355.7500      0.0000    687.3373      7.2793    163.4176
  1356.0000      0.0000    708.1837      6.9809    157.1928
  1356.2500      0.0000    725.5269      6.6036    150.1614
  1356.5000      0.0000    736.9875      6.1890    144.5220
  1356.7500      0.0000    743.0068      5.7649    141.7722
  1357.0000      0.0000    744.5345      5.3540    142.2454
  1357.2500      0.0000    743.2977      4.9875    145.0735
  1357.5000      0.0000    742.8247      4.6972    149.0656
  1357.7500      0.0000    746.0164      4.4965    153.5621
  1358.0000      0.0000    751.1908      4.3736    158.1450
  1358.2500      0.0000    753.4326      4.3025    161.8836
  1358.5000      0.0000    751.1106      4.2623    163.6987
  1358.7500      0.0000    748.2650      4.2484    163.6710
  1359.0000      0.0000    748.6279      4.2682    163.1802
  1359.2500      0.0000    749.3212      4.3266    163.1622
  1359.5000      0.0000    743.0984      4.4153    162.8851
  1359.7500      0.0000    726.2254      4.5132    160.8770
  1360.0000      0.0000    701.5369      4.5962    156.2606
  1360.2500      0.0000    673.5750      4.6468    148.7905
  1360.5000      0.0000    643.5980      4.6579    138.5999
  1360.7500      0.0000    610.9867      4.6345    126.7281
  1361.0000      0.0000    577.3579      4.5940    115.3375
  1361.2500      0.0000    546.2770      4.5582    106.6708
  1361.5000      0.0000    518.9704      4.5403    101.6731
  1361.7500      0.0000    492.7784      4.5370     99.5284
  1362.0000      0.0000    465.0051      4.5373     98.2824
  1362.2500      0.0000    436.9995      4.5365     96.0436
  1362.5000      0.0000    413.2021      4.5430     92.0964
  1362.7500      0.0000    396.8079      4.5727     87.3057
  1363.0000      0.0000    387.3323      4.6375     83.4492
  1363.2500      0.0000    381.9402      4.7374     81.7630
  1363.5000      0.0000    378.2237      4.8591     81.7957
  1363.7500      0.0000    376.0219      4.9858     81.6732
  1364.0000      0.0000    377.6075      5.1120     79.7115
  1364.2500      0.0000    387.0544      5.2525     75.9434
  1364.5000      0.0000    409.1451      5.4357     72.1486
  1364.7500      0.0000    446.3968      5.6835     70.6532
  1365.0000      0.0000    493.8398      5.9908     73.2297
  1365.2500      0.0000    537.2056      6.3220     80.5599
  1365.5000      0.0000    561.7495      6.6256     91.7448
  1365.7500      0.0000    566.8509      6.8590    104.1957
  1366.0000      0.0000    569.4970      7.0028    114.8968
  1366.2500      0.0000    589.0310      7.0566    122.4037
  1366.5000      0.0000    628.7260      7.0276    127.4551
  1366.7500      0.0000    674.7561      6.9187    131.6201
  1367.0000      0.0000    711.1721      6.7276    135.6210
  1367.2500      0.0000    731.9424      6.4581    138.9793
  1367.5000      0.0000    740.1087      6.1371    141.0938
  1367.7500      0.0000    740.9545      5.8169    142.4443
  1368.0000      0.0000    738.1289      5.5557    144.4563
  1368.2500      0.0000    733.9251      5.3944    148.2467
  1368.5000      0.0000    730.1967      5.3463    153.7484
  1368.7500      0.0000    727.8607      5.3983    159.7650
  1369.0000      0.0000    726.1158      5.5215    164.5289
  1369.2500      0.0000    723.3559      5.6852    166.6638
  1369.5000      0.0000    719.1913      5.8709    166.1649
  1369.7500      0.0000    715.0607      6.0733    164.3054
  1370.0000      0.0000    712.8165      6.2896    162.4251
  1370.2500      0.0000    713.0654      6.5071    161.0847
  1370.5000      0.0000    714.7891      6.6982    160.3573
  1370.7500      0.0000    716.3241      6.8253    160.3516
  1371.0000      0.0000    716.8686      6.8530    161.2356
  1371.2500      0.0000    717.1627      6.7628    163.0387
  1371.5000      0.0000    718.4697      6.5612    165.4299
  1371.7500      0.0000    720.8326      6.2800    167.6106
  1372.0000      0.0000    722.6207      5.9653    168.6335
  1372.2500      0.0000    722.0253      5.6590    168.0034
  1372.5000      0.0000    718.8345      5.3809    165.9246
  1372.7500      0.0000    714.4519      5.1262    163.0065
  1373.0000      0.0000    710.3505      4.8780    159.8227
  1373.2500      0.0000    706.8841      4.6229    156.8186
  1373.5000      0.0000    703.5313      4.3588    154.4774
  1373.7500      0.0000    699.9496      4.0955    153.2127
  1374.0000      0.0000    696.7314      3.8521    153.0618
  1374.2500      0.0000    695.0504      3.6493    153.7885
  1374.5000      0.0000    695.3076      3.4975    155.1258
  1374.7500      0.0000    696.2689      3.3898    156.4366
  1375.0000      0.0000    696.0928      3.3095    156.2609
  1375.2500      0.0000    694.2537      3.2472    152.7986
  1375.5000      0.0000    691.9302      3.2100    145.2382
  1375.7500      0.0000    690.5250      3.2125    134.7767
  1376.0000      0.0000    690.4293      3.2586    124.3255
  1376.2500      0.0000    691.3377      3.3349    116.9505
  1376.5000      0.0000    693.0671      3.4188    114.2075
  1376.7500      0.0000    695.5479      3.4899    115.5989
  1377.0000      0.0000    698.3204      3.5352    119.2885
  1377.2500      0.0000    700.8936      3.5502    123.4117
  1377.5000      0.0000    703.9247      3.5398    127.0667
  1377.7500      0.0000    709.0888      3.5194    130.3050
  1378.0000      0.0000    716.6685      3.5070    133.4381
  1378.2500      0.0000    723.6534      3.5102    136.5881
  1378.5000      0.0000    725.7041      3.5195    139.6732
  1378.7500      0.0000    721.5818      3.5150    142.4166
  1379.0000      0.0000    715.0839      3.4814    144.3493
  1379.2500      0.0000    712.0820      3.4153    144.9858
  1379.5000      0.0000    715.4944      3.3224    144.0460
  1379.7500      0.0000    722.9897      3.2131    141.5507
  1380.0000      0.0000    729.6409      3.1022    137.7218
  1380.2500      0.0000    732.9927      3.0089    132.7901
  1380.5000      0.0000    735.2070      2.9514    127.1972
  1380.7500      0.0000    739.8437      2.9372    122.1068
  1381.0000      0.0000    746.8663      2.9584    119.1476
  1381.2500      0.0000    751.4939      2.9949    119.0889
  1381.5000      0.0000    748.4312      3.0287    120.8019
  1381.7500      0.0000    737.1309      3.0546    121.7996
  1382.0000      0.0000    722.4943      3.0786    120.1202
  1382.2500      0.0000    710.5459      3.1050    115.9887
  1382.5000      0.0000    703.9171      3.1282    111.5608
  1382.7500      0.0000    700.9594      3.1373    108.8559
  1383.0000      0.0000    697.8337      3.1260    108.2952
  1383.2500      0.0000    691.2422      3.0986    109.4270
  1383.5000      0.0000    680.7651      3.0705    112.2984
  1383.7500      0.0000    669.7894      3.0667    117.4222
  1384.0000      0.0000    663.6347      3.1171    124.6243
  1384.2500      0.0000    665.6351      3.2444    132.3717
  1384.5000      0.0000    674.4747      3.4481    138.6348
  1384.7500      0.0000    685.0565      3.6973    142.5688
  1385.0000      0.0000    692.0049      3.9411    144.8684
  1385.2500      0.0000    693.0797      4.1309    146.1778
  1385.5000      0.0000    690.4522      4.2387    145.9506
  1385.7500      0.0000    689.3497      4.2663    143.4948
  1386.0000      0.0000    695.2797      4.2419    139.3985
  1386.2500      0.0000    711.6720      4.2037    135.1511
  1386.5000      0.0000    738.7010      4.1760    131.7565
  1386.7500      0.0000    772.4163      4.1544    129.3462
  1387.0000      0.0000    804.2956      4.1081    127.9156
  1387.2500      0.0000    823.8553      4.0010    127.7924
  1387.5000      0.0000    824.8384      3.8197    129.2746
  1387.7500      0.0000    809.5146      3.5902    132.1686
  1388.0000      0.0000    785.9816      3.3638    135.8731
  1388.2500      0.0000    761.5605      3.1849    139.7015
  1388.5000      0.0000    739.5083      3.0731    142.9397
  1388.7500      0.0000    720.4706      3.0283    144.6868
  1389.0000      0.0000    704.1891      3.0419    144.0241
