~Version Information
VERS.                      2.0: CWLS Log ASCII Standard - VERSION 2.0
WRAP.                       NO: One line per depth step
~Well Information Block
STRT.FT                -8.7500: 
STOP.FT              1126.7500: 
STEP.FT                 0.2500: 
NULL.                -999.2500: 
COMP.          Evergreen Operating Corp.: COMPANY
WELL.             Bernice 21-3: WELL
FLD.           Purgatorie River: FIELD
LOC.           201' FNL & 2575' FWL--: LOCATION
PROV.                       CO: PROVINCE
CNTY.               Las Animas: COUNTRY
SRVC.          Patterson Wireline: SERVICE COMPANY
DATE.          Mon Feb 02 12:04:59 2004: LOG DATE
UWI.              05 071 07912: UNIQUE WELL ID
~Curve Information Block
DEPT.FT            0 000 00 00: Depth
CCL.                          : Casing Collar Locator
TT3.usec                      : CBL 3' Travel Time
AMP3.mV                       : CBL 3' Amplitude
GR.GAPI                       : Gamma Ray
~Parameter Information Block
~A  Depth       CCL         TT3         AMP3         GR     
# ...
  1029.7500      0.0000    713.3481      5.4795     53.6517
  1030.0000      0.0000    713.1031      5.5427     52.9295
  1030.2500      0.0000    712.8044      5.6147     52.4752
  1030.5000      0.0000    712.4397      5.6998     52.5463
  1030.7500      0.0000    712.0225      5.7890     52.8088
  1031.0000      0.0000    711.5778      5.8689     52.9440
  1031.2500      0.0000    711.1403      5.9306     53.2028
  1031.5000      0.0000    710.7568      5.9714     54.1892
  1031.7500      0.0000    710.4796      5.9937     56.2435
  1032.0000      0.0000    710.3513      6.0059     59.1388
  1032.2500      0.0000    710.3925      6.0192     62.1881
  1032.5000      0.0000    710.5820      6.0322     64.5883
  1032.7500      0.0000    710.8476      6.0244     65.8951
  1033.0000      0.0000    711.0850      5.9756     66.2293
  1033.2500      0.0000    711.2025      5.8952     65.8802
  1033.5000      0.0000    711.1544      5.8220     64.8232
  1033.7500      0.0000    710.9509      5.7846     62.8316
  1034.0000      0.0000    710.6580      5.7650     59.9422
  1034.2500      0.0000    710.3824      5.7135     56.6304
  1034.5000      0.0000    710.2209      5.6047     53.5942
  1034.7500      0.0000    710.1930      5.4648     51.4852
  1035.0000      0.0000    710.2277      5.3446     50.6780
  1035.2500      0.0000    710.2329      5.2812     51.0707
  1035.5000      0.0000    710.1760      5.2870     52.2468
  1035.7500      0.0000    710.1414      5.3480     54.0187
  1036.0000      0.0000    710.4569      5.4214     56.5550
  1036.2500      0.0000    711.9608      5.4590     59.6629
  1036.5000      0.0000    716.1934      5.4539     62.1957
  1036.7500      0.0000    724.9696      5.4512     62.6413
  1037.0000      0.0000    739.0762      5.4933     60.4327
  1037.2500      0.0000    757.0011      5.5716     56.5826
  1037.5000      0.0000    775.2746      5.6501     53.0976
  1037.7500      0.0000    790.5280      5.7149     51.6968
  1038.0000      0.0000    801.0727      5.7789     52.7402
  1038.2500      0.0000    806.3924      5.8523     55.1029
  1038.5000      0.0000    805.9011      5.9312     57.1345
  1038.7500      0.0000    799.0484      6.0040     57.8193
  1039.0000      0.0000    786.3177      6.0566     57.0267
  1039.2500      0.0000    769.4623      6.0753     55.0645
  1039.5000      0.0000    751.0305      6.0543     52.5257
  1039.7500      0.0000    733.9222      6.0034     50.3279
  1040.0000      0.0000    720.6205      5.9489     49.2714
  1040.2500      0.0000    712.1202      5.9192     49.5112
  1040.5000      0.0000    707.7028      5.9226     50.6968
  1040.7500      0.0000    705.8646      5.9355     52.4442
  1041.0000      0.0000    705.3420      5.9175     54.5312
  1041.2500      0.0000    705.4327      5.8432     56.8638
  1041.5000      0.0000    705.8108      5.7256     59.3329
  1041.7500      0.0000    706.3035      5.6103     61.5272
  1042.0000      0.0000    706.7834      5.5415     62.6661
  1042.2500      0.0000    707.1633      5.5314     62.0850
  1042.5000      0.0000    707.4299      5.5607     59.8511
  1042.7500      0.0000    707.6617      5.6005     56.9124
  1043.0000      0.0000    707.9750      5.6284     54.7794
  1043.2500      0.0000    708.4620      5.6333     54.8846
  1043.5000      0.0000    709.2233      5.6183     57.8000
  1043.7500      0.0000    710.5253      5.6017     62.8130
  1044.0000      0.0000    712.8614      5.6046     68.1934
  1044.2500      0.0000    716.6841      5.6364     71.9722
  1044.5000      0.0000    721.9705      5.6931     72.8454
  1044.7500      0.0000    728.1332      5.7718     70.7478
  1045.0000      0.0000    734.3496      5.8790     66.6918
  1045.2500      0.0000    739.7446      6.0195     62.0368
  1045.5000      0.0000    743.2444      6.1765     57.8196
  1045.7500      0.0000    743.6583      6.3066     54.5779
  1046.0000      0.0000    740.2863      6.3608     52.5350
  1046.2500      0.0000    733.6167      6.3200     51.7177
  1046.5000      0.0000    725.4287      6.2199     51.8418
  1046.7500      0.0000    717.9611      6.1315     52.3254
  1047.0000      0.0000    712.6938      6.1013     52.6215
  1047.2500      0.0000    709.8146      6.1158     52.4575
  1047.5000      0.0000    708.6562      6.1392     51.7533
  1047.7500      0.0000    708.4154      6.1691     50.6012
  1048.0000      0.0000    708.5165      6.2317     49.4484
  1048.2500      0.0000    708.6635      6.3332     49.0242
  1048.5000      0.0000    708.7874      6.4343     49.8590
  1048.7500      0.0000    708.9400      6.4705     51.9695
  1049.0000      0.0000    709.1447      6.3952     54.9610
  1049.2500      0.0000    709.3226      6.2173     58.1354
  1049.5000      0.0000    709.3618      6.0050     60.5520
  1049.7500      0.0000    709.2344      5.8433     61.5314
  1050.0000      0.0000    709.0158      5.7806     61.3078
  1050.2500      0.0000    708.7718      5.8085     60.8579
  1050.5000      0.0000    708.4140      5.8753     60.9678
  1050.7500      0.0000    707.6389      5.9090     61.6887
  1051.0000      0.0000    706.0960      5.8454     62.7190
  1051.2500      0.0000    704.0214      5.6615     63.8764
  1051.5000      0.0000    703.0705      5.3895     64.8416
  1051.7500      0.0000    706.1979      5.0936     64.8105
  1052.0000      0.0000    715.7859      4.8324     63.0903
  1052.2500      0.0000    731.3749      4.6427     60.1816
  1052.5000      0.0000    749.4457      4.5477     57.7892
  1052.7500      0.0000    765.5618      4.5589     57.5114
  1053.0000      0.0000    776.8371      4.6699     59.6760
  1053.2500      0.0000    782.9197      4.8500     63.4537
  1053.5000     -4.0000    785.2089      5.0535     67.6147
  1053.7500      0.0000    785.1645      5.2529     70.9683
  1054.0000      0.0000    783.4001      5.4673     72.6361
  1054.2500      0.0000    780.4025      5.7308     72.5005
  1054.5000      0.0000    777.1348      6.0170     71.2607
  1054.7500      0.0000    773.7811      6.2317     69.7916
  1055.0000      0.0000    768.7607      6.3081     68.6254
  1055.2500      0.0000    760.6520      6.2805     67.9850
  1055.5000      0.0000    750.5583      6.2300     67.7779
  1055.7500      0.0000    741.0212      6.1944     67.4360
  1056.0000      0.0000    733.1776      6.1618     66.2580
  1056.2500      0.0000    726.5606      6.1167     64.1200
  1056.5000      0.0000    721.2080      6.0559     61.6413
  1056.7500      0.0000    718.5698      5.9725     59.7413
  1057.0000      0.0000    720.5152      5.8552     59.1774
  1057.2500      0.0000    728.0209      5.7072     60.2302
  1057.5000      0.0000    740.2604      5.5569     62.4474
  1057.7500      0.0000    754.4127      5.4455     64.6625
  1058.0000      0.0000    766.8962      5.4023     65.6082
  1058.2500      0.0000    775.4149      5.4315     64.8851
  1058.5000      0.0000    779.8974      5.5179     63.3306
  1058.7500      0.0000    781.6581      5.6377     62.2063
  1059.0000      0.0000    782.0737      5.7606     61.9953
  1059.2500      0.0000    781.9067      5.8548     62.1548
  1059.5000      0.0000    781.1984      5.9014     61.9235
  1059.7500      0.0000    779.2299      5.9069     61.0239
  1060.0000      0.0000    774.6025      5.8923     59.6285
  1060.2500      0.0000    765.9584      5.8677     58.1328
  1060.5000      0.0000    753.3422      5.8189     57.0986
  1060.7500      0.0000    738.9896      5.7321     56.9983
  1061.0000      0.0000    726.2552      5.6277     57.6129
  1061.2500      0.0000    717.4332      5.5557     57.9104
  1061.5000      0.0000    712.6593      5.5533     57.0241
  1061.7500      0.0000    710.6544      5.6218     55.3893
  1062.0000      0.0000    710.0286      5.7438     54.5398
  1062.2500      0.0000    709.9174      5.8948     55.5532
  1062.5000      0.0000    709.9374      6.0350     57.9548
  1062.7500      0.0000    709.9512      6.1164     60.3364
  1063.0000      0.0000    709.8780      6.1140     61.7003
