~Version Information
VERS.                      2.0: CWLS Log ASCII Standard - VERSION 2.0
WRAP.                       NO: One line per depth step
~Well Information Block
STRT.FT               550.0000: 
STOP.FT              2042.5000: 
STEP.FT                 0.1000: 
NULL.                -999.2500: 
COMP.          Petrogulf Corporation: COMPANY
WELL.          Robinson 15-12V: WELL
FLD.           Purgatorie River: FIELD
LOC.           1788' FNL & 466' FWL: LOCATION
PROV.                 Colorado: PROVINCE
CNTY.               Las Animas: COUNTRY
SRVC.                Patterson: SERVICE COMPANY
DATE.          Mon Sep 12 10:04:59 2005: LOG DATE
UWI.                          : UNIQUE WELL ID
~Curve Information Block
DEPT.FT            0 000 00 00: Depth
DCAL.in                       : CDL Caliper
RHOB.g/cc                     : CDL Bulk Density
RHOC.g/cc                     : CDL Density Correction
DPOR.pu                       : CDL Density Porosity
GR.GAPI                       : Gamma Ray
NPOR.pu                       : Neutron Porosity
~Parameter Information Block
~A  Depth       DCAL        RHOB        RHOC        DPOR         GR         NPOR    
# ...
   646.0000      8.1858      2.5927      0.0321      3.4698    170.7768     28.6212
   646.1000      8.1858      2.5794      0.1148      4.2770    171.3255     28.4705
   646.2000      8.1858      2.5555      0.0930      5.7284    171.2224     28.0891
   646.3000      8.1855      2.5222      0.0324      7.7474    168.6398     27.7040
   646.4000      8.1855      2.5073      0.0326      8.6487    166.7675     27.4848
   646.5000      8.1730      2.5246      0.0686      7.6012    168.3885     27.6388
   646.6000      8.1730      2.5497      0.1123      6.0799    171.3003     28.2207
   646.7000      8.1730      2.5612      0.0993      5.3820    172.1060     28.8318
   646.8000      8.1914      2.5691      0.1056      4.9042    169.6479     29.0292
   646.9000      8.1914      2.5805      0.1359      4.2122    165.5074     28.9663
   647.0000      8.1840      2.5894      0.1511      3.6715    162.7232     29.0367
   647.1000      8.1840      2.5995      0.1317      3.0617    160.9061     29.1631
   647.2000      8.1840      2.6137      0.1438      2.1973    157.1996     29.0797
   647.3000      8.1768      2.6198      0.1577      1.8326    152.3968     28.9818
   647.4000      8.1768      2.6118      0.0837      2.3148    150.7981     29.0952
   647.5000      8.1823      2.6019      0.1085      2.9140    152.8748     29.1783
   647.6000      8.1823      2.5929      0.1047      3.4635    153.3673     28.9592
   647.7000      8.1823      2.5752      0.1027      4.5316    150.3940     28.5613
   647.8000      8.1629      2.5493      0.0715      6.1039    147.5425     28.2174
   647.9000      8.1629      2.5233      0.0424      7.6787    146.5815     27.9866
   648.0000      8.1605      2.4968      0.0858      9.2824    145.7931     27.8666
   648.1000      8.1605      2.4615      0.0491     11.4236    144.1929     27.6440
   648.2000      8.1605      2.4157      0.0361     14.1998    142.8960     27.1757
   648.3000      8.1664      2.3718     -0.0142     16.8603    141.4831     26.6408
   648.4000      8.1664      2.3502     -0.0246     18.1710    139.3270     26.2916
   648.5000      8.1895      2.3577     -0.0094     17.7178    138.8444     26.2395
   648.6000      8.1895      2.3844      0.0329     16.0965    141.6781     26.2580
   648.7000      8.1895      2.4236      0.1051     13.7239    144.7487     26.2206
   648.8000      8.2062      2.4759      0.1561     10.5545    144.7938     26.3001
   648.9000      8.2062      2.5396      0.2105      6.6889    142.5229     26.6503
   649.0000      8.2057      2.6037      0.2904      2.8051    141.1672     27.2188
   649.1000      8.2057      2.6522      0.3545     -0.1314    141.6556     27.6945
   649.2000      8.2057      2.6773      0.3622     -1.6561    141.1775     27.8019
   649.3000      8.2189      2.6784      0.3527     -1.7217    139.8246     27.6462
   649.4000      8.2189      2.6535      0.2354     -0.2147    140.5325     27.4941
   649.5000      8.2324      2.6118      0.1536      2.3175    142.2378     27.2884
   649.6000      8.2324      2.5718      0.1072      4.7379    143.5952     27.0581
   649.7000      8.2324      2.5387      0.0707      6.7454    146.1826     27.0762
   649.8000      8.2525      2.5005      0.0758      9.0581    149.8149     27.1530
   649.9000      8.2525      2.4513      0.0383     12.0435    152.7439     26.9588
   650.0000      8.2568      2.4054      0.0206     14.8242    154.6395     26.6254
   650.1000      8.2568      2.3871     -0.0263     15.9324    155.2686     26.3205
   650.2000      8.2568      2.4006      0.0269     15.1177    155.4263     26.0926
   650.3000      8.2546      2.4204      0.1147     13.9166    156.7789     26.1684
   650.4000      8.2546      2.4274      0.1314     13.4897    157.6422     26.6431
   650.5000      8.2535      2.4360      0.0884     12.9708    155.2192     27.1031
   650.6000      8.2535      2.4602      0.1956     11.5039    150.5710     27.2721
   650.7000      8.2535      2.4853      0.1913      9.9793    146.8560     27.3491
   650.8000      8.2626      2.4954      0.1826      9.3717    146.1158     27.4366
   650.9000      8.2626      2.4925      0.0991      9.5459    147.9163     27.4643
   651.0000      8.2119      2.4914      0.0441      9.6116    150.5471     27.4713
   651.1000      8.2119      2.5021      0.0787      8.9650    152.8401     27.4893
   651.2000      8.2119      2.5165      0.0882      8.0926    153.7620     27.4425
   651.3000      8.1956      2.5234      0.0726      7.6741    153.4270     27.4702
   651.4000      8.1956      2.5261      0.0513      7.5115    154.1909     27.7473
   651.5000      8.1930      2.5339      0.0850      7.0339    155.3791     28.1197
   651.6000      8.1930      2.5533      0.0754      5.8577    154.3325     28.4378
   651.7000      8.1930      2.5812      0.1319      4.1700    149.7584     28.6471
   651.8000      8.1851      2.6010      0.1495      2.9677    143.4165     28.6013
   651.9000      8.1851      2.6066      0.1251      2.6275    139.3236     28.1823
   652.0000      8.1928      2.6043      0.1457      2.7716    138.0069     27.5371
   652.1000      8.1928      2.5920      0.1235      3.5179    137.1476     27.0477
   652.2000      8.1928      2.5665      0.0503      5.0615    137.0285     26.8243
   652.3000      8.1822      2.5218      0.0603      7.7685    138.2864     26.4492
   652.4000      8.1822      2.4525     -0.0038     11.9718    141.1081     25.6584
   652.5000      8.1679      2.3782     -0.0253     16.4723    146.4102     24.6202
   652.6000      8.1679      2.3196     -0.0099     20.0257    150.8867     23.5525
   652.7000      8.1679      2.2678      0.0133     23.1627    149.9099     22.8038
   652.8000      8.1651      2.2108     -0.0221     26.6188    146.0957     22.5923
   652.9000      8.1651      2.1549     -0.0670     30.0054    142.6748     22.7274
   653.0000      8.1782      2.1100     -0.0435     32.7258    138.3085     22.8756
   653.1000      8.1782      2.0761      0.0053     34.7817    133.3436     22.8152
   653.2000      8.1782      2.0470      0.0189     36.5461    128.8877     22.5380
   653.3000      8.1805      2.0137      0.0736     38.5637    123.8416     22.0273
   653.4000      8.1805      1.9661      0.0977     41.4464    118.5982     21.0982
   653.5000      8.2530      1.8896      0.1253     46.0834    112.3231     19.7366
   653.6000      8.2530      1.7594      0.1035     53.9768    101.9420     18.1599
   653.7000      8.2530      1.5632      0.0723     65.8637     89.2257     16.4838
   653.8000      8.4178      1.3321     -0.0385     79.8702     78.9827     14.7188
   653.9000      8.4178      1.1312     -0.1280     92.0493     72.4246     12.8819
   654.0000      8.6852      1.0078     -0.0663     99.5282     67.2685     11.0263
   654.1000      8.6852      0.9609     -0.0081    102.3696     63.2524      9.3425
   654.2000      8.6852      0.9725     -0.0126    101.6641     62.2102      8.0439
   654.3000      9.0836      1.0305      0.0797     98.1511     63.6309      7.1058
   654.4000      9.0836      1.1096      0.2366     93.3557     65.0237      6.4100
   654.5000      9.5005      1.1833      0.2453     88.8907     65.0232      6.0638
   654.6000      9.5005      1.2484      0.2777     84.9442     64.9491      6.1157
   654.7000      9.5005      1.3077      0.3025     81.3534     66.8268      6.5181
   654.8000      9.8528      1.3558      0.3226     78.4373     70.6936      7.2974
   654.9000      9.8528      1.3884      0.2795     76.4617     75.4998      8.3537
   655.0000     10.0827      1.4025      0.3225     75.6074     79.9984      9.6037
   655.1000     10.0827      1.4009      0.2691     75.7009     83.5984     10.9811
   655.2000     10.0827      1.4042      0.2188     75.5010     87.2089     12.2068
   655.3000      9.5715      1.4339      0.2266     73.7040     91.2901     13.1424
   655.4000      9.5715      1.4956      0.2437     69.9619     95.4082     14.0252
   655.5000      9.3183      1.5875      0.2268     64.3965     99.5554     15.1382
