~Version Information
VERS.                      2.0: CWLS Log ASCII Standard - VERSION 2.0
WRAP.                       NO: One line per depth step
~Well Information Block
STRT.FT               866.0000: 
STOP.FT              2029.0000: 
STEP.FT                 0.2500: 
NULL.                -999.2500: 
COMP.          Petrogulf Corporation: COMPANY
WELL.             State 16-21R: WELL
FLD.           Purgatorie River: FIELD
LOC.           203' FNL & 1560' FWL: LOCATION
PROV.                 Colorado: PROVINCE
CNTY.               Las Animas: COUNTRY
SRVC.                Patterson: SERVICE COMPANY
DATE.          Tue Aug 16 12:55:36 2005: LOG DATE
UWI.                071 08313 : UNIQUE WELL ID
~Curve Information Block
DEPT.FT            0 000 00 00: Depth
SP.mV                         : DIL Spontaneous Potential
RILD.Ohm-m                    : DIL Deep Resistivity
RILM.Ohm-m                    : DIL Medium Resistivity
RLL3.Ohm-m                    : DIL Shallow Resistivity
GR.GAPI                       : Gamma Ray
~Parameter Information Block
~A  Depth        SP         RILD        RILM        RLL3         GR     
# ...
  2014.0000     81.5118     10.2688     12.5629     11.9083    105.7385
  2014.2500     80.2121     10.4545     12.9631     12.7929    101.3248
  2014.5000     79.3909     11.0417     13.4308     14.3705     59.7700
  2014.7500     77.4704     11.2123     13.9360     16.1513      9.6862
  2015.0000     74.6896     11.3258     14.6724     18.1154      0.0095
  2015.2500     71.8137     11.5584     15.4121     19.3962   -999.2500
  2015.5000     70.5687     11.8201     15.9107     20.0420   -999.2500
  2015.7500     69.7946     12.1078     16.3461     20.4832   -999.2500
  2016.0000     68.3713     12.5002     16.7410     21.5465   -999.2500
  2016.2500     67.1445     12.8284     17.3407     22.9197   -999.2500
  2016.5000     64.7449     13.1594     17.9625     23.2652   -999.2500
  2016.7500     61.4785     13.5011     18.3472     21.9092   -999.2500
  2017.0000     58.7920     13.7427     18.7222     20.1614   -999.2500
  2017.2500     50.2566     15.3587     19.2984     18.6494   -999.2500
  2017.5000      5.9670    107.8576     19.5322     17.3517   -999.2500
  2017.7500      0.0148    485.9265     19.8910     17.7125   -999.2500
  2018.0000   -999.2500    211.5718     20.1694     24.6474   -999.2500
  2018.2500   -999.2500    216.1706     19.9046     45.5915   -999.2500
  2018.5000   -999.2500    221.2080     18.9806     73.7937   -999.2500
  2018.7500   -999.2500    226.7308     17.5598     57.9251   -999.2500
  2019.0000   -999.2500    234.2055     15.5152     26.6592   -999.2500
  2019.2500   -999.2500    240.4009     13.7369     13.5871   -999.2500
  2019.5000   -999.2500    246.6388     12.3599      9.7128   -999.2500
  2019.7500   -999.2500    252.9995     11.7807      8.5932   -999.2500
  2020.0000   -999.2500    257.4400     11.6521      8.6182   -999.2500
  2020.2500   -999.2500    288.6994     11.7361      9.3658   -999.2500
  2020.5000   -999.2500   3776.9272     11.9140     10.2619   -999.2500
  2020.7500   -999.2500 100000.0000     12.1105     11.2843   -999.2500
  2021.0000   -999.2500 100000.0000     13.4944     11.9413   -999.2500
  2021.2500   -999.2500 100000.0000     74.9142     12.5519   -999.2500
  2021.5000   -999.2500 100000.0000    193.7463     13.3635   -999.2500
  2021.7500   -999.2500 100000.0000    931.1957     15.3176   -999.2500
  2022.0000   -999.2500 100000.0000    951.6620     16.9794   -999.2500
  2022.2500   -999.2500 100000.0000    982.8188     16.7496   -999.2500
  2022.5000   -999.2500 100000.0000    995.5861     15.3273   -999.2500
  2022.7500   -999.2500 100000.0000   1015.2590     14.0816   -999.2500
  2023.0000   -999.2500 100000.0000   1030.2050     13.1894   -999.2500
  2023.2500   -999.2500 100000.0000   1017.7539     11.8256   -999.2500
  2023.5000   -999.2500 100000.0000    979.2850     10.3780   -999.2500
  2023.7500   -999.2500 100000.0000    893.9852      9.2340   -999.2500
  2024.0000   -999.2500 100000.0000    786.7463      8.8047   -999.2500
  2024.2500   -999.2500 100000.0000    694.2658      8.4315   -999.2500
  2024.5000   -999.2500   -999.2500    623.4494      8.0492   -999.2500
  2024.7500   -999.2500   -999.2500    593.5826      7.3273   -999.2500
  2025.0000   -999.2500   -999.2500    586.5389      6.6521   -999.2500
  2025.2500   -999.2500   -999.2500    590.3268      6.6448   -999.2500
  2025.5000   -999.2500   -999.2500    599.0324      6.5991   -999.2500
  2025.7500   -999.2500   -999.2500    608.7220      6.8152   -999.2500
  2026.0000   -999.2500   -999.2500    678.5392      6.9224   -999.2500
  2026.2500   -999.2500   -999.2500   4022.6492      5.8384   -999.2500
  2026.5000   -999.2500   -999.2500  12071.8672     -1.9448   -999.2500
  2026.7500   -999.2500   -999.2500 100000.0000     -2.9974   -999.2500
  2027.0000   -999.2500   -999.2500 100000.0000   -999.2500   -999.2500
  2027.2500   -999.2500   -999.2500 100000.0000   -999.2500   -999.2500
  2027.5000   -999.2500   -999.2500 100000.0000   -999.2500   -999.2500
  2027.7500   -999.2500   -999.2500 100000.0000   -999.2500   -999.2500
  2028.0000   -999.2500   -999.2500 100000.0000   -999.2500   -999.2500
  2028.2500   -999.2500   -999.2500 100000.0000   -999.2500   -999.2500
  2028.5000   -999.2500   -999.2500 100000.0000   -999.2500   -999.2500
  2028.7500   -999.2500   -999.2500 100000.0000   -999.2500   -999.2500
  2029.0000   -999.2500   -999.2500 100000.0000   -999.2500   -999.2500
