~Version Information
VERS.                      2.0: CWLS Log ASCII Standard - VERSION 2.0
WRAP.                       NO: One line per depth step
~Well Information Block
STRT.FT               930.0000: 
STOP.FT              2783.2000: 
STEP.FT                 0.1000: 
NULL.                -999.2500: 
COMP.          Pioneer Natural Resources: COMPANY
WELL.           Desoto 13-7TR: WELL
FLD.           Purgatoire River: FIELD
LOC.           1404' FSL & 1115' FWL: LOCATION
PROV.                 Colorado: PROVINCE
CNTY.               Las Animas: COUNTRY
SRVC.                Patterson: SERVICE COMPANY
DATE.          Fri Jan 14 14:42:18 2005: LOG DATE
UWI.           05 071 08216 00: UNIQUE WELL ID
~Curve Information Block
DEPT.FT            0 000 00 00: Depth
DCAL.in                       : CDL Caliper
RHOB.g/cc                     : CDL Bulk Density
RHOC.g/cc                     : CDL Density Correction
DPOR.pu                       : CDL Density Porosity
NPOR.pu                       : Neutron Porosity
GR.GAPI                       : Gamma Ray
~Parameter Information Block
~A  Depth       DCAL        RHOB        RHOC        DPOR        NPOR         GR     
# ...
  2389.2000      8.0670      2.4274      0.0477     13.4921     26.7627    147.7988
  2389.3000      8.0745      2.4351      0.0358     13.0243     26.9535    151.2434
  2389.4000      8.0745      2.4689      0.0014     10.9780     26.6251    150.5827
  2389.5000      8.0793      2.5172      0.1033      8.0468     26.0177    149.2720
  2389.6000      8.0793      2.5450      0.0850      6.3628     25.5547    149.4991
  2389.7000      8.0793      2.5466      0.0554      6.2682     25.4312    150.2190
  2389.8000      8.0807      2.5410      0.0401      6.6076     25.3487    151.4428
  2389.9000      8.0807      2.5332      0.0688      7.0762     24.9796    150.9200
  2390.0000      8.0780      2.5248      0.0219      7.5865     24.3341    149.1382
  2390.1000      8.0780      2.5263      0.0544      7.4972     23.5873    146.5196
  2390.2000      8.0780      2.5392      0.0596      6.7138     22.9562    144.7325
  2390.3000      8.0750      2.5566      0.0723      5.6626     22.5593    144.5663
  2390.4000      8.0750      2.5777      0.0665      4.3789     22.3869    140.0189
  2390.5000      8.0747      2.6014      0.0965      2.9465     22.5820    131.8850
  2390.6000      8.0747      2.6234      0.0582      1.6116     23.0652    127.2522
  2390.7000      8.0747      2.6449      0.1010      0.3095     23.4878    123.7901
  2390.8000      8.0761      2.6630      0.0791     -0.7885     23.4009    116.9895
  2390.9000      8.0761      2.6748      0.0720     -1.5038     22.9579    108.8084
  2391.0000      8.0764      2.6802      0.0816     -1.8330     22.6054    102.4349
  2391.1000      8.0764      2.6767      0.0801     -1.6205     22.2168    101.6466
  2391.2000      8.0764      2.6611      0.1008     -0.6734     21.8816    105.7922
  2391.3000      8.0744      2.6314      0.0720      1.1268     21.5853    107.4841
  2391.4000      8.0744      2.5950      0.0273      3.3357     20.8506    103.9553
  2391.5000      8.0725      2.5715     -0.0147      4.7604     20.1139    100.4528
  2391.6000      8.0725      2.5774     -0.0256      4.4012     20.1065    100.2841
  2391.7000      8.0725      2.6005      0.0603      2.9971     20.4876    103.6738
  2391.8000      8.0725      2.6068      0.0488      2.6209     20.5706    110.1465
  2391.9000      8.0725      2.5900      0.0569      3.6387     20.3884    114.6757
  2392.0000      8.0720      2.5813      0.0181      4.1635     20.3774    111.9655
  2392.1000      8.0720      2.5990      0.0696      3.0905     20.5628    106.6198
  2392.2000      8.0720      2.6224      0.0711      1.6719     20.5566    107.1167
  2392.3000      8.0649      2.6193      0.1085      1.8626     20.0150    113.8459
  2392.4000      8.0649      2.5837      0.0387      4.0172     19.4154    121.6289
  2392.5000      8.0547      2.5428      0.0248      6.4980     19.6023    126.6675
  2392.6000      8.0547      2.5202      0.0396      7.8689     20.5408    125.2792
  2392.7000      8.0547      2.5204     -0.0041      7.8529     21.3425    117.5654
  2392.8000      8.0497      2.5390      0.0249      6.7261     21.2686    106.5939
  2392.9000      8.0497      2.5599      0.0853      5.4586     20.7934     97.7196
  2393.0000      8.0505      2.5685      0.0876      4.9415     20.5445     94.2301
  2393.1000      8.0505      2.5688      0.0521      4.9197     20.1458     95.6791
  2393.2000      8.0505      2.5706      0.0668      4.8092     19.4486    100.6713
  2393.3000      8.0563      2.5721      0.0614      4.7183     18.7402    106.9812
  2393.4000      8.0563      2.5656      0.0741      5.1149     18.1023    111.5665
  2393.5000      8.0650      2.5513      0.0655      5.9830     17.9776    111.0257
  2393.6000      8.0650      2.5383      0.0223      6.7723     18.9216    106.4857
  2393.7000      8.0650      2.5319      0.0221      7.1548     20.2059    100.4899
  2393.8000      8.0700      2.5383      0.0048      6.7714     20.4112     95.1140
  2393.9000      8.0700      2.5675      0.0309      4.9989     19.4219     91.2155
  2394.0000      8.0722      2.6138      0.0423      2.1914     18.2414     88.4151
  2394.1000      8.0722      2.6536      0.1043     -0.2192     17.9044     86.6183
  2394.2000      8.0722      2.6686      0.0952     -1.1252     18.5670     84.6697
  2394.3000      8.0737      2.6677      0.0670     -1.0745     19.2374     84.3702
  2394.4000      8.0737      2.6729      0.0632     -1.3889     19.6347     86.4387
  2394.5000      8.0736      2.6865      0.1162     -2.2128     20.2795     87.7127
  2394.6000      8.0736      2.6970      0.0847     -2.8468     21.0268     90.3819
  2394.7000      8.0736      2.6971      0.0878     -2.8575     21.3613     97.5163
  2394.8000      8.0739      2.6878      0.1176     -2.2938     20.9955    104.9040
  2394.9000      8.0739      2.6788      0.0499     -1.7460     20.6297    105.5585
  2395.0000      8.0737      2.6733      0.0856     -1.4138     21.1240     99.0093
  2395.1000      8.0737      2.6610      0.0655     -0.6688     21.9037     93.2604
  2395.2000      8.0737      2.6412      0.0436      0.5344     22.2562     94.1884
  2395.3000      8.0744      2.6237      0.0542      1.5921     22.3197     99.4557
  2395.4000      8.0744      2.6143      0.0146      2.1654     22.2229    104.2230
  2395.5000      8.0767      2.6110      0.0591      2.3627     22.4045    109.5921
  2395.6000      8.0767      2.6029      0.0785      2.8553     23.2941    120.4358
  2395.7000      8.0767      2.5799      0.0238      4.2514     24.1344    133.4350
  2395.8000      8.0771      2.5423      0.0292      6.5254     24.2188    140.4094
  2395.9000      8.0771      2.4996      0.0386      9.1150     24.4102    140.9571
  2396.0000      8.0760      2.4697      0.0162     10.9273     25.5352    138.2708
  2396.1000      8.0760      2.4646      0.0236     11.2343     27.0118    134.8492
  2396.2000      8.0760      2.4737      0.0633     10.6829     27.7058    131.4239
  2396.3000      8.0733      2.4854     -0.0017      9.9764     27.1320    127.5804
  2396.4000      8.0733      2.4960      0.0757      9.3314     26.2499    130.5975
  2396.5000      8.0693      2.4925      0.0885      9.5443     26.3118    146.8722
  2396.6000      8.0693      2.4735      0.0465     10.6974     27.2810    162.2478
  2396.7000      8.0693      2.4585      0.0480     11.6069     28.2910    161.2008
  2396.8000      8.0707      2.4608      0.0422     11.4678     28.5269    149.4275
  2396.9000      8.0707      2.4771      0.0552     10.4787     27.7612    141.2342
  2397.0000      8.0771      2.4939      0.0443      9.4603     26.9422    140.2634
  2397.1000      8.0771      2.4997      0.0685      9.1099     26.8065    138.2449
  2397.2000      8.0771      2.4984      0.0217      9.1873     27.1244    135.9235
  2397.3000      8.0850      2.5052      0.0690      8.7746     27.4546    138.1272
  2397.4000      8.0850      2.5219      0.0711      7.7635     27.2428    140.3287
  2397.5000      8.0884      2.5372      0.0712      6.8368     26.5476    141.8147
  2397.6000      8.0884      2.5444      0.0779      6.4003     25.8436    142.7690
  2397.7000      8.0884      2.5430      0.0870      6.4870     25.3632    140.9218
  2397.8000      8.0841      2.5336      0.0674      7.0572     25.3535    139.4203
  2397.9000      8.0841      2.5202      0.0412      7.8638     25.6246    139.2932
  2398.0000      8.0794      2.5105      0.0351      8.4521     25.6879    138.3999
  2398.1000      8.0794      2.5084      0.0347      8.5821     25.7322    139.3454
  2398.2000      8.0794      2.5123      0.0470      8.3466     26.3052    147.4614
  2398.3000      8.0779      2.5174      0.0677      8.0373     27.2201    158.4042
  2398.4000      8.0779      2.5190      0.0889      7.9399     27.4792    160.4651
  2398.5000      8.0873      2.5166      0.0600      8.0877     26.9508    153.5142
  2398.6000      8.0873      2.5197      0.0441      7.8993     26.3736    149.3103
  2398.7000      8.0873      2.5341      0.0971      7.0237     26.1037    149.2514
