~Version Information
VERS.                      2.0: CWLS Log ASCII Standard - VERSION 2.0
WRAP.                       NO: One line per depth step
~Well Information Block
STRT.FT               -19.5000: 
STOP.FT              2456.0000: 
STEP.FT                 0.2500: 
NULL.                -999.2500: 
COMP.          Petrogulf Corporation: COMPANY
WELL.           Montoya 12-44V: WELL
FLD.           Purgatorie River: FIELD
LOC.           698' FSL & 599' FEL: LOCATION
CNTY.               Las Animas: COUNTY
SRVC.                         : SERVICE COMPANY
DATE.          Mon Sep 13 13:44:10 2004: LOG DATE
UWI.           05-071-08094-00: UNIQUE WELL ID
STAT.                 Colorado: STATE
~Curve Information Block
DEPT.FT            0 000 00 00: Depth
TT3.usec                      : CBL 3' Travel Time
AMP3.mV                       : CBL 3' Amplitude
GR.GAPI                       : Gamma Ray
CCL.                          : Casing Collar Locator
~Parameter Information Block
~A  Depth       TT3         AMP3         GR         CCL     
# ...
  1789.5000    337.2029     13.7793    137.4264      0.0000
  1789.7500    337.0237     12.8120    136.9143      0.0000
  1790.0000    336.6481     12.0069    136.3238      0.0000
  1790.2500    336.2623     11.5021    135.4449      0.0000
  1790.5000    336.1178     11.1990    134.6874      0.0000
  1790.7500    336.2860     10.9772    134.7447      0.0000
  1791.0000    336.6129     10.8317    136.4448      0.0000
  1791.2500    337.3860     10.7350    140.3938      0.0000
  1791.5000    341.2492     10.4982    145.9043      0.0000
  1791.7500    357.5656      9.9876    150.6169      0.0000
  1792.0000    403.7784      9.3327    152.1753      0.0000
  1792.2500    484.2526      8.7880    150.5206      0.0000
  1792.5000    556.7233      8.5475    148.1490      0.0000
  1792.7500    558.3279      8.6743    147.9972      0.0000
  1793.0000    486.7403      9.0548    151.1008      0.0000
  1793.2500    404.6187      9.4345    155.9784      0.0000
  1793.5000    360.4525      9.5719    159.8721      0.0000
  1793.7500    361.7525      9.3683    160.7642      0.0000
  1794.0000    411.4359      8.8642    158.8098      0.0000
  1794.2500    513.2664      8.1729    156.0359      0.0000
  1794.5000    638.0630      7.4376    154.4891      0.0000
  1794.7500    728.2585      6.7755    154.7924      0.0000
  1795.0000    750.0854      6.2157    156.4614      0.0000
  1795.2500    720.4390      5.7076    158.9540      0.0000
  1795.5000    684.3853      5.2059    162.0228      0.0000
  1795.7500    666.5251      4.7475    165.6031      0.0000
  1796.0000    656.8624      4.4099    169.6856      0.0000
  1796.2500    655.5723      4.1909    173.9326      0.0000
  1796.5000    675.1403      4.0208    177.3840      0.0000
  1796.7500    692.5334      3.8844    179.2773      0.0000
  1797.0000    667.9746      3.8220    180.3164      0.0000
  1797.2500    604.7222      3.8205    182.4160      0.0000
  1797.5000    542.2378      3.8026    186.5701      0.0000
  1797.7500    503.2985      3.7335    191.1095      0.0000
  1798.0000    481.2671      3.6529    192.7264      0.0000
  1798.2500    466.3737      3.5969    189.6698      0.0000
  1798.5000    458.4061      3.5559    183.7596      0.0000
  1798.7500    457.6579      3.5066    179.1228      0.0000
  1799.0000    458.9985      3.4347    179.1249      0.0000
  1799.2500    458.3718      3.3504    183.9660      0.0000
  1799.5000    456.4881      3.2952    190.2273      0.0000
  1799.7500    452.6653      3.3062    193.0817      0.0000
  1800.0000    444.8464      3.3835    190.2238      0.0000
  1800.2500    435.6959      3.5073    183.8326      0.0000
  1800.5000    430.2684      3.6646    178.1464      0.0000
  1800.7500    431.3746      3.8421    175.5561      0.0000
  1801.0000    440.2090      4.0106    175.5207      0.0000
  1801.2500    458.8237      4.1456    176.4269      0.0000
  1801.5000    492.7852      4.2550    177.2980      0.0000
  1801.7500    542.7473      4.3681    177.8526      0.0000
  1802.0000    583.7901      4.5204    177.7536      0.0000
  1802.2500    576.5974      4.7523    176.2161      0.0000
  1802.5000    517.2532      5.0870    172.3184      0.0000
  1802.7500    445.5733      5.4806    165.6729      0.0000
  1803.0000    396.1824      5.8172    156.8467      0.0000
  1803.2500    372.9505      5.9906    147.2328      0.0000
  1803.5000    365.7603      5.9727    138.6543      0.0000
  1803.7500    366.8881      5.7918    133.0382      0.0000
  1804.0000    372.3852      5.5069    131.8638      0.0000
  1804.2500    378.4982      5.2233    135.1242      0.0000
  1804.5000    382.3447      5.0377    140.6961      0.0000
  1804.7500    384.0446      4.9439    145.3620      0.0000
  1805.0000    385.2368      4.8682    146.8493      0.0000
  1805.2500    386.8983      4.7706    144.6762      0.0000
  1805.5000    389.0682      4.6650    139.0679      0.0000
  1805.7500    391.4884      4.5838    129.8648      0.0000
  1806.0000    393.8507      4.5426    117.0950      0.0000
  1806.2500    395.6615      4.5206    102.1871      0.0000
  1806.5000    396.4807      4.4955     87.9045      0.0000
  1806.7500    396.3319      4.5027     76.9944      0.0000
  1807.0000    395.6409      4.6249     70.8059      0.0000
  1807.2500    394.9547      4.8976     68.6660      0.0000
  1807.5000    394.6891      5.2413     68.2656      0.0000
  1807.7500    394.8185      5.5170     67.0612      0.0000
  1808.0000    394.9399      5.6355     63.8228      0.0000
  1808.2500    394.7701      5.6062     59.1134      0.0000
  1808.5000    394.4602      5.5065     54.5013      0.0000
  1808.7500    394.7131      5.3993     51.4601      0.0000
  1809.0000    397.5587      5.2760     50.8008      0.0000
  1809.2500    407.5163      5.1367     52.6052      0.0000
  1809.5000    428.9619      5.0789     56.3242      0.0000
  1809.7500    456.7235      5.1220     61.0866      0.0000
  1810.0000    474.6974      5.0813     66.2514      0.0000
  1810.2500    476.5182      4.8933     71.6410      0.0000
  1810.5000    473.3719      4.7617     77.1718      0.0000
  1810.7500    467.8883      4.7752     82.5299      0.0000
  1811.0000    450.2242      4.7745     87.5370      1.5106
  1811.2500    424.2553      4.6133     92.6785      2.8580
  1811.5000    405.9396      4.2910     98.8262     -2.1286
  1811.7500    403.8535      3.8755    106.2021      0.0000
  1812.0000    418.7712      3.4187    113.5494      0.0000
  1812.2500    449.2718      2.9659    118.3361      0.0000
  1812.5000    485.1956      2.6037    118.0747      0.0000
  1812.7500    502.6020      2.4133    111.9322      0.0000
  1813.0000    484.6627      2.3814    101.3150      0.0000
  1813.2500    445.2881      2.4334     88.8465      0.0000
  1813.5000    411.7211      2.5151     76.7745      0.0000
  1813.7500    394.5564      2.5902     66.2023      0.0000
  1814.0000    388.2547      2.6238     57.3827      0.0000
  1814.2500    385.9491      2.6038     50.3576      0.0000
  1814.5000    384.8743      2.5461     45.3038      0.0000
  1814.7500    384.5056      2.4777     42.4136      0.0000
  1815.0000    384.6978      2.4233     41.6932      0.0000
  1815.2500    385.9241      2.3974     43.0531      0.0000
  1815.5000    391.4362      2.3929     46.4451      0.0000
  1815.7500    410.1554      2.3762     51.6344      0.0000
  1816.0000    454.2991      2.3045     57.9641      0.0000
  1816.2500    523.9492      2.1676     64.8155      0.0000
  1816.5000    594.3262      2.0092     72.4826      0.0000
  1816.7500    635.9005      1.8943     82.1366      0.0000
  1817.0000    642.4350      1.8596     94.4263      0.0000
  1817.2500    621.7177      1.8908    108.2331      0.0000
  1817.5000    579.1398      1.9347    121.1870      0.0000
  1817.7500    527.1209      1.9422    131.4518      0.0000
  1818.0000    486.7971      1.9122    138.8975      0.0000
  1818.2500    467.8259      1.8822    144.5825      0.0000
  1818.5000    460.1777      1.8777    149.1913      0.0000
  1818.7500    447.9026      1.8880    152.0133      0.0000
  1819.0000    426.3461      1.8880    151.5347      0.0000
  1819.2500    404.4696      1.8759    147.0433      0.0000
  1819.5000    390.7755      1.8846    139.6789      0.0000
  1819.7500    384.9846      1.9516    132.0852      0.0000
  1820.0000    383.1400      2.0825    126.8641      0.0000
  1820.2500    382.6799      2.2290    124.7178      0.0000
  1820.5000    382.6855      2.3042    123.8125      0.0000
  1820.7500    382.9254      2.2523    121.2727      0.0000
  1821.0000    383.3518      2.1004    115.5300      0.0000
  1821.2500    383.9773      1.9260    107.2812      0.0000
  1821.5000    384.8801      1.7870     98.4683      0.0000
  1821.7500    386.1563      1.6918     90.6954      0.0000
  1822.0000    387.8158      1.6263     84.4797      0.0000
  1822.2500    389.7093      1.5867     79.6252      0.0000
  1822.5000    391.5717      1.5748     76.0940      0.0000
  1822.7500    393.3678      1.5816     74.3778      0.0000
