~Version Information
VERS.                      2.0: CWLS Log ASCII Standard - VERSION 2.0
WRAP.                       NO: One line per depth step
~Well Information Block
STRT.FT               758.7500: 
STOP.FT              2420.7500: 
STEP.FT                 0.2500: 
NULL.                -999.2500: 
COMP.          Petrogulf Corporation: COMPANY
WELL.            Montoya 7-21V: WELL
FLD.           Purgatorie River: FIELD
LOC.           738' FSL & 2070' FWL: LOCATION
CNTY.               Las Animas: COUNTY
SRVC.                         : SERVICE COMPANY
DATE.          Fri Aug 20 07:13:07 2004: LOG DATE
UWI.           05 071 08018 00: UNIQUE WELL ID
STAT.                 Colorado: STATE
~Curve Information Block
DEPT.FT            0 000 00 00: Depth
SP.mV                         : DIL Spontaneous Potential
RILD.Ohm-m                    : DIL Deep Resistivity
RILM.Ohm-m                    : DIL Medium Resistivity
RLL3.Ohm-m                    : DIL Shallow Resistivity
GR.GAPI                       : Gamma Ray
~Parameter Information Block
~A  Depth        SP         RILD        RILM        RLL3         GR     
# ...
  2270.7500     -6.3145     14.8451     14.6946     16.0759     94.6268
  2271.0000     -6.5668     14.9283     14.7605     16.1705     94.4756
  2271.2500     -6.8173     15.0644     14.8330     16.2160     95.6013
  2271.5000     -7.0551     15.2403     14.9178     16.2070     98.3639
  2271.7500     -7.2707     15.4335     15.0174     16.2069    100.2131
  2272.0000     -7.4560     15.6152     15.1306     16.3122    102.0293
  2272.2500     -7.6046     15.7568     15.2524     16.5992    102.2916
  2272.5000     -7.7108     15.8383     15.3752     17.0785    100.9810
  2272.7500     -7.7695     15.8535     15.4893     17.6784     99.0121
  2273.0000     -7.7758     15.8112     15.5848     18.2658     95.1826
  2273.2500     -7.7263     15.7298     15.6531     18.6995     92.8133
  2273.5000     -7.6205     15.6306     15.6880     18.8859     90.5930
  2273.7500     -7.4622     15.5317     15.6871     18.8065     90.0479
  2274.0000     -7.2605     15.4461     15.6521     18.5026     89.6994
  2274.2500     -7.0289     15.3811     15.5884     18.0393     89.0924
  2274.5000     -6.7832     15.3393     15.5054     17.4790     87.2125
  2274.7500     -6.5382     15.3196     15.4146     16.8820     85.7024
  2275.0000     -6.3056     15.3177     15.3288     16.3210     84.2165
  2275.2500     -6.0919     15.3292     15.2602     15.8854     84.1801
  2275.5000     -5.8993     15.3521     15.2194     15.6633     85.2285
  2275.7500     -5.7265     15.3893     15.2141     15.7078     85.9346
  2276.0000     -5.5705     15.4477     15.2489     16.0093     85.8008
  2276.2500     -5.4280     15.5357     15.3252     16.4910     84.7777
  2276.5000     -5.2966     15.6581     15.4416     17.0322     82.4502
  2276.7500     -5.1749     15.8132     15.5950     17.5155     80.6185
  2277.0000     -5.0634     15.9918     15.7814     17.8742     77.0891
  2277.2500     -4.9654     16.1792     15.9958     18.1185     73.9889
  2277.5000     -4.8877     16.3600     16.2329     18.3240     68.8672
  2277.7500     -4.8405     16.5231     16.4862     18.5878     65.9796
  2278.0000     -4.8366     16.6662     16.7481     18.9733     63.3146
  2278.2500     -4.8889     16.7962     17.0094     19.4699     62.3637
  2278.5000     -5.0078     16.9269     17.2603     19.9873     60.7543
  2278.7500     -5.1991     17.0736     17.4911     20.3912     58.8893
  2279.0000     -5.4617     17.2469     17.6941     20.5657     55.2128
  2279.2500     -5.7879     17.4486     17.8648     20.4717     53.2605
  2279.5000     -6.1634     17.6714     18.0027     20.1671     53.1433
  2279.7500     -6.5692     17.8998     18.1108     19.7767     55.2957
  2280.0000     -6.9824     18.1150     18.1954     19.4286     60.4219
  2280.2500     -7.3780     18.2987     18.2638     19.1969     63.6165
  2280.5000     -7.7310     18.4378     18.3241     19.0836     66.0241
  2280.7500     -8.0184     18.5272     18.3836     19.0469     65.6212
  2281.0000     -8.2231     18.5714     18.4486     19.0506     62.5423
  2281.2500     -8.3376     18.5852     18.5241     19.0970     59.6416
  2281.5000     -8.3670     18.5902     18.6139     19.2212     55.7817
  2281.7500     -8.3298     18.6112     18.7198     19.4593     54.4666
  2282.0000     -8.2557     18.6712     18.8419     19.8230     55.0583
  2282.2500     -8.1797     18.7868     18.9781     20.2981     56.8876
  2282.5000     -8.1347     18.9652     19.1241     20.8613     60.6205
  2282.7500     -8.1438     19.2019     19.2740     21.4871     63.0034
  2283.0000     -8.2159     19.4813     19.4213     22.1344     65.3256
  2283.2500     -8.3449     19.7808     19.5596     22.7241     65.7312
  2283.5000     -8.5128     20.0766     19.6849     23.1410     64.8459
  2283.7500     -8.6946     20.3491     19.7955     23.2757     63.6653
  2284.0000     -8.8641     20.5856     19.8931     23.0886     61.8541
  2284.2500     -8.9989     20.7803     19.9814     22.6522     61.1412
  2284.5000     -9.0834     20.9342     20.0649     22.1368     61.4597
  2284.7500     -9.1107     21.0561     20.1472     21.7418     62.5852
  2285.0000     -9.0837     21.1611     20.2294     21.6128     64.9800
  2285.2500     -9.0144     21.2661     20.3099     21.7895     66.5479
  2285.5000     -8.9223     21.3836     20.3851     22.2040     68.2005
  2285.7500     -8.8318     21.5193     20.4504     22.7191     68.6573
  2286.0000     -8.7687     21.6734     20.5028     23.1811     68.5634
  2286.2500     -8.7563     21.8458     20.5417     23.4642     68.3196
  2286.5000     -8.8112     22.0375     20.5706     23.4989     68.0981
  2286.7500     -8.9413     22.2469     20.5955     23.2864     67.9468
  2287.0000     -9.1444     22.4651     20.6245     22.9012     67.2304
  2287.2500     -9.4093     22.6753     20.6646     22.4773     66.2879
  2287.5000     -9.7182     22.8596     20.7200     22.1737     64.3583
  2287.7500    -10.0497     23.0088     20.7901     22.1203     62.9340
  2288.0000    -10.3814     23.1267     20.8693     22.3669     61.0429
  2288.2500    -10.6912     23.2251     20.9475     22.8641     60.4046
  2288.5000    -10.9582     23.3128     21.0122     23.4906     61.3459
  2288.7500    -11.1630     23.3863     21.0514     24.1083     63.4074
  2289.0000    -11.2878     23.4308     21.0557     24.6100     67.5325
  2289.2500    -11.3183     23.4308     21.0211     24.9328     69.7946
  2289.5000    -11.2456     23.3826     20.9490     25.0437     70.9368
  2289.7500    -11.0685     23.3011     20.8455     24.9240     70.0703
  2290.0000    -10.7954     23.2157     20.7203     24.5700     67.1429
  2290.2500    -10.4439     23.1578     20.5843     24.0085     64.7539
  2290.5000    -10.0387     23.1482     20.4478     23.3093     61.4516
  2290.7500     -9.6075     23.1908     20.3193     22.5866     59.9065
  2291.0000     -9.1766     23.2709     20.2046     21.9800     59.3185
  2291.2500     -8.7666     23.3605     20.1060     21.6154     60.2985
  2291.5000     -8.3909     23.4253     20.0230     21.5548     63.3604
  2291.7500     -8.0558     23.4366     19.9533     21.7590     65.6883
  2292.0000     -7.7614     23.3815     19.8937     22.1003     68.0099
  2292.2500     -7.5036     23.2700     19.8414     22.4245     68.1805
  2292.5000     -7.2748     23.1304     19.7949     22.6282     66.6032
  2292.7500     -7.0654     22.9994     19.7544     22.6957     65.1092
  2293.0000     -6.8645     22.9087     19.7210     22.6780     63.5596
  2293.2500     -6.6626     22.8775     19.6966     22.6419     63.2488
  2293.5000     -6.4535     22.9126     19.6833     22.6287     63.4090
  2293.7500     -6.2364     23.0124     19.6842     22.6398     63.4926
  2294.0000     -6.0165     23.1709     19.7043     22.6413     63.0244
  2294.2500     -5.8034     23.3795     19.7517     22.5799     62.2303
  2294.5000     -5.6088     23.6254     19.8380     22.4133     60.7107
  2294.7500     -5.4438     23.8903     19.9774     22.1566     59.8861
  2295.0000     -5.3171     24.1504     20.1837     21.9205     59.2142
  2295.2500     -5.2339     24.3780     20.4670     21.9102     58.8417
  2295.5000     -5.1954     24.5434     20.8283     22.3727     57.6634
  2295.7500     -5.1985     24.6180     21.2555     23.5231     56.3985
  2296.0000     -5.2355     24.5768     21.7182     25.4996     54.3718
  2296.2500     -5.2930     24.4049     22.1667     28.3600     53.3100
  2296.5000     -5.3534     24.1033     22.5346     32.0716     52.3661
  2296.7500     -5.3965     23.6911     22.7484     36.4286     52.0755
  2297.0000     -5.4041     23.1993     22.7432     40.9094     51.9527
  2297.2500     -5.3653     22.6610     22.4817     44.6180     52.2399
  2297.5000     -5.2812     22.1020     21.9658     46.4847     54.5159
  2297.7500     -5.1659     21.5376     21.2367     45.7275     58.4784
  2298.0000     -5.0452     20.9756     20.3621     42.3092     69.5032
  2298.2500     -4.9498     20.4230     19.4177     37.0336     79.7929
  2298.5000     -4.9091     19.8912     18.4713     31.1738     96.6508
