~Version Information
VERS.                      2.0: CWLS Log ASCII Standard - VERSION 2.0
WRAP.                       NO: One line per depth step
~Well Information Block
STRT.FT               580.0000: 
STOP.FT              2729.7000: 
STEP.FT                 0.1000: 
NULL.                -999.2500: 
COMP.          Pioneer Natural Resources: COMPANY
WELL.          Sand Pebbles 13-33: WELL
FLD.           Purgatoire River: FIELD
LOC.           1883' FSL & 63' FWL----: LOCATION
PROV.                 Colorado: PROVINCE
CNTY.               Las Animas: COUNTRY
SRVC.                Patterson: SERVICE COMPANY
DATE.          Mon Mar 14 07:33:33 2005: LOG DATE
UWI.           05 071 08224 00: UNIQUE WELL ID
~Curve Information Block
DEPT.FT            0 000 00 00: Depth
DCAL.in                       : CDL Caliper
RHOB.g/cc                     : CDL Bulk Density
RHOC.g/cc                     : CDL Density Correction
DPOR.pu                       : CDL Density Porosity
NPOR.pu                       : Neutron Porosity
GR.GAPI                       : Gamma Ray
~Parameter Information Block
~A  Depth       DCAL        RHOB        RHOC        DPOR        NPOR         GR     
# ...
  1568.8000      8.1252      2.5954      0.0921      3.3073     23.2424    123.4956
  1568.9000      8.1252      2.5860      0.0676      3.8773     23.0303    115.2468
  1569.0000      8.1254      2.5516      0.0187      5.9654     23.2369    103.8258
  1569.1000      8.1254      2.5298      0.0206      7.2831     22.7011     95.2197
  1569.2000      8.1254      2.5272      0.0742      7.4443     21.0652     92.9369
  1569.3000      8.1245      2.5279      0.0225      7.4006     19.3923     95.0646
  1569.4000      8.1245      2.5305     -0.0027      7.2402     18.3821     96.2097
  1569.5000      8.1243      2.5404      0.0293      6.6448     18.2708     89.7516
  1569.6000      8.1243      2.5503      0.0314      6.0419     18.5687     77.9993
  1569.7000      8.1243      2.5516      0.0547      5.9662     18.7257     69.7121
  1569.8000      8.1257      2.5507      0.0165      6.0153     19.4318     68.4762
  1569.9000      8.1257      2.5586      0.0639      5.5366     20.9740     73.1230
  1570.0000      8.1283      2.5682      0.0795      4.9582     22.0720     78.3109
  1570.1000      8.1283      2.5698      0.0524      4.8578     22.1379     79.1757
  1570.2000      8.1283      2.5642      0.0444      5.2002     22.0653     78.6597
  1570.3000      8.1304      2.5513      0.0592      5.9836     22.4048     81.7210
  1570.4000      8.1304      2.5332      0.0487      7.0817     22.8641     87.5883
  1570.5000      8.1286      2.5182      0.0493      7.9859     22.8685     93.1481
  1570.6000      8.1286      2.5088      0.0222      8.5587     22.4603     95.0816
  1570.7000      8.1286      2.4975      0.0418      9.2419     22.2897     93.0614
  1570.8000      8.1271      2.4917     -0.0138      9.5964     22.3858     95.7508
  1570.9000      8.1271      2.5126      0.0098      8.3259     22.4951    105.3512
  1571.0000      8.1307      2.5494      0.0827      6.0978     22.5989    111.9388
  1571.1000      8.1307      2.5727      0.0553      4.6831     22.4446    110.0294
  1571.2000      8.1307      2.5852      0.0312      3.9290     21.8889    101.0555
  1571.3000      8.1353      2.5982      0.0876      3.1376     21.3292     92.3644
  1571.4000      8.1353      2.6025      0.1303      2.8797     21.1109     89.6682
  1571.5000      8.1360      2.6002      0.0533      3.0183     20.9971     87.7261
  1571.6000      8.1360      2.6079      0.0806      2.5545     20.6621     81.1173
  1571.7000      8.1360      2.6116      0.1127      2.3285     20.3421     73.1841
  1571.8000      8.1343      2.5842      0.0898      3.9881     20.5534     68.3225
  1571.9000      8.1343      2.5340      0.0386      7.0323     21.4733     67.4759
  1572.0000      8.1329      2.4977     -0.0245      9.2284     22.3906     70.2435
  1572.1000      8.1329      2.4905      0.0243      9.6664     22.3826     74.7384
  1572.2000      8.1329      2.4937      0.0133      9.4714     21.8130     79.9863
  1572.3000      8.1335      2.4986      0.0156      9.1770     21.8422     84.3102
  1572.4000      8.1335      2.5126      0.0538      8.3247     22.3165     84.0472
  1572.5000      8.1352      2.5334      0.0605      7.0682     22.5247     80.3102
  1572.6000      8.1352      2.5584      0.0483      5.5488     22.7436     79.8096
  1572.7000      8.1352      2.5940      0.0560      3.3942     23.2177     85.7966
  1572.8000      8.1362      2.6341      0.1091      0.9611     23.8003     95.6025
  1572.9000      8.1362      2.6640      0.1262     -0.8502     24.5659    102.7567
  1573.0000      8.1357      2.6870      0.1284     -2.2437     25.5557    104.2983
  1573.1000      8.1357      2.7205      0.1262     -4.2727     26.2645    105.2920
  1573.2000      8.1357      2.7657      0.1456     -7.0148     26.1830    105.4339
  1573.3000      8.1349      2.8054      0.1351     -9.4180     25.6186    103.0411
  1573.4000      8.1349      2.8339      0.1081    -11.1431     25.1423    101.5175
  1573.5000      8.1340      2.8547      0.1042    -12.4076     25.0130    103.3071
  1573.6000      8.1340      2.8488      0.1577    -12.0465     25.2595    105.9866
  1573.7000      8.1340      2.8046      0.0256     -9.3687     25.8493    103.9277
  1573.8000      8.1356      2.7500      0.0099     -6.0588     26.3406     97.6489
  1573.9000      8.1356      2.7058     -0.0274     -3.3792     26.1648     94.5292
  1574.0000      8.1387      2.6747     -0.0012     -1.4963     25.4698     96.0338
  1574.1000      8.1387      2.6640     -0.0410     -0.8475     24.7732    100.1197
  1574.2000      8.1387      2.6687      0.0580     -1.1314     24.5747    106.6724
  1574.3000      8.1388      2.6691      0.0508     -1.1568     24.9963    114.7799
  1574.4000      8.1388      2.6670      0.0403     -1.0284     25.5804    121.9698
  1574.5000      8.1372      2.6673      0.1344     -1.0507     26.0392    126.6740
  1574.6000      8.1372      2.6601      0.0961     -0.6131     26.3232    129.3226
  1574.7000      8.1372      2.6502      0.0980     -0.0118     26.2574    128.4444
  1574.8000      8.1364      2.6491      0.0824      0.0572     26.0857    123.4830
  1574.9000      8.1364      2.6523      0.0609     -0.1381     26.1003    119.3059
  1575.0000      8.1356      2.6532      0.0795     -0.1966     26.1015    116.2025
  1575.1000      8.1356      2.6507      0.0838     -0.0412     25.7691    114.9042
  1575.2000      8.1356      2.6443      0.0467      0.3472     25.2993    117.7824
  1575.3000      8.1352      2.6402      0.0641      0.5969     25.1430    118.4838
  1575.4000      8.1352      2.6444      0.0417      0.3410     25.1634    114.5982
  1575.5000      8.1341      2.6512      0.0800     -0.0745     24.7640    114.3720
  1575.6000      8.1341      2.6512      0.0606     -0.0718     23.8643    120.3865
  1575.7000      8.1341      2.6473      0.0208      0.1650     23.1467    126.6370
  1575.8000      8.1325      2.6424      0.0748      0.4631     23.0553    128.2191
  1575.9000      8.1325      2.6332      0.0422      1.0211     23.5380    126.7069
  1576.0000      8.1317      2.6279      0.0117      1.3404     24.1786    128.1082
  1576.1000      8.1317      2.6308      0.0641      1.1624     24.2552    129.9928
  1576.2000      8.1317      2.6348      0.0272      0.9188     24.0629    124.7166
  1576.3000      8.1320      2.6410      0.0590      0.5429     24.2636    115.5956
  1576.4000      8.1320      2.6558      0.0540     -0.3496     24.5781    109.3300
  1576.5000      8.1324      2.6696      0.1142     -1.1860     24.5855    106.5014
  1576.6000      8.1324      2.6636      0.0700     -0.8226     24.2921    107.6198
  1576.7000      8.1324      2.6429      0.0390      0.4311     24.1587    111.4576
  1576.8000      8.1326      2.6257      0.0446      1.4716     24.4422    113.4682
  1576.9000      8.1326      2.6148      0.0556      2.1360     24.6911    112.9980
  1577.0000      8.1335      2.6046      0.0424      2.7525     24.2836    111.7985
  1577.1000      8.1335      2.5933      0.0238      3.4392     23.2725    110.6895
  1577.2000      8.1335      2.5816      0.0259      4.1475     22.5855    111.9458
  1577.3000      8.1346      2.5713      0.0045      4.7704     22.9438    113.6850
  1577.4000      8.1346      2.5650      0.0299      5.1522     23.9085    113.3999
  1577.5000      8.1345      2.5671      0.0193      5.0268     24.6438    115.8637
  1577.6000      8.1345      2.5837      0.0233      4.0181     24.9896    121.3910
  1577.7000      8.1345      2.6060      0.0517      2.6647     25.3503    120.8376
  1577.8000      8.1357      2.6142      0.0654      2.1727     26.0596    114.7870
  1577.9000      8.1357      2.6069     -0.0080      2.6149     26.9067    114.0578
  1578.0000      8.1372      2.5976      0.0358      3.1753     27.0609    118.7962
  1578.1000      8.1372      2.5905      0.0387      3.6065     26.3432    123.1804
  1578.2000      8.1372      2.5823      0.0090      4.1010     25.8296    128.4028
  1578.3000      8.1376      2.5709     -0.0030      4.7970     25.9334    134.1849
