~Version Information
 VERS.                                  2.0 : CWLS LAS VERSION
 WRAP.                                   NO : WRAPING MODE
 SWARE .                 MController 2.5.0J : SOFTWARE VERSION
~Well Information
 WELL.                     Pacheco 33-27 Tr : WELL
 COMP.    PIONEER NATURAL RESOURCES USA INC : COMPANY
 FLD.                      PURGATOIRE RIVER : FIELD
 LOC.                    NW/SE  27 33S  67W : LOCATION
 DATE.                              6/10/05 : DATE(S) LOGGED
 SRVC.       Blanco Geological Sdrvices LLC : SERVICE COMPANY
 STAT.                                   CO : STATE
 CNTY.                           LAS ANIMAS : COUNTY
 CTRY.                                  USA : COUNTRY
 API.                           05-071-08384: API NUMBER
 STRT.FT                             206.00 : START DEPTH
 STOP.FT                            1210.00 : STOP DEPTH
 STEP.FT                               1.00 : DEPTH INCREMENT
 NULL.                                -9999 : NULL VALUE
~Curve information
 DEPTH.FT                                   :
 ROP.MIN/FT                                 :
 GAS.UNITS                                  :
~ASCII Log data
# ...
       406.0         0.30         11.3 
       407.0         0.27         11.3 
       408.0         0.25         11.4 
       409.0         0.17         12.1 
       410.0         0.13         14.1 
       411.0         0.13         22.7 
       412.0         0.13         37.0 
       413.0         0.13         55.1 
       414.0         0.13         73.6 
       415.0         0.17         85.9 
       416.0         3.45        167.0 
       417.0         0.33         69.8 
       418.0         0.40         79.6 
       419.0         0.37         77.9 
       420.0         0.37         67.6 
       421.0         0.40         58.2 
       422.0         0.35         50.8 
       423.0         0.33         47.8 
       424.0         0.40         47.6 
       425.0         0.30         47.4 
       426.0         0.33         46.1 
       427.0         0.37         45.3 
       428.0         0.43         46.0 
       429.0         0.40         45.5 
       430.0         0.20         45.3 
       431.0         0.27         44.9 
       432.0         0.20         45.0 
       433.0         0.18         45.4 
       434.0         0.17         45.4 
       435.0         0.17         45.9 
       436.0         0.30         51.3 
       437.0         0.33         53.4 
       438.0         0.37         53.2 
       439.0         0.37         49.1 
       440.0         0.30         47.0 
       441.0         0.33         45.7 
       442.0         0.33         45.0 
       443.0         0.37         44.4 
       444.0         0.45         44.1 
       445.0         0.47         43.2 
       446.0         2.50        133.7 
       447.0         0.35         79.8 
       448.0         0.37         71.1 
       449.0         0.30         70.8 
       450.0         0.27         64.3 
       451.0         0.27         57.4 
       452.0         0.27         52.8 
       453.0         0.30         49.8 
       454.0         0.30         47.3 
       455.0         0.43         48.0 
       456.0         0.33         57.4 
       457.0         0.28         56.5 
       458.0         0.30         50.5 
       459.0         0.27         45.7 
       460.0         0.30         43.6 
       461.0         0.33         42.0 
       462.0         0.33         41.2 
       463.0         0.37         40.1 
       464.0         0.30         39.9 
       465.0         0.33         39.4 
       466.0         0.30         38.8 
       467.0         0.20         38.2 
       468.0         0.13         38.6 
       469.0         0.18         42.4 
       470.0         0.13         47.4 
       471.0         0.17         52.6 
       472.0         0.13         56.3 
       473.0         0.20         62.4 
       474.0         0.33         76.0 
       475.0         0.40         79.9 
       476.0         3.88        157.4 
       477.0         0.20         54.8 
       478.0         0.33         67.3 
       479.0         0.37         68.0 
       480.0         0.40         62.7 
       481.0         0.42         53.0 
       482.0         0.37         48.4 
       483.0         0.30         45.5 
       484.0         0.33         44.2 
       485.0         0.30         43.3 
       486.0         0.33         42.7 
       487.0         0.30         42.6 
       488.0         0.30         42.0 
       489.0         0.33         41.5 
       490.0         0.20         41.3 
       491.0         0.20         41.7 
       492.0         0.35         42.4 
       493.0         0.37         42.2 
       494.0         0.37         41.5 
       495.0         0.33         40.9 
       496.0         0.40         40.8 
       497.0         0.33         40.7 
       498.0         0.30         40.7 
       499.0         0.20         40.8 
       500.0         0.17         41.0 
       501.0         0.17         41.2 
       502.0         0.13         41.2 
       503.0         0.17         41.1 
       504.0         0.15         44.1 
       505.0         0.17         55.5 
       506.0         3.78        161.9 
       507.0         0.20         50.4 
       508.0         0.33         58.1 
       509.0         0.33         66.1 
       510.0         0.37         65.6 
       511.0         0.27         57.4 
       512.0         0.27         51.8 
       513.0         0.20         48.8 
       514.0         0.20         46.3 
       515.0         0.27         58.8 
       516.0         0.17         66.2 
       517.0         0.25         66.0 
       518.0         0.20         57.4 
       519.0         0.23         50.7 
       520.0         0.17         48.5 
       521.0         0.17         47.9 
       522.0         0.17         47.0 
       523.0         0.30         45.6 
       524.0         0.23         46.1 
       525.0         0.17         45.7 
       526.0         0.23         44.6 
       527.0         0.37         43.0 
       528.0         0.33         43.7 
       529.0         0.33         44.0 
       530.0         0.25         43.1 
       531.0         0.23         42.3 
       532.0         0.20         40.2 
       533.0         0.20         39.6 
       534.0         0.13         40.3 
       535.0         0.37         44.7 
       536.0         3.15        133.3 
       537.0         0.47         60.8 
       538.0         0.33         63.4 
       539.0         0.23         62.9 
       540.0         0.13         59.4 
       541.0         0.23         57.2 
       542.0         0.23         55.5 
       543.0         0.20         53.4 
       544.0         0.20         49.9 
       545.0         0.17         46.8 
       546.0         0.22         44.8 
       547.0         0.30         44.1 
       548.0         0.27         43.9 
       549.0         0.23         43.3 
       550.0         0.23         42.8 
       551.0         0.27         44.2 
       552.0         0.23         44.3 
       553.0         0.27         43.8 
       554.0         0.33         42.5 
       555.0         0.33         41.1 
       556.0         0.37         39.9 
       557.0         0.33         38.8 
       558.0         0.32         38.6 
       559.0         0.37         39.3 
       560.0         0.33         40.0 
       561.0         0.40         40.2 
       562.0         0.43         40.1 
       563.0         0.30         39.6 
       564.0         0.27         38.7 
       565.0         0.23         38.1 
       566.0         2.32        162.8 
       567.0         0.20        114.1 
       568.0         0.23         85.0 
       569.0         0.20         74.0 
       570.0         0.33         75.3 
       571.0         0.33         72.6 
       572.0         0.20         61.6 
       573.0         0.23         55.2 
       574.0         0.28         49.6 
       575.0         0.30         45.5 
       576.0         0.30         43.7 
       577.0         0.30         41.9 
       578.0         0.27         40.6 
       579.0         0.33         40.5 
       580.0         0.37         39.2 
       581.0         0.33         39.0 
       582.0         0.40         38.7 
       583.0         0.30         38.7 
       584.0         0.27         37.9 
       585.0         0.28         37.8 
       586.0         0.23         37.6 
       587.0         0.23         37.6 
       588.0         0.30         38.1 
       589.0         0.27         38.6 
       590.0         0.20         38.8 
       591.0         0.27         38.9 
       592.0         0.27         38.8 
       593.0         0.33         39.2 
       594.0         0.33         39.4 
       595.0         0.27         39.3 
       596.0         2.48        135.7 
       597.0         0.37         98.7 
       598.0         0.43         71.0 
       599.0         0.33         70.1 
       600.0         0.32         61.8 
       601.0         0.33         53.1 
       602.0         0.47         46.6 
       603.0         0.40         41.2 
       604.0         0.37         39.2 
       605.0         0.27         38.7 
