~Version Information
VERS.                      2.0: CWLS Log ASCII Standard - VERSION 2.0
WRAP.                       NO: One line per depth step
~Well Information Block
STRT.FT               260.0000: 
STOP.FT              2610.0000: 
STEP.FT                 0.1000: 
NULL.                -999.2500: 
COMP.          Pioneer Natural Resources: COMPANY
WELL.           Costello 44-24: WELL
FLD.           Purgatoire River: FIELD
LOC.           327' FSL & 378' FEL: LOCATION
PROV.                 Colorado: PROVINCE
CNTY.               Las Animas: COUNTRY
SRVC.                Patterson: SERVICE COMPANY
DATE.          Mon Jul 11 10:42:19 2005: LOG DATE
UWI.           05 071 08413 00: UNIQUE WELL ID
~Curve Information Block
DEPT.FT            0 000 00 00: Depth
DCAL.in                       : CDL Caliper
RHOB.g/cc                     : CDL Bulk Density
RHOC.g/cc                     : CDL Density Correction
DPOR.pu                       : CDL Density Porosity
GR.GAPI                       : Gamma Ray
NPOR.pu                       : Neutron Porosity
~Parameter Information Block
~A  Depth       DCAL        RHOB        RHOC        DPOR         GR         NPOR    
# ...
  1508.0000      8.3695      2.1308     -0.0107     31.4667    151.1767     23.6894
  1508.1000      8.3695      2.1544      0.0237     30.0353    155.3969     24.0767
  1508.2000      8.3695      2.1956      0.0651     27.5388    162.3329     24.0502
  1508.3000      8.3683      2.2436      0.0935     24.6294    165.6839     23.6888
  1508.4000      8.3683      2.2941      0.0690     21.5711    160.0829     23.2457
  1508.5000      8.3648      2.3543      0.1151     17.9208    148.3560     22.7484
  1508.6000      8.3648      2.4189      0.1543     14.0033    137.9827     22.3303
  1508.7000      8.3648      2.4693      0.1930     10.9501    134.9214     22.4277
  1508.8000      8.3670      2.4958      0.1799      9.3442    141.2229     23.0181
  1508.9000      8.3670      2.5028      0.2096      8.9242    153.1038     23.4121
  1509.0000      8.3588      2.4983      0.2063      9.1968    162.2338     23.3547
  1509.1000      8.3588      2.4932      0.1264      9.5022    165.1837     23.2846
  1509.2000      8.3588      2.4968      0.1254      9.2877    165.3424     23.4392
  1509.3000      8.3789      2.5103      0.1163      8.4691    162.9023     23.5729
  1509.4000      8.3789      2.5310      0.1445      7.2146    158.2465     23.6393
  1509.5000      8.4514      2.5493      0.1335      6.1009    154.7526     24.1161
  1509.6000      8.4514      2.5542      0.1314      5.8032    153.1355     25.1694
  1509.7000      8.4514      2.5441      0.1381      6.4167    150.3905     26.4164
  1509.8000      8.4270      2.5306      0.0981      7.2363    143.4506     27.3425
  1509.9000      8.4270      2.5302      0.0628      7.2629    134.1415     27.4551
  1510.0000      8.4150      2.5404      0.0926      6.6395    127.2062     26.9679
  1510.1000      8.4150      2.5432      0.0527      6.4728    124.7393     26.4420
  1510.2000      8.4150      2.5374      0.0117      6.8221    124.6893     25.8970
  1510.3000      8.3889      2.5315      0.0102      7.1795    123.2954     25.1637
  1510.4000      8.3889      2.5215      0.0550      7.7887    118.3756     24.2760
  1510.5000      8.2636      2.5047      0.0032      8.8085    110.0858     23.5731
  1510.6000      8.2636      2.4875      0.0486      9.8487    101.2225     23.2984
  1510.7000      8.2636      2.4752     -0.0102     10.5947     96.7239     23.4731
  1510.8000      8.1945      2.4728      0.0046     10.7383     97.3142     23.9681
  1510.9000      8.1945      2.4815     -0.0317     10.2116     99.7944     24.4285
  1511.0000      8.1317      2.5055      0.0165      8.7579    101.6759     24.8578
  1511.1000      8.1317      2.5389      0.0644      6.7349    102.2801     25.6309
  1511.2000      8.1317      2.5667      0.0673      5.0478    104.0604     26.6881
  1511.3000      8.0915      2.5915      0.0760      3.5474    108.2855     27.5062
  1511.4000      8.0915      2.6186      0.1091      1.9002    111.7645     27.9176
  1511.5000      8.0671      2.6494      0.1292      0.0346    112.8968     28.0477
  1511.6000      8.0671      2.6849      0.1174     -2.1127    113.7898     28.0462
  1511.7000      8.0671      2.7143      0.1208     -3.8997    115.0988     28.2404
  1511.8000      8.0787      2.7300      0.0765     -4.8498    111.3189     28.5576
  1511.9000      8.0787      2.7463      0.0412     -5.8344     98.9337     28.5394
  1512.0000      8.0703      2.7633      0.0422     -6.8686     87.1574     28.0600
  1512.1000      8.0703      2.7483      0.0591     -5.9563     83.4761     27.1944
  1512.2000      8.0703      2.6931     -0.0442     -2.6127     82.4624     25.9667
  1512.3000      8.0833      2.6439     -0.1387      0.3692     77.6245     24.5348
  1512.4000      8.0833      2.6256     -0.0205      1.4770     70.5294     23.1829
  1512.5000      8.0857      2.6139     -0.0562      2.1905     64.7329     22.2542
  1512.6000      8.0857      2.5988      0.0046      3.1033     59.9296     21.5684
  1512.7000      8.0857      2.5819      0.0565      4.1302     54.3499     20.4497
  1512.8000      8.1004      2.5590      0.0018      5.5158     48.5125     18.8296
  1512.9000      8.1004      2.5411     -0.0103      6.6021     44.6534     17.6617
  1513.0000      8.0666      2.5430     -0.0115      6.4862     43.6499     17.3478
  1513.1000      8.0666      2.5689      0.0109      4.9151     45.4060     17.2638
  1513.2000      8.0666      2.6045      0.0491      2.7599     51.3491     17.0388
  1513.3000      8.0724      2.6205      0.1056      1.7883     58.3893     16.8068
  1513.4000      8.0724      2.6118      0.0631      2.3144     59.1144     16.5652
  1513.5000      8.0438      2.5974      0.0977      3.1881     54.4957     16.4450
  1513.6000      8.0438      2.5780      0.1270      4.3651     50.3486     16.5611
  1513.7000      8.0438      2.5542      0.0702      5.8076     48.4855     16.7714
  1513.8000      8.0360      2.5496      0.0217      6.0849     48.1393     17.1058
  1513.9000      8.0360      2.5634      0.0888      5.2471     48.1886     17.5271
  1514.0000      8.0392      2.5639      0.1253      5.2197     48.5067     17.6939
  1514.1000      8.0392      2.5489      0.0315      6.1263     48.1265     17.4397
  1514.2000      8.0392      2.5440      0.0748      6.4258     47.1683     17.0841
  1514.3000      8.0447      2.5467      0.0925      6.2603     48.4713     17.0399
  1514.4000      8.0447      2.5402      0.0334      6.6533     53.4136     17.2805
  1514.5000      8.0545      2.5261      0.0401      7.5121     59.4577     17.5777
  1514.6000      8.0545      2.5179     -0.0182      8.0085     63.3807     17.7972
  1514.7000      8.0545      2.5262      0.0236      7.5052     65.2046     17.8991
  1514.8000      8.0515      2.5371      0.1110      6.8413     64.9892     17.9875
  1514.9000      8.0515      2.5391      0.0596      6.7225     63.4563     18.1637
  1515.0000      8.0490      2.5457      0.0448      6.3235     64.6352     18.5148
  1515.1000      8.0490      2.5581      0.1495      5.5691     68.7326     19.0132
  1515.2000      8.0490      2.5626      0.0715      5.2985     71.9849     19.2285
  1515.3000      8.0406      2.5524      0.1069      5.9124     72.3480     19.0520
  1515.4000      8.0406      2.5269      0.0659      7.4589     70.9447     19.1736
  1515.5000      8.0360      2.5064      0.0410      8.7001     70.9400     19.9941
  1515.6000      8.0360      2.5214      0.0256      7.7937     73.3639     21.0392
  1515.7000      8.0360      2.5724      0.1054      4.7036     76.7558     21.5469
  1515.8000      8.0448      2.6216      0.1666      1.7198     80.1616     21.4393
  1515.9000      8.0448      2.6398      0.1156      0.6208     85.1513     21.3470
  1516.0000      8.0330      2.6317      0.1484      1.1113     92.5180     21.6349
  1516.1000      8.0330      2.6122      0.1125      2.2936     98.6678     22.3049
  1516.2000      8.0330      2.5988      0.1266      3.1042    101.3374     23.2355
  1516.3000      8.0289      2.6019      0.0939      2.9138    101.7977     24.1344
  1516.4000      8.0289      2.6122      0.0901      2.2911    102.0665     24.6389
  1516.5000      8.0179      2.6091      0.0562      2.4792    105.3005     24.7697
  1516.6000      8.0179      2.5847      0.0785      3.9586    110.1067     24.8260
  1516.7000      8.0179      2.5508      0.0157      6.0133    112.5957     25.0773
  1516.8000      8.0186      2.5255     -0.0002      7.5479    112.6748     25.5504
  1516.9000      8.0186      2.5169      0.0085      8.0685    112.1490     26.0258
  1517.0000      8.0609      2.5248     -0.0199      7.5858    112.4982     26.2926
  1517.1000      8.0609      2.5440      0.0213      6.4257    115.9079     26.4454
  1517.2000      8.0609      2.5593      0.0394      5.4990    121.3136     26.6870
  1517.3000      8.0642      2.5606      0.0730      5.4194    123.9320     26.7699
  1517.4000      8.0642      2.5532      0.0062      5.8691    121.7864     26.5108
  1517.5000      8.0714      2.5492      0.0454      6.1064    116.4506     26.2993
