~Version Information
VERS.                      2.0: CWLS Log ASCII Standard - VERSION 2.0
WRAP.                       NO: One line per depth step
~Well Information Block
STRT.FT               300.0000: 
STOP.FT               871.2500: 
STEP.FT                 0.2500: 
NULL.                -999.2500: 
COMP.          Pioneer Natural Resources: COMPANY
WELL.            Hustler 12-17: WELL
FLD.           Purgatoire River: FIELD
LOC.           2150' FNL & 450' FWL: LOCATION
PROV.                 Colorado: PROVINCE
CNTY.               Las Animas: COUNTRY
SRVC.                Patterson: SERVICE COMPANY
DATE.          Mon Dec 20 09:25:34 2004: LOG DATE
UWI.           05 071 08236 00: UNIQUE WELL ID
~Curve Information Block
DEPT.FT            0 000 00 00: Depth
SN.Ohm-m                      : IEL Short Normal
SP.mV                         : IEL Spontaneous Potential
DIR.Ohm-m                     : IEL Induction Resistivity
GR.GAPI                       : Gamma Ray
~Parameter Information Block
~A  Depth        SN          SP         DIR          GR     
# ...
   802.5000    645.9807   -800.0005     15.1229    156.1604
   802.7500    645.9807   -800.0005     15.1663    155.7763
   803.0000    645.9807   -800.0005     15.1956    154.7649
   803.2500    645.9807   -800.0005     15.1914    153.8246
   803.5000    645.9807   -800.0005     15.1493    151.7515
   803.7500    645.9807   -800.0005     15.0784    150.2291
   804.0000    645.9807   -800.0005     14.9919    149.5708
   804.2500    645.9807   -800.0005     14.8997    151.2134
   804.5000    645.9807   -800.0005     14.8047    156.1275
   804.7500    645.9807   -800.0005     14.7033    159.0811
   805.0000    645.9807   -800.0005     14.5895    159.2953
   805.2500    645.9807   -800.0005     14.4619    155.8517
   805.5000    645.9807   -800.0005     14.3298    147.5761
   805.7500    645.9807   -800.0005     14.2132    142.5765
   806.0000    645.9807   -800.0005     14.1361    139.4565
   806.2500    645.9807   -800.0005     14.1150    140.7395
   806.5000    645.9807   -800.0005     14.1493    145.6681
   806.7500    645.9807   -800.0005     14.2181    149.0517
   807.0000    645.9807   -800.0005     14.2868    151.8654
   807.2500    645.9807   -800.0005     14.3215    152.0309
   807.5000    645.9807   -800.0005     14.3019    151.1093
   807.7500    645.9807   -800.0005     14.2284    150.7765
   808.0000    645.9807   -800.0005     14.1172    151.8713
   808.2500    645.9807   -800.0005     13.9912    153.7928
   808.5000    645.9807   -800.0005     13.8704    157.7143
   808.7500    645.9807   -800.0005     13.7686    160.2700
   809.0000    645.9807   -800.0005     13.6957    163.0406
   809.2500    645.9807   -800.0005     13.6632    163.9254
   809.5000    645.9807   -800.0005     13.6851    163.5601
   809.7500    645.9807   -800.0005     13.7752    162.2088
   810.0000    645.9807   -800.0005     13.9401    159.0296
   810.2500    645.9807   -800.0005     14.1744    156.3491
   810.5000    645.9807   -800.0005     14.4605    151.1585
   810.7500    645.9807   -800.0005     14.7743    146.8171
   811.0000    645.9807   -800.0005     15.0923    140.0612
   811.2500    645.9807   -800.0005     15.3958    136.5454
   811.5000    645.9807   -800.0005     15.6689    134.3697
   811.7500    645.9807   -800.0005     15.8948    135.4262
   812.0000    645.9807   -800.0005     16.0558    140.7960
   812.2500    645.9807   -800.0005     16.1368    146.3963
   812.5000    645.9807   -800.0005     16.1292    155.8443
   812.7500    645.9807   -800.0005     16.0328    161.3253
   813.0000    645.9807   -800.0005     15.8557    166.1971
   813.2500    645.9807   -800.0005     15.6161    166.7077
   813.5000    645.9807   -800.0005     15.3418    164.0763
   813.7500    645.9807   -800.0005     15.0662    161.1890
   814.0000    645.9807   -800.0005     14.8223    157.1418
   814.2500    645.9807   -800.0005     14.6365    155.2166
   814.5000    645.9807   -800.0005     14.5252    153.5626
   814.7500    645.9807   -800.0005     14.4931    153.1455
   815.0000    645.9807   -800.0005     14.5339    153.0630
   815.2500    645.9807   -800.0005     14.6319    152.7797
   815.5000    645.9807   -800.0005     14.7660    150.9648
   815.7500    645.9807   -800.0005     14.9133    148.7923
   816.0000    645.9807   -800.0005     15.0549    145.3209
   816.2500    645.9807   -800.0005     15.1792    143.8295
   816.5000    645.9807   -800.0005     15.2830    143.8270
   816.7500    645.9807   -800.0005     15.3695    145.3973
   817.0000    645.9807   -800.0005     15.4465    149.7682
   817.2500    645.9807   -800.0005     15.5241    153.6612
   817.5000    645.9807   -800.0005     15.6109    159.8797
   817.7500    645.9807   -800.0005     15.7109    163.2718
   818.0000    645.9807   -800.0005     15.8235    165.4835
   818.2500    645.9807   -800.0005     15.9472    164.7476
   818.5000    645.9807   -800.0005     16.0800    161.6728
   818.7500    645.9807   -800.0005     16.2180    159.5645
   819.0000    645.9807   -800.0005     16.3529    157.6318
   819.2500    645.9807   -800.0005     16.4735    157.2083
   819.5000    645.9807   -800.0005     16.5709    157.4615
   819.7500    645.9807   -800.0005     16.6446    158.0751
   820.0000    645.9807   -800.0005     16.7049    159.5531
   820.2500    645.9807   -800.0005     16.7675    160.7048
   820.5000    645.9807   -800.0005     16.8432    161.8578
   820.7500    645.9807   -800.0005     16.9278    161.6927
   821.0000    645.9807   -800.0005     17.0024    159.6446
   821.2500    645.9807   -800.0005     17.0440    157.2923
   821.5000    645.9807   -800.0005     17.0373    152.9877
   821.7500    645.9807   -800.0005     16.9799    149.9725
   822.0000    645.9807   -800.0005     16.8806    145.8396
   822.2500    645.9807   -800.0005     16.7559    143.7010
   822.5000    645.9807   -800.0005     16.6273    141.8341
   822.7500    645.9807   -800.0005     16.5142    141.6020
   823.0000    645.9807   -800.0005     16.4264    142.8810
   823.2500    645.9807   -800.0005     16.3594    144.6039
   823.5000    645.9807   -800.0005     16.3020    147.2306
   823.7500    645.9807   -800.0005     16.2494    148.2752
   824.0000    645.9807   -800.0005     16.2112    149.0100
   824.2500    645.9807   -800.0005     16.2066    149.7891
   824.5000    645.9807   -800.0005     16.2513    152.1096
   824.7500    645.9807   -800.0005     16.3470    153.8785
   825.0000    645.9807   -800.0005     16.4811    155.4656
   825.2500    645.9807   -800.0005     16.6345    155.6896
   825.5000    645.9807   -800.0005     16.7925    156.1553
   825.7500    645.9807   -800.0005     16.9527    157.6465
   826.0000    645.9807   -800.0005     17.1212    162.1884
   826.2500    645.9807   -800.0005     17.3000    165.7558
   826.5000    645.9807   -800.0005     17.4779    169.1542
   826.7500    645.9807   -800.0005     17.6355    169.3013
   827.0000    645.9807   -800.0005     17.7628    167.5266
   827.2500    645.9807   -800.0005     17.8710    166.3662
   827.5000    645.9807   -800.0005     17.9842    165.6968
   827.7500    645.9807   -800.0005     18.1195    165.4252
   828.0000    645.9807   -800.0005     18.2714    163.6812
   828.2500    645.9807   -800.0005     18.4093    161.1898
   828.5000    645.9807   -800.0005     18.4889    155.8801
   828.7500    645.9807   -800.0005     18.4703    151.7558
   829.0000    645.9807   -800.0005     18.3373    145.3823
   829.2500    645.9807   -800.0005     18.1043    141.5663
   829.5000    645.9807   -800.0005     17.8082    137.8646
   829.7500    645.9807   -800.0005     17.4915    137.3047
   830.0000    645.9807   -800.0005     17.1868    138.9575
   830.2500    645.9807   -800.0005     16.9108    140.9067
   830.5000    645.9807   -800.0005     16.6662    143.8858
   830.7500    645.9807   -800.0005     16.4470    145.6876
   831.0000    645.9807   -800.0005     16.2442    148.0769
   831.2500    645.9807   -800.0005     16.0483    149.1322
   831.5000    645.9807   -800.0005     15.8519    148.7315
   831.7500    645.9807   -800.0005     15.6500    146.8034
   832.0000    645.9807   -800.0005     15.4410    142.8627
   832.2500    645.9807   -800.0005     15.2275    141.2641
   832.5000    645.9807   -800.0005     15.0147    142.3661
   832.7500    645.9807   -800.0005     14.8069    145.0649
   833.0000    645.9807   -800.0005     14.6032    150.0114
   833.2500    645.9807   -800.0005     14.3943    153.1542
   833.5000    645.9807   -800.0005     14.1682    157.5927
   833.7500    645.9807   -800.0005     13.9212    160.3577
   834.0000    645.9807   -800.0005     13.6659    163.6215
   834.2500    645.9807   -800.0005     13.4292    165.0203
   834.5000    645.9807   -800.0005     13.2382    166.4899
   834.7500    645.9807   -800.0005     13.1063    167.4421
   835.0000    645.9807   -800.0005     13.0280    168.6451
   835.2500    645.9807   -800.0005     12.9828    168.7179
   835.5000    645.9807   -800.0005     12.9428    166.8207
   835.7500    645.9807   -800.0005     12.8791    164.1143
