~Version Information
VERS.                      2.0: CWLS Log ASCII Standard - VERSION 2.0
WRAP.                       NO: One line per depth step
~Well Information Block
STRT.FT               454.0000: 
STOP.FT              1392.0000: 
STEP.FT                 0.2500: 
NULL.                -999.2500: 
COMP.          Pioneer Natural Resources: COMPANY
WELL.          Lorencito 6-3-34-66: WELL
FLD.           Purgatoire River: FIELD
LOC.           2545' FNL & 1914' FWL: LOCATION
STAT.                 Colorado: State
CNTY.               Las Animas: COUNTY
CTRY. USA : Country
SECT. 3 : Section
TOWN. 34S : Township
RANG. 66W : Range
SRVC.                Patterson: SERVICE COMPANY
DATE.          Fri Sep 09 22:07:39 2005: LOG DATE
API.           05 071 08369 00: UNIQUE WELL ID
~Curve Information Block
DEPT.FT            0 000 00 00: Depth
SN.Ohm-m                      : IEL Short Normal
SP.mV                         : IEL Spontaneous Potential
DIR.Ohm-m                     : IEL Induction Resistivity
GR.GAPI                       : Gamma Ray
~Parameter Information Block
~A  Depth        SN          SP         DIR          GR     
# ...
   923.0000     14.7493    -20.4198     11.5608    103.9426
   923.2500     14.4019    -20.8454     11.2877    108.5481
   923.5000     13.9974    -21.3028     11.0299    118.4405
   923.7500     13.6019    -21.7436     10.7859    125.2981
   924.0000     13.3192    -22.0912     10.5535    132.6311
   924.2500     13.2045    -22.3067     10.3312    134.2903
   924.5000     13.1909    -22.4305     10.1184    132.4167
   924.7500     13.1057    -22.5359      9.9166    129.8358
   925.0000     12.7770    -22.6573      9.7285    126.9401
   925.2500     12.1625    -22.7946      9.5567    126.6681
   925.5000     11.3925    -22.9730      9.4041    128.7253
   925.7500     10.6905    -23.2535      9.2722    130.8541
   926.0000     10.2367    -23.6708      9.1619    133.2695
   926.2500     10.0806    -24.1864      9.0739    133.8727
   926.5000     10.1541    -24.7245      9.0088    134.0143
   926.7500     10.3481    -25.2467      8.9682    134.2671
   927.0000     10.5803    -25.7709      8.9539    134.9359
   927.2500     10.8106    -26.3168      8.9680    135.1159
   927.5000     11.0182    -26.8591      9.0114    134.8590
   927.7500     11.1833    -27.3416      9.0830    134.8962
   928.0000     11.2921    -27.7259      9.1789    136.0687
   928.2500     11.3530    -28.0183      9.2927    137.3082
   928.5000     11.3975    -28.2594      9.4157    138.4862
   928.7500     11.4594    -28.4912      9.5393    138.2718
   929.0000     11.5532    -28.7211      9.6559    136.7532
   929.2500     11.6694    -28.9132      9.7609    135.5920
   929.5000     11.7844    -29.0190      9.8523    134.4662
   929.7500     11.8735    -29.0122      9.9305    134.1200
   930.0000     11.9227    -28.8926      9.9970    133.7726
   930.2500     11.9402    -28.6765     10.0531    133.6081
   930.5000     11.9613    -28.3980     10.1001    133.8699
   930.7500     12.0376    -28.1081     10.1394    134.5264
   931.0000     12.2103    -27.8521     10.1734    135.9353
   931.2500     12.4821    -27.6427     10.2062    136.8623
   931.5000     12.8050    -27.4615     10.2442    137.8619
   931.7500     13.0918    -27.2871     10.2953    138.0944
   932.0000     13.2538    -27.1130     10.3688    137.5620
   932.2500     13.2521    -26.9342     10.4737    136.6416
   932.5000     13.1327    -26.7392     10.6174    134.8560
   932.7500     13.0135    -26.5433     10.8053    133.7975
   933.0000     13.0213    -26.4209     11.0406    132.8568
   933.2500     13.2245    -26.4677     11.3259    132.5782
   933.5000     13.6194    -26.7264     11.6651    132.2624
   933.7500     14.1798    -27.1738     12.0671    132.0757
   934.0000     14.9240    -27.7705     12.5477    132.1190
   934.2500     15.9431    -28.4837     13.1320    132.3472
   934.5000     17.3837    -29.2663     13.8540    132.1358
   934.7500     19.4197    -30.0426     14.7540    130.7507
   935.0000     22.2331    -30.7314     15.8744    125.1529
   935.2500     25.9847    -31.2837     17.2513    118.3163
   935.5000     30.7505    -31.6926     18.8999    103.2118
   935.7500     36.4420    -31.9641     20.7932     90.8206
   936.0000     42.7597    -32.0779     22.8359     71.8135
   936.2500     49.2116    -31.9851     24.8438     60.7504
   936.5000     55.1985    -31.6439     26.5586     48.4269
   936.7500     60.1268    -31.0530     27.7136     43.1434
   937.0000     63.5104    -30.2496     28.1343     38.8376
   937.2500     65.0423    -29.2868     27.8110     37.8770
   937.5000     64.6370    -28.2170     26.8887     38.8622
   937.7500     62.4394    -27.0911     25.5893     41.2660
   938.0000     58.7876    -25.9703     24.1292     48.2517
   938.2500     54.1266    -24.9442     22.6736     55.5226
   938.5000     48.9055    -24.1239     21.3254     69.9505
   938.7500     43.5041    -23.5879     20.1376     80.9539
   939.0000     38.2260    -23.3187     19.1266     97.1500
   939.2500     33.3384    -23.2036     18.2854    106.2945
   939.5000     29.1050    -23.1072     17.5933    115.6668
   939.7500     25.7614    -22.9441     17.0239    118.7788
   940.0000     23.4388    -22.6986     16.5488    120.4058
   940.2500     22.0925    -22.3936     16.1446    121.2016
   940.5000     21.5019    -22.0491     15.7946    124.2030
   940.7500     21.3541    -21.6804     15.4909    127.4762
   941.0000     21.3713    -21.3409     15.2317    132.6059
   941.2500     21.4098    -21.1298     15.0188    134.9750
   941.5000     21.4733    -21.1090     14.8530    135.9752
   941.7500     21.6417    -21.2241     14.7306    135.3015
   942.0000     21.9728    -21.3357     14.6423    133.9451
   942.2500     22.4506    -21.3177     14.5738    133.6399
   942.5000     23.0019    -21.1289     14.5088    133.9896
   942.7500     23.5413    -20.8472     14.4333    133.9145
   943.0000     24.0004    -20.6449     14.3387    132.1316
   943.2500     24.3348    -20.6668     14.2243    129.8868
   943.5000     24.5196    -20.9022     14.0961    125.8062
   943.7500     24.5366    -21.1940     13.9648    123.1799
   944.0000     24.3562    -21.3740     13.8419    120.6692
   944.2500     23.9356    -21.3759     13.7358    120.7300
   944.5000     23.2526    -21.2541     13.6502    123.4256
   944.7500     22.3474    -21.1365     13.5825    125.9941
   945.0000     21.3218    -21.1350     13.5257    129.3061
   945.2500     20.2883    -21.2476     13.4710    130.8524
   945.5000     19.3188    -21.3426     13.4117    132.3418
   945.7500     18.4408    -21.2696     13.3461    132.7589
   946.0000     17.6703    -20.9963     13.2798    132.2097
   946.2500     17.0412    -20.6317     13.2242    130.9468
   946.5000     16.6060    -20.3176     13.1944    127.8495
   946.7500     16.4129    -20.1036     13.2061    125.3418
   947.0000     16.4753    -19.9277     13.2722    122.0644
   947.2500     16.7527    -19.7222     13.4025    120.9607
   947.5000     17.1589    -19.5251     13.6024    121.4760
   947.7500     17.6088    -19.4580     13.8735    122.8429
   948.0000     18.0786    -19.5998     14.2139    124.8826
   948.2500     18.6328    -19.9082     14.6181    125.3500
   948.5000     19.3873    -20.2615     15.0765    123.6119
   948.7500     20.4272    -20.5540     15.5771    120.4570
   949.0000     21.7440    -20.7544     16.1052    112.9135
   949.2500     23.2437    -20.8865     16.6457    106.7753
   949.5000     24.8217    -20.9704     17.1871     97.9466
   949.7500     26.4371    -20.9998     17.7230     93.4268
   950.0000     28.1227    -20.9789     18.2526     89.5309
   950.2500     29.9273    -20.9573     18.7779     88.4037
   950.5000     31.8457    -21.0082     19.2982     87.0960
   950.7500     33.7897    -21.1764     19.8032     85.7277
   951.0000     35.6111    -21.4567     20.2717     83.2925
   951.2500     37.1518    -21.8207     20.6749     82.1446
   951.5000     38.2965    -22.2583     20.9853     81.7925
   951.7500     39.0100    -22.7871     21.1899     82.3657
   952.0000     39.3393    -23.4249     21.2974     83.9686
   952.2500     39.3816    -24.1597     21.3387     85.0818
   952.5000     39.2470    -24.9576     21.3551     85.6175
   952.7500     39.0366    -25.7993     21.3888     84.7465
   953.0000     38.8337    -26.6974     21.4729     82.2623
   953.2500     38.6982    -27.6732     21.6285     80.8636
   953.5000     38.6634    -28.7316     21.8646     80.5635
   953.7500     38.7365    -29.8693     22.1777     81.6393
   954.0000     38.8962    -31.0804     22.5508     84.2559
   954.2500     39.0857    -32.3235     22.9490     85.9328
   954.5000     39.2200    -33.5044     23.3196     87.3381
   954.7500     39.2303    -34.5300     23.6003     87.3031
   955.0000     39.1313    -35.3714     23.7349     86.0841
   955.2500     39.0472    -36.0555     23.6972     84.9023
   955.5000     39.1482    -36.6143     23.5030     83.1474
   955.7500     39.5386    -37.0587     23.2088     82.0121
   956.0000     40.1943    -37.3865     22.8908     79.8668
   956.2500     40.9996    -37.6003     22.6205     77.8321
