~Version Information
VERS.                      2.0: CWLS Log ASCII Standard - VERSION 2.0
WRAP.                       NO: One line per depth step
~Well Information Block
STRT.FT               375.0000: 
STOP.FT              2637.0000: 
STEP.FT                 0.1000: 
NULL.                -999.2500: 
COMP.          Pioneer Natural Resources: COMPANY
WELL.            Cortina 23-25: WELL
FLD.           Purgatoire River: FIELD
LOC.           2344' FWL & 2526' FSL----: LOCATION
PROV.                 Colorado: PROVINCE
CNTY.               Las Animas: COUNTRY
SRVC.                Patterson: SERVICE COMPANY
DATE.          Thu Mar 24 07:44:45 2005: LOG DATE
UWI.           05 071 08340 00: UNIQUE WELL ID
~Curve Information Block
DEPT.FT            0 000 00 00: Depth
DCAL.in                       : CDL Caliper
DPOR.pu                       : CDL Density Porosity
NPOR.pu                       : Neutron Porosity
RHOB.g/cc                     : CDL Bulk Density
RHOC.g/cc                     : CDL Density Correction
GR.GAPI                       : Gamma Ray
~Parameter Information Block
~A  Depth       DCAL        DPOR        NPOR        RHOB        RHOC         GR     
# ...
   826.2000      8.1639      5.7614     29.2161      2.5549      0.0278    134.1226
   826.3000      8.1650      4.8891     28.4987      2.5693      0.0530    140.1676
   826.4000      8.1650      4.1635     27.9744      2.5813      0.0477    146.2086
   826.5000      8.1639      4.2861     27.8990      2.5793      0.0750    148.6825
   826.6000      8.1639      5.3879     27.9750      2.5611      0.0613    147.5938
   826.7000      8.1639      6.5548     28.0870      2.5418      0.0288    146.1496
   826.8000      8.1611      7.0422     28.3144      2.5338      0.0031    146.9682
   826.9000      8.1611      7.4931     28.5728      2.5264      0.0645    149.1057
   827.0000      8.1604      7.7876     28.7668      2.5215     -0.0022    151.8840
   827.1000      8.1604      6.6574     28.8824      2.5402      0.0490    155.2931
   827.2000      8.1604      4.8984     28.9360      2.5692      0.0925    155.3393
   827.3000      8.1614      4.4601     28.7978      2.5764      0.0757    152.0096
   827.4000      8.1614      5.1019     28.3429      2.5658      0.0247    152.0297
   827.5000      8.1606      5.2943     27.8812      2.5626      0.0610    155.1068
   827.6000      8.1606      4.7376     27.8333      2.5718      0.0445    153.0924
   827.7000      8.1606      3.9539     27.9272      2.5848      0.0315    145.5080
   827.8000      8.1606      3.3610     27.7325      2.5945      0.0547    138.5091
   827.9000      8.1606      3.7320     27.3474      2.5884      0.0932    134.3216
   828.0000      8.1617      5.6736     27.1224      2.5564      0.0819    135.1355
   828.1000      8.1617      8.1369     27.2760      2.5157      0.0411    139.3342
   828.2000      8.1617      9.0827     27.6371      2.5001     -0.0295    139.9641
   828.3000      8.1619      7.9589     27.8595      2.5187      0.0413    137.5971
   828.4000      8.1619      6.3554     27.9460      2.5451      0.0663    138.9190
   828.5000      8.1623      5.5554     28.2277      2.5583      0.0393    143.5583
   828.6000      8.1623      5.2920     28.5048      2.5627      0.0544    146.8910
   828.7000      8.1623      5.2271     28.2614      2.5638      0.0216    148.4206
   828.8000      8.1633      5.5547     27.7200      2.5583      0.0516    145.8051
   828.9000      8.1633      6.0799     27.3344      2.5497      0.0107    139.6471
   829.0000      8.1640      6.2084     27.0737      2.5476      0.0355    136.2827
   829.1000      8.1640      6.0490     26.7590      2.5502      0.0529    137.5435
   829.2000      8.1640      5.9792     26.3074      2.5513      0.0455    142.7197
   829.3000      8.1632      6.0124     25.7412      2.5508      0.0919    149.6794
   829.4000      8.1632      5.7752     25.0514      2.5547      0.0165    151.5593
   829.5000      8.1614      4.7495     24.2841      2.5716      0.0567    145.7786
   829.6000      8.1614      3.4940     23.6545      2.5923      0.1070    137.0797
   829.7000      8.1614      2.5463     23.0773      2.6080      0.0703    129.2536
   829.8000      8.1610      1.1447     22.4682      2.6311      0.0796    122.6152
   829.9000      8.1610     -0.8897     22.2248      2.6647      0.1024    116.1258
   830.0000      8.1612     -2.7784     22.3750      2.6958      0.0842    108.7978
   830.1000      8.1612     -3.9681     22.4628      2.7155      0.0754    100.4440
   830.2000      8.1612     -4.1559     22.6556      2.7186      0.0950     91.3363
   830.3000      8.1604     -3.6714     23.2273      2.7106      0.0716     83.8372
   830.4000      8.1604     -3.4947     23.7149      2.7077      0.0708     81.5227
   830.5000      8.1603     -3.5499     23.8011      2.7086      0.0714     80.3657
   830.6000      8.1603     -2.8346     23.7510      2.6968      0.0482     74.0110
   830.7000      8.1603     -1.6070     23.8651      2.6765      0.0234     64.6576
   830.8000      8.1610     -1.1424     24.4776      2.6688      0.0392     59.0467
   830.9000      8.1610     -1.5508     25.8422      2.6756      0.0789     59.4258
   831.0000      8.1622     -1.6377     27.7382      2.6770      0.0335     61.6261
   831.1000      8.1622     -0.7804     29.4508      2.6629      0.0253     62.8144
   831.2000      8.1622      0.8396     30.4683      2.6361      0.0185     63.4285
   831.3000      8.1618      2.7919     30.9219      2.6039      0.0116     64.6249
   831.4000      8.1618      4.3542     30.8562      2.5782      0.0023     69.8692
   831.5000      8.1595      5.1434     30.3784      2.5651      0.0227     79.7021
   831.6000      8.1595      5.2496     30.0732      2.5634     -0.0093     88.3997
   831.7000      8.1595      5.1536     30.2097      2.5650      0.0178     94.7897
   831.8000      8.1581      5.7647     30.3062      2.5549      0.0317    104.7018
   831.9000      8.1581      7.1180     29.8627      2.5326     -0.0041    118.4288
   832.0000      8.1631      8.4596     28.8960      2.5104     -0.0114    127.7343
   832.1000      8.1631      9.0884     27.5623      2.5000     -0.0008    128.7642
   832.2000      8.1631      8.3524     26.2742      2.5122      0.0293    126.5607
   832.3000      8.1852      6.6225     25.6622      2.5407      0.1168    126.0179
   832.4000      8.1852      5.3969     25.6495      2.5610      0.1159    128.0475
   832.5000      8.2188      5.5798     25.7932      2.5579      0.1070    132.4697
   832.6000      8.2188      7.0141     26.1932      2.5343      0.1089    136.7285
   832.7000      8.2188      9.1406     26.7804      2.4992      0.0733    138.1063
   832.8000      8.2385     11.2640     27.2197      2.4641      0.0489    137.5421
   832.9000      8.2385     12.8631     27.7598      2.4378     -0.0050    136.3835
   833.0000      8.2419     13.8207     28.4984      2.4220     -0.0308    139.0836
   833.1000      8.2419     14.4756     28.8193      2.4112     -0.0093    147.8783
   833.2000      8.2419     15.0827     28.4895      2.4011      0.0078    154.9489
   833.3000      8.2436     15.0539     28.0233      2.4016     -0.0223    155.8447
   833.4000      8.2436     13.8295     27.8071      2.4218      0.0467    154.6853
   833.5000      8.2532     11.8831     27.6468      2.4539      0.0431    155.7522
   833.6000      8.2532      9.9138     27.1377      2.4864      0.0658    157.7442
   833.7000      8.2532      8.9984     26.4363      2.5015      0.0992    156.2434
   833.8000      8.2695     10.1114     26.0369      2.4832      0.0575    150.2914
   833.9000      8.2695     12.0241     25.8439      2.4516     -0.0156    144.6052
   834.0000      8.2862     12.7294     25.4345      2.4400      0.0268    142.0305
   834.1000      8.2862     12.3174     24.8105      2.4468      0.0149    139.2664
   834.2000      8.2862     11.7762     24.3779      2.4557      0.0058    135.3126
   834.3000      8.2985     11.2143     24.2724      2.4650      0.0086    132.9395
   834.4000      8.2985     10.0289     24.4103      2.4845     -0.0146    133.1134
   834.5000      8.3137      8.4589     24.7950      2.5104      0.0650    136.3458
   834.6000      8.3137      8.4049     25.2534      2.5113      0.1144    140.7280
   834.7000      8.3137     10.9260     25.3612      2.4697      0.0646    141.2466
   834.8000      8.3315     15.2719     25.0323      2.3980      0.0333    137.2368
   834.9000      8.3315     20.9812     24.5137      2.3038     -0.0278    132.8514
   835.0000      8.3442     27.9496     23.9109      2.1888     -0.0797    133.2444
   835.1000      8.3442     35.3986     23.4153      2.0659     -0.1310    134.5150
   835.2000      8.3442     42.7974     22.8786      1.9438     -0.1259    128.5857
   835.3000      8.3474     50.6170     21.6519      1.8148     -0.1498    115.6964
   835.4000      8.3474     58.9296     19.5810      1.6777     -0.1800    102.4655
   835.5000      8.3452     66.9826     17.1946      1.5448     -0.1911     94.3891
   835.6000      8.3452     73.7452     14.9988      1.4332     -0.2345     88.1752
   835.7000      8.3452     78.4377     13.1456      1.3558     -0.1485     79.2145
