~Version Information
VERS.                      2.0: CWLS Log ASCII Standard - VERSION 2.0
WRAP.                       NO: One line per depth step
~Well Information Block
STRT.FT               765.4000: 
STOP.FT              2581.2000: 
STEP.FT                 0.1000: 
NULL.                -999.2500: 
COMP.          Petrogulf Corporation: COMPANY
WELL.            Montoya 7-12V: WELL
FLD.           Purgatorie River: FIELD
LOC.           728' FWL & 1764' FNL: LOCATION
CNTY.               Las Animas: COUNTY
SRVC.                         : SERVICE COMPANY
DATE.          Fri Feb 20 09:23:58 2004: LOG DATE
UWI.           05-071-07887-00: UNIQUE WELL ID
STAT.                 Colorado: STATE
~Curve Information Block
DEPT.FT            0 000 00 00: Depth
DCAL.in                       : CDL Caliper
RHOB.g/cc                     : CDL Bulk Density
RHOC.g/cc                     : CDL Density Correction
DPOR.pu                       : CDL Density Porosity
GR.GAPI                       : Gamma Ray
NPOR.pu                       : Neutron Porosity
~Parameter Information Block
~A  Depth       DCAL        RHOB        RHOC        DPOR         GR         NPOR    
# ...
  1610.2000      8.2811      2.5166      0.0845      8.0873    123.4535     29.2478
  1610.3000      8.2877      2.5175      0.0654      8.0300    118.1983     29.5898
  1610.4000      8.2877      2.5299      0.0378      7.2811    117.4886     29.8500
  1610.5000      8.2858      2.5511      0.0882      5.9919    122.0713     29.8380
  1610.6000      8.2858      2.5552      0.0802      5.7453    123.3849     29.3736
  1610.7000      8.2858      2.5267      0.0856      7.4753    121.4856     28.9005
  1610.8000      8.3265      2.4714      0.0787     10.8255    120.8182     29.0444
  1610.9000      8.3265      2.3988      0.0323     15.2255    123.1035     29.6598
  1611.0000      8.3446      2.3128     -0.0069     20.4389    129.6880     30.4150
  1611.1000      8.3446      2.2192      0.0060     26.1095    134.5251     31.2038
  1611.2000      8.3446      2.1412     -0.0637     30.8370    124.9822     32.0404
  1611.3000      8.3133      2.0962     -0.0608     33.5641    101.3577     33.3223
  1611.4000      8.3133      2.0389      0.0386     37.0359     78.0969     35.0470
  1611.5000      8.3147      1.9171     -0.0446     44.4165     67.1706     36.3996
  1611.6000      8.3147      1.7812     -0.0960     52.6522     66.2776     37.1300
  1611.7000      8.3147      1.7150     -0.0385     56.6678     66.0493     37.6757
  1611.8000      8.3046      1.7157      0.0283     56.6236     65.6308     37.9283
  1611.9000      8.3046      1.7408      0.0373     55.1006     67.3312     37.5801
  1612.0000      8.3916      1.7968     -0.0118     51.7063     70.5971     36.9670
  1612.1000      8.3916      1.9050      0.1256     45.1543     76.1195     36.6164
  1612.2000      8.3916      2.0322      0.2037     37.4405     83.1310     36.1113
  1612.3000      8.4174      2.1364      0.1488     31.1290     91.5263     34.7881
  1612.4000      8.4174      2.2282      0.1538     25.5664     97.6967     33.2293
  1612.5000      8.3224      2.3308      0.1852     19.3462     96.2866     32.4916
  1612.6000      8.3224      2.4281      0.1905     13.4473     91.3363     32.5989
  1612.7000      8.3224      2.4896      0.1857      9.7211     91.3581     32.5582
  1612.8000      8.3122      2.5195      0.1108      7.9102    101.7029     31.9566
  1612.9000      8.3122      2.5383      0.2147      6.7687    116.2940     31.4571
  1613.0000      8.3091      2.5397      0.2489      6.6846    122.9491     31.4583
  1613.1000      8.3091      2.5201      0.2217      7.8723    120.8767     31.7810
  1613.2000      8.3091      2.5051      0.1740      8.7802    120.1084     32.1601
  1613.3000      8.3217      2.5150      0.1569      8.1838    123.0890     32.6869
  1613.4000      8.3217      2.5433      0.1786      6.4689    123.2473     33.5253
  1613.5000      8.4135      2.5728      0.1978      4.6761    117.0089     34.2607
  1613.6000      8.4135      2.5938      0.2689      3.4077    107.4096     34.4243
  1613.7000      8.4135      2.6104      0.2412      2.4029    100.5159     34.1362
  1613.8000      8.4314      2.6298      0.2025      1.2222    100.9074     33.7674
  1613.9000      8.4314      2.6412      0.2969      0.5311    107.7320     33.6011
  1614.0000      8.3869      2.6341      0.1826      0.9611    113.9407     33.5100
  1614.1000      8.3869      2.6210      0.1601      1.7575    114.8616     33.1422
  1614.2000      8.3869      2.6075      0.1793      2.5752    112.2106     32.4067
  1614.3000      8.3739      2.5870      0.0738      3.8169    108.2207     31.3755
  1614.4000      8.3739      2.5602      0.1085      5.4398    106.8932     30.3672
  1614.5000      8.3357      2.5313      0.0144      7.1957    109.9688     29.6779
  1614.6000      8.3357      2.5016      0.0362      8.9954    111.3784     29.2785
  1614.7000      8.3357      2.4714      0.0017     10.8259    109.9065     29.2444
  1614.8000      8.3125      2.4447      0.0096     12.4420    108.9396     29.7704
  1614.9000      8.3125      2.4236     -0.0189     13.7238    107.7382     30.6547
  1615.0000      8.2905      2.4125     -0.0288     14.3928    106.0428     31.4985
  1615.1000      8.2905      2.4176     -0.0291     14.0834    102.6468     31.9654
  1615.2000      8.2905      2.4412     -0.0036     12.6572     98.9627     31.9596
  1615.3000      8.2896      2.4818      0.0818     10.1961    101.9043     31.6972
  1615.4000      8.2896      2.5307      0.1271      7.2304    111.8832     31.5205
  1615.5000      8.2909      2.5769      0.1787      4.4307    119.3989     31.6217
  1615.6000      8.2909      2.6087      0.2534      2.5011    119.0632     31.8693
  1615.7000      8.2909      2.6144      0.2252      2.1547    119.2485     32.0331
  1615.8000      8.3058      2.5901      0.1667      3.6320    124.7231     31.8803
  1615.9000      8.3058      2.5523      0.0723      5.9196    125.6272     31.3991
  1616.0000      8.3763      2.5198      0.1108      7.8880    118.3677     31.2029
  1616.1000      8.3763      2.4894      0.0854      9.7346    112.7129     31.5970
  1616.2000      8.3763      2.4648     -0.0048     11.2221    113.5732     32.0149
  1616.3000      8.5511      2.4638      0.0563     11.2832    115.6390     31.9656
  1616.4000      8.5511      2.4684      0.0825     11.0051    119.0218     31.8476
  1616.5000      8.6436      2.4300      0.0993     13.3319    127.1426     32.2312
  1616.6000      8.6436      2.3340      0.0496     19.1540    131.4489     32.8696
  1616.7000      8.6436      2.2212     -0.0528     25.9867    129.5728     33.4006
  1616.8000      8.3275      2.1369     -0.0493     31.0958    129.3385     34.0204
  1616.9000      8.3275      2.0854     -0.0523     34.2152    127.0119     34.5293
  1617.0000      8.2734      2.0585     -0.0712     35.8458    114.8328     34.3591
  1617.1000      8.2734      2.0666     -0.0957     35.3583     96.8904     33.6637
  1617.2000      8.2734      2.1178     -0.0212     32.2545     85.0249     33.0440
  1617.3000      8.2695      2.2065      0.0140     26.8797     85.9780     32.5996
  1617.4000      8.2695      2.3349      0.0787     19.0963     94.4542     31.9501
  1617.5000      8.2684      2.4827      0.2576     10.1382    101.8425     31.2312
  1617.6000      8.2684      2.5859      0.2982      3.8819    102.6547     30.4117
  1617.7000      8.2684      2.6165      0.1781      2.0298     92.2285     28.8586
  1617.8000      8.3065      2.6241      0.0984      1.5678     77.2036     26.7434
  1617.9000      8.3065      2.6572      0.1517     -0.4376     74.7885     24.6210
  1618.0000      8.3310      2.6965      0.1651     -2.8185     84.8029     22.5672
  1618.1000      8.3310      2.7043      0.1056     -3.2884     93.2131     20.8707
  1618.2000      8.3310      2.6807      0.1193     -1.8619     95.9587     19.8576
  1618.3000      8.2607      2.6560      0.0503     -0.3609     94.6766     19.2765
  1618.4000      8.2607      2.6517      0.0983     -0.1007     90.9679     18.5318
  1618.5000      8.2301      2.6500      0.1432      0.0001     86.3338     17.6451
  1618.6000      8.2301      2.6275      0.0909      1.3618     82.0164     17.0255
  1618.7000      8.2301      2.5933      0.0548      3.4346     81.1503     16.5170
  1618.8000      8.2151      2.5720     -0.0378      4.7261     83.1955     16.2185
  1618.9000      8.2151      2.5727     -0.0538      4.6874     87.5174     16.2789
  1619.0000      8.2095      2.5769      0.0454      4.4307     94.6591     16.4411
  1619.1000      8.2095      2.5698      0.0007      4.8579     99.2732     16.6753
  1619.2000      8.2095      2.5641     -0.0100      5.2081     96.7894     16.7269
  1619.3000      8.1994      2.5755      0.0119      4.5173     87.0065     16.3948
  1619.4000      8.1994      2.6008      0.0457      2.9801     76.2278     16.1486
  1619.5000      8.1935      2.6207     -0.0077      1.7776     73.8790     16.3412
  1619.6000      8.1935      2.6197     -0.0045      1.8386     82.6295     16.8610
  1619.7000      8.1935      2.6040     -0.0214      2.7870     93.2578     17.3651
