~Version Information
VERS.                      2.0: CWLS Log ASCII Standard - VERSION 2.0
WRAP.                       NO: One line per depth step
~Well Information Block
STRT.FT               510.0000: 
STOP.FT              1848.7500: 
STEP.FT                 0.2500: 
NULL.                -999.2500: 
COMP.          Pioneer Natural Resources: COMPANY
WELL.           Stampede 42-18: WELL
FLD.           Purgatoire River: FIELD
LOC.           2479' FNL & 160' FEL--: LOCATION
CNTY.               Las Animas: COUNTY
SRVC.          Superior Well Services: SERVICE COMPANY
DATE.          Sat Jun 09 02:07:27 2007: LOG DATE
UWI.           05 071 08237 00: UNIQUE WELL ID
STAT.                 Colorado: STATE
~Curve Information Block
DEPT.FT            0 000 00 00: Depth
SN.Ohm-m                      : IEL Short Normal
SP.mV                         : IEL Spontaneous Potential
DIR.Ohm-m                     : IEL Induction Resistivity
GR.GAPI                       : Gamma Ray
~Parameter Information Block
~A  Depth        SN          SP         DIR          GR     
# ...
  1046.0000     10.3690    108.5314      7.8727    136.7064
  1046.2500     10.4184    108.4094      7.9262    137.0668
  1046.5000     10.4601    108.2384      7.9634    135.7219
  1046.7500     10.4879    108.0404      7.9853    133.3258
  1047.0000     10.5005    107.8467      7.9965    128.2799
  1047.2500     10.4984    107.6864      8.0040    125.2085
  1047.5000     10.4885    107.5738      8.0147    123.6884
  1047.7500     10.4868    107.5033      8.0335    125.6467
  1048.0000     10.5108    107.4569      8.0625    132.3099
  1048.2500     10.5635    107.4240      8.1014    137.6852
  1048.5000     10.6189    107.4144      8.1469    144.2378
  1048.7500     10.6426    107.4492      8.1929    146.5182
  1049.0000     10.6423    107.5374      8.2324    146.3485
  1049.2500     10.6647    107.6628      8.2617    144.2285
  1049.5000     10.7407    107.7889      8.2838    139.4501
  1049.7500     10.8680    107.8757      8.3101    136.2835
  1050.0000     11.0474    107.8981      8.3569    133.4479
  1050.2500     11.2969    107.8567      8.4414    133.5301
  1050.5000     11.6214    107.7719      8.5770    136.3407
  1050.7500     11.9936    107.6649      8.7716    139.0506
  1051.0000     12.3805    107.5405      9.0255    142.2842
  1051.2500     12.7735    107.3898      9.3319    142.8006
  1051.5000     13.1708    107.2028      9.6793    139.7131
  1051.7500     13.5490    106.9792     10.0551    134.7458
  1052.0000     13.9011    106.7278     10.4509    123.7371
  1052.2500     14.3008    106.4604     10.8617    115.1940
  1052.5000     14.8897    106.1863     11.2793    102.5616
  1052.7500     15.8018    105.9137     11.6814     94.8126
  1053.0000     17.0840    105.6525     12.0274     84.1868
  1053.2500     18.5708    105.4191     12.2684     77.7462
  1053.5000     19.8202    105.2349     12.3680     69.7684
  1053.7500     20.3764    105.1223     12.3154     66.3809
  1054.0000     20.1506    105.0967     12.1218     65.5126
  1054.2500     19.3495    105.1616     11.8082     68.1132
  1054.5000     18.0795    105.3096     11.3981     76.6682
  1054.7500     16.3285    105.5216     10.9171     85.0602
  1055.0000     14.2815    105.7625     10.3944    100.1791
  1055.2500     12.3299    105.9831      9.8592    110.4772
  1055.5000     10.7884    106.1372      9.3341    123.2387
  1055.7500      9.7524    106.2016      8.8316    128.5987
  1056.0000      9.1427    106.1828      8.3542    131.2951
  1056.2500      8.8031    106.1057      7.9017    130.2426
  1056.5000      8.5972    105.9961      7.4764    126.8701
  1056.7500      8.4565    105.8716      7.0863    124.9682
  1057.0000      8.3513    105.7420      6.7406    123.9648
  1057.2500      8.2529    105.6145      6.4460    124.1719
  1057.5000      8.1347    105.4952      6.2039    124.4100
  1057.7500      7.9813    105.3854      6.0122    124.2963
  1058.0000      7.8047    105.2805      5.8669    124.6632
  1058.2500      7.6665    105.1753      5.7635    125.7474
  1058.5000      7.6412    105.0691      5.6968    128.0570
  1058.7500      7.7318    104.9639      5.6608    129.2500
  1059.0000      7.8686    104.8627      5.6485    129.9953
  1059.2500      7.9968    104.7718      5.6541    130.3154
  1059.5000      8.1058    104.7021      5.6729    131.6924
  1059.7500      8.1874    104.6645      5.7022    133.3150
  1060.0000      8.2141    104.6655      5.7395    135.9506
  1060.2500      8.1681    104.7066      5.7830    137.1895
  1060.5000      8.0833    104.7857      5.8299    137.5748
  1060.7500      8.0209    104.8956      5.8771    136.8941
  1061.0000      8.0017    105.0253      5.9209    135.3224
  1061.2500      7.9967    105.1630      5.9567    134.5225
  1061.5000      7.9690    105.2972      5.9804    134.1505
  1061.7500      7.9069    105.4123      5.9883    134.3586
  1062.0000      7.8404    105.4870      5.9781    135.1029
  1062.2500      7.8071    105.5012      5.9498    135.8478
  1062.5000      7.8001    105.4506      5.9061    137.2831
  1062.7500      7.7822    105.3555      5.8517    138.3452
  1063.0000      7.7333    105.2566      5.7919    139.8852
  1063.2500      7.6597    105.1970      5.7313    140.7319
  1063.5000      7.5791    105.2047      5.6728    141.2653
  1063.7500      7.5065    105.2850      5.6183    140.7249
  1064.0000      7.4397    105.4262      5.5685    138.1180
  1064.2500      7.3623    105.6091      5.5231    135.2313
  1064.5000      7.2647    105.8134      5.4817    129.6712
  1064.7500      7.1459    106.0224      5.4434    125.5609
  1065.0000      7.0132    106.2283      5.4087    119.7901
  1065.2500      6.9145    106.4347      5.3802    116.8607
  1065.5000      6.9325    106.6537      5.3635    114.4825
  1065.7500      7.0842    106.8960      5.3659    114.1104
  1066.0000      7.2779    107.1582      5.3946    114.7352
  1066.2500      7.4284    107.4168      5.4540    115.7585
  1066.5000      7.5393    107.6359      5.5452    118.3882
  1066.7500      7.6482    107.7818      5.6655    120.8649
  1067.0000      7.7632    107.8345      5.8100    124.7634
  1067.2500      7.8762    107.7903      5.9737    126.5598
  1067.5000      7.9972    107.6584      6.1533    126.8171
  1067.7500      8.1488    107.4507      6.3481    125.3945
  1068.0000      8.3481    107.1670      6.5606    122.3731
  1068.2500      8.6035    106.7841      6.7943    120.9901
  1068.5000      8.9156    106.2607      7.0516    121.2104
  1068.7500      9.2619    105.5591      7.3317    122.8040
  1069.0000      9.5938    104.6675      7.6281    125.8719
  1069.2500      9.8739    103.6099      7.9270    127.1384
  1069.5000     10.0884    102.4377      8.2070    126.3533
  1069.7500     10.1985    101.2104      8.4427    124.0902
  1070.0000     10.1364     99.9797      8.6121    119.7559
  1070.2500      9.8902     98.7833      8.7048    117.4795
  1070.5000      9.5510     97.6447      8.7242    116.3342
  1070.7500      9.2561     96.5772      8.6831    117.2214
  1071.0000      9.1009     95.5870      8.5970    120.3367
  1071.2500      9.0878     94.6735      8.4806    122.8421
  1071.5000      9.1442     93.8302      8.3467    125.8958
  1071.7500      9.1764     93.0515      8.2038    127.0574
  1072.0000      9.1102     92.3406      8.0533    127.7087
  1072.2500      8.9175     91.7082      7.8880    127.7743
  1072.5000      8.6326     91.1629      7.6963    127.4914
  1072.7500      8.3277     90.7042      7.4716    126.8535
  1073.0000      8.0574     90.3289      7.2198    125.1550
  1073.2500      7.8365     90.0394      6.9594    123.9078
  1073.5000      7.6649     89.8424      6.7142    122.7291
  1073.7500      7.5416     89.7405      6.5043    122.6455
  1074.0000      7.4622     89.7273      6.3416    123.4626
  1074.2500      7.4207     89.7911      6.2300    124.4825
  1074.5000      7.4079     89.9233      6.1680    126.6296
  1074.7500      7.4135     90.1232      6.1506    128.5862
  1075.0000      7.4334     90.3929      6.1706    132.6403
  1075.2500      7.4731     90.7244      6.2200    136.0657
  1075.5000      7.5475     91.0924      6.2903    141.2550
  1075.7500      7.6697     91.4582      6.3746    143.5455
  1076.0000      7.8434     91.7845      6.4688    143.1301
  1076.2500      8.0571     92.0502      6.5712    139.8663
  1076.5000      8.2668     92.2554      6.6809    131.7191
  1076.7500      8.4136     92.4135      6.7956    125.4585
  1077.0000      8.4766     92.5369      6.9120    116.8921
  1077.2500      8.4860     92.6298      7.0280    112.5846
  1077.5000      8.4978     92.6906      7.1439    109.1143
  1077.7500      8.5676     92.7145      7.2609    108.8205
  1078.0000      8.7146     92.6947      7.3776    110.5375
  1078.2500      8.9053     92.6270      7.4883    112.4959
  1078.5000      9.0755     92.5180      7.5847    116.2677
  1078.7500      9.1581     92.3858      7.6590    119.4904
  1079.0000      9.1112     92.2509      7.7062    125.5685
  1079.2500      8.9537     92.1299      7.7243    130.2299
