~Version Information
VERS.                      2.0: CWLS Log ASCII Standard - VERSION 2.0
WRAP.                       NO: One line per depth step
~Well Information Block
STRT.FT               440.0000: 
STOP.FT              1003.5000: 
STEP.FT                 0.2500: 
NULL.                -999.2500: 
COMP.          Pioneer Natural Resources: COMPANY
WELL.              Dylan 42-25: WELL
FLD.           Purgatoire River: FIELD
LOC.           2160' FNL & 855' FEL: LOCATION
PROV.                 Colorado: PROVINCE
CNTY.               Las Animas: COUNTRY
SRVC.                Patterson: SERVICE COMPANY
DATE.          Sat Apr 23 11:21:51 2005: LOG DATE
UWI.           05 071 08229 00: UNIQUE WELL ID
~Curve Information Block
DEPT.FT            0 000 00 00: Depth
SN.Ohm-m                      : IEL Short Normal
SP.mV                         : IEL Spontaneous Potential
DIR.Ohm-m                     : IEL Induction Resistivity
GR.GAPI                       : Gamma Ray
~Parameter Information Block
~A  Depth        SN          SP         DIR          GR     
# ...
   507.0000   2000.0000   2000.0000     39.8069     70.6767
   507.2500   2000.0000   2000.0000     41.1280     69.6213
   507.5000   2000.0000   2000.0000     42.2473     67.5893
   507.7500   2000.0000   2000.0000     43.0223     65.8694
   508.0000   2000.0000   2000.0000     43.3853     63.3441
   508.2500   2000.0000   2000.0000     43.3314     62.2528
   508.5000   2000.0000   2000.0000     42.8530     62.0445
   508.7500   2000.0000   2000.0000     41.9195     62.7711
   509.0000   2000.0000   2000.0000     40.5522     64.6166
   509.2500   2000.0000   2000.0000     38.9032     66.0573
   509.5000   2000.0000   2000.0000     37.2265     68.4171
   509.7500   2000.0000   2000.0000     35.7430     70.3827
   510.0000   2000.0000   2000.0000     34.5286     74.8466
   510.2500   2000.0000   2000.0000     33.5104     79.3886
   510.5000   2000.0000   2000.0000     32.5497     88.7037
   510.7500   2000.0000   2000.0000     31.5391     95.8688
   511.0000   2000.0000   2000.0000     30.4428    105.7046
   511.2500   2000.0000   2000.0000     29.2723    110.2906
   511.5000   2000.0000   2000.0000     28.0427    113.2616
   511.7500   2000.0000   2000.0000     26.7562    113.2398
   512.0000   2000.0000   2000.0000     25.4190    112.8329
   512.2500   2000.0000   2000.0000     24.0650    114.1684
   512.5000   2000.0000   2000.0000     22.7604    120.8356
   512.7500   2000.0000   2000.0000     21.5820    128.4479
   513.0000   2000.0000   2000.0000     20.5875    142.4246
   513.2500   2000.0000   2000.0000     19.7954    151.6081
   513.5000   2000.0000   2000.0000     19.1817    162.8292
   513.7500   2000.0000   2000.0000     18.6888    167.9788
   514.0000   2000.0000   2000.0000     18.2491    171.9192
   514.2500   2000.0000   2000.0000     17.8145    172.1871
   514.5000   2000.0000   2000.0000     17.3779    170.0852
   514.7500   2000.0000   2000.0000     16.9706    167.9806
   515.0000   2000.0000   2000.0000     16.6404    165.3566
   515.2500   2000.0000   2000.0000     16.4277    164.4571
   515.5000   2000.0000   2000.0000     16.3538    164.2220
   515.7500   2000.0000   2000.0000     16.4205    164.3214
   516.0000   2000.0000   2000.0000     16.6156    163.9954
   516.2500   2000.0000   2000.0000     16.9217    163.0898
   516.5000   2000.0000   2000.0000     17.3238    159.9843
   516.7500   2000.0000   2000.0000     17.8111    156.1655
   517.0000   2000.0000   2000.0000     18.3704    147.1003
   517.2500   2000.0000   2000.0000     18.9773    139.1272
   517.5000   2000.0000   2000.0000     19.5926    126.2376
   517.7500   2000.0000   2000.0000     20.1662    118.4561
   518.0000   2000.0000   2000.0000     20.6469    109.4327
   518.2500   2000.0000   2000.0000     20.9915    105.1032
   518.5000   2000.0000   2000.0000     21.1709    100.1617
   518.7500   2000.0000   2000.0000     21.1700     97.4478
   519.0000   2000.0000   2000.0000     20.9843     94.0704
   519.2500   2000.0000   2000.0000     20.6167     92.4044
   519.5000   2000.0000   2000.0000     20.0784     91.4513
   519.7500   2000.0000   2000.0000     19.3959     92.7234
   520.0000   2000.0000   2000.0000     18.6102     99.4868
   520.2500   2000.0000   2000.0000     17.7704    107.8846
   520.5000   2000.0000   2000.0000     16.9229    125.2905
   520.7500   2000.0000   2000.0000     16.1063    138.3645
   521.0000   2000.0000   2000.0000     15.3501    156.6353
   521.2500   2000.0000   2000.0000     14.6734    166.2319
   521.5000   2000.0000   2000.0000     14.0859    175.2148
   521.7500   2000.0000   2000.0000     13.5918    177.7043
   522.0000   2000.0000   2000.0000     13.1958    178.0043
   522.2500   2000.0000   2000.0000     12.9066    177.3298
   522.5000   2000.0000   2000.0000     12.7341    176.5573
   522.7500   2000.0000   2000.0000     12.6822    176.3438
   523.0000   2000.0000   2000.0000     12.7403    176.0359
   523.2500   2000.0000   2000.0000     12.8788    175.4700
   523.5000   2000.0000   2000.0000     13.0520    173.1942
   523.7500   2000.0000   2000.0000     13.2086    170.0426
   524.0000   2000.0000   2000.0000     13.3054    161.9169
   524.2500   2000.0000   2000.0000     13.3150    154.1635
   524.5000   2000.0000   2000.0000     13.2278    139.9463
   524.7500   2000.0000   2000.0000     13.0529    129.7757
   525.0000   2000.0000   2000.0000     12.8210    115.9287
   525.2500   2000.0000   2000.0000     12.5819    109.3762
   525.5000   2000.0000   2000.0000     12.3935    106.3340
   525.7500   2000.0000   2000.0000     12.3053    109.5324
   526.0000   2000.0000   2000.0000     12.3450    120.5780
   526.2500   2000.0000   2000.0000     12.5112    129.6875
   526.5000   2000.0000   2000.0000     12.7737    141.1564
   526.7500   2000.0000   2000.0000     13.0794    145.3118
   527.0000   2000.0000   2000.0000     13.3662    145.1794
   527.2500   2000.0000   2000.0000     13.5812    141.3661
   527.5000   2000.0000   2000.0000     13.6961    131.9100
   527.7500   2000.0000   2000.0000     13.7143    124.1734
   528.0000   2000.0000   2000.0000     13.6678    111.7246
   528.2500   2000.0000   2000.0000     13.6072    103.5813
   528.5000   2000.0000   2000.0000     13.5891     93.4176
   528.7500   2000.0000   2000.0000     13.6648     89.2683
   529.0000   2000.0000   2000.0000     13.8740     88.3059
   529.2500   2000.0000   2000.0000     14.2413     90.9262
   529.5000   2000.0000   2000.0000     14.7724     97.7097
   529.7500   2000.0000   2000.0000     15.4483    102.6054
   530.0000   2000.0000   2000.0000     16.2202    108.6641
   530.2500   2000.0000   2000.0000     17.0098    111.5873
   530.5000   2000.0000   2000.0000     17.7187    115.0023
   530.7500   2000.0000   2000.0000     18.2491    117.2421
   531.0000   2000.0000   2000.0000     18.5332    120.9685
   531.2500   2000.0000   2000.0000     18.5579    123.2979
   531.5000   2000.0000   2000.0000     18.3634    125.1982
   531.7500   2000.0000   2000.0000     18.0146    124.8007
   532.0000   2000.0000   2000.0000     17.5731    121.9286
   532.2500   2000.0000   2000.0000     17.0865    119.4908
   532.5000   2000.0000   2000.0000     16.5943    117.4992
   532.7500   2000.0000   2000.0000     16.1331    118.3022
   533.0000   2000.0000   2000.0000     15.7351    122.7472
   533.2500   2000.0000   2000.0000     15.4240    127.1861
   533.5000   2000.0000   2000.0000     15.2123    134.7303
   533.7500   2000.0000   2000.0000     15.1005    139.6171
   534.0000   2000.0000   2000.0000     15.0791    145.4089
   534.2500   2000.0000   2000.0000     15.1322    147.6600
   534.5000   2000.0000   2000.0000     15.2443    148.2984
   534.7500   2000.0000   2000.0000     15.4061    146.9420
   535.0000   2000.0000   2000.0000     15.6159    142.4204
   535.2500   2000.0000   2000.0000     15.8763    138.0733
   535.5000   2000.0000    -47.1422     16.1897    130.4917
   535.7500   2000.0000    -47.0002     16.5593    125.1192
   536.0000   2000.0000    -46.8272     16.9960    116.5149
   536.2500   2000.0000    -46.6341     17.5274    110.1776
   536.5000   2000.0000    -46.4382     18.1998     99.6250
   536.7500   2000.0000    -46.2587     19.0712     92.0038
   537.0000   2000.0000    -46.1112     20.2012     80.1721
   537.2500   2000.0000    -46.0054     21.6417     72.5851
   537.5000   2000.0000    -45.9469     23.4359     63.0348
   537.7500   2000.0000    -45.9371     25.6202     58.5465
   538.0000   2000.0000    -45.9698     28.2227     54.8513
   538.2500   2000.0000    -46.0290     31.2465     53.9411
   538.5000   2000.0000    -46.0940     34.6280     53.3711
   538.7500   2000.0000    -46.1519     38.1774     52.5603
   539.0000   2000.0000    -46.2125     41.5441     49.9488
   539.2500   2000.0000    -46.3096     44.2673     47.6672
   539.5000   2000.0000    -46.4838     45.9318     44.8561
   539.7500   2000.0000    -46.7595     46.3344     46.1946
   540.0000   2000.0000    -47.1404     45.5368     46.6899
   540.2500   2000.0000    -47.6256     43.7856     48.2246
