~Version Information
VERS.                      2.0: CWLS Log ASCII Standard - VERSION 2.0
WRAP.                       NO: One line per depth step
~Well Information Block
STRT.FT               362.0000: 
STOP.FT               983.0000: 
STEP.FT                 0.1000: 
NULL.                -999.2500: 
COMP.          Pioneer Natural Resources: COMPANY
WELL.             Tomcat 32-10: WELL
FLD.           Purgatoire River: FIELD
LOC.           2286' FNL & 2463' FEL: LOCATION
PROV.                 Colorado: PROVINCE
CNTY.               Las Animas: COUNTRY
SRVC.                Patterson: SERVICE COMPANY
DATE.          Tue Mar 22 11:24:45 2005: LOG DATE
UWI.           05 071 08301 00: UNIQUE WELL ID
~Curve Information Block
DEPT.FT            0 000 00 00: Depth
DCAL.in                       : CDL Caliper
RHOB.g/cc                     : CDL Bulk Density
RHOC.g/cc                     : CDL Density Correction
DPOR.pu                       : CDL Density Porosity
GR.GAPI                       : Gamma Ray
NPOR.pu                       : Neutron Porosity
~Parameter Information Block
~A  Depth       DCAL        RHOB        RHOC        DPOR         GR         NPOR    
   362.0000      5.0942      2.1614      2.0000     -0.0098     76.8623     18.2315
   362.1000      5.0942      2.1327      2.0000     -0.0104     78.8205     18.2903
   362.2000      5.0942      2.1346      2.0000     -0.0103     79.4174     18.5440
   362.3000      5.0919      2.1654      2.0000     -0.0097     80.2592     18.5078
   362.4000      5.0919      2.1897      2.0000     -0.0092     85.1061     18.1110
   362.5000      5.0979      2.1905      2.0000     -0.0092     91.9706     17.6412
   362.6000      5.0979      2.1849      2.0000     -0.0093     96.8469     16.7003
   362.7000      5.0979      2.1803      2.0000     -0.0094     98.0650     15.5679
   362.8000      5.0946      2.1548      2.0000     -0.0099     96.6919     15.7591
   362.9000      5.0946      2.1156      2.0000     -0.0107     95.8730     17.2822
   363.0000      5.0976      2.1080     -0.4943     -0.0108     94.9038     18.5899
   363.1000      5.0976      2.1416     -0.4290     -0.0102     90.4627     18.8824
   363.2000      5.0976      2.1787     -0.3918     -0.0094     85.2781     18.4689
   363.3000      5.1011      2.1902     -0.4566     -0.0092     84.1371     18.2404
   363.4000      5.1011      2.1823     -0.4887     -0.0094     87.3293     18.6636
   363.5000      5.1052      2.1706     -0.4766     29.0528     94.5951     19.1323
   363.6000      5.1052      2.1545     -0.4716     30.0314    104.6368     19.4948
   363.7000      5.1052      2.1304     -0.5553     31.4891    114.8336     19.9408
   363.8000      5.0956      2.1134     -0.5487     32.5228    121.5042     20.5631
   363.9000      5.0956      2.1195     -0.5276     32.1497    124.7205     21.8764
   364.0000      5.0953      2.1472     -0.5206     30.4711    129.7350     23.4547
   364.1000      5.0953      2.1717     -0.3623     28.9850    136.0994     24.1059
   364.2000      5.0953      2.1641     -0.4181     29.4489    138.8822     23.7758
   364.3000      5.0989      2.1368     -0.5092     31.1046    137.6750     23.2324
   364.4000      5.0989      2.1322     -0.5633     31.3843    134.4099     23.0367
   364.5000      5.0906      2.1609     -0.4540     29.6432    132.7402     23.2731
   364.6000      5.0906      2.1894     -0.4286     27.9172    136.2653     23.0837
   364.7000      5.0906      2.2003     -0.5059     27.2561    139.5738     22.1100
   364.8000      5.0891      2.2142     -0.4853     26.4145    136.4581     21.4279
   364.9000      5.0891      2.2392     -0.4449     24.8963    131.5586     21.4494
   365.0000      5.0884      2.2549     -0.3467     23.9476    130.7897     21.6638
   365.1000      5.0884      2.2433     -0.4368     24.6504    132.5528     21.5746
   365.2000      5.0884      2.2115     -0.4216     26.5754    133.7651     21.1000
   365.3000      5.0946      2.1867     -0.4793     28.0794    133.4977     20.9700
   365.4000      5.0946      2.1939     -0.4655     27.6423    132.7181     21.5371
   365.5000      5.0821      2.2193     -0.3773     26.1052    134.3310     22.0019
   365.6000      5.0821      2.2242     -0.3837     25.8036    138.0051     21.6910
   365.7000      5.0821      2.2022     -0.4446     27.1416    138.6080     20.6237
   365.8000      5.0897      2.1888     -0.4736     27.9518    135.0715     19.8233
   365.9000      5.0897      2.2087     -0.4516     26.7427    130.0791     19.8683
   366.0000      5.0816      2.2343     -0.4366     25.1934    122.7794     19.7817
   366.1000      5.0816      2.2367     -0.4233     25.0484    114.1425     19.6670
   366.2000      5.0816      2.2311     -0.4838     25.3863    110.5238     20.0925
   366.3000      5.0764      2.2429     -0.4756     24.6722    115.9822     20.1448
   366.4000      5.0764      2.2720     -0.4168     22.9079    124.4966     19.5184
   366.5000      5.0806      2.3062     -0.4795     20.8347    123.3169     19.0051
   366.6000      5.0806      2.3305     -0.4279     19.3631    111.1631     19.0473
   366.7000      5.0806      2.3208     -0.4490     19.9514    100.5873     19.4081
   366.8000      5.0823      2.2798     -0.5142     22.4363     98.9950     19.2747
   366.9000      5.0823      2.2519     -0.6097     24.1258    103.0317     18.4955
   367.0000      5.0824      2.2582     -0.4406     23.7459    108.7487     17.7294
   367.1000      5.0824      2.2683     -0.4493     23.1348    112.2822     17.3468
   367.2000      5.0824      2.2571     -0.4614     23.8129    107.5587     17.2234
   367.3000      5.0983      2.2275     -0.4747     25.6060     95.4719     16.9984
   367.4000      5.0983      2.2003     -0.6351     27.2541     86.5929     16.5083
   367.5000      5.0986      2.2034     -0.5624     27.0653     85.4999     15.9334
   367.6000      5.0986      2.2247     -0.4935     25.7732     87.4966     15.4235
   367.7000      5.0986      2.2367     -0.5714     25.0461     90.4097     15.1028
   367.8000      5.0935      2.2464     -0.5190     24.4585     94.0190     15.3791
   367.9000      5.0935      2.2538     -0.4165     24.0142     95.6372     16.2617
   368.0000      5.0862      2.2350     -0.4648     25.1502     93.8325     17.0459
   368.1000      5.0862      2.1874     -0.5016     28.0338     91.2649     17.3655
   368.2000      5.0862      2.1479     -0.5678     30.4290     90.5156     17.4832
   368.3000      5.0972      2.1460     -0.4971     30.5464     92.2122     17.5848
   368.4000      5.0972      2.1691     -0.4411     29.1440     96.9110     17.7308
   368.5000      5.0986      2.1868     -0.4399     28.0717    102.2173     17.9346
   368.6000      5.0986      2.1815     -0.4737     28.3946    101.2937     18.0152
   368.7000      5.0986      2.1602     -0.4432     29.6841     93.7246     17.7952
   368.8000      5.0990      2.1478     -0.5362     30.4339     87.8008     17.3806
   368.9000      5.0990      2.1713     -0.5758     29.0127     86.4116     17.3577
   369.0000      5.0890      2.2130     -0.4497     26.4849     86.0950     17.8112
   369.1000      5.0890      2.2277     -0.4455     25.5934     86.5552     17.9300
   369.2000      5.0890      2.2208     -0.5313     26.0106     89.5630     17.4944
   369.3000      5.0923      2.2207     -0.4918     26.0189     93.4623     17.2726
   369.4000      5.0923      2.2167     -0.4641     26.2620     94.7656     17.6650
   369.5000      5.0994      2.2031     -0.5368     27.0836     93.5173     18.0789
   369.6000      5.0994      2.1995     -0.4769     27.3057     92.3925     18.0117
   369.7000      5.0994      2.2094     -0.5010     26.7031     91.9857     17.7154
   369.8000      5.0940      2.2209     -0.5247     26.0039     89.0555     17.6605
   369.9000      5.0940      2.2350     -0.5241     25.1539     83.3464     18.0363
   370.0000      5.0930      2.2584     -0.5195     23.7346     81.8980     18.4564
   370.1000      5.0930      2.2668     -0.4049     23.2261     84.7508     18.5982
   370.2000      5.0930      2.2350     -0.4533     25.1510     84.9344     18.6106
   370.3000      5.0864      2.1926     -0.5399     27.7217     85.4805     18.7987
   370.4000      5.0864      2.1697     -0.5025     29.1115     90.6841     19.1002
   370.5000      5.0930      2.1599     -0.5280     29.7034     96.9146     19.2075
   370.6000      5.0930      2.1681     -0.5294     29.2055    101.6925     19.1190
   370.7000      5.0930      2.1900     -0.4554     27.8809    107.7204     19.0700
   370.8000      5.0772      2.1925     -0.4267     27.7268    115.9295     19.2559
   370.9000      5.0772      2.1706     -0.4387     29.0548    123.6273     19.6018
   371.0000      5.0682      2.1636     -0.5510     29.4776    132.2059     19.8074
   371.1000      5.0682      2.1956     -0.4468     27.5392    144.5396     19.7275
   371.2000      5.0682      2.2440     -0.4409     24.6059    155.3023     19.4027
   371.3000      5.0817      2.2832     -0.4072     22.2320    159.9694     19.3319
   371.4000      5.0817      2.3082     -0.4360     20.7166    159.3341     19.9646
   371.5000      5.0817      2.3165     -0.4495     20.2099    155.7597     20.8964
