~Version Information
VERS.                      2.0: CWLS Log ASCII Standard - VERSION 2.0
WRAP.                       NO: One line per depth step
~Well Information Block
STRT.FT               650.0000: 
STOP.FT              1080.5000: 
STEP.FT                 0.1000: 
NULL.                -999.2500: 
COMP.          Pioneer Natural Resources: COMPANY
WELL.            Galileo 21-11: WELL
FLD.           Purgatoire River: FIELD
LOC.           407' FNL & 2394' FWL: LOCATION
PROV.                 Colorado: PROVINCE
CNTY.               Las Animas: COUNTRY
SRVC.                Patterson: SERVICE COMPANY
DATE.          Mon Apr 11 16:20:08 2005: LOG DATE
UWI.           05 071 08353 00: UNIQUE WELL ID
~Curve Information Block
DEPT.FT            0 000 00 00: Depth
DCAL.in                       : CDL Caliper
RHOB.g/cc                     : CDL Bulk Density
RHOC.g/cc                     : CDL Density Correction
DPOR.pu                       : CDL Density Porosity
GR.GAPI                       : Gamma Ray
NPOR.pu                       : Neutron Porosity
~Parameter Information Block
~A  Depth       DCAL        RHOB        RHOC        DPOR         GR         NPOR    
# ...
   957.2000      7.8129      2.3707      0.0396     16.9275    103.9478     21.2951
   957.3000      7.8134      2.3733      0.0439     16.7720    101.0095     21.7105
   957.4000      7.8134      2.3819      0.0477     16.2466     98.6024     22.3661
   957.5000      7.8128      2.3885      0.0604     15.8506     98.1917     23.0286
   957.6000      7.8128      2.3895      0.0657     15.7851    100.0064     23.1747
   957.7000      7.8128      2.3958      0.0324     15.4042    103.1573     22.9611
   957.8000      7.8135      2.4183      0.0854     14.0429    106.1236     22.5932
   957.9000      7.8135      2.4433      0.0950     12.5260    108.5111     22.0452
   958.0000      7.8129      2.4447      0.0899     12.4453    107.6308     21.3040
   958.1000      7.8129      2.4175      0.0592     14.0881    102.3842     20.9909
   958.2000      7.8129      2.3816      0.0375     16.2662     97.5653     21.4568
   958.3000      7.8116      2.3601     -0.0062     17.5696     98.3676     21.8631
   958.4000      7.8116      2.3617      0.0285     17.4717    102.2475     21.7961
   958.5000      7.8136      2.3766      0.0451     16.5671    103.1098     21.8356
   958.6000      7.8136      2.3942      0.0592     15.5027    101.5045     22.2115
   958.7000      7.8136      2.4110      0.1293     14.4826    100.8764     22.7084
   958.8000      7.8124      2.4279      0.0907     13.4584    100.5733     23.2269
   958.9000      7.8124      2.4503      0.1052     12.1026     99.7092     23.6136
   959.0000      7.8132      2.4768      0.1428     10.4987     99.5387     23.6197
   959.1000      7.8132      2.5005      0.1281      9.0583    100.8065     23.4428
   959.2000      7.8132      2.5215      0.1260      7.7898    102.9510     23.6158
   959.3000      7.8141      2.5397      0.0929      6.6828    105.9733     24.2385
   959.4000      7.8141      2.5564      0.1174      5.6739    109.6581     24.6840
   959.5000      7.8113      2.5779      0.1080      4.3673    111.6975     24.5151
   959.6000      7.8113      2.5980      0.1184      3.1540    111.2103     24.1482
   959.7000      7.8113      2.6001      0.0848      3.0254    110.1733     23.8935
   959.8000      7.8103      2.5870      0.0817      3.8153    109.0133     23.4500
   959.9000      7.8103      2.5680      0.1097      4.9726    106.9963     22.7759
   960.0000      7.8115      2.5419      0.0635      6.5511    104.3666     22.0956
   960.1000      7.8115      2.5253     -0.0094      7.5565    101.8480     21.3409
   960.2000      7.8115      2.5333      0.0227      7.0732    102.4552     20.5184
   960.3000      7.8095      2.5430      0.0573      6.4844    108.5937     19.8424
   960.4000      7.8095      2.5379      0.0037      6.7953    115.8893     19.6056
   960.5000      7.8110      2.5288      0.0653      7.3465    118.5193     19.8262
   960.6000      7.8110      2.5178      0.0378      8.0141    118.1521     20.2099
   960.7000      7.8110      2.5075      0.0556      8.6371    114.1881     20.6534
   960.8000      7.8123      2.5074      0.0436      8.6432    103.1423     21.1080
   960.9000      7.8123      2.5105      0.0012      8.4534     91.7865     21.1631
   961.0000      7.8112      2.4963      0.0308      9.3132     87.4065     20.7168
   961.1000      7.8112      2.4646     -0.0381     11.2350     88.3461     20.3580
   961.2000      7.8112      2.4391     -0.0445     12.7810     90.7253     20.3019
   961.3000      7.8115      2.4249     -0.0023     13.6416     91.7937     20.2537
   961.4000      7.8115      2.4095     -0.0460     14.5761     91.2001     20.2778
   961.5000      7.8152      2.3935     -0.0135     15.5452     91.6567     20.6657
   961.6000      7.8152      2.3828     -0.0058     16.1937     94.0972     21.2266
   961.7000      7.8152      2.3769      0.0007     16.5514     93.8124     21.5283
   961.8000      7.8154      2.3764     -0.0132     16.5840     89.5202     21.5142
   961.9000      7.8154      2.3880     -0.0131     15.8775     87.9787     21.3805
   962.0000      7.8131      2.4125      0.0150     14.3958     93.8768     21.3371
   962.1000      7.8131      2.4438      0.0505     12.4951    102.3168     21.3582
   962.2000      7.8131      2.4779      0.0825     10.4280    105.5576     21.4898
   962.3000      7.8106      2.5086      0.0884      8.5687    101.9562     21.7066
   962.4000      7.8106      2.5299      0.0732      7.2798     96.7609     21.7730
   962.5000      7.8091      2.5387      0.0933      6.7463     94.9660     21.9857
   962.6000      7.8091      2.5356      0.0786      6.9303     96.5665     22.6181
   962.7000      7.8091      2.5264      0.0685      7.4907     98.9339     23.2111
   962.8000      7.8118      2.5141      0.0832      8.2392    100.7493     23.5754
   962.9000      7.8118      2.4905      0.0321      9.6661    103.0049     24.2511
   963.0000      7.8298      2.4554      0.0267     11.7930    105.5738     25.1878
   963.1000      7.8298      2.4313     -0.0181     13.2519    107.6199     25.5568
   963.2000      7.8298      2.4338      0.0425     13.1048    108.2340     25.0461
   963.3000      7.8130      2.4493      0.0466     12.1620    106.1191     24.4149
   963.4000      7.8130      2.4653      0.0498     11.1963    102.6512     24.7362
   963.5000      7.8100      2.4835      0.0422     10.0897    101.3660     25.9288
   963.6000      7.8100      2.5031      0.0782      8.9048    104.5388     26.5760
   963.7000      7.8100      2.5157      0.0807      8.1364    109.7992     26.1011
   963.8000      7.8123      2.5237      0.0659      7.6568    111.3131     25.2718
   963.9000      7.8123      2.5392      0.0974      6.7144    108.6557     24.5638
   964.0000      7.8099      2.5643      0.1376      5.1938    105.3479     24.0094
   964.1000      7.8099      2.5834      0.1500      4.0349    105.2756     23.9304
   964.2000      7.8099      2.5801      0.1319      4.2363    109.3885     24.2448
   964.3000      7.8095      2.5542      0.1021      5.8082    111.8834     24.3044
   964.4000      7.8095      2.5149      0.0867      8.1869    110.2220     23.9967
   964.5000      7.8099      2.4729      0.0163     10.7363    110.9348     23.7705
   964.6000      7.8099      2.4437      0.0112     12.5029    115.7303     23.7557
   964.7000      7.8099      2.4448     -0.0054     12.4353    116.4945     23.6362
   964.8000      7.8097      2.4824      0.0438     10.1559    108.4178     23.3036
   964.9000      7.8097      2.5417      0.1242      6.5666     96.7052     23.3013
   965.0000      7.8107      2.5999      0.1423      3.0392     89.7601     23.8076
   965.1000      7.8107      2.6444      0.1774      0.3423     89.5282     24.0526
   965.2000      7.8107      2.6706      0.1788     -1.2469     93.3237     23.4767
   965.3000      7.8126      2.6743      0.2097     -1.4748     98.5607     22.5636
   965.4000      7.8126      2.6582      0.1755     -0.4986    102.4208     22.1786
   965.5000      7.8102      2.6410      0.1192      0.5434    104.6187     22.5931
   965.6000      7.8102      2.6380      0.1453      0.7249    106.8236     23.1310
   965.7000      7.8102      2.6417      0.1236      0.5016    108.7555     23.2544
   965.8000      7.8032      2.6376      0.0844      0.7493    107.4820     23.4332
   965.9000      7.8032      2.6226      0.0863      1.6619    102.7194     23.7851
   966.0000      7.8089      2.6005      0.0665      3.0021     97.4502     23.6460
   966.1000      7.8089      2.5759      0.0299      4.4885     94.6302     22.7808
   966.2000      7.8089      2.5576      0.0181      5.5997     96.3689     21.8518
   966.3000      7.8084      2.5500      0.0512      6.0629    101.7576     21.6406
   966.4000      7.8084      2.5494      0.0319      6.0945    105.9787     21.9551
   966.5000      7.8098      2.5529      0.0385      5.8839    106.4396     22.2434
   966.6000      7.8098      2.5611      0.0395      5.3905    105.7207     22.4415
   966.7000      7.8098      2.5747      0.0502      4.5620    104.6387     22.7129
