~Version Information
 VERS.                      2.0: CWLS Log ASCII Standard - VERSION 2.0
 WRAP.                       NO: One line per depth step
 ~Well Information Block
 STRT.FT                -8.0000: 
 STOP.FT              2581.0000: 
 STEP.FT                 0.2500: 
 NULL.                -999.2500: 
 COMP.          Petrogulf Corporation: COMPANY
 WELL.               YWAM 7-23V: WELL
 FLD.           Purgatorie River: FIELD
 LOC.           230' FSL & 225' FWL: LOCATION
 CNTY.               Las Animas: COUNTY
 SRVC.                         : SERVICE COMPANY
 DATE.          Mon Nov 22 10:51:24 2004: LOG DATE
 UWI.           05-071-08227-00: UNIQUE WELL ID
 STAT.                 Colorado: STATE
 PROV.                         :Province
 ~Curve Information Block
 DEPT.FT            0 000 00 00: Depth
 TT3.usec                      : CBL 3' Travel Time
 AMP3.mV                       : CBL 3' Amplitude
 GR.GAPI                       : Gamma Ray
 CCL.                          : Casing Collar Locator
 ~Parameter Information Block
 ~A  Depth       TT3         AMP3         GR         CCL     
# ...
   159.5000    285.3196     78.2163    106.3141      0.0000
   159.7500    285.3075     78.0498    108.7701      0.0000
   160.0000    285.2976     77.8925    109.8181      0.0000
   160.2500    285.2907     77.7371    110.0103      0.0000
   160.5000    285.2856     77.5686    110.3797      0.0000
   160.7500    285.2798     77.3775    111.0781      0.0000
   161.0000    285.2703     77.1725    111.0675      0.0000
   161.2500    285.2564     76.9608    108.9745      0.0000
   161.5000    285.2437     76.7085    104.1787      0.0000
   161.7500    285.2527     76.2965     97.3398      0.0000
   162.0000    285.3330     75.4761     90.1756      0.0000
   162.2500    285.6118     73.8532     84.6997      0.0000
   162.5000    286.3616     71.0668     82.2472      0.0000
   162.7500    288.0240     67.1440     82.6964      0.0000
   163.0000    291.0076     62.6165     84.4009      0.0000
   163.2500    295.1601     58.1246     85.1665      0.0000
   163.5000    299.3283     54.0329     83.7096      0.0000
   163.7500    301.8220     50.5980     80.2985      0.0000
   164.0000    301.7544     48.1835     75.9952      0.0000
   164.2500    299.8251     46.9655     71.5175      0.0000
   164.5000    297.5930     46.6321     67.0790     -3.5461
   164.7500    296.2320     46.6478     63.0511      4.3335
   165.0000    296.1794     46.6993     60.1838      0.0000
   165.2500    297.5154     46.8368     59.0245      0.0000
   165.5000    300.0859     47.3403     59.4120      0.0000
   165.7500    303.1618     48.4743     60.7165      0.0000
   166.0000    305.3570     50.2726     62.4878      0.0000
   166.2500    305.2917     52.6247     64.8005      0.0000
   166.5000    302.5049     55.6127     67.9557      0.0000
   166.7500    297.8136     59.4337     71.9063      0.0000
   167.0000    292.8096     63.8099     76.0563      0.0000
   167.2500    288.8781     67.8358     79.5745      0.0000
   167.5000    286.5146     70.6647     81.7468      0.0000
   167.7500    285.4146     72.1393     82.1147      0.0000
   168.0000    285.0191     72.6682     80.6641      0.0000
   168.2500    284.9152     72.7336     78.0734      0.0000
   168.5000    284.9058     72.6167     75.4550      0.0000
   168.7500    284.9198     72.4231     73.5749      0.0000
   169.0000    284.9384     72.1926     72.4069      0.0000
   169.2500    284.9562     71.9640     71.4440      0.0000
   169.5000    284.9725     71.7718     70.1701      0.0000
   169.7500    284.9875     71.6173     68.2431      0.0000
   170.0000    285.0014     71.4606     65.7019      0.0000
   170.2500    285.0145     71.2466     63.2588      0.0000
   170.5000    285.0279     70.9440     62.0975      0.0000
   170.7500    285.0431     70.5618     63.0333      0.0000
   171.0000    285.0604     70.1366     65.7709      0.0000
   171.2500    285.0781     69.7122     69.0539      0.0000
   171.5000    285.0940     69.3265     71.6630      0.0000
   171.7500    285.1082     68.9994     73.3212      0.0000
   172.0000    285.1227     68.7211     74.6509      0.0000
   172.2500    285.1388     68.4604     76.3235      0.0000
   172.5000    285.1558     68.1851     78.2546      0.0000
   172.7500    285.1716     67.8741     79.6094      0.0000
   173.0000    285.1852     67.5159     79.7179      0.0000
   173.2500    285.1967     67.1146     79.0479      0.0000
   173.5000    285.2061     66.6944     79.0807      0.0000
   173.7500    285.2144     66.2884     81.0058      0.0000
   174.0000    285.2232     65.9219     84.5829      0.0000
   174.2500    285.2347     65.6129     88.4235      0.0000
   174.5000    285.2496     65.3794     91.2842      0.0000
   174.7500    285.2662     65.2375     92.8585      0.0000
   175.0000    285.2824     65.1897     93.4113      0.0000
   175.2500    285.2978     65.2166     93.1833      0.0000
   175.5000    285.3136     65.2804     92.5334      0.0000
   175.7500    285.3311     65.3400     92.4098      0.0000
   176.0000    285.3498     65.3667     94.0530      0.0000
   176.2500    285.3675     65.3517     97.8387      0.0000
   176.5000    285.3815     65.3041    102.5445      0.0000
   176.7500    285.3903     65.2344    106.0457      0.0000
   177.0000    285.3943     65.1349    106.8186      0.0000
   177.2500    285.3967     64.9924    104.9084      0.0000
   177.5000    285.4004     64.8269    101.8510      0.0000
   177.7500    285.4058     64.6966     99.7848      0.0000
   178.0000    285.4115     64.6490    100.2640      0.0000
   178.2500    285.4171     64.6843    103.4817      0.0000
   178.5000    285.4236     64.7717    108.3586      0.0000
   178.7500    285.4312     64.8827    113.2045      0.0000
   179.0000    285.4374     64.9979    116.3555      0.0000
   179.2500    285.4389     65.1028    116.6153      0.0000
   179.5000    285.4339     65.1871    113.7263      0.0000
   179.7500    285.4235     65.2436    108.8032      0.0000
   180.0000    285.4114     65.2643    104.0590      0.0000
   180.2500    285.4030     65.2426    101.4360      0.0000
   180.5000    285.4017     65.1845    101.1991      0.0000
   180.7500    285.4059     65.1194    101.9660      0.0000
   181.0000    285.4088     65.0959    102.0670      0.0000
   181.2500    285.4045     65.1567    100.7508      0.0000
   181.5000    285.3915     65.3082     98.4018      0.0000
   181.7500    285.3733     65.5128     95.9965      0.0000
   182.0000    285.3549     65.7101     94.3846      0.0000
   182.2500    285.3393     65.8530     93.8876      0.0000
   182.5000    285.3261     65.9334     94.4272      0.0000
   182.7500    285.3131     65.9769     95.7742      0.0000
   183.0000    285.2981     66.0089     97.4533      0.0000
   183.2500    285.2824     66.0325     98.6139      0.0000
   183.5000    285.2697     66.0409     98.5412      0.0000
   183.7500    285.2633     66.0398     97.4115      0.0000
   184.0000    285.2635     66.0442     96.1661      0.0000
   184.2500    285.2676     66.0578     95.4718      0.0000
   184.5000    285.2720     66.0710     95.0676      0.0000
   184.7500    285.2740     66.0794     94.1883      0.0000
   185.0000    285.2719     66.0974     92.2705      0.0000
   185.2500    285.2650     66.1469     89.2307      0.0000
   185.5000    285.2535     66.2386     85.5817      0.0000
   185.7500    285.2382     66.3671     82.5084      0.0000
   186.0000    285.2202     66.5176     81.2715      0.0000
   186.2500    285.2010     66.6733     81.9894      0.0000
   186.5000    285.1830     66.8269     83.3011      0.0000
   186.7500    285.1704     66.9861     83.6510      0.0000
   187.0000    285.1662     67.1631     82.6657      0.0000
   187.2500    285.1698     67.3564     81.0757      0.0000
   187.5000    285.1765     67.5516     79.8424      0.0000
   187.7500    285.1821     67.7307     79.6809      0.0000
   188.0000    285.1859     67.8794     81.0753      0.0000
   188.2500    285.1895     67.9908     84.3256      0.0000
   188.5000    285.1929     68.0679     89.3572      0.0000
   188.7500    285.1930     68.1249     95.2760      0.0000
   189.0000    285.1868     68.1855    100.2604      0.0000
   189.2500    285.1740     68.2734    102.5295      0.0000
   189.5000    285.1578     68.3953    101.8005      0.0000
   189.7500    285.1424     68.5406     99.5982      0.0000
   190.0000    285.1296     68.7013     97.7655      0.0000
   190.2500    285.1175     68.8875     96.7119      0.0000
   190.5000    285.1038     69.1153     95.4532      0.0000
   190.7500    285.0889     69.3849     93.2812      0.0000
   191.0000    285.0769     69.6760     90.7889      0.0000
   191.2500    285.0717     69.9567     89.0526      0.0000
   191.5000    285.0735     70.1977     88.4489      0.0000
   191.7500    285.0786     70.3896     88.7196      0.0000
   192.0000    285.0828     70.5542     89.7102      0.0000
   192.2500    285.0832     70.7312     91.4410      0.0000
   192.5000    285.0781     70.9500     93.6447      0.0000
   192.7500    285.0672     71.2129     95.7111      0.0000
