~Version Information
VERS.                      2.0: CWLS Log ASCII Standard - VERSION 2.0
WRAP.                       NO: One line per depth step
~Well Information Block
STRT.FT               555.5000: 
STOP.FT              2179.0000: 
STEP.FT                 0.2500: 
NULL.                -999.2500: 
COMP.          Petrogulf Corporation: COMPANY
WELL.            Montoya 6-14R: WELL
FLD.           Purgatorie River: FIELD
LOC.           867' FSL & 751' FWL: LOCATION
CNTY.               Las Animas: COUNTY
SRVC.                         : SERVICE COMPANY
DATE.          Mon Nov 15 07:02:23 2004: LOG DATE
UWI.           05 071 08242 00: UNIQUE WELL ID
STAT.                 Colorado: STATE
~Curve Information Block
DEPT.FT            0 000 00 00: Depth
SP.mV                         : DIL Spontaneous Potential
RILD.Ohm-m                    : DIL Deep Resistivity
RILM.Ohm-m                    : DIL Medium Resistivity
RLL3.Ohm-m                    : DIL Shallow Resistivity
GR.GAPI                       : Gamma Ray
~Parameter Information Block
~A  Depth        SP         RILD        RILM        RLL3         GR     
# ...
  1535.5000   -147.1650     33.2658     44.9714     57.7556     54.1341
  1535.7500   -147.9353     33.6614     44.7204     55.2377     53.3390
  1536.0000   -148.6900     34.0688     44.4004     53.1740     51.6871
  1536.2500   -149.3790     34.5030     44.1004     51.7083     50.6262
  1536.5000   -149.9960     34.9694     43.8869     50.9177     49.4620
  1536.7500   -150.5636     35.4663     43.7985     50.7970     48.9559
  1537.0000   -151.1149     35.9891     43.8444     51.2563     48.4029
  1537.2500   -151.6706     36.5308     44.0040     52.1271     48.1036
  1537.5000   -152.2277     37.0838     44.2329     53.1844     47.8887
  1537.7500   -152.7564     37.6377     44.4685     54.1829     48.0848
  1538.0000   -153.2105     38.1810     44.6459     54.9041     48.9549
  1538.2500   -153.5390     38.7021     44.7086     55.2018     49.6051
  1538.5000   -153.6989     39.1897     44.6246     55.0330     49.8964
  1538.7500   -153.6657     39.6377     44.3949     54.4596     49.5186
  1539.0000   -153.4332     40.0432     44.0493     53.6194     48.8506
  1539.2500   -153.0139     40.4075     43.6381     52.6786     48.9267
  1539.5000   -152.4308     40.7284     43.2180     51.7826     50.0097
  1539.7500   -151.7136     40.9960     42.8406     51.0280     50.8861
  1540.0000   -150.8970     41.1878     42.5437     50.4601     51.4214
  1540.2500   -150.0160     41.2723     42.3464     50.0917     51.0833
  1540.5000   -149.1162     41.2187     42.2527     49.9260     50.0233
  1540.7500   -148.2496     41.0066     42.2501     49.9683     49.3659
  1541.0000   -147.4799     40.6404     42.3140     50.2214     48.8376
  1541.2500   -146.8748     40.1530     42.4123     50.6709     48.7015
  1541.5000   -146.4978     39.6020     42.5092     51.2709     48.3140
  1541.7500   -146.3975     39.0544     42.5713     51.9420     47.7271
  1542.0000   -146.5953     38.5743     42.5725     52.5830     46.6004
  1542.2500   -147.0698     38.2063     42.5009     53.0933     46.0541
  1542.5000   -147.7581     37.9731     42.3603     53.3935     45.9953
  1542.7500   -148.5570     37.8712     42.1702     53.4396     46.5618
  1543.0000   -149.3442     37.8783     41.9595     53.2273     48.3618
  1543.2500   -150.0182     37.9578     41.7607     52.7904     49.9935
  1543.5000   -150.5210     38.0686     41.5991     52.1956     52.0657
  1543.7500   -150.8538     38.1714     41.4852     51.5339     52.5499
  1544.0000   -151.0739     38.2360     41.4142     50.9058     51.7846
  1544.2500   -151.2568     38.2433     41.3623     50.3990     50.8122
  1544.5000   -151.4626     38.1860     41.2940     50.0636     49.6396
  1544.7500   -151.7077     38.0672     41.1640     49.8950     49.1822
  1545.0000   -151.9632     37.8986     40.9295     49.8357     48.5073
  1545.2500   -152.1795     37.6978     40.5573     49.7981     47.7611
  1545.5000   -152.3312     37.4863     40.0335     49.7006     46.2950
  1545.7500   -152.4483     37.2882     39.3671     49.5018     45.5559
  1546.0000   -152.6273     37.1267     38.5915     49.2158     45.7687
  1546.2500   -153.0087     37.0187     37.7590     48.9048     47.0745
  1546.5000   -153.7320     36.9734     36.9333     48.6508     50.4583
  1546.7500   -154.8805     36.9873     36.1804     48.5232     53.0321
  1547.0000   -156.4460     37.0461     35.5606     48.5542     55.8895
  1547.2500   -158.3183     37.1233     35.1229     48.7303     56.4466
  1547.5000   -160.3051     37.1867     34.9030     49.0031     55.1191
  1547.7500   -162.1720     37.2033     34.9219     49.3114     53.2485
  1548.0000   -163.6919     37.1479     35.1869     49.6067     49.9176
  1548.2500   -164.6862     37.0099     35.6942     49.8723     47.7255
  1548.5000   -165.0567     36.7976     36.4289     50.1310     44.8970
  1548.7500   -164.7896     36.5372     37.3682     50.4392     43.5657
  1549.0000   -163.9588     36.2700     38.4834     50.8716     42.8296
  1549.2500   -162.6962     36.0433     39.7412     51.4998     43.2172
  1549.5000   -161.1695     35.9035     41.1077     52.3696     44.4537
  1549.7500   -159.5474     35.8894     42.5469     53.4830     45.0868
  1550.0000   -157.9696     36.0275     44.0262     54.7894     45.2265
  1550.2500   -156.5328     36.3275     45.5155     56.1911     45.0858
  1550.5000   -155.2856     36.7812     46.9880     57.5637     45.4435
  1550.7500   -154.2383     37.3611     48.4222     58.7896     46.1915
  1551.0000   -153.3815     38.0210     49.7955     59.7938     47.2616
  1551.2500   -152.6991     38.6979     51.0804     60.5696     47.3738
  1551.5000   -152.1684     39.3206     52.2369     61.1806     46.7270
  1551.7500   -151.7677     39.8150     53.2027     61.7358     46.4105
  1552.0000   -151.4667     40.1204     53.8933     62.3391     46.9896
  1552.2500   -151.2321     40.1978     54.2125     63.0316     47.9497
  1552.5000   -151.0277     40.0372     54.0687     63.7489     49.4539
  1552.7500   -150.8234     39.6568     53.4058     64.3129     50.2839
  1553.0000   -150.5975     39.0964     52.2229     64.4668     51.5868
  1553.2500   -150.3394     38.4054     50.5788     63.9417     52.8108
  1553.5000   -150.0482     37.6314     48.5830     62.5328     55.6331
  1553.7500   -149.7367     36.8131     46.3645     60.1561     58.4635
  1554.0000   -149.4310     35.9722     44.0509     56.8703     64.7946
  1554.2500   -149.1781     35.1146     41.7451     52.8605     70.6506
  1554.5000   -149.0439     34.2321     39.5199     48.3966     81.3157
  1554.7500   -149.1076     33.3060     37.4211     43.7805     88.6440
  1555.0000   -149.4424     32.3142     35.4711     39.2990     97.8189
  1555.2500   -150.0938     31.2383     33.6774     35.1883    101.9676
  1555.5000   -151.0639     30.0698     32.0371     31.6129    105.4581
  1555.7500   -152.3029     28.8137     30.5406     28.6582    106.7271
  1556.0000   -153.7182     27.4885     29.1741     26.3365    108.2768
  1556.2500   -155.1931     26.1230     27.9197     24.6007    109.2719
  1556.5000   -156.6099     24.7522     26.7572     23.3647    110.2816
  1556.7500   -157.8665     23.4105     25.6637     22.5245    110.3768
  1557.0000   -158.8890     22.1287     24.6156     21.9754    109.7235
  1557.2500   -159.6199     20.9303     23.5898     21.6234    109.1177
  1557.5000   -160.0205     19.8305     22.5663     21.3903    108.9242
  1557.7500   -160.0607     18.8358     21.5308     21.2131    109.7939
  1558.0000   -159.7301     17.9462     20.4771     21.0398    112.6727
  1558.2500   -159.0544     17.1553     19.4088     20.8230    115.0740
  1558.5000   -158.1085     16.4526     18.3392     20.5174    118.0084
  1558.7500   -157.0211     15.8256     17.2892     20.0799    118.9003
  1559.0000   -155.9525     15.2612     16.2828     19.4767    118.0915
  1559.2500   -155.0595     14.7476     15.3436     18.6940    116.0412
  1559.5000   -154.4572     14.2760     14.4909     17.7477    111.2034
  1559.7500   -154.1930     13.8406     13.7374     16.6880    107.5508
  1560.0000   -154.2448     13.4394     13.0892     15.5937    102.8745
  1560.2500   -154.5398     13.0736     12.5465     14.5567    100.7178
  1560.5000   -154.9856     12.7465     12.1050     13.6615     98.7124
  1560.7500   -155.4971     12.4625     11.7576     12.9652     97.8653
  1561.0000   -156.0066     12.2262     11.4963     12.4871     97.0782
  1561.2500   -156.4655     12.0415     11.3128     12.2102     96.9327
  1561.5000   -156.8360     11.9107     11.2002     12.0939     97.4007
  1561.7500   -157.0803     11.8350     11.1530     12.0939     98.1434
  1562.0000   -157.1574     11.8139     11.1677     12.1791     99.7698
  1562.2500   -157.0363     11.8454     11.2423     12.3415    101.1405
  1562.5000   -156.6992     11.9261     11.3760     12.5964    103.5916
  1562.7500   -156.1553     12.0511     11.5681     12.9752    105.3834
  1563.0000   -155.4447     12.2132     11.8166     13.5133    107.7134
  1563.2500   -154.6355     12.4033     12.1171     14.2406    108.5466
