~Version Information
VERS.                      2.0: CWLS Log ASCII Standard - VERSION 2.0
WRAP.                       NO: One line per depth step
~Well Information Block
STRT.FT               595.0000: 
STOP.FT              1508.7500: 
STEP.FT                 0.2500: 
NULL.                -999.2500: 
COMP.          Pioneer Natural Resources: COMPANY
WELL.          Sumatra 34-22 Tr: WELL
FLD.           Purgatoire River: FIELD
LOC.           443' FSL & 2424' FEL--: LOCATION
PROV.                 Colorado: PROVINCE
CNTY.               Las Animas: COUNTRY
SRVC.                Patterson: SERVICE COMPANY
DATE.          Wed Jun 08 23:53:01 2005: LOG DATE
UWI.           05 071 08383 00: UNIQUE WELL ID
~Curve Information Block
DEPT.FT            0 000 00 00: Depth
SN.Ohm-m                      : IEL Short Normal
SP.mV                         : IEL Spontaneous Potential
DIR.Ohm-m                     : IEL Induction Resistivity
GR.GAPI                       : Gamma Ray
~Parameter Information Block
~A  Depth        SN          SP         DIR          GR     
# ...
  1231.5000     65.4731   -358.1833     22.4070     80.8874
  1231.7500     41.7088   -372.7328     21.9341     81.9491
  1232.0000     29.9589   -392.5379     21.5192     83.2786
  1232.2500     25.0177   -415.2339     21.1791     84.0269
  1232.5000     22.7589   -438.4458     20.9097     84.8484
  1232.7500     21.6016   -460.1709     20.6989     85.1490
  1233.0000     21.4682   -479.0203     20.5365     85.2081
  1233.2500     22.5690   -494.2914     20.4150     85.0142
  1233.5000     24.8387   -505.8939     20.3256     84.5953
  1233.7500     28.8460   -514.1811     20.2578     84.4181
  1234.0000     37.4030   -519.7531     20.2025     84.3749
  1234.2500     56.5324   -523.2806     20.1562     84.2918
  1234.5000     93.6901   -525.3834     20.1193     83.7054
  1234.7500    152.4487   -526.5626     20.0912     83.0718
  1235.0000    226.5102   -527.1859     20.0657     82.4675
  1235.2500    298.6310   -527.5017     20.0332     82.7468
  1235.5000    346.3139   -527.6656     19.9870     84.1922
  1235.7500    351.4084   -527.7670     19.9289     85.2802
  1236.0000    311.8472   -527.8517     19.8690     85.9916
  1236.2500    250.3135   -527.9379     19.8199     85.6740
  1236.5000    207.0948   -528.0272     19.7903     84.5413
  1236.7500    214.5249   -528.1152     19.7794     83.6982
  1237.0000    273.6363   -528.1950     19.7751     82.5074
  1237.2500    355.9919   -528.2601     19.7586     81.8455
  1237.5000    428.4058   -528.3077     19.7120     81.3598
  1237.7500    472.6222   -528.3393     19.6287     81.4711
  1238.0000    480.9896   -528.3593     19.5163     82.1170
  1238.2500    445.8119   -528.3737     19.3943     82.7380
  1238.5000    366.2621   -528.3890     19.2838     83.9247
  1238.7500    261.5429   -528.4102     19.1999     84.8798
  1239.0000    164.1110   -528.4406     19.1474     86.2691
  1239.2500     97.4644   -528.4811     19.1241     86.8558
  1239.5000     65.0036   -528.5307     19.1250     86.9908
  1239.7500     58.6126   -528.5869     19.1463     86.8565
  1240.0000     72.4546   -528.6464     19.1845     87.1285
  1240.2500    107.8884   -528.7057     19.2338     87.8009
  1240.5000    166.2154   -528.7623     19.2837     88.8678
  1240.7500    236.1925   -528.8140     19.3194     88.9684
  1241.0000    292.3853   -528.8598     19.3284     87.8721
  1241.2500    314.2508   -528.8995     19.3088     86.8592
  1241.5000    307.8829   -528.9332     19.2730     86.0346
  1241.7500    301.3539   -528.9612     19.2404     85.8901
  1242.0000    318.0239   -528.9841     19.2249     85.1533
  1242.2500    361.4684   -529.0021     19.2250     83.8883
  1242.5000    423.6293   -529.0157     19.2265     81.1902
  1242.7500    494.9657   -529.0250     19.2126     79.3044
  1243.0000    564.4282   -529.0306     19.1747     76.7660
  1243.2500    620.0794   -529.0327     19.1156     75.3297
  1243.5000    655.5690   -529.0318     19.0478     73.6777
  1243.7500    673.2966   -529.0283     18.9882     73.0456
  1244.0000    680.1958   -529.0224     18.9510     73.0623
  1244.2500    682.2896   -529.0146     18.9427     73.7879
  1244.5000    682.7828   -529.0054     18.9602     75.6602
  1244.7500    682.8792   -528.9954     18.9947     76.9946
  1245.0000    682.8891   -528.9855     19.0383     78.3422
  1245.2500    682.8865   -528.9766     19.0871     78.6015
  1245.5000    682.8741   -528.9696     19.1388     78.1455
  1245.7500    682.8284   -528.9652     19.1880     77.4757
  1246.0000    682.7011   -528.9638     19.2262     76.4661
  1246.2500    682.4375   -528.9651     19.2466     76.2007
  1246.5000    682.0449   -528.9686     19.2475     76.7554
  1246.7500    681.6606   -528.9730     19.2295     77.5388
  1247.0000    681.4970   -528.9772     19.1914     78.6404
  1247.2500    681.6606   -528.9799     19.1322     79.0904
  1247.5000    682.0449   -528.9799     19.0566     79.3550
  1247.7500    682.4375   -528.9766     18.9797     79.3992
  1248.0000    682.7011   -528.9694     18.9209     79.5534
  1248.2500    682.8284   -528.9583     18.8938     79.7570
  1248.5000    682.8741   -528.9433     18.8991     79.8677
  1248.7500    682.8865   -528.9251     18.9270     79.4973
  1249.0000    682.8891   -528.9046     18.9648     78.0427
  1249.2500    682.8517   -528.8830     19.0039     76.5988
  1249.5000    682.6058   -528.8618     19.0395     74.1367
  1249.7500    681.3677   -528.8428     19.0692     72.5570
  1250.0000    676.5165   -528.8277     19.0927     70.8131
  1250.2500    661.7515   -528.8176     19.1159     70.3812
  1250.5000    627.1100   -528.8131     19.1519     70.9751
  1250.7500    564.8459   -528.8140     19.2160     71.9234
  1251.0000    480.4706   -528.8191     19.3166     73.4013
  1251.2500    397.4924   -528.8267     19.4488     74.1118
  1251.5000    345.4495   -528.8346     19.5966     74.7632
  1251.7500    340.5030   -528.8410     19.7419     75.1250
  1252.0000    378.7848   -528.8443     19.8735     75.7536
  1252.2500    444.8218   -528.8436     19.9898     76.0768
  1252.5000    520.3437   -528.8387     20.0949     75.9303
  1252.7500    588.1769   -528.8303     20.1926     75.2940
  1253.0000    636.7921   -528.8192     20.2837     73.8589
  1253.2500    664.2446   -528.8066     20.3658     72.9240
  1253.5000    675.7199   -528.7939     20.4327     72.0135
  1253.7500    676.8151   -528.7822     20.4726     71.8630
  1254.0000    668.7797   -528.7729     20.4662     72.3629
  1254.2500    648.1912   -528.7670     20.3896     73.0886
  1254.5000    609.8008   -528.7659     20.2229     74.4837
  1254.7500    549.8755   -528.7706     19.9605     75.5332
  1255.0000    468.3402   -528.7819     19.6164     77.3813
  1255.2500    370.7688   -528.7996     19.2212     78.7960
  1255.5000    271.0360   -528.8233     18.8115     80.8220
  1255.7500    189.8239   -528.8515     18.4207     81.8157
  1256.0000    147.0795   -528.8820     18.0746     82.4858
  1256.2500    155.2222   -528.9127     17.7931     82.3427
  1256.5000    216.5687   -528.9414     17.5904     81.3521
  1256.7500    320.2805   -528.9664     17.4683     80.4274
  1257.0000    440.8742   -528.9867     17.4043     79.2748
  1257.2500    547.5203   -529.0021     17.3453     78.8801
  1257.5000    620.6605   -529.0130     17.2124     78.7598
  1257.7500    659.7283   -529.0203     16.9229     78.8814
  1258.0000    675.9839   -529.0248     16.4210     79.6663
  1258.2500    681.2493   -529.0275     15.7025     81.2315
  1258.5000    682.5544   -529.0294     14.8168     86.6633
  1258.7500    682.7185   -529.0310     13.8457     92.9244
  1259.0000    682.4861   -529.0326     12.8730    105.9320
  1259.2500    681.9218   -529.0344     11.9623    116.0927
  1259.5000    681.0815   -529.0363     11.1490    131.4853
  1259.7500    680.2588   -529.0381     10.4435    140.7058
  1260.0000    679.9085   -529.0397      9.8400    151.5515
  1260.2500    680.2588   -529.0408      9.3267    156.4105
  1260.5000    681.0815   -529.0415      8.8936    160.3812
  1260.7500    681.9218   -529.0419      8.5353    161.4031
  1261.0000    682.4861   -529.0423      8.2499    161.8162
  1261.2500    682.7586   -529.0428      8.0340    162.0392
  1261.5000    682.8564   -529.0438      7.8799    163.0715
  1261.7500    682.8831   -529.0451      7.7751    164.3098
  1262.0000    682.8886   -529.0468      7.7050    166.4895
  1262.2500    682.8896   -529.0485      7.6566    167.7004
  1262.5000    682.8896   -529.0499      7.6207    168.5553
  1262.7500    682.8896   -529.0507      7.5922    168.3496
  1263.0000    682.8896   -529.0506      7.5677    167.1066
  1263.2500    682.8896   -529.0494      7.5451    166.0161
  1263.5000    682.8896   -529.0473      7.5230    164.5042
  1263.7500    682.8896   -529.0444      7.5017    163.5135
  1264.0000    682.8896   -529.0413      7.4842    161.3945
  1264.2500    682.8896   -529.0385      7.4755    159.2545
  1264.5000    682.8896   -529.0365      7.4820    155.2098
  1264.7500    682.8896   -529.0356      7.5097    152.5429
