~Version Information
VERS.                      2.0: CWLS Log ASCII Standard - VERSION 2.0
WRAP.                       NO: One line per depth step
~Well Information Block
STRT.FT               -12.5000: 
STOP.FT              2284.7500: 
STEP.FT                 0.2500: 
NULL.                -999.2500: 
COMP.          Pioneer Natural Resources: COMPANY
WELL.          Hill Climb 22-2: WELL
FLD.           Purgatorie River: FIELD
LOC.           1820' FNL & 2193' FWL--: LOCATION
PROV.                       CO: PROVINCE
CNTY.               Las Animas: COUNTRY
SRVC.                         : SERVICE COMPANY
DATE.          Fri Oct 22 11:44:16 2004: LOG DATE
UWI.                          : UNIQUE WELL ID
~Curve Information Block
DEPT.FT            0 000 00 00: Depth
GR.GAPI                       : Gamma Ray
CCL.                          : Casing Collar Locator
TT3.usec                      : CBL 3' Travel Time
AMP3.mV                       : CBL 3' Amplitude
~Parameter Information Block
~A  Depth        GR         CCL         TT3         AMP3    
# ...
  1662.5000     92.2104      0.0000    274.0121     60.0265
  1662.7500     97.6466      0.0000    277.2261     56.8544
  1663.0000    103.1622      0.0000    276.9705     55.0980
  1663.2500    108.1150      0.0000    274.0270     54.7324
  1663.5000    112.5967      0.0000    270.5018     55.2738
  1663.7500    116.9918      0.0000    267.9634     56.1431
  1664.0000    121.1406      0.0000    266.7844     56.8685
  1664.2500    124.1705      2.0000    266.8056     57.1711
  1664.5000    125.1188      0.0000    268.1203     56.9333
  1664.7500    123.5212      0.0000    271.0844     56.1626
  1665.0000    119.5002      0.0000    275.4415     55.1312
  1665.2500    113.6658      0.0000    279.4387     54.5133
  1665.5000    107.1592      0.0000    280.4667     55.0760
  1665.7500    101.6353      0.0000    277.2978     57.0658
  1666.0000     98.8316      0.0000    271.4072     60.0666
  1666.2500     99.9528      0.0000    265.6043     63.4335
  1666.5000    105.1594      0.0000    261.6987     66.6189
  1666.7500    113.0740      0.0000    259.7732     69.1923
  1667.0000    120.8925      0.0000    259.0597     70.9146
  1667.2500    125.7293      0.0000    258.8678     71.8480
  1667.5000    126.1909      0.0000    258.8452     72.2581
  1667.7500    122.8358      0.0000    258.8605     72.4060
  1668.0000    117.3877      0.0000    258.8729     72.4514
  1668.2500    111.5560      0.0000    258.8676     72.4793
  1668.5000    106.5586      0.0000    258.8458     72.5271
  1668.7500    103.6171      0.0000    258.8168     72.5967
  1669.0000    104.0845      0.0000    258.7927     72.6654
  1669.2500    108.3254      0.0000    258.7793     72.7082
  1669.5000    114.8736      0.0000    258.7742     72.7131
  1669.7500    121.2039      0.0000    258.7734     72.6848
  1670.0000    125.0543      0.0000    258.7780     72.6418
  1670.2500    125.1634      0.0000    258.7917     72.6051
  1670.5000    121.6980      0.0000    258.8149     72.5838
  1670.7500    116.3125      0.0000    258.8439     72.5723
  1671.0000    111.0827      0.0000    258.8724     72.5623
  1671.2500    106.8494      0.0000    258.8933     72.5548
  1671.5000    102.8790      0.0000    258.9008     72.5583
  1671.7500     98.3845      0.0000    258.8927     72.5751
  1672.0000     93.9154      0.0000    258.8712     72.5918
  1672.2500     90.9364      0.0000    258.8421     72.5864
  1672.5000     90.5885      0.0000    258.8141     72.5512
  1672.7500     93.3943      0.0000    258.7977     72.5057
  1673.0000     99.5578      0.0000    258.7982     72.4827
  1673.2500    108.6571      0.0000    258.8125     72.5032
  1673.5000    119.1792      0.0000    258.8333     72.5637
  1673.7500    129.0710      0.0000    258.8544     72.6387
  1674.0000    137.0574      0.0000    258.8725     72.6904
  1674.2500    143.2115      0.0000    258.8860     72.6872
  1674.5000    148.0136      0.0000    258.8926     72.6254
  1674.7500    151.0835      0.0000    258.8882     72.5315
  1675.0000    151.4176      0.0000    258.8703     72.4419
  1675.2500    148.9054      0.0000    258.8443     72.3801
  1675.5000    145.2282      0.0000    258.8246     72.3500
  1675.7500    143.1304      0.0000    258.8230     72.3414
  1676.0000    144.6635      0.0000    258.8378     72.3445
  1676.2500    149.7590      0.0000    258.8556     72.3620
  1676.5000    156.3838      0.0000    258.8632     72.4011
  1676.7500    162.0073      0.0000    258.8552     72.4576
  1677.0000    164.8210      0.0000    258.8354     72.5166
  1677.2500    164.0599      0.0000    258.8114     72.5652
  1677.5000    160.1148      0.0000    258.7915     72.5905
  1677.7500    154.3989      0.0000    258.7825     72.5750
  1678.0000    148.5368      0.0000    258.7889     72.5112
  1678.2500    143.5797      0.0000    258.8097     72.4201
  1678.5000    139.9766      0.0000    258.8372     72.3407
  1678.7500    137.8617      0.0000    258.8628     72.3049
  1679.0000    137.0855      0.0000    258.8830     72.3187
  1679.2500    137.1429      0.0000    258.8982     72.3605
  1679.5000    137.4309      0.0000    258.9075     72.3981
  1679.7500    137.6110      0.0000    258.9074     72.4165
  1680.0000    137.6614      0.0000    258.8964     72.4292
  1680.2500    137.6838      0.0000    258.8790     72.4557
  1680.5000    137.5259      0.0000    258.8615     72.4992
  1680.7500    136.3311      0.0000    258.8469     72.5545
  1681.0000    132.7902      0.0000    258.8338     72.6241
  1681.2500    126.3212      0.0000    258.8206     72.7149
  1681.5000    117.8884      0.0000    258.8083     72.8231
  1681.7500    109.4414      0.0000    258.8004     72.9293
  1682.0000    102.8064      0.0000    258.7990     73.0053
  1682.2500     99.0557      0.0000    258.8011     73.0270
  1682.5000     98.2139      0.0000    258.8012     72.9895
  1682.7500     99.1289      0.0000    258.7958     72.9099
  1683.0000     99.9142      0.0000    258.7874     72.8145
  1683.2500     99.1479      0.0000    258.7820     72.7292
  1683.5000     97.1046      0.0000    258.7849     72.6817
  1683.7500     95.5969      0.0000    258.7957     72.6978
  1684.0000     96.0187      0.0000    258.8097     72.7846
  1684.2500     97.7082      0.0000    258.8226     72.9218
  1684.5000     98.8821      0.0000    258.8329     73.0701
  1684.7500     98.9480      0.0000    258.8403     73.1866
  1685.0000     99.1285      0.0000    258.8422     73.2405
  1685.2500    100.9227      0.0000    258.8369     73.2269
  1685.5000    104.6169      0.0000    258.8261     73.1688
  1685.7500    109.4401      0.0000    258.8139     73.0971
  1686.0000    114.8221      0.0000    258.8039     73.0279
  1686.2500    121.0030      0.0000    258.7975     72.9582
  1686.5000    128.0915      0.0000    258.7946     72.8805
  1686.7500    135.0030      0.0000    258.7942     72.7966
  1687.0000    140.0672      0.0000    258.7978     72.7214
  1687.2500    142.4691      0.0000    258.8084     72.6782
  1687.5000    142.4418      0.0000    258.8264     72.6845
  1687.7500    140.4849      0.0000    258.8469     72.7395
  1688.0000    137.0259      0.0000    258.8643     72.8236
  1688.2500    132.3935      0.0000    258.8768     72.9087
  1688.5000    126.7791      0.0000    258.8844     72.9688
  1688.7500    120.5791      0.0000    258.8875     72.9897
  1689.0000    114.7193      0.0000    258.8875     72.9771
  1689.2500    110.3503      0.0000    258.8849     72.9530
  1689.5000    108.2412      0.0000    258.8786     72.9391
  1689.7500    108.3272      0.0000    258.8686     72.9477
  1690.0000    109.5809      0.0000    258.8591     72.9858
  1690.2500    110.5521      0.0000    258.8549     73.0560
  1690.5000    110.5782      0.0000    258.8574     73.1478
  1690.7500    110.6033      0.0000    258.8640     73.2349
  1691.0000    112.3863      0.0000    258.8708     73.2879
  1691.2500    116.6863      0.0000    258.8744     73.2939
  1691.5000    122.3999      0.0000    258.8736     73.2668
  1691.7500    127.6239      0.0000    258.8721     73.2318
  1692.0000    131.3826      0.0000    258.8752     73.2000
  1692.2500    134.0195      0.0000    258.8819     73.1676
  1692.5000    136.0846      0.0000    258.8833     73.1376
  1692.7500    137.4808      0.0000    258.8709     73.1252
  1693.0000    137.9843      0.0000    258.8457     73.1387
  1693.2500    137.9055      0.0000    258.8178     73.1683
  1693.5000    137.5351      0.0000    258.7992     73.1982
  1693.7500    136.2650      0.0000    258.7953     73.2171
  1694.0000    132.9296      0.0000    258.8023     73.2171
  1694.2500    127.1316      0.0000    258.8125     73.1946
  1694.5000    119.9928      0.0000    258.8217     73.1577
  1694.7500    113.5271      0.0000    258.8304     73.1207
  1695.0000    109.4420      0.0000    258.8385     73.0876
  1695.2500    108.4253      0.0000    258.8452     73.0471
  1695.5000    110.0165      0.0000    258.8527     72.9849
  1695.7500    113.0199      0.0000    258.8653     72.8950
