~Version Information
VERS.                      2.0: CWLS Log ASCII Standard - VERSION 2.0
WRAP.                       NO: One line per depth step
~Well Information Block
STRT.FT               318.1000: 
STOP.FT              2688.0000: 
STEP.FT                 0.1000: 
NULL.                -999.2500: 
COMP.          Petrogulf Corporation: COMPANY
WELL.            Montoya 1-24V: WELL
FLD.           Purgatorie River: FIELD
LOC.           605' FSL & 2557' FWL: LOCATION
CNTY.               Las Animas: COUNTY
SRVC.                         : SERVICE COMPANY
DATE.          Wed Oct 20 14:56:37 2004: LOG DATE
UWI.           05 071 08194 00: UNIQUE WELL ID
STAT.                 Colorado: STATE
~Curve Information Block
DEPT.FT            0 000 00 00: Depth
DCAL.in                       : CDL Caliper
RHOB.g/cc                     : CDL Bulk Density
RHOC.g/cc                     : CDL Density Correction
DPOR.pu                       : CDL Density Porosity
GR.GAPI                       : Gamma Ray
NPOR.pu                       : Neutron Porosity
~Parameter Information Block
~A  Depth       DCAL        RHOB        RHOC        DPOR         GR         NPOR    
# ...
  2046.1000      7.8594      2.5148      0.0499      8.1953     45.4691     25.6438
  2046.2000      7.8594      2.5047      0.0684      8.8053     44.1303     26.1136
  2046.3000      7.8314      2.4926      0.0892      9.5374     44.6085     26.1416
  2046.4000      7.8314      2.4826      0.0092     10.1431     48.6275     26.1502
  2046.5000      7.8438      2.4910      0.0822      9.6388     54.7839     26.2662
  2046.6000      7.8438      2.5060      0.1222      8.7259     60.7653     26.3302
  2046.7000      7.8438      2.5090      0.0863      8.5446     65.9533     26.5157
  2046.8000      7.8867      2.5105      0.0440      8.4569     71.7207     26.8236
  2046.9000      7.8867      2.5314      0.0612      7.1877     78.2434     26.6904
  2047.0000      7.8649      2.5670      0.1713      5.0311     82.4727     25.9785
  2047.1000      7.8649      2.5914      0.1966      3.5489     85.4273     25.5008
  2047.2000      7.8649      2.5967      0.1536      3.2318     89.9796     25.6819
  2047.3000      7.8727      2.5937      0.1525      3.4150     95.5449     26.1706
  2047.4000      7.8727      2.5895      0.1587      3.6638    102.1118     26.7781
  2047.5000      7.8406      2.5810      0.1584      4.1848    107.1012     27.3758
  2047.6000      7.8406      2.5672      0.1117      5.0168    108.9544     27.9228
  2047.7000      7.8406      2.5574      0.0917      5.6106    112.6930     28.7624
  2047.8000      7.8802      2.5511      0.0662      5.9950    118.4643     29.4171
  2047.9000      7.8802      2.5351      0.0991      6.9627    120.9220     29.0859
  2048.0000      7.8997      2.5130      0.0645      8.3042    118.2223     28.2975
  2048.1000      7.8997      2.5013      0.0551      9.0093    114.1864     27.8525
  2048.2000      7.8997      2.4972      0.0566      9.2585    110.7768     28.0404
  2048.3000      7.9010      2.4942      0.0520      9.4399    108.4949     28.5714
  2048.4000      7.9010      2.4993      0.0351      9.1356    107.3049     28.7822
  2048.5000      7.9089      2.5093      0.0741      8.5244    106.7587     28.5875
  2048.6000      7.9089      2.5079      0.0601      8.6129    110.9637     28.5382
  2048.7000      7.9089      2.4979      0.0205      9.2176    118.6561     28.9251
  2048.8000      7.9005      2.4961      0.0850      9.3295    123.3406     29.3863
  2048.9000      7.9005      2.5049      0.0557      8.7933    122.8522     29.6655
  2049.0000      7.9069      2.5182      0.0812      7.9865    116.6126     29.8161
  2049.1000      7.9069      2.5315      0.0914      7.1791    110.5122     29.9156
  2049.2000      7.9069      2.5510      0.0179      6.0011    110.9247     30.1209
  2049.3000      7.9221      2.5767      0.1423      4.4418    113.5290     30.2937
  2049.4000      7.9221      2.5904      0.1030      3.6091    113.3119     29.9981
  2049.5000      7.9424      2.5956      0.0883      3.2946    111.5113     29.0684
  2049.6000      7.9424      2.6121      0.0694      2.2997    110.2306     27.9172
  2049.7000      7.9424      2.6367      0.1311      0.8060    109.8440     27.0221
  2049.8000      7.9469      2.6536      0.1333     -0.2163    108.2131     26.4597
  2049.9000      7.9469      2.6526      0.1139     -0.1577    105.3079     26.4682
  2050.0000      7.9207      2.6320      0.0607      1.0912    100.4808     27.2493
  2050.1000      7.9207      2.5942      0.0804      3.3797     92.6147     28.1521
  2050.2000      7.9207      2.5465     -0.0219      6.2723     86.0809     28.3975
  2050.3000      7.9425      2.5137     -0.0143      8.2635     83.9405     27.8853
  2050.4000      7.9425      2.5191     -0.0520      7.9315     85.4677     27.1181
  2050.5000      7.9583      2.5590      0.0484      5.5149     89.7904     26.6670
  2050.6000      7.9583      2.6043      0.0649      2.7693     95.3382     26.7190
  2050.7000      7.9583      2.6229      0.0662      1.6426     98.9357     26.9590
  2050.8000      7.9303      2.6019      0.1148      2.9157     99.8921     26.8209
  2050.9000      7.9303      2.5631      0.0316      5.2640    101.9767     26.4773
  2051.0000      7.9556      2.5420      0.0429      6.5468    107.5192     26.3535
  2051.1000      7.9556      2.5459      0.0625      6.3078    116.9703     26.6199
  2051.2000      7.9556      2.5594      0.0493      5.4930    126.7214     27.3756
  2051.3000      7.9530      2.5674      0.0993      5.0080    127.5183     28.2721
  2051.4000      7.9530      2.5671      0.0233      5.0252    118.9855     28.7038
  2051.5000      7.9656      2.5675      0.0697      5.0010    109.9624     28.5987
  2051.6000      7.9656      2.5665      0.1002      5.0597    105.1932     28.3861
  2051.7000      7.9656      2.5601      0.0502      5.4464    104.5936     28.0106
  2051.8000      7.9409      2.5627      0.0260      5.2915    105.1517     27.3984
  2051.9000      7.9409      2.5813      0.0975      4.1608    105.8393     27.1387
  2052.0000      7.9467      2.6020      0.1041      2.9074    107.1737     27.4500
  2052.1000      7.9467      2.6127      0.1156      2.2620    107.0105     27.5393
  2052.2000      7.9467      2.6153      0.0580      2.1012    103.9188     26.9345
  2052.3000      7.9100      2.6067      0.0703      2.6227     98.4834     26.6175
  2052.4000      7.9100      2.5759      0.0352      4.4913     91.4530     27.2997
  2052.5000      7.9506      2.5357      0.0155      6.9279     85.4621     28.0546
  2052.6000      7.9506      2.5090      0.0203      8.5436     82.9171     28.0728
  2052.7000      7.9506      2.4977     -0.0130      9.2280     82.4180     27.4266
  2052.8000      7.9539      2.4946     -0.0178      9.4159     80.3363     26.5793
  2052.9000      7.9539      2.4942     -0.0210      9.4400     75.9881     25.9692
  2053.0000      7.9240      2.4966     -0.0337      9.2948     72.9768     25.6173
  2053.1000      7.9240      2.5074      0.0468      8.6400     72.6379     25.5474
  2053.2000      7.9240      2.5241      0.0777      7.6292     73.8451     25.8879
  2053.3000      7.9404      2.5390      0.0782      6.7274     76.6245     26.6025
  2053.4000      7.9404      2.5489      0.0793      6.1252     79.6809     27.3976
  2053.5000      7.9306      2.5602      0.0304      5.4434     82.5952     27.6309
  2053.6000      7.9306      2.5782      0.0947      4.3530     86.4837     27.3244
  2053.7000      7.9306      2.5904      0.0971      3.6095     90.4545     27.1966
  2053.8000      7.9023      2.5890      0.0967      3.6991     92.1450     27.3856
  2053.9000      7.9023      2.5866      0.0781      3.8436     92.3867     27.5577
  2054.0000      7.9182      2.5935      0.1085      3.4212     93.0005     27.4048
  2054.1000      7.9182      2.5988      0.1108      3.1057     95.0494     26.8613
  2054.2000      7.9182      2.5925      0.0882      3.4866     98.7084     26.5429
  2054.3000      7.8978      2.5835      0.0760      4.0328     98.9696     26.8821
  2054.4000      7.8978      2.5742      0.1001      4.5932     91.8528     27.1942
  2054.5000      7.8889      2.5563      0.0696      5.6802     83.9521     26.7957
  2054.6000      7.8889      2.5424     -0.0025      6.5195     82.5840     26.0856
  2054.7000      7.8889      2.5540      0.0262      5.8166     85.3726     25.6416
  2054.8000      7.8769      2.5805      0.0701      4.2149     87.5193     25.4158
  2054.9000      7.8769      2.5869      0.1170      3.8266     91.5088     25.1659
  2055.0000      7.9258      2.5629      0.0407      5.2795    101.6516     24.9935
  2055.1000      7.9258      2.5434     -0.0101      6.4587    107.9987     25.2483
  2055.2000      7.9258      2.5583      0.0474      5.5551     99.5639     25.6376
  2055.3000      7.9396      2.5863      0.1152      3.8591     86.9539     25.5466
  2055.4000      7.9396      2.5964      0.0597      3.2486     81.1799     25.1882
  2055.5000      7.9139      2.5914      0.0672      3.5534     78.7395     24.9837
  2055.6000      7.9139      2.5845      0.0488      3.9673     77.0429     24.9847
