~Version Information
VERS.                      2.0: CWLS Log ASCII Standard - VERSION 2.0
WRAP.                       NO: One line per depth step
~Well Information Block
STRT.FT                -3.5000: 
STOP.FT              1841.0000: 
STEP.FT                 0.2500: 
NULL.                -999.2500: 
COMP.          Pioneer Natural Resources: COMPANY
WELL.          Corkscrew 33-12 Tr: WELL
FLD.           Purgatorie River: FIELD
LOC.           1870' FSL  & 1706' FEL--------: LOCATION
PROV.                       CO: PROVINCE
CNTY.               Las Animas: COUNTRY
SRVC.          Patterson Wireline: SERVICE COMPANY
DATE.          Mon Apr 04 10:07:45 2005: LOG DATE
UWI.           05 071 08295 00: UNIQUE WELL ID
~Curve Information Block
DEPT.FT            0 000 00 00: Depth
CCL.                          : Casing Collar Locator
TT3.usec                      : CBL 3' Travel Time
AMP3.mV                       : CBL 3' Amplitude
GR.GAPI                       : Gamma Ray
~Parameter Information Block
~A  Depth       CCL         TT3         AMP3         GR     
    -3.5000   -999.2500   -999.2500   -999.2500   -999.2500
    -3.2500   -999.2500   -999.2500   -999.2500     92.6555
    -3.0000   -999.2500   -999.2500   -999.2500     92.8207
    -2.7500   -999.2500   -999.2500   -999.2500     90.7076
    -2.5000   -999.2500   -999.2500   -999.2500     86.6537
    -2.2500   -999.2500   -999.2500   -999.2500     81.9561
    -2.0000   -999.2500   -999.2500   -999.2500     78.2043
    -1.7500   -999.2500   -999.2500   -999.2500     76.5035
    -1.5000   -999.2500   -999.2500   -999.2500     77.1575
    -1.2500   -999.2500   -999.2500   -999.2500     79.5565
    -1.0000   -999.2500   -999.2500   -999.2500     82.3203
    -0.7500   -999.2500   -999.2500   -999.2500     84.1302
    -0.5000   -999.2500   -999.2500   -999.2500     84.5817
    -0.2500   -999.2500   -999.2500   -999.2500     83.9179
     0.0000   -999.2500   -999.2500   -999.2500     82.1875
     0.2500   -999.2500   -999.2500   -999.2500     79.2497
     0.5000   -999.2500   -999.2500   -999.2500     75.5259
     0.7500   -999.2500   -999.2500   -999.2500     72.2487
     1.0000   -999.2500   -999.2500   -999.2500     70.8607
     1.2500   -999.2500   -999.2500   -999.2500     72.2927
     1.5000   -999.2500   -999.2500   -999.2500     76.5716
     1.7500   -999.2500   1167.0000      2.4558     82.7668
     2.0000   -999.2500   1167.0000      2.4542     89.3844
     2.2500   -999.2500   1167.0000      2.4559     95.0466
     2.5000   -999.2500   1167.0000      2.4573     98.8668
     2.7500   -999.2500   1167.0000      2.4548    100.2589
     3.0000   -999.2500   1167.0000      2.4461     98.7185
     3.2500   -999.2500   1167.0000      2.4302     94.1356
     3.5000   -999.2500   1167.0000      2.4076     87.2338
     3.7500   -999.2500   1167.0000      2.3843     79.2566
     4.0000   -999.2500   1167.0000      2.3720     71.2087
     4.2500   -999.2500   1167.0000      2.3773     63.7257
     4.5000   -999.2500   1167.0000      2.3935     57.3572
     4.7500   -999.2500   1167.0000      2.4075     52.2569
     5.0000   -999.2500   1167.0000      2.4131     47.7313
     5.2500   -999.2500   1167.0000      2.4143     42.8932
     5.5000   -999.2500   1167.0000      2.4186     37.9633
     5.7500   -999.2500   1167.0000      2.4311     34.4772
     6.0000   -999.2500   1167.0000      2.4526     33.9746
     6.2500   -999.2500   1167.0000      2.4762     36.6670
     6.5000   -999.2500   1167.0000      2.4890     41.5055
     6.7500   -999.2500   1167.0000      2.4815     47.3101
     7.0000   -999.2500   1167.0000      2.4574     53.4289
     7.2500   -999.2500   1167.0000      2.4331     59.2975
     7.5000      0.0000   1167.0000      2.4272     64.0275
     7.7500      0.0000   1167.0000      2.4487     66.9671
     8.0000      0.0000   1167.0000      2.4920     68.3883
     8.2500      0.0000   1167.0000      2.5412     69.1737
     8.5000      0.0000   1167.0000      2.5792     69.9526
     8.7500      0.0000   1167.0000      2.5941     70.8082
     9.0000      0.0000   1167.0000      2.5808     71.7376
     9.2500      0.0000   1167.0000      2.5411     73.0978
     9.5000      0.0000   1167.0000      2.4841     75.3000
     9.7500      0.0000   1167.0000      2.4232     78.1419
    10.0000      0.0000   1167.0000      2.3718     80.8857
    10.2500      0.0000   1167.0000      2.3406     82.9720
    10.5000      0.0000   1167.0000      2.3367     84.2272
    10.7500      0.0000   1167.0000      2.3625     84.5370
    11.0000      0.0000   1167.0000      2.4123     83.8359
    11.2500      0.0000   1167.0000      2.4722     82.3571
    11.5000      0.0000   1167.0000      2.5250     80.5655
    11.7500      0.0000   1166.9640      2.5587     78.9689
    12.0000     -2.0000   1166.7052      2.5720     78.1312
    12.2500      0.0000   1165.3563      2.5830     78.5254
    12.5000      0.0000   1159.8446      2.6727     80.0518
    12.7500      0.0000   1142.1689      3.0899     81.7904
    13.0000      0.0000   1097.6163      4.3902     82.4119
    13.2500      0.0000   1009.2249      7.4134     80.9653
    13.5000      0.0000    870.9896     12.8356     77.4039
    13.7500      0.0000    700.3536     20.4143     72.5634
    14.0000      0.0000    533.9252     28.6958     67.7445
    14.2500      0.0000    405.5762     35.7920     64.2369
    14.5000      0.0000    327.3276     40.5931     62.9026
    14.7500      0.0000    289.8248     43.1728     63.8143
    15.0000      0.0000    276.4308     44.1588     66.1767
    15.2500      0.0000    274.8324     43.9737     68.7822
    15.5000      0.0000    279.7932     42.6588     70.6467
    15.7500      0.0000    291.3820     40.1703     71.1740
    16.0000      0.0000    314.1776     36.6752     69.9468
    16.2500      0.0000    357.7715     32.5714     66.9251
    16.5000      0.0000    433.6619     28.3086     62.9944
    16.7500      0.0000    545.6146     24.2351     59.7357
    17.0000      0.0000    680.6302     20.5711     58.1720
    17.2500      0.0000    811.9346     17.4288     57.9750
    17.5000      0.0000    913.5607     14.8197     58.2312
    17.7500      0.0000    973.5148     12.6779     58.7741
    18.0000      0.0000    996.1257     10.9170     60.3643
    18.2500      0.0000    995.3399      9.4823     63.5050
    18.5000      0.0000    985.6982      8.3618     67.3542
    18.7500      0.0000    976.6804      7.5599     70.2033
    19.0000      0.0000    972.0417      7.0572     71.0760
    19.2500      0.0000    971.6988      6.7895     70.5330
    19.5000      0.0000    973.7261      6.6618     69.9107
    19.7500      0.0000    975.9773      6.5895     70.1568
    20.0000      0.0000    977.2049      6.5294     71.3167
    20.2500      0.0000    977.0475      6.4788     72.6092
    20.5000      0.0000    974.9788      6.4531     72.9321
    20.7500      0.0000    969.0562      6.4617     71.7130
    21.0000      0.0000    955.6989      6.4957     69.4085
    21.2500      0.0000    931.8804      6.5297     67.0234
    21.5000      0.0000    899.3016      6.5386     65.2225
    21.7500      0.0000    866.1106      6.5146     64.0810
    22.0000      0.0000    841.9121      6.4689     63.4225
    22.2500      0.0000    829.9172      6.4215     63.1489
    22.5000      0.0000    826.0094      6.3916     63.4155
    22.7500      0.0000    826.3994      6.3906     64.5148
    23.0000      0.0000    833.1573      6.4136     66.3283
    23.2500      0.0000    849.9697      6.4374     68.0318
    23.5000      0.0000    874.9718      6.4338     68.8724
    23.7500      0.0000    900.7884      6.3902     69.1965
    24.0000      0.0000    920.6572      6.3202     70.0584
    24.2500      0.0000    932.1429      6.2552     71.7794
    24.5000      0.0000    935.6627      6.2254     73.5055
    24.7500      0.0000    932.4910      6.2392     74.1908
    25.0000      0.0000    925.2360      6.2786     73.5079
    25.2500      0.0000    917.9584      6.3127     71.7855
    25.5000      0.0000    914.0886      6.3194     69.5359
    25.7500      0.0000    915.2546      6.2961     67.2598
    26.0000      0.0000    922.2593      6.2575     65.3942
    26.2500      0.0000    934.7064      6.2243     64.1777
    26.5000      0.0000    949.4518      6.2113     63.7059
    26.7500      0.0000    961.9503      6.2179     64.2547
    27.0000      0.0000    969.6840      6.2292     66.2168
    27.2500      0.0000    973.2573      6.2296     69.4100
    27.5000      0.0000    974.7418      6.2194     72.7705
    27.7500      0.0000    976.0379      6.2181     75.2737
    28.0000      0.0000    978.2832      6.2476     76.9655
    28.2500      0.0000    981.2457      6.3094     78.5354
    28.5000      0.0000    982.5538      6.3768     80.0858
    28.7500      0.0000    978.3401      6.4105     81.0556
    29.0000      0.0000    966.3212      6.3855     81.3057
    29.2500      0.0000    948.8217      6.3081     81.5258
    29.5000      0.0000    931.5463      6.2116     82.4178
    29.7500      0.0000    918.6024      6.1311     83.9316
