~Version Information
VERS.                      2.0: CWLS Log ASCII Standard - VERSION 2.0
WRAP.                       NO: One line per depth step
~Well Information Block
STRT.FT               671.6000: 
STOP.FT              1890.7000: 
STEP.FT                 0.1000: 
NULL.                -999.2500: 
COMP.          Petrogulf Corporation: COMPANY
WELL.             State 16-14R: WELL
FLD.           Purgatorie River: FIELD
LOC.           598' FSL & 682' FWL: LOCATION
CNTY.               Las Animas: COUNTY
SRVC.                         : SERVICE COMPANY
DATE.          Fri Nov 05 07:21:30 2004: LOG DATE
UWI.           05 071 08034 00: UNIQUE WELL ID
STAT.                 Colorado: STATE
~Curve Information Block
DEPT.FT            0 000 00 00: Depth
DCAL.in                       : CDL Caliper
RHOB.g/cc                     : CDL Bulk Density
RHOC.g/cc                     : CDL Density Correction
DPOR.pu                       : CDL Density Porosity
GR.GAPI                       : Gamma Ray
NPOR.pu                       : Neutron Porosity
~Parameter Information Block
~A  Depth       DCAL        RHOB        RHOC        DPOR         GR         NPOR    
# ...
  1478.0000      7.8850      2.6419      0.0803      0.4910     85.5066     22.8759
  1478.1000      7.8850      2.6392      0.1368      0.6565     97.1628     22.6026
  1478.2000      7.8850      2.6213      0.1255      1.7392    110.1492     21.3917
  1478.3000      7.8566      2.5780      0.1191      4.3651    123.8406     20.3027
  1478.4000      7.8566      2.5175      0.0532      8.0333    131.3540     19.8637
  1478.5000      7.8557      2.4664     -0.0014     11.1291    132.9524     19.7059
  1478.6000      7.8557      2.4367      0.0219     12.9253    138.3557     19.3203
  1478.7000      7.8557      2.4033      0.0300     14.9517    149.1160     18.4496
  1478.8000      7.8906      2.3386      0.0056     18.8713    160.3845     17.5514
  1478.9000      7.8906      2.2539     -0.0437     24.0043    172.2979     17.3813
  1479.0000      7.8905      2.1828     -0.0713     28.3174    182.8851     18.2915
  1479.1000      7.8905      2.1429     -0.0519     30.7330    185.2690     19.8473
  1479.2000      7.8905      2.1261      0.0005     31.7529    181.1017     21.1207
  1479.3000      7.9050      2.1173      0.0066     32.2846    176.6401     21.8826
  1479.4000      7.9050      2.1143      0.1117     32.4651    170.5349     22.5008
  1479.5000      7.9478      2.1242      0.0597     31.8680    163.8587     23.2750
  1479.6000      7.9478      2.1605      0.0994     29.6658    164.9617     24.2198
  1479.7000      7.9478      2.2276      0.1470     25.6027    173.4178     25.1180
  1479.8000      7.9265      2.3029      0.2600     21.0343    177.3689     26.0529
  1479.9000      7.9265      2.3609      0.1998     17.5189    169.3039     27.2563
  1480.0000      7.9552      2.4026      0.2096     14.9947    154.4279     28.3150
  1480.1000      7.9552      2.4333      0.2210     13.1317    145.1656     28.6001
  1480.2000      7.9552      2.4473      0.1990     12.2821    146.7816     28.3328
  1480.3000      7.8996      2.4537      0.1492     11.8944    153.6479     28.2233
  1480.4000      7.8996      2.4752      0.1252     10.5939    161.7973     28.5306
  1480.5000      7.8838      2.5146      0.2019      8.2046    170.8685     28.9679
  1480.6000      7.8838      2.5551      0.1814      5.7487    179.2362     28.9054
  1480.7000      7.8838      2.5879      0.2302      3.7647    183.8399     28.3779
  1480.8000      7.8666      2.6063      0.2655      2.6474    183.7821     28.1186
  1480.9000      7.8666      2.6030      0.2021      2.8512    182.1639     28.0555
  1481.0000      7.9005      2.5825      0.2180      4.0911    178.8735     27.5860
  1481.1000      7.9005      2.5591      0.1559      5.5090    170.4752     27.0991
  1481.2000      7.9005      2.5486      0.1030      6.1462    160.5125     27.2201
  1481.3000      7.9282      2.5499      0.1350      6.0679    155.9291     27.6257
  1481.4000      7.9282      2.5514      0.0695      5.9741    157.1987     27.4951
  1481.5000      7.9264      2.5488      0.1405      6.1353    159.7619     26.7694
  1481.6000      7.9264      2.5376      0.1331      6.8149    165.0167     26.1989
  1481.7000      7.9264      2.5217      0.1297      7.7772    174.9418     26.2364
  1481.8000      7.9299      2.5097      0.0970      8.5020    182.0272     26.4116
  1481.9000      7.9299      2.4978      0.1305      9.2237    179.4646     26.0153
  1482.0000      7.9000      2.4810      0.0595     10.2423    175.8756     25.3826
  1482.1000      7.9000      2.4626      0.0572     11.3546    181.1153     25.0547
  1482.2000      7.9000      2.4414      0.0448     12.6396    191.5291     24.8926
  1482.3000      7.9102      2.4179      0.0468     14.0651    197.1620     24.9398
  1482.4000      7.9102      2.4049      0.0018     14.8539    193.3204     25.4627
  1482.5000      7.9586      2.4121      0.0740     14.4209    185.4628     26.2014
  1482.6000      7.9586      2.4283      0.0831     13.4392    178.5322     26.7699
  1482.7000      7.9586      2.4393      0.1127     12.7726    174.0743     27.2051
  1482.8000      7.9610      2.4501      0.0532     12.1144    174.5059     27.4102
  1482.9000      7.9610      2.4720      0.1273     10.7888    176.8627     27.3806
  1483.0000      7.9127      2.5034      0.1103      8.8836    175.9632     27.6956
  1483.1000      7.9127      2.5408      0.1719      6.6184    172.8076     28.6359
  1483.2000      7.9127      2.5743      0.1817      4.5877    171.6152     29.7550
  1483.3000      7.8985      2.5903      0.1681      3.6168    174.7800     30.4691
  1483.4000      7.8985      2.5943      0.1251      3.3782    178.8733     30.5212
  1483.5000      7.9217      2.5989      0.1436      3.0982    177.9884     30.1366
  1483.6000      7.9217      2.5996      0.1353      3.0561    173.5377     29.5669
  1483.7000      7.9217      2.5920      0.1029      3.5174    171.8953     28.6352
  1483.8000      7.8851      2.5825      0.1062      4.0928    172.9008     27.7610
  1483.9000      7.8851      2.5693      0.0661      4.8938    173.1404     27.5888
  1484.0000      7.8956      2.5391      0.0905      6.7211    171.6833     27.3787
  1484.1000      7.8956      2.4937      0.0429      9.4723    168.8319     26.3011
  1484.2000      7.8956      2.4555      0.0724     11.7906    165.8571     25.0088
  1484.3000      7.8941      2.4315      0.0315     13.2412    161.0883     24.3324
  1484.4000      7.8941      2.4156      0.0019     14.2081    153.1649     24.1634
  1484.5000      7.9373      2.4119      0.0277     14.4332    146.3622     24.0095
  1484.6000      7.9373      2.4308      0.0108     13.2835    144.1995     23.8254
  1484.7000      7.9373      2.4685      0.1175     11.0020    146.4909     23.7186
  1484.8000      7.9340      2.4921      0.1411      9.5667    152.8920     23.5597
  1484.9000      7.9340      2.4773      0.1545     10.4654    159.7040     23.2999
  1485.0000      7.9181      2.4478      0.1049     12.2554    158.1499     23.0137
  1485.1000      7.9181      2.4349      0.2660     13.0390    148.3065     22.7545
  1485.2000      7.9181      2.4351      0.1947     13.0249    141.2017     22.5021
  1485.3000      7.9015      2.4433      0.1969     12.5253    140.1360     22.5201
  1485.4000      7.9015      2.4668      0.1838     11.1043    137.9395     23.0527
  1485.5000      7.8659      2.5073      0.2166      8.6471    133.2077     23.5066
  1485.6000      7.8659      2.5554      0.2451      5.7352    130.7225     23.5564
  1485.7000      7.8659      2.5984      0.3129      3.1274    132.0791     23.7818
  1485.8000      7.8715      2.6305      0.2661      1.1829    134.2731     24.4384
  1485.9000      7.8715      2.6432      0.3320      0.4102    133.8705     25.3977
  1486.0000      7.9056      2.6200      0.3401      1.8195    132.8925     26.6787
  1486.1000      7.9056      2.5719      0.1912      4.7354    131.6385     28.1265
  1486.2000      7.9056      2.5394      0.1155      6.7022    126.8635     29.1267
  1486.3000      7.9099      2.5399      0.1325      6.6717    121.8938     28.9502
  1486.4000      7.9099      2.5583      0.0907      5.5595    120.4495     27.9980
  1486.5000      7.9141      2.5750      0.1234      4.5441    121.3863     27.5309
  1486.6000      7.9141      2.5795      0.1023      4.2742    126.6873     27.9266
  1486.7000      7.9141      2.5771      0.0770      4.4188    136.5838     28.6704
  1486.8000      7.8608      2.5767      0.0624      4.4404    145.6108     29.0500
  1486.9000      7.8608      2.5690      0.0730      4.9073    150.2973     28.9392
  1487.0000      7.9051      2.5438      0.0311      6.4365    150.6378     28.6869
  1487.1000      7.9051      2.5212     -0.0443      7.8086    150.4609     28.4141
  1487.2000      7.9051      2.5280     -0.0048      7.3961    151.2498     28.2079
  1487.3000      7.8853      2.5525      0.0421      5.9117    148.7216     28.3106
  1487.4000      7.8853      2.5656      0.0704      5.1172    142.5242     28.5765
  1487.5000      7.9076      2.5627      0.0575      5.2919    136.2440     28.2971
