~Version Information
VERS.                      2.0: CWLS Log ASCII Standard - VERSION 2.0
WRAP.                       NO: One line per depth step
~Well Information Block
STRT.FT               553.0000: 
STOP.FT              1576.5000: 
STEP.FT                 0.2500: 
NULL.                -999.2500: 
COMP.          Pioneer Natural Resources: COMPANY
WELL.           Telna 24-22 Tr: WELL
FLD.           Purgatoire River: FIELD
LOC.           748' FSL & 1931' FWL: LOCATION
PROV.                 Colorado: PROVINCE
CNTY.               Las Animas: COUNTRY
SRVC.                Patterson: SERVICE COMPANY
DATE.          Mon May 02 07:15:29 2005: LOG DATE
UWI.           05 071 08304 00: UNIQUE WELL ID
~Curve Information Block
DEPT.FT            0 000 00 00: Depth
DCAL.in                       : CDL Caliper
RHOB.g/cc                     : CDL Bulk Density
RHOC.g/cc                     : CDL Density Correction
DPOR.pu                       : CDL Density Porosity
GR.GAPI                       : Gamma Ray
NPOR.pu                       : Neutron Porosity
~Parameter Information Block
~A  Depth       DCAL        RHOB        RHOC        DPOR         GR         NPOR    
# ...
  1033.0000      7.8292      2.5130      0.0373      8.3027    100.9709     18.4473
  1033.2500      7.8281      2.6077      0.0363      2.5616     96.2006     18.1959
  1033.5000      7.8267      2.7271      0.1506     -4.6727     89.9158     18.1059
  1033.7500      7.8259      2.6975      0.0866     -2.8814     77.9293     16.5481
  1034.0000      7.8277      2.5919      0.0363      3.5232     83.8065     18.5414
  1034.2500      7.8297      2.5119     -0.0756      8.3671     85.5027     15.8898
  1034.5000      7.8305      2.5003      0.1085      9.0708     82.4845     14.4304
  1034.7500      7.8307      2.5434      0.1440      6.4611     74.1465     13.6187
  1035.0000      7.8306      2.5274      0.1132      7.4306     72.2798     17.4013
  1035.2500      7.8307      2.4672      0.0702     11.0769     73.1330     16.5250
  1035.5000      7.8309      2.3978      0.0146     15.2877     63.9507     12.4372
  1035.7500      7.8308      2.3849      0.0348     16.0694     64.0671     13.5878
  1036.0000      7.8308      2.3740      0.0298     16.7276     70.4789     13.8742
  1036.2500      7.8310      2.4441      0.1312     12.4808     72.9338     16.5781
  1036.5000      7.8311      2.4441      0.0742     12.4813     73.6233     16.3934
  1036.7500      7.8312      2.4154      0.0519     14.2159     71.5656     15.6924
  1037.0000      7.8313      2.3785      0.0055     16.4518     64.1490     15.7790
  1037.2500      7.8313      2.3877      0.0059     15.8964     63.1148     15.9746
  1037.5000      7.8307      2.3973      0.0266     15.3137     62.0523     15.5150
  1037.7500      7.8297      2.3954      0.0527     15.4293     61.2470     14.9863
  1038.0000      7.8294      2.3229     -0.0190     19.8258     64.8454     13.6659
  1038.2500      7.8307      2.3643      0.0617     17.3157     69.1864     13.8581
  1038.5000      7.8317      2.3960      0.0433     15.3966     67.8903     17.6469
  1038.7500      7.8314      2.4164      0.0362     14.1578     79.1775     18.0024
  1039.0000      7.8310      2.4659      0.1210     11.1559     85.2821     16.8270
  1039.2500      7.8310      2.4585      0.0245     11.6070     89.5505     20.2821
  1039.5000      7.8306      2.5771      0.0848      4.4153     93.9772     18.8427
  1039.7500      7.8292      2.6574      0.1167     -0.4465     96.9308     19.2666
  1040.0000      7.8282      2.6695      0.1037     -1.1815    108.8766     18.7807
  1040.2500      7.8291      2.6166     -0.0348      2.0249    115.4319     17.5007
  1040.5000      7.8305      2.6094      0.0531      2.4582    113.8338     16.4934
  1040.7500      7.8308      2.5785      0.0356      4.3355    108.1473     16.8356
  1041.0000      7.8302      2.5562      0.0574      5.6872    117.3936     16.5492
  1041.2500      7.8305      2.5479      0.0247      6.1884    115.0481     16.1309
  1041.5000      7.8310      2.6012      0.0591      2.9579    105.1870     18.2130
  1041.7500      7.8309      2.6364      0.1483      0.8250    113.6866     17.7089
  1042.0000      7.8305      2.5622      0.0565      5.3217    124.7434     17.9034
  1042.2500      7.8303      2.5423      0.0048      6.5264    124.9480     17.2003
  1042.5000      7.8301      2.5556      0.0563      5.7189    134.2800     17.8496
  1042.7500      7.8301      2.5334     -0.0170      7.0640    129.5064     19.3936
  1043.0000      7.8302      2.5241     -0.0701      7.6320    106.8905     20.4022
  1043.2500      7.8307      2.6480      0.0972      0.1220    113.4793     19.1225
  1043.5000      7.8308      2.6655      0.0763     -0.9371    135.6582     19.7864
  1043.7500      7.8305      2.6171      0.0507      1.9923    135.9755     21.8175
  1044.0000      7.8307      2.4671     -0.0339     11.0869    130.2689     22.0421
  1044.2500      7.8326      2.2108     -0.0318     26.6195    126.0338     20.1676
  1044.5000      7.8353      1.8676     -0.1053     47.4175    105.3213     22.1900
  1044.7500      7.8370      1.7280     -0.1185     55.8771     79.5808     22.1892
  1045.0000      7.8368      1.7621      0.0949     53.8109     57.4515     24.7357
  1045.2500      7.8351      1.9211      0.1284     44.1781     44.2110     26.2132
  1045.5000      7.8330      2.1525      0.1434     30.1528     35.9837     26.9380
  1045.7500      7.8314      2.2065      0.1242     26.8773     31.9426     27.4981
  1046.0000      7.8320      2.2114     -0.0534     26.5828     33.9555     25.0334
  1046.2500      7.8333      2.3312      0.0303     19.3205     29.0224     22.2458
  1046.5000      7.8332      2.6373      0.2466      0.7692     32.7107     16.6302
  1046.7500      7.8302      2.7128      0.0453     -3.8036     34.0242     16.0979
  1047.0000      7.8276      2.6807      0.0241     -1.8600     36.8637     16.4924
  1047.2500      7.8282      2.6200     -0.0314      1.8195     35.4000     17.3584
  1047.5000      7.8302      2.5343      0.0510      7.0097     41.7028     17.7140
  1047.7500      7.8323      2.4679      0.0917     11.0375     48.8483     18.2816
  1048.0000      7.8355      2.2168     -0.0268     26.2532     47.4808     22.1768
  1048.2500      7.8410      2.1530      0.0460     30.1206     54.7100     22.6311
  1048.5000      7.8459      2.0661     -0.0212     35.3860     51.7522     24.8748
  1048.7500      7.8481      1.9887      0.0615     40.0801     52.4885     23.3843
  1049.0000      7.8485      1.9529      0.0599     42.2513     62.8546     27.1712
  1049.2500      7.8488      1.9824      0.0439     40.4604     71.1650     27.3856
  1049.5000      7.8514      2.0458      0.1555     36.6157     87.4737     27.1934
  1049.7500      7.8581      2.0328      0.0645     37.4057    102.0734     25.6176
  1050.0000      7.8660      1.8392     -0.0978     49.1414     97.0415     26.4370
  1050.2500      7.8711      1.6820     -0.0979     58.6682     76.0619     27.5668
  1050.5000      7.8756      1.4224     -0.0957     74.3977     62.9959     30.0724
  1050.7500      7.8897      1.3155     -0.0956     80.8773     48.6011     30.2691
  1051.0000      7.9333      1.2011     -0.0478     87.8100     49.4929     33.3164
  1051.2500      8.0177      1.2886      0.0199     82.5084     58.7573     33.9217
  1051.5000      8.0924      1.6951      0.1419     57.8726     79.4586     33.1224
  1051.7500      8.0514      2.0198      0.2580     38.1927     90.8432     33.5777
  1052.0000      7.9041      2.3802      0.2316     16.3501    111.7815     32.1822
  1052.2500      7.7989      2.4954      0.1057      9.3718    117.0045     28.6627
  1052.5000      7.7696      2.4373      0.0161     12.8883    119.7091     28.2317
  1052.7500      7.7659      2.3859      0.0017     16.0073    124.6552     26.9401
  1053.0000      7.7658      2.4621      0.0132     11.3855    144.1003     26.2633
  1053.2500      7.7653      2.5250      0.0741      7.5747    142.9690     26.4779
  1053.5000      7.7640      2.5702      0.0110      4.8389    133.4368     27.3857
  1053.7500      7.7626      2.6493      0.0631      0.0413    122.3481     28.2896
  1054.0000      7.7609      2.8375      0.1118    -11.3611    109.5166     26.2370
  1054.2500      7.7594      2.8333      0.0723    -11.1061    111.8720     26.1700
  1054.5000      7.7601      2.7363     -0.0362     -5.2310    116.6048     27.4514
  1054.7500      7.7611      2.7064     -0.0659     -3.4184    118.3099     25.9533
  1055.0000      7.7618      2.6700      0.0149     -1.2135    113.0399     23.7654
  1055.2500      7.7634      2.6182      0.0266      1.9290    103.0761     22.6698
  1055.5000      7.7647      2.6049      0.0412      2.7361    118.5221     23.4346
  1055.7500      7.7642      2.5554      0.0514      5.7315    123.1522     20.1724
  1056.0000      7.7634      2.5221      0.0383      7.7530    114.3851     20.1141
  1056.2500      7.7632      2.5061      0.0137      8.7238    114.2333     21.2435
  1056.5000      7.7636      2.4612     -0.0481     11.4432    126.6696     20.9283
  1056.7500      7.7636      2.4954      0.0669      9.3716    119.6150     20.2061
