~Version Information
VERS.                      2.0: CWLS Log ASCII Standard - VERSION 2.0
WRAP.                       NO: One line per depth step
~Well Information Block
STRT.FT               510.5000: 
STOP.FT              2075.5000: 
STEP.FT                 0.1000: 
NULL.                -999.2500: 
COMP.          Petrogulf Corporation: COMPANY
WELL.          Robinson 15-11V: WELL
FLD.           Purgatorie River: FIELD
LOC.           226' FNL & 592' FWL: LOCATION
CNTY.               Las Animas: COUNTY
SRVC.                         : SERVICE COMPANY
DATE.          Wed Aug 04 06:17:53 2004: LOG DATE
UWI.           05 071 08027 00: UNIQUE WELL ID
STAT.                 Colorado: STATE
~Curve Information Block
DEPT.FT            0 000 00 00: Depth
DCAL.in                       : CDL Caliper
RHOB.g/cc                     : CDL Bulk Density
RHOC.g/cc                     : CDL Density Correction
DPOR.pu                       : CDL Density Porosity
GR.GAPI                       : Gamma Ray
NPOR.pu                       : Neutron Porosity
~Parameter Information Block
~A  Depth       DCAL        RHOB        RHOC        DPOR         GR         NPOR    
# ...
  1652.9000      8.0756      2.3549      0.0077     17.8855    148.3112     25.0251
  1653.0000      8.1439      2.3278      0.0027     19.5253    144.7699     24.8215
  1653.1000      8.1439      2.3144      0.0126     20.3407    137.1088     24.7030
  1653.2000      8.1439      2.3234      0.0630     19.7949    133.9366     24.5462
  1653.3000      8.2292      2.3236      0.1178     19.7823    137.0432     24.2765
  1653.4000      8.2292      2.2685      0.1000     23.1200    136.8825     24.0494
  1653.5000      8.2241      2.1576      0.0777     29.8454    132.8586     23.6864
  1653.6000      8.2241      2.0381      0.0330     37.0826    133.0109     22.7951
  1653.7000      8.2241      1.9410      0.0426     42.9704    132.6924     21.4198
  1653.8000      8.0987      1.8352      0.0397     49.3796    126.7138     20.0497
  1653.9000      8.0987      1.6813      0.0256     58.7103    122.5576     18.9011
  1654.0000      8.0772      1.5084     -0.0684     69.1901    123.9076     17.8165
  1654.1000      8.0772      1.3888      0.0479     76.4337    124.0213     16.8027
  1654.2000      8.0772      1.3577      0.0689     78.3231    118.2866     16.2068
  1654.3000      8.2983      1.4189      0.0788     74.6136    109.9826     16.1336
  1654.4000      8.2983      1.5618      0.1831     65.9527    109.1364     16.4715
  1654.5000      8.4261      1.7310      0.3977     55.6972    119.3670     17.0607
  1654.6000      8.4261      1.8606      0.4567     47.8455    128.8685     17.4665
  1654.7000      8.4261      1.9351      0.4399     43.3260    126.3452     17.6711
  1654.8000      8.4922      1.9716      0.4327     41.1153    115.4384     18.5061
  1654.9000      8.4922      1.9719      0.4114     41.0971    105.1929     20.2554
  1655.0000      8.3957      1.9448      0.2322     42.7369     98.6399     21.9495
  1655.1000      8.3957      1.9554      0.1080     42.0980    100.8420     22.9998
  1655.2000      8.3957      2.0718      0.1773     35.0408    112.1322     23.7539
  1655.3000      8.2337      2.2706      0.3729     22.9936    120.9570     24.5189
  1655.4000      8.2337      2.4492      0.6707     12.1669    124.8944     25.3207
  1655.5000      8.2418      2.5474      0.6026      6.2190    129.1100     25.8654
  1655.6000      8.2418      2.6050      0.5315      2.7245    132.1887     25.8638
  1655.7000      8.2418      2.6570      0.5544     -0.4228    131.6189     25.7533
  1655.8000      8.2222      2.6667      0.5277     -1.0101    129.1068     26.0371
  1655.9000      8.2222      2.6194      0.3174      1.8534    126.9741     26.6082
  1656.0000      8.0630      2.5769      0.1524      4.4302    128.7869     27.2816
  1656.1000      8.0630      2.5872      0.1603      3.8072    134.9594     27.8889
  1656.2000      8.0630      2.6245      0.2338      1.5445    137.0518     28.1115
  1656.3000      8.0655      2.6496      0.1926      0.0230    127.8242     28.0510
  1656.4000      8.0655      2.6528      0.2026     -0.1707    115.2499     27.9779
  1656.5000      8.0485      2.6349      0.1458      0.9150    113.1902     27.7849
  1656.6000      8.0485      2.6062      0.0670      2.6538    121.5107     27.5439
  1656.7000      8.0485      2.5811      0.0978      4.1744    127.2784     27.4368
  1656.8000      8.0377      2.5520      0.1117      5.9405    122.9610     27.2529
  1656.9000      8.0377      2.5061      0.0758      8.7221    115.9001     26.8562
  1657.0000      8.0636      2.4590      0.0080     11.5737    112.9187     26.5513
  1657.1000      8.0636      2.4436     -0.0336     12.5096    111.9986     26.4886
  1657.2000      8.0636      2.4701     -0.0064     10.9032    113.5133     26.3560
  1657.3000      8.0698      2.5066      0.0926      8.6913    120.6902     26.0725
  1657.4000      8.0698      2.5188      0.0355      7.9507    129.5244     25.7591
  1657.5000      8.0683      2.5128      0.0785      8.3135    131.9902     25.1793
  1657.6000      8.0683      2.4980      0.0925      9.2147    128.7625     24.3758
  1657.7000      8.0683      2.4651      0.1111     11.2036    124.3149     23.9910
  1657.8000      8.0658      2.4236      0.0863     13.7231    121.8399     24.1831
  1657.9000      8.0658      2.3970      0.1220     15.3362    126.6733     24.5501
  1658.0000      8.1090      2.3802      0.1202     16.3516    136.8444     24.7813
  1658.1000      8.1090      2.3588      0.0628     17.6456    140.2495     24.6120
  1658.2000      8.1090      2.3440      0.0149     18.5445    135.8070     24.1222
  1658.3000      8.1171      2.3415      0.0659     18.6950    133.6642     23.8833
  1658.4000      8.1171      2.3406      0.0567     18.7545    137.4542     23.9660
  1658.5000      8.1659      2.3463      0.0921     18.4056    140.9789     23.8283
  1658.6000      8.1659      2.3815      0.1500     16.2733    137.5364     23.4256
  1658.7000      8.1659      2.4541      0.3107     11.8705    131.7316     23.2327
  1658.8000      8.2618      2.5387      0.4159      6.7451    129.1164     23.3216
  1658.9000      8.2618      2.6082      0.3986      2.5306    128.4716     23.3869
  1659.0000      8.2909      2.6578      0.4047     -0.4732    128.9395     23.4327
  1659.1000      8.2909      2.6876      0.3560     -2.2811    128.9760     23.7127
  1659.2000      8.2909      2.6970      0.3405     -2.8476    126.4063     24.0587
  1659.3000      8.2162      2.6902      0.3351     -2.4350    120.9215     24.1932
  1659.4000      8.2162      2.6795      0.3186     -1.7891    115.8826     24.2763
  1659.5000      8.1935      2.6715      0.3417     -1.3017    117.0099     24.4673
  1659.6000      8.1935      2.6604      0.2964     -0.6282    121.4162     24.7901
  1659.7000      8.1935      2.6410      0.2771      0.5459    121.5594     25.0415
  1659.8000      8.1514      2.6106      0.2396      2.3873    118.3358     24.9244
  1659.9000      8.1514      2.5738      0.1106      4.6158    115.5782     24.5448
  1660.0000      8.0924      2.5431      0.1358      6.4801    112.7503     24.2296
  1660.1000      8.0924      2.5231      0.0921      7.6927    108.6792     24.1696
  1660.2000      8.0924      2.5119      0.1075      8.3674    104.3483     24.3327
  1660.3000      8.0800      2.5077      0.1115      8.6223    102.0610     24.6092
  1660.4000      8.0800      2.5061      0.1465      8.7187    102.9109     24.9057
  1660.5000      8.0130      2.5076      0.0686      8.6331    107.6463     25.0717
  1660.6000      8.0130      2.5188      0.1162      7.9526    114.3140     25.1231
  1660.7000      8.0130      2.5315      0.1698      7.1841    119.2040     25.2770
  1660.8000      8.0043      2.5382      0.1373      6.7781    122.7212     25.5544
  1660.9000      8.0043      2.5515      0.1427      5.9706    126.7855     25.6886
  1661.0000      8.0046      2.5793      0.1556      4.2828    131.9550     25.6957
  1661.1000      8.0046      2.6118      0.1833      2.3135    136.9005     25.8941
  1661.2000      8.0046      2.6338      0.2010      0.9801    135.5365     26.3196
  1661.3000      8.0035      2.6380      0.1927      0.7262    124.9734     26.6716
  1661.4000      8.0035      2.6287      0.1920      1.2893    113.5250     26.6595
  1661.5000      8.0032      2.6164      0.1783      2.0385    108.1576     26.3799
  1661.6000      8.0032      2.6068      0.1207      2.6205    109.1568     26.2421
  1661.7000      8.0032      2.5965      0.1228      3.2411    116.4560     26.3197
  1661.8000      7.9984      2.5876      0.0793      3.7840    124.9923     26.3147
  1661.9000      7.9984      2.5898      0.0972      3.6510    125.9669     26.1556
  1662.0000      7.9904      2.5977      0.0988      3.1719    119.0841     26.1845
  1662.1000      7.9904      2.5989      0.0698      3.0956    113.9242     26.4355
  1662.2000      7.9904      2.5914      0.0878      3.5516    113.9207     26.5233
  1662.3000      7.9913      2.5749      0.0684      4.5488    111.8902     26.2451
  1662.4000      7.9913      2.5525      0.0632      5.9083    106.4295     25.7303
