~Version Information
 VERS.                                  2.0 : CWLS LAS VERSION
 WRAP.                                   NO : WRAPING MODE
 SWARE .                 MController 2.5.0J : SOFTWARE VERSION
~Well Information
 WELL.                           State 16-14: WELL
 COMP.                       Petrogulf Corp : COMPANY
 FLD.                       Purgatoire River: FIELD
 LOC.                  SW/SW Sec16 T33S R67W: LOCATION
 DATE.                             11/04/04 : DATE(S) LOGGED
 SRVC.        BLanco Geological Services LLC: SERVICE COMPANY
 STAT.                                    CO: STATE
 CNTY.                           Las Animas : COUNTY
 CTRY.                                   USA: COUNTRY
 API.                           05-071-08034: API NUMBER
 STRT.FT                             659.00 : START DEPTH
 STOP.FT                            1890.00 : STOP DEPTH
 STEP.FT                               1.00 : DEPTH INCREMENT
 NULL.                                -9999 : NULL VALUE
~Curve information
 DEPTH.FT                                   :
 ROP.MIN/FT                                 :
 GAS.UNITS                                  :
~ASCII Log data
# ...
       859.0         0.20          4.6 
       860.0         0.27          4.9 
       861.0         0.33          4.3 
       862.0         0.27          5.6 
       863.0         0.27          5.4 
       864.0         0.27          6.0 
       865.0         0.30          4.3 
       866.0         0.30          5.4 
       867.0         0.27          5.7 
       868.0         0.23          6.1 
       869.0         0.33          6.4 
       870.0         0.30          5.2 
       871.0         0.23          5.1 
       872.0         0.23          4.8 
       873.0         0.25          4.3 
       874.0         0.27          5.1 
       875.0         0.27          4.5 
       876.0         0.23          5.4 
       877.0         0.20          5.4 
       878.0         0.13          4.8 
       879.0         0.17          4.8 
       880.0         0.17          4.2 
       881.0         0.13          4.2 
       882.0         0.17          4.3 
       883.0         0.20          4.7 
       884.0         0.20          4.7 
       885.0         0.27          5.7 
       886.0         0.23          4.9 
       887.0         0.30          5.7 
       888.0         0.30          6.1 
       889.0         0.32          6.2 
       890.0         0.27          3.7 
       891.0         0.27          5.9 
       892.0         0.27          5.4 
       893.0         0.27          4.8 
       894.0         0.30          4.6 
       895.0         0.30          5.0 
       896.0         0.23          5.1 
       897.0         0.27          6.2 
       898.0         0.13          6.2 
       899.0         0.20          5.9 
       900.0         0.20          6.1 
       901.0         0.20          5.6 
       902.0         0.17          5.0 
       903.0         0.23          5.3 
       904.0         0.17          5.5 
       905.0         0.17          6.5 
       906.0         0.17          5.3 
       907.0         0.10          5.3 
       908.0         0.10          5.1 
       909.0         0.10          5.8 
       910.0         0.13          5.8 
       911.0         0.17          6.6 
       912.0         0.18          5.7 
       913.0         0.17          6.1 
       914.0         0.13          6.6 
       915.0         0.13          4.7 
       916.0         0.13          4.7 
       917.0         0.13          5.5 
       918.0         0.17          5.5 
       919.0         0.17          6.7 
       920.0         0.20          6.8 
       921.0         0.17          6.5 
       922.0         0.17          6.5 
       923.0         0.13          5.5 
       924.0         0.13          4.2 
       925.0         0.10          4.2 
       926.0         0.27          4.2 
       927.0         0.30          4.6 
       928.0         0.30          5.7 
       929.0         0.23          5.8 
       930.0         0.23          6.9 
       931.0         0.20          5.8 
       932.0         0.20          5.9 
       933.0         0.23          5.0 
       934.0         0.17          4.9 
       935.0         0.20          4.6 
       936.0         0.17          4.8 
       937.0         0.13          5.7 
       938.0         0.17          6.0 
       939.0         0.20          5.5 
       940.0         0.15          5.3 
       941.0         0.13          6.0 
       942.0         0.13          6.0 
       943.0         0.17          5.3 
       944.0         0.20          5.8 
       945.0         0.13          5.5 
       946.0         0.17          6.9 
       947.0         0.20          5.8 
       948.0         0.17          5.1 
       949.0         0.17          5.7 
       950.0         0.17          7.0 
       951.0         0.17          6.0 
       952.0         0.23          6.0 
       953.0         0.23          6.7 
       954.0         0.20          6.9 
       955.0         0.13          6.6 
       956.0         0.27          7.1 
       957.0         0.23          6.8 
       958.0         0.17          6.5 
       959.0         0.23          5.4 
       960.0         0.13          5.8 
       961.0         0.17          5.8 
       962.0         0.17          4.8 
       963.0         0.13          5.2 
       964.0         0.13          4.9 
       965.0         0.17          4.9 
       966.0         0.15          5.2 
       967.0         0.20          6.8 
       968.0         0.17          6.1 
       969.0         0.13          6.1 
       970.0         0.17          5.6 
       971.0         0.20          5.5 
       972.0         0.17          5.8 
       973.0         0.13          5.8 
       974.0         0.17          7.5 
       975.0         0.13          6.4 
       976.0         0.17          5.1 
       977.0         0.17          5.5 
       978.0         0.17          5.5 
       979.0         0.13          5.8 
       980.0         0.17          5.4 
       981.0         0.17          4.9 
       982.0         0.20          5.5 
       983.0         0.17          5.8 
       984.0         0.27          6.2 
       985.0         0.10          6.2 
       986.0         0.23          5.8 
       987.0         0.23          5.6 
       988.0         0.27          5.6 
       989.0         0.20          5.4 
       990.0         0.20          5.4 
       991.0         0.17          5.9 
       992.0         0.17          5.5 
       993.0         0.23          6.1 
       994.0         0.35          5.6 
       995.0         0.30          5.8 
       996.0         0.23          5.8 
       997.0         0.20          5.8 
       998.0         0.27          5.3 
       999.0         0.27          5.5 
      1000.0         0.23          5.3 
      1001.0         0.20          6.1 
      1002.0         0.23          5.4 
      1003.0         0.23          4.9 
      1004.0         0.30          4.6 
      1005.0         0.27          6.5 
      1006.0         0.27          6.1 
      1007.0         0.18          5.6 
      1008.0         0.13          5.6 
      1009.0         0.13          5.4 
      1010.0         0.20          5.4 
      1011.0         0.17          5.8 
      1012.0         0.17          6.3 
      1013.0         0.17          6.3 
      1014.0         0.27          5.4 
      1015.0         0.13          5.3 
      1016.0         0.20          6.5 
      1017.0         0.27          7.2 
      1018.0         0.23          8.2 
      1019.0         0.22          6.7 
      1020.0         0.20          7.3 
      1021.0         0.17          7.3 
      1022.0         0.27          7.9 
      1023.0         0.17          9.1 
      1024.0         0.33          9.6 
      1025.0         0.17          9.6 
      1026.0         0.20          8.9 
      1027.0         0.30         10.0 
      1028.0         0.27          9.8 
      1029.0         0.27          9.1 
      1030.0         0.23          9.4 
      1031.0         0.23          9.3 
      1032.0         0.20          9.7 
      1033.0         0.25         11.8 
      1034.0         0.20         10.4 
      1035.0         0.17          9.4 
      1036.0         0.27          5.5 
      1037.0         0.23          5.4 
      1038.0         0.17          5.4 
      1039.0         0.17          6.2 
      1040.0         0.10          6.8 
      1041.0         0.07          6.8 
      1042.0         0.13          6.8 
      1043.0         0.10          6.5 
      1044.0         0.07          6.5 
      1045.0         0.13          6.2 
      1046.0         0.17          6.2 
      1047.0         0.27          6.9 
      1048.0         0.28          6.0 
      1049.0         0.20          6.5 
      1050.0         0.23          5.7 
      1051.0         0.20          6.3 
      1052.0         0.27          6.7 
      1053.0         0.23          6.3 
      1054.0         0.23          6.5 
      1055.0         0.23         10.3 
      1056.0         0.17         12.1 
      1057.0         0.17         16.5 
      1058.0         0.13         16.8 
