~Version Information
 VERS.                                  2.0 : CWLS LAS VERSION
 WRAP.                                   NO : WRAPING MODE
 SWARE .                 MController 2.5.0J : SOFTWARE VERSION
~Well Information
 WELL.                        Montoya 7-12R : WELL
 COMP.                       Petrogulf Corp : COMPANY
 FLD.                      Purgatorie River : FIELD
 LOC.                 SW/NW Sec 7 T33S R67W : LOCATION
 DATE.                    11/18/04 11/19/04 : DATE(S) LOGGED
 SRVC.       Blanco Geological Services LLC : SERVICE COMPANY
 STAT.                                   CO : STATE
 CNTY.                           Las Animas : COUNTY
 CTRY.                                  USA : COUNTRY
 API.                       05-071-08240-00 : API NUMBER
 STRT.FT                              30.00 : START DEPTH
 STOP.FT                            2040.00 : STOP DEPTH
 STEP.FT                               1.00 : DEPTH INCREMENT
 NULL.                                -9999 : NULL VALUE
~Curve information
 DEPTH.FT                                   :
 ROP.MIN/FT                                 :
 GAS.UNITS                                  :
~ASCII Log data
# ...
      1030.0         0.17          6.6 
      1031.0         0.20          6.3 
      1032.0         0.17          7.2 
      1033.0         0.17          7.1 
      1034.0         0.17        471.7 
      1035.0         0.17        471.7 
      1036.0         0.17        480.5 
      1037.0         0.17       1093.5 
      1038.0         0.17       1053.9 
      1039.0         0.17        752.9 
      1040.0         0.20        541.3 
      1041.0         0.17        440.0 
      1042.0         0.17        440.0 
      1043.0         0.17        440.0 
      1044.0         0.20         35.2 
      1045.0         0.23         19.7 
      1046.0         0.28         12.8 
      1047.0         0.27          9.6 
      1048.0         0.23          8.3 
      1049.0         0.32          8.2 
      1050.0         0.27          7.5 
      1051.0         0.23          6.7 
      1052.0         0.27          7.1 
      1053.0         0.23          6.9 
      1054.0         0.23          7.0 
      1055.0         0.20          7.5 
      1056.0         0.17          8.6 
      1057.0         0.13          8.6 
      1058.0         0.20          8.9 
      1059.0         0.13          9.0 
      1060.0         0.17          9.7 
      1061.0         0.17          9.9 
      1062.0         0.17          9.9 
      1063.0         0.20         10.0 
      1064.0         0.27          9.1 
      1065.0         0.25          9.0 
      1066.0         0.20          9.2 
      1067.0         0.27          8.9 
      1068.0         0.23          9.0 
      1069.0         0.30       1779.8 
      1070.0         0.27        485.6 
      1071.0         0.33        447.4 
      1072.0         0.27         37.5 
      1073.0         0.33         23.3 
      1074.0         0.30         19.4 
      1075.0         0.27         15.4 
      1076.0         0.27         12.3 
      1077.0         0.27         11.9 
      1078.0         0.27          9.2 
      1079.0         0.37          9.8 
      1080.0         0.30         10.7 
      1081.0         0.27         10.4 
      1082.0         0.27          9.9 
      1083.0         0.23         10.3 
      1084.0         0.30         10.1 
      1085.0         0.23         10.2 
      1086.0         0.28         10.5 
      1087.0         0.33         10.1 
      1088.0         0.37          9.8 
      1089.0         0.23         10.2 
      1090.0         0.17         10.1 
      1091.0         0.23         11.1 
      1092.0         0.23         12.0 
      1093.0         0.23         12.2 
      1094.0         0.17         12.3 
      1095.0         0.10         12.3 
      1096.0         0.13         12.4 
      1097.0         0.23         12.4 
      1098.0         0.27          6.4 
      1099.0         0.27          6.2 
      1100.0         0.32          6.0 
      1101.0         0.20          5.5 
      1102.0         0.20          5.9 
      1103.0         0.20          5.7 
      1104.0         0.13          5.7 
      1105.0         0.27          5.7 
      1106.0         0.27          5.3 
      1107.0         0.40          5.3 
      1108.0         0.32          5.5 
      1109.0         0.30          5.5 
      1110.0         0.23          5.7 
      1111.0         0.27          6.2 
      1112.0         0.30          6.2 
      1113.0         0.27          5.8 
      1114.0         0.27          5.6 
      1115.0         0.27          5.8 
      1116.0         0.33          6.2 
      1117.0         0.37          5.9 
      1118.0         0.30          5.8 
      1119.0         0.32          5.8 
      1120.0         0.27          5.5 
      1121.0         0.37          5.8 
      1122.0         0.30          6.5 
      1123.0         0.30          6.1 
      1124.0         0.27          6.0 
      1125.0         0.30          5.9 
      1126.0         0.27          5.5 
      1127.0         0.27          5.9 
      1128.0         0.23       1182.1 
      1129.0         0.23        696.3 
      1130.0         0.27        664.9 
      1131.0         0.28        469.3 
      1132.0         0.27        440.0 
      1133.0         0.27         33.7 
      1134.0         0.27         26.6 
      1135.0         0.27         24.4 
      1136.0         0.13         24.1 
      1137.0         0.27         18.6 
      1138.0         0.33         13.1 
      1139.0         0.33         12.1 
      1140.0         0.33         12.7 
      1141.0         0.40         13.1 
      1142.0         0.40         12.2 
      1143.0         0.33         11.4 
      1144.0         0.33         11.1 
      1145.0         0.35         10.6 
      1146.0         0.30         10.9 
      1147.0         0.37         10.5 
      1148.0         0.23         10.5 
      1149.0         0.27         11.0 
      1150.0         0.37         12.2 
      1151.0         0.23         11.4 
      1152.0         0.23         11.1 
      1153.0         0.23         11.0 
      1154.0         0.23         11.7 
      1155.0         0.23         11.6 
      1156.0         0.27        231.5 
      1157.0         0.25         18.8 
      1158.0         0.13         18.2 
      1159.0         0.13         18.2 
      1160.0         0.17         16.6 
      1161.0         0.17         16.1 
      1162.0         0.23         11.6 
      1163.0         0.27         10.1 
      1164.0         0.27          7.9 
      1165.0         0.23          8.1 
      1166.0         0.27          8.5 
      1167.0         0.17          7.3 
      1168.0         0.25          8.5 
      1169.0         0.27          9.3 
      1170.0         0.20          9.1 
      1171.0         0.27          9.2 
      1172.0         0.17          9.2 
      1173.0         0.23          9.4 
      1174.0         0.27         10.4 
      1175.0         0.23         10.0 
      1176.0         0.23         10.3 
      1177.0         0.23          9.8 
      1178.0         0.27          9.1 
      1179.0         0.23          9.2 
      1180.0         0.27          9.7 
      1181.0         0.23         10.0 
      1182.0         0.28          9.2 
      1183.0         0.23          8.9 
      1184.0         0.23          9.0 
      1185.0         0.30          9.1 
      1186.0         0.30          8.5 
      1187.0         0.27          8.5 
      1188.0         0.27         65.5 
      1189.0         0.23         65.5 
      1190.0         0.27        123.3 
      1191.0         0.27         82.8 
      1192.0         0.27         42.9 
      1193.0         0.30         25.4 
      1194.0         0.32         22.0 
      1195.0         0.27         17.2 
      1196.0         0.27         17.7 
      1197.0         0.30         16.8 
      1198.0         0.25         14.8 
      1199.0         0.27         12.8 
      1200.0         0.27         12.1 
      1201.0         0.33          9.1 
      1202.0         0.33          8.7 
      1203.0         0.43          8.5 
      1204.0         0.27          7.4 
      1205.0         0.40          7.0 
      1206.0         0.20          4.5 
      1207.0         0.33          5.3 
      1208.0         0.40          6.3 
      1209.0         0.42          8.6 
      1210.0         0.30          8.8 
      1211.0         0.33          6.5 
      1212.0         0.27          4.9 
      1213.0         0.23          5.2 
      1214.0         0.23          5.0 
      1215.0         0.30          8.0 
      1216.0         0.27         10.4 
      1217.0         0.30         10.6 
      1218.0         0.23         10.8 
      1219.0         0.30         59.8 
      1220.0         0.35         34.2 
      1221.0         0.27         12.7 
      1222.0         0.27         12.3 
      1223.0         0.30         20.2 
      1224.0         0.27         22.3 
      1225.0         0.27         22.1 
      1226.0         0.27         20.4 
      1227.0         0.27         16.3 
      1228.0         0.27          8.0 
      1229.0         0.28          8.6 
