~Version Information
VERS.                      2.0: CWLS Log ASCII Standard - VERSION 2.0
WRAP.                       NO: One line per depth step
~Well Information Block
STRT.FT               450.0000: 
STOP.FT              1642.0000: 
STEP.FT                 0.1000: 
NULL.                -999.2500: 
COMP.          Pioneer Natural Resources: COMPANY
WELL.           Buckhorn 12-21: WELL
FLD.           Purgatoire River: FIELD
LOC.           2450' FNL & 608' FWL: LOCATION
PROV.                 Colorado: PROVINCE
CNTY.               Las Animas: COUNTRY
SRVC.                Patterson: SERVICE COMPANY
DATE.          Wed Dec 01 15:08:21 2004: LOG DATE
UWI.           05 071 08129 00: UNIQUE WELL ID
~Curve Information Block
DEPT.FT            0 000 00 00: Depth
NPOR.pu                       : Neutron Porosity
CCL.                          : Casing Collar Locator
GR.GAPI                       : Gamma Ray
~Parameter Information Block
~A  Depth       NPOR        CCL          GR     
# ...
  1234.9000     26.3106      0.0000    110.9654
  1235.0000     26.6056      0.0000    117.2762
  1235.1000     26.6056      0.0000    117.2762
  1235.2000     26.6056      0.0000    117.2762
  1235.3000     27.2724      0.0000    126.8161
  1235.4000     27.2724      0.0000    126.8161
  1235.5000     28.2413      0.0000    136.4688
  1235.6000     28.2413      0.0000    136.4688
  1235.7000     28.2413      0.0000    136.4688
  1235.8000     29.3566      0.0000    143.1144
  1235.9000     29.3566      0.0000    143.1144
  1236.0000     30.4412      0.0000    145.2243
  1236.1000     30.4412      0.0000    145.2243
  1236.2000     30.4412      0.0000    145.2243
  1236.3000     31.3111      0.0000    143.4306
  1236.4000     31.3111      0.0000    143.4306
  1236.5000     31.7993      0.0000    139.7245
  1236.6000     31.7993      0.0000    139.7245
  1236.7000     31.7993      0.0000    139.7245
  1236.8000     31.8262      0.0000    136.0865
  1236.9000     31.8262      0.0000    136.0865
  1237.0000     31.4523      0.0000    133.6771
  1237.1000     31.4523      0.0000    133.6771
  1237.2000     31.4523      0.0000    133.6771
  1237.3000     30.8495      0.0000    132.8893
  1237.4000     30.8495      0.0000    132.8893
  1237.5000     30.2097      0.0000    133.6961
  1237.6000     30.2097      0.0000    133.6961
  1237.7000     30.2097      0.0000    133.6961
  1237.8000     29.6620      0.0000    135.6743
  1237.9000     29.6620      0.0000    135.6743
  1238.0000     29.2392      0.0000    137.8186
  1238.1000     29.2392      0.0000    137.8186
  1238.2000     29.2392      0.0000    137.8186
  1238.3000     28.8900      0.0000    138.7663
  1238.4000     28.8900      0.0000    138.7663
  1238.5000     28.5220      0.0000    137.4904
  1238.6000     28.5220      0.0000    137.4904
  1238.7000     28.5220      0.0000    137.4904
  1238.8000     28.0734      0.0000    133.8178
  1238.9000     28.0734      0.0000    133.8178
  1239.0000     27.5786      0.0000    128.2658
  1239.1000     27.5786      0.0000    128.2658
  1239.2000     27.5786      0.0000    128.2658
  1239.3000     27.1553      0.0000    121.4990
  1239.4000     27.1553      0.0000    121.4990
  1239.5000     26.9105      0.0000    114.2055
  1239.6000     26.9105      0.0000    114.2055
  1239.7000     26.9105      0.0000    114.2055
  1239.8000     26.8707      0.0000    107.6388
  1239.9000     26.8707      0.0000    107.6388
  1240.0000     27.0010      0.0000    103.9116
  1240.1000     27.0010      2.0000    103.9116
  1240.2000     27.0010      0.0000    103.9116
  1240.3000     27.2620      0.0000    105.0437
  1240.4000     27.2620      0.0000    105.0437
  1240.5000     27.6458      0.0000    111.2699
  1240.6000     27.6458      0.0000    111.2699
  1240.7000     27.6458      0.0000    111.2699
  1240.8000     28.1578      0.0000    120.3564
  1240.9000     28.1578      0.0000    120.3564
  1241.0000     28.7492      0.0000    128.7546
  1241.1000     28.7492      0.0000    128.7546
  1241.2000     28.7492      0.0000    128.7546
  1241.3000     29.2665      0.0000    133.4783
  1241.4000     29.2665      0.0000    133.4783
  1241.5000     29.4969      0.0000    133.2966
  1241.6000     29.4969      0.0000    133.2966
  1241.7000     29.4969      0.0000    133.2966
  1241.8000     29.2735      0.0000    128.9147
  1241.9000     29.2735      0.0000    128.9147
  1242.0000     28.5650      0.0000    122.3336
  1242.1000     28.5650      0.0000    122.3336
  1242.2000     28.5650      0.0000    122.3336
  1242.3000     27.5134      0.0000    115.7124
  1242.4000     27.5134      0.0000    115.7124
  1242.5000     26.4043      0.0000    110.5981
  1242.6000     26.4043      0.0000    110.5981
  1242.7000     26.4043      0.0000    110.5981
  1242.8000     25.5534      0.0000    108.0234
  1242.9000     25.5534      0.0000    108.0234
  1243.0000     25.1498      0.0000    108.6638
  1243.1000     25.1498      0.0000    108.6638
  1243.2000     25.1498      0.0000    108.6638
  1243.3000     25.1757      0.0000    112.3976
  1243.4000     25.1757      0.0000    112.3976
  1243.5000     25.4842      0.0000    118.0609
  1243.6000     25.4842      0.0000    118.0609
  1243.7000     25.4842      0.0000    118.0609
  1243.8000     25.9475      0.0000    124.1769
  1243.9000     25.9475      0.0000    124.1769
  1244.0000     26.5056      0.0000    129.9801
  1244.1000     26.5056      0.0000    129.9801
  1244.2000     26.5056      0.0000    129.9801
  1244.3000     27.0972      0.0000    135.5088
  1244.4000     27.0972      0.0000    135.5088
  1244.5000     27.6116      0.0000    140.7158
  1244.6000     27.6116      0.0000    140.7158
  1244.7000     27.6116      0.0000    140.7158
  1244.8000     27.9400      0.0000    144.8192
  1244.9000     27.9400      0.0000    144.8192
  1245.0000     28.0506      0.0000    146.8006
  1245.1000     28.0506      0.0000    146.8006
  1245.2000     28.0506      0.0000    146.8006
  1245.3000     27.9988      0.0000    146.4835
  1245.4000     27.9988      0.0000    146.4835
  1245.5000     27.8723      0.0000    144.6978
  1245.6000     27.8723      0.0000    144.6978
  1245.7000     27.8723      0.0000    144.6978
  1245.8000     27.7132      0.0000    142.0809
  1245.9000     27.7132      0.0000    142.0809
  1246.0000     27.4776      0.0000    138.1473
  1246.1000     27.4776      0.0000    138.1473
  1246.2000     27.4776      0.0000    138.1473
  1246.3000     27.0950      0.0000    132.0983
  1246.4000     27.0950      0.0000    132.0983
  1246.5000     26.5921      0.0000    124.1808
  1246.6000     26.5921      0.0000    124.1808
  1246.7000     26.5921      0.0000    124.1808
  1246.8000     26.1209      0.0000    115.6712
  1246.9000     26.1209      0.0000    115.6712
  1247.0000     25.8204      0.0000    107.8842
  1247.1000     25.8204      0.0000    107.8842
  1247.2000     25.8204      0.0000    107.8842
  1247.3000     25.6767      0.0000    101.7270
  1247.4000     25.6767      0.0000    101.7270
  1247.5000     25.5332      0.0000     97.8742
  1247.6000     25.5332      0.0000     97.8742
  1247.7000     25.5332      0.0000     97.8742
  1247.8000     25.1993      0.0000     96.5064
  1247.9000     25.1993      0.0000     96.5064
  1248.0000     24.5687      0.0000     96.4780
  1248.1000     24.5687      0.0000     96.4780
  1248.2000     24.5687      0.0000     96.4780
  1248.3000     23.7211      0.0000     95.2068
  1248.4000     23.7211      0.0000     95.2068
  1248.5000     22.9049      0.0000     90.3484
  1248.6000     22.9049      0.0000     90.3484
  1248.7000     22.9049      0.0000     90.3484
  1248.8000     22.3283      0.0000     81.9725
  1248.9000     22.3283      0.0000     81.9725
  1249.0000     21.9623      0.0000     72.7193
  1249.1000     21.9623      0.0000     72.7193
  1249.2000     21.9623      0.0000     72.7193
  1249.3000     21.6115      0.0000     65.6384
  1249.4000     21.6115      0.0000     65.6384
  1249.5000     21.1550      0.0000     62.1475
  1249.6000     21.1550      0.0000     62.1475
  1249.7000     21.1550      0.0000     62.1475
  1249.8000     20.6475      0.0000     61.8120
  1249.9000     20.6475      0.0000     61.8120
  1250.0000     20.2412      0.0000     63.3335
  1250.1000     20.2412      0.0000     63.3335
  1250.2000     20.2412      0.0000     63.3335
  1250.3000     20.1193      0.0000     65.6822
  1250.4000     20.1193      0.0000     65.6822
  1250.5000     20.4678      0.0000     68.8729
  1250.6000     20.4678      0.0000     68.8729
  1250.7000     20.4678      0.0000     68.8729
  1250.8000     21.3818      0.0000     73.8928
  1250.9000     21.3818      0.0000     73.8928
  1251.0000     22.7412      0.0000     81.7007
  1251.1000     22.7412      0.0000     81.7007
  1251.2000     22.7412      0.0000     81.7007
  1251.3000     24.2149      0.0000     92.1131
  1251.4000     24.2149      0.0000     92.1131
  1251.5000     25.4513      0.0000    103.4567
