~Version Information
VERS.                      2.0: CWLS Log ASCII Standard - VERSION 2.0
WRAP.                       NO: One line per depth step
~Well Information Block
STRT.FT               240.0000: 
STOP.FT              1709.2000: 
STEP.FT                 0.1000: 
NULL.                -999.2500: 
COMP.          Pioneer Natural Resources: COMPANY
WELL.              Patten 22-2: WELL
FLD.           Purgatoire River: FIELD
LOC.           2157' FNL & 1528' FWL: LOCATION
PROV.                 Colorado: PROVINCE
CNTY.               Las Animas: COUNTRY
SRVC.                Patterson: SERVICE COMPANY
DATE.          Fri Dec 10 09:15:13 2004: LOG DATE
UWI.           05 071 08168 00: UNIQUE WELL ID
~Curve Information Block
DEPT.FT            0 000 00 00: Depth
DCAL.in                       : CDL Caliper
RHOB.g/cc                     : CDL Bulk Density
RHOC.g/cc                     : CDL Density Correction
DPOR.pu                       : CDL Density Porosity
NPOR.pu                       : Neutron Porosity
GR.GAPI                       : Gamma Ray
~Parameter Information Block
~A  Depth       DCAL        RHOB        RHOC        DPOR        NPOR         GR     
   240.0000      1.7351      2.0769      0.1095     34.7334     42.2892     88.2299
   240.1000      1.7351      2.0768      0.0837     34.7417     41.7717     86.1146
   240.2000      1.7351      2.0834      0.0316     34.3387     41.7005     85.4041
   240.3000      1.7350      2.1106      0.0749     32.6934     41.9214     84.0681
   240.4000      1.7350      2.1467      0.1185     30.5010     42.0981     78.7604
   240.5000      1.7368      2.1693      0.1324     29.1312     42.1763     70.9080
   240.6000      1.7368      2.1745      0.1184     28.8168     41.9898     64.8298
   240.7000      1.7368      2.1711      0.1130     29.0270     41.4413     61.1298
   240.8000      1.7397      2.1638      0.0856     29.4695     40.6461     57.9979
   240.9000      1.7397      2.1595      0.0591     29.7300     39.7901     56.8497
   241.0000      1.7415      2.1676      0.0699     29.2358     39.2922     58.1958
   241.1000      1.7415      2.1823      0.0962     28.3459     39.3767     58.5551
   241.2000      1.7415      2.1880      0.0934     27.9993     39.7991     56.8144
   241.3000      1.7422      2.1782      0.0646     28.5964     40.1307     54.5480
   241.4000      1.7422      2.1558      0.0335     29.9544     40.1849     52.6951
   241.5000      1.7427      2.1314      0.0154     31.4288     40.0969     52.2250
   241.6000      1.7427      2.1208      0.0281     32.0750     40.0663     53.0501
   241.7000      1.7427      2.1374      0.0030     31.0689     40.1446     53.3126
   241.8000      1.7446      2.1790      0.0619     28.5481     40.2627     52.7725
   241.9000      1.7446      2.2232      0.0563     25.8681     40.3807     51.1996
   242.0000      1.7448      2.2529      0.0779     24.0692     40.4697     47.5863
   242.1000      1.7448      2.2729      0.0519     22.8542     40.5163     44.9852
   242.2000      1.7448      2.2969      0.0362     21.4024     40.6456     45.7774
   242.3000      1.7446      2.3271      0.0567     19.5708     41.0291     46.8388
   242.4000      1.7446      2.3520      0.1083     18.0604     41.4715     46.7421
   242.5000      1.7475      2.3576      0.0676     17.7195     41.6298     46.7829
   242.6000      1.7475      2.3405      0.0485     18.7561     41.4746     47.9400
   242.7000      1.7475      2.3060     -0.0038     20.8483     41.1928     51.2688
   242.8000      1.7513      2.2632     -0.0293     23.4410     41.0340     55.3090
   242.9000      1.7513      2.2300     -0.0782     25.4573     40.9636     56.6218
   243.0000      1.7535      2.2269     -0.0858     25.6453     40.8370     54.3518
   243.1000      1.7535      2.2463     -0.0480     24.4682     40.6792     50.8037
   243.2000      1.7535      2.2593     -0.0625     23.6788     40.4240     49.0390
   243.3000      1.7519      2.2615     -0.0830     23.5438     40.1075     49.5217
   243.4000      1.7519      2.2674     -0.0710     23.1854     39.7994     49.5447
   243.5000      1.7501      2.2748     -0.0847     22.7389     39.4342     46.7652
   243.6000      1.7501      2.2706     -0.0464     22.9958     39.0761     43.3060
   243.7000      1.7501      2.2601     -0.1449     23.6316     38.9379     42.4147
   243.8000      1.7492      2.2567     -0.0613     23.8352     39.0820     43.5426
   243.9000      1.7492      2.2540     -0.1148     23.9978     39.2656     44.3697
   244.0000      1.7489      2.2444     -0.0938     24.5809     39.2996     43.8120
   244.1000      1.7489      2.2291     -0.1046     25.5113     39.1969     41.6634
   244.2000      1.7489      2.2155     -0.1754     26.3345     39.0560     38.7922
   244.3000      1.7506      2.2174     -0.1711     26.2177     39.0558     38.1788
   244.4000      1.7506      2.2372     -0.1084     25.0189     39.2638     41.1712
   244.5000      1.7518      2.2606     -0.1230     23.6017     39.6389     43.8908
   244.6000      1.7518      2.2728     -0.0888     22.8593     40.2456     43.0049
   244.7000      1.7518      2.2669     -0.1006     23.2197     40.8435     40.3146
   244.8000      1.7500      2.2484     -0.0964     24.3393     41.0595     39.8847
   244.9000      1.7500      2.2337     -0.1434     25.2306     41.1972     41.9213
   245.0000      1.7482      2.2327     -0.1088     25.2910     41.6750     43.2998
   245.1000      1.7482      2.2406     -0.1736     24.8120     42.4357     43.5240
   245.2000      1.7482      2.2426     -0.1098     24.6937     43.0524     43.2409
   245.3000      1.7496      2.2252     -0.1466     25.7462     43.1994     42.4792
   245.4000      1.7496      2.2020     -0.1828     27.1541     42.9687     43.0516
   245.5000      1.7508      2.1893     -0.1651     27.9207     42.4820     46.9849
   245.6000      1.7508      2.1729     -0.1249     28.9153     41.8912     53.7600
   245.7000      1.7508      2.1408     -0.2124     30.8621     41.5958     59.9999
   245.8000      1.7495      2.1065     -0.1861     32.9421     41.8997     62.7487
   245.9000      1.7495      2.0833     -0.2114     34.3472     42.5586     62.3607
   246.0000      1.7484      2.0720     -0.2087     35.0292     42.8688     63.0210
   246.1000      1.7484      2.0666     -0.1887     35.3580     42.4708     69.5186
   246.2000      1.7484      2.0637     -0.1951     35.5337     41.6590     77.3302
   246.3000      1.7482      2.0672     -0.1935     35.3210     40.8904     77.8320
   246.4000      1.7482      2.0800     -0.1941     34.5450     40.4765     75.6124
   246.5000      1.7492      2.1034     -0.1844     33.1270     40.3196     79.8378
   246.6000      1.7492      2.1407     -0.1687     30.8642     39.9893     87.1329
   246.7000      1.7492      2.1924     -0.1327     27.7303     39.4935     88.6545
   246.8000      1.7496      2.2517     -0.1163     24.1392     39.1717     83.1896
   246.9000      1.7496      2.3001     -0.0780     21.2041     38.9264     76.7403
   247.0000      1.7510      2.3187     -0.0828     20.0806     38.4328     75.1164
   247.1000      1.7510      2.3137     -0.1473     20.3825     37.6963     78.0222
   247.2000      1.7510      2.3105     -0.1782     20.5732     37.0718     77.8145
   247.3000      1.7548      2.3235     -0.1738     19.7854     36.9655     71.1850
   247.4000      1.7548      2.3457     -0.1563     18.4426     37.3762     64.2798
   247.5000      1.7595      2.3632     -0.1339     17.3836     37.9029     60.6280
   247.6000      1.7595      2.3691     -0.1623     17.0234     38.2285     58.3997
   247.7000      1.7595      2.3618     -0.1552     17.4648     38.2476     56.5658
   247.8000      1.7620      2.3386     -0.1518     18.8699     38.2468     54.9057
   247.9000      1.7620      2.3069     -0.2213     20.7918     38.6900     53.1777
   248.0000      1.7617      2.2745     -0.1401     22.7559     39.4649     52.0536
   248.1000      1.7617      2.2363     -0.2137     25.0718     40.1156     52.8441
   248.2000      1.7617      2.1977     -0.1933     27.4097     40.5505     54.5978
   248.3000      1.7592      2.1671     -0.1795     29.2643     41.0260     54.8092
   248.4000      1.7592      2.1451     -0.1897     30.5994     41.7487     55.3697
   248.5000      1.7560      2.1348     -0.1853     31.2227     42.3768     60.8446
   248.6000      1.7560      2.1336     -0.1533     31.2968     42.4123     70.2796
   248.7000      1.7560      2.1357     -0.1211     31.1726     42.2481     77.4269
   248.8000      1.7537      2.1369     -0.0704     31.0961     42.4956     78.1952
   248.9000      1.7537      2.1315     -0.0752     31.4246     42.9766     75.7997
   249.0000      1.7543      2.1173     -0.1022     32.2824     43.2846     74.4039
   249.1000      1.7543      2.0926     -0.0999     33.7829     43.3443     74.3564
   249.2000      1.7543      2.0615     -0.1546     35.6681     43.1139     74.6481
   249.3000      1.7570      2.0431     -0.1808     36.7815     42.6115     73.4830
   249.4000      1.7570      2.0420     -0.1472     36.8503     42.1415     71.2144
   249.5000      1.7578      2.0349     -0.1563     37.2794     41.8982     70.8778
