~Version Information
VERS.                      2.0: CWLS Log ASCII Standard - VERSION 2.0
WRAP.                       NO: One line per depth step
~Well Information Block
STRT.FT               -12.2500: 
STOP.FT              2183.0000: 
STEP.FT                 0.2500: 
NULL.                -999.2500: 
COMP.          Petrogulf Corporation: COMPANY
WELL.            Montoya 6-14R: WELL
FLD.           Purgatorie River: FIELD
LOC.           867' FSL & 751' FWL: LOCATION
CNTY.               Las Animas: COUNTY
SRVC.                         : SERVICE COMPANY
DATE.          Mon Nov 22 13:07:31 2004: LOG DATE
UWI.           05-071-08242-00: UNIQUE WELL ID
STAT.                 Colorado: STATE
~Curve Information Block
DEPT.FT            0 000 00 00: Depth
TT3.usec                      : CBL 3' Travel Time
AMP3.mV                       : CBL 3' Amplitude
GR.GAPI                       : Gamma Ray
CCL.                          : Casing Collar Locator
~Parameter Information Block
~A  Depth       TT3         AMP3         GR         CCL     
# ...
   691.2500    283.7928     85.8591    192.2114      0.0000
   691.5000    283.7742     85.9849    185.5513      0.0000
   691.7500    283.7383     86.1096    177.0237      0.0000
   692.0000    283.7052     86.2300    168.5469      0.0000
   692.2500    283.6874     86.3414    163.0662      0.0000
   692.5000    283.6829     86.4179    162.4290      0.0000
   692.7500    283.6806     86.4330    166.2190      0.0000
   693.0000    283.6728     86.4015    172.4626      0.0000
   693.2500    283.6658     86.3578    179.1397      0.0000
   693.5000    283.6752     86.2913    184.9625      0.0000
   693.7500    283.7061     86.1527    189.1091      0.0000
   694.0000    283.7450     85.9377    191.0363      0.0000
   694.2500    283.7727     85.7293    190.8809      0.0000
   694.5000    283.7824     85.6337    189.7552      0.0000
   694.7500    283.7825     85.6845    189.2708      0.0000
   695.0000    283.7845     85.8163    190.5703      0.0000
   695.2500    283.7918     85.9321    193.5431      0.0000
   695.5000    283.7978     85.9799    196.9229      0.0000
   695.7500    283.7954     85.9642    199.3390      0.0000
   696.0000    283.7870     85.9125    200.3157      0.0000
   696.2500    283.7849     85.8444    200.4105      0.0000
   696.5000    283.8024     85.7544    200.5959      0.0000
   696.7500    283.8440     85.6217    201.2719      0.0000
   697.0000    283.8999     85.4551    201.6719      0.0000
   697.2500    283.9496     85.3073    200.5081      0.0000
   697.5000    283.9735     85.2226    197.2524      0.0000
   697.7500    283.9641     85.2007    192.4812      0.0000
   698.0000    283.9277     85.2411    187.0805      0.0000
   698.2500    283.8801     85.3732    181.6078      0.0000
   698.5000    283.8395     85.5980    176.4774      0.0000
   698.7500    283.8176     85.8395    172.2294      0.0000
   699.0000    283.8135     86.0018    169.3396      0.0000
   699.2500    283.8153     86.0521    167.9225      0.0000
   699.5000    283.8108     86.0212    167.6473      0.0000
   699.7500    283.7990     85.9556    167.6669      0.0000
   700.0000    283.7904     85.9136    166.6651      0.0000
   700.2500    283.7942     85.9750    163.4221      0.0000
   700.5000    283.8068     86.1784    157.5680      0.0000
   700.7500    283.8188     86.4411    149.8313      0.0000
   701.0000    283.8271     86.5943    141.6533      0.0000
   701.2500    283.8377     86.5249    134.3432      0.0000
   701.5000    283.8544     86.2742    128.3029      0.0000
   701.7500    283.8713     86.0011    123.1835      0.0000
   702.0000    283.8762     85.8596    118.7445      0.0000
   702.2500    283.8595     85.8988    114.9830      0.0000
   702.5000    283.8228     86.0555    111.3335      0.0000
   702.7500    283.7816     86.2118    106.7439      0.0000
   703.0000    283.7600     86.2546    101.1586      0.0000
   703.2500    283.7746     86.1285     96.2502      0.0000
   703.5000    283.8206     85.8792     94.0159      0.0000
   703.7500    283.8771     85.6270     94.8216      0.0000
   704.0000    283.9247     85.4778     97.1731      0.0000
   704.2500    283.9574     85.4724     99.2047      0.0000
   704.5000    283.9774     85.6127    100.1587      0.0000
   704.7500    283.9850     85.8777    100.5299      0.0000
   705.0000    283.9766     86.1828    100.9964      0.0000
   705.2500    283.9546     86.3707    101.2042      0.0000
   705.5000    283.9343     86.2904     99.6325      0.0000
   705.7500    283.9452     85.8647     94.8638      0.0000
   706.0000    284.0376     85.0332     87.1528      0.0000
   706.2500    284.3010     83.6201     78.6205      0.0000
   706.5000    284.8643     81.3799     71.8430      0.0000
   706.7500    285.8309     78.3173     68.2229      0.0000
   707.0000    287.1680     74.9407     67.4266      0.0000
   707.2500    288.6564     72.0148     68.0275      0.0000
   707.5000    289.9839     70.0231     68.6616      0.0000
   707.7500    290.9193     68.9612     68.7663      0.0000
   708.0000    291.4198     68.5328     68.4871      0.0000
   708.2500    291.6014     68.3611     68.0866      0.0000
   708.5000    291.6297     68.1193     67.6238     -3.8071
   708.7500    291.6319     67.6693     67.1578     -2.7191
   709.0000    291.6664     67.0881     67.0557      0.0000
   709.2500    291.7151     66.5953     67.9606      0.0000
   709.5000    291.6595     66.5627     70.5900      0.0000
   709.7500    291.2816     67.5205     75.6976      0.0000
   710.0000    290.3776     69.8613     84.1671      0.0000
   710.2500    288.9601     73.3751     96.8248      0.0000
   710.5000    287.3362     77.2249    113.6556      0.0000
   710.7500    285.9217     80.4819    132.8694      0.0000
   711.0000    284.9634     82.6556    151.1818      0.0000
   711.2500    284.4463     83.8014    165.8709      0.0000
   711.5000    284.2101     84.2999    176.7723      0.0000
   711.7500    284.1032     84.5391    185.8309      0.0000
   712.0000    284.0444     84.7028    194.7297      0.0000
   712.2500    284.0079     84.7852    203.3964      0.0000
   712.5000    283.9884     84.7460    210.5853      0.0000
   712.7500    283.9797     84.6240    215.0391      0.0000
   713.0000    283.9707     84.5207    215.9306      0.0000
   713.2500    283.9496     84.5133    213.0625      0.0000
   713.5000    283.9137     84.5880    207.3988      0.0000
   713.7500    283.8752     84.6649    201.1299      0.0000
   714.0000    283.8527     84.6772    196.3766      0.0000
   714.2500    283.8498     84.6138    193.4925      0.0000
   714.5000    283.8491     84.4958    190.9559      0.0000
   714.7500    283.8329     84.3424    187.0567      0.0000
   715.0000    283.8043     84.1687    181.5744      0.0000
   715.2500    283.7823     83.9982    176.2024      0.0000
   715.5000    283.7813     83.8641    173.9937      0.0000
   715.7500    283.8004     83.8028    177.9944      0.0000
   716.0000    283.8287     83.8502    189.2069      0.0000
   716.2500    283.8540     84.0336    205.3086      0.0000
   716.5000    283.8683     84.3450    221.7150      0.0000
   716.7500    283.8696     84.7099    234.1790      0.0000
   717.0000    283.8627     85.0056    240.4621      0.0000
   717.2500    283.8565     85.1435    240.1449      0.0000
   717.5000    283.8580     85.1326    234.0426      0.0000
   717.7500    283.8680     85.0530    224.2225      0.0000
   718.0000    283.8824     84.9791    213.6831      0.0000
   718.2500    283.8953     84.9439    205.2197      0.0000
   718.5000    283.8994     84.9560    200.5280      0.0000
   718.7500    283.8884     85.0095    199.9162      0.0000
   719.0000    283.8626     85.0889    202.1077      0.0000
   719.2500    283.8292     85.1904    204.7313      0.0000
   719.5000    283.7992     85.3211    206.1175      0.0000
   719.7500    283.7852     85.4667    206.7082      0.0000
   720.0000    283.7951     85.5889    208.1656      0.0000
   720.2500    283.8220     85.6606    211.2401      0.0000
   720.5000    283.8439     85.6830    214.9982      0.0000
   720.7500    283.8393     85.6772    217.9459      0.0000
   721.0000    283.8059     85.6787    219.3485      0.0000
   721.2500    283.7633     85.7200    219.3960      0.0000
   721.5000    283.7374     85.8049    218.5548      0.0000
   721.7500    283.7411     85.9106    217.0954      0.0000
   722.0000    283.7658     86.0091    215.2479      0.0000
   722.2500    283.7905     86.0699    213.5566      0.0000
   722.5000    283.8011     86.0573    212.6479      0.0000
   722.7500    283.8034     85.9450    212.4413      0.0000
   723.0000    283.8163     85.7319    211.8781      0.0000
   723.2500    283.8495     85.4407    209.8913      0.0000
   723.5000    283.8914     85.1045    206.7967      0.0000
   723.7500    283.9205     84.7637    204.4135      0.0000
   724.0000    283.9253     84.4754    204.4041      0.0000
   724.2500    283.9082     84.2983    206.7054      0.0000
   724.5000    283.8786     84.2480    210.0035      0.0000
