~Version Information
VERS.                      2.0: CWLS Log ASCII Standard - VERSION 2.0
WRAP.                       NO: One line per depth step
~Well Information Block
STRT.FT                -9.5000: 
STOP.FT              1862.5000: 
STEP.FT                 0.2500: 
NULL.                -999.2500: 
COMP.          Petrogulf Corporation: COMPANY
WELL.             State 16-34R: WELL
FLD.           Purgatoire River: FIELD
LOC.           1095' FSL & 1498' FEL--: LOCATION
CNTY.               Las Animas: COUNTY
SRVC.                         : SERVICE COMPANY
DATE.          Mon May 10 14:56:57 2004: LOG DATE
UWI.                          : UNIQUE WELL ID
STAT.                       CO: STATE
~Curve Information Block
DEPT.FT            0 000 00 00: Depth
GR.GAPI                       : Gamma Ray
CCL.                          : Casing Collar Locator
TT3.usec                      : CBL 3' Travel Time
AMP3.mV                       : CBL 3' Amplitude
~Parameter Information Block
~A  Depth        GR         CCL         TT3         AMP3    
# ...
   225.0000     49.9519      0.0000    919.3677     10.1258
   225.2500     51.5392      0.0000    890.1183     10.4116
   225.5000     54.6141      0.0000    879.2857     10.6110
   225.7500     58.1769      0.0000    884.2303     10.6535
   226.0000     60.8648      0.0000    895.8504     10.4776
   226.2500     62.0530      0.0000    912.1273     10.0377
   226.5000     62.0357      0.0000    939.6276      9.4033
   226.7500     61.1916      0.0000    985.6042      8.9327
   227.0000     59.5547      0.0000   1044.4648      8.9597
   227.2500     57.4967      0.0000   1096.3217      9.3739
   227.5000     56.1816      0.0000   1126.8218      9.9527
   227.7500     56.8624      0.0000   1138.7623     10.6231
   228.0000     60.1611      0.0000   1141.9056     11.2044
   228.2500     66.2824      0.0000   1142.4755     11.4387
   228.5000     75.1073      0.0000   1142.5051     11.2714
   228.7500     85.4797      0.0000   1142.4694     10.9051
   229.0000     95.0618      0.0000   1142.8340     10.6538
   229.2500    101.7376      0.0000   1145.1902     10.6813
   229.5000    105.1116      0.0000   1154.4208     10.8775
   229.7500    106.3094      0.0000   1177.7095     11.0582
   230.0000    106.6707      0.0000   1212.1855     11.1582
   230.2500    106.9616      0.0000   1239.5737     11.2222
   230.5000    107.3450      0.0000   1256.2952     11.2779
   230.7500    107.4928      0.0000   1286.2092     11.2093
   231.0000    106.9476      0.0000   1329.6655     10.9076
   231.2500    105.8782      0.0000   1345.4745     10.4995
   231.5000    105.4090      0.0000   1318.5740     10.1825
   231.7500    106.8820      0.0000   1295.5178      9.9457
   232.0000    110.6753      0.0000   1307.9987      9.6063
   232.2500    115.6905      0.0000   1309.5127      9.0567
   232.5000    119.9050      0.0000   1251.5950      8.4925
   232.7500    121.6194      0.0000   1179.2328      8.2609
   233.0000    120.4075      0.0000   1179.0339      8.3431
   233.2500    116.9944      0.0000   1251.1300      8.4053
   233.5000    112.4540      0.0000   1308.5734      8.3700
   233.7500    107.6699      0.0000   1303.7231      8.3960
   234.0000    103.2992      0.0000   1277.5876      8.5083
   234.2500     99.7732      0.0000   1270.2242      8.6532
   234.5000     97.0453      0.0000   1270.3938      8.8194
   234.7500     94.3491      0.0000   1280.0963      8.8910
   235.0000     90.5423      0.0000   1317.3488      8.7502
   235.2500     84.9874      0.0000   1351.3855      8.5882
   235.5000     78.0611      0.0000   1336.0831      8.7156
   235.7500     70.7637      0.0000   1286.1445      9.1295
   236.0000     64.0371      0.0000   1259.3951      9.5860
   236.2500     58.5448      0.0000   1267.1791     10.0343
   236.5000     54.7877      0.0000   1253.2809     10.5614
   236.7500     52.9560      0.0000   1178.4326     10.9251
   237.0000     52.5504      0.0000   1062.7039     10.8268
   237.2500     52.4904      0.0000    944.1733     10.4308
   237.5000     51.8817      0.0000    852.4911      9.9388
   237.7500     50.6836      0.0000    809.3354      9.1907
   238.0000     49.7228      0.0000    822.9772      8.2213
   238.2500     50.1719      0.0000    884.9843      7.5547
   238.5000     52.8556      0.0000    974.2643      7.4607
   238.7500     57.8080     -5.0000   1051.6808      7.6188
   239.0000     64.4075      0.0000   1065.5187      7.7215
   239.2500     71.7857      0.0000   1006.1895      7.7307
   239.5000     78.9758      0.0000    930.2754      7.6202
   239.7500     85.0169      0.0000    888.0025      7.4894
   240.0000     89.4955      0.0000    876.7979      7.8057
   240.2500     92.9208      0.0000    878.8141      8.7813
   240.5000     96.0296      0.0000    886.6558      9.6954
   240.7500     98.7500      0.0000    896.4667      9.7899
   241.0000    100.2488      0.0000    906.9972      9.2988
   241.2500     99.9163      0.0000    917.5027      8.7864
   241.5000     97.9527      0.0000    924.6400      8.3618
   241.7500     95.1090      0.0000    930.6818      7.9424
   242.0000     92.2116      0.0000    947.1995      7.6393
   242.2500     89.8227      0.0000    983.9331      7.7183
   242.5000     87.9348      0.0000   1031.0416      8.2216
   242.7500     85.8738      0.0000   1053.5267      8.7601
   243.0000     82.7670      0.0000   1027.4620      8.9611
   243.2500     78.3910      0.0000    973.5313      8.8902
   243.5000     73.7186      0.0000    926.2653      8.8482
   243.7500     70.4770      0.0000    898.5726      9.0633
   244.0000     69.7358      0.0000    887.8049      9.6419
   244.2500     70.6719      0.0000    887.5601     10.3789
   244.5000     71.0226      0.0000    890.7073     10.6604
   244.7500     69.0555      0.0000    892.8680     10.2263
   245.0000     64.9645      0.0000    893.4822      9.6609
   245.2500     60.4576      0.0000    893.1302      9.4558
   245.5000     57.4155      0.0000    892.3619      9.4347
   245.7500     56.7814      0.0000    892.5844      9.4369
   246.0000     58.0546      0.0000    896.1354      9.6678
   246.2500     59.7695      0.0000    904.2051     10.2041
   246.5000     60.8037      0.0000    914.3628     10.6675
   246.7500     61.1355      0.0000    922.2373     10.6623
   247.0000     61.1781      0.0000    926.4532     10.2414
   247.2500     60.8074      0.0000    931.4935      9.6987
   247.5000     59.5356      0.0000    950.7974      9.2328
   247.7500     57.3901      0.0000   1008.6425      8.9627
   248.0000     55.1682      0.0000   1120.3091      8.9124
   248.2500     53.9324      0.0000   1256.6526      8.8636
   248.5000     54.5021      0.0000   1352.9534      8.5535
   248.7500     57.0364      0.0000   1361.9701      8.1533
   249.0000     60.6590      0.0000   1280.1505      8.1236
   249.2500     63.7652      0.0000   1144.7522      8.5415
   249.5000     65.2310      0.0000   1015.7305      9.0649
   249.7500     65.4645      0.0000    932.9567      9.4465
   250.0000     66.1529      0.0000    895.0870      9.6605
   250.2500     68.8891      0.0000    883.5159      9.6877
   250.5000     73.9289      0.0000    884.5128      9.5481
   250.7500     80.1061      0.0000    889.5716      9.4222
   251.0000     85.7748      0.0000    893.8129      9.4667
   251.2500     89.8499      0.0000    896.8381      9.6312
   251.5000     92.2562      0.0000    900.2255      9.7257
   251.7500     93.5687      0.0000    903.9816      9.6130
   252.0000     94.1589      0.0000    906.6733      9.4088
   252.2500     93.7381      0.0000    908.2559      9.3774
   252.5000     91.9226      0.0000    909.9177      9.5507
   252.7500     89.2231      0.0000    914.6080      9.7007
   253.0000     87.1449      0.0000    928.1865      9.7052
   253.2500     86.9804      0.0000    952.0556      9.6319
   253.5000     88.6265      0.0000    974.4750      9.5448
   253.7500     90.8642      0.0000    974.3828      9.5078
   254.0000     92.5413      0.0000    943.3552      9.6050
   254.2500     93.1170      0.0000    901.3132      9.7674
   254.5000     92.4433      0.0000    876.0376      9.8423
   254.7500     90.7060      0.0000    870.5809      9.8440
   255.0000     88.5180      0.0000    862.1487      9.8866
   255.2500     86.6839      0.0000    833.9210      9.9498
   255.5000     85.8602      0.0000    794.7352      9.9165
   255.7500     86.3434      0.0000    762.8326      9.7867
   256.0000     87.8588      0.0000    747.5730      9.7171
   256.2500     89.6809      0.0000    746.8798      9.8257
   256.5000     91.3239      0.0000    750.8296     10.0151
   256.7500     92.9474      0.0000    751.8360     10.0856
   257.0000     94.7984      0.0000    751.4625     10.0404
   257.2500     96.6741      0.0000    753.6480     10.1049
   257.5000     98.3884      0.0000    757.4252     10.4251
   257.7500    100.3089      0.0000    760.0500     10.8634
   258.0000    102.7745      0.0000    761.2957     11.0139
   258.2500    105.2430      0.0000    761.9344     10.5292
