~Version Information
VERS.                      2.0: CWLS Log ASCII Standard - VERSION 2.0
WRAP.                       NO: One line per depth step
~Well Information Block
STRT.FT               840.0000: 
STOP.FT              2268.0000: 
STEP.FT                 0.2500: 
NULL.                -999.2500: 
COMP.          Pioneer Natural Resources: COMPANY
WELL.              Tonto 42-23: WELL
FLD.           Purgatoire River: FIELD
LOC.           2217' FNL & 423' FEL: LOCATION
PROV.                 Colorado: PROVINCE
CNTY.               Las Animas: COUNTRY
SRVC.                Patterson: SERVICE COMPANY
DATE.          Sun Apr 17 01:24:47 2005: LOG DATE
UWI.           05 071 08335 00: UNIQUE WELL ID
~Curve Information Block
DEPT.FT            0 000 00 00: Depth
SN.Ohm-m                      : IEL Short Normal
SP.mV                         : IEL Spontaneous Potential
DIR.Ohm-m                     : IEL Induction Resistivity
GR.GAPI                       : Gamma Ray
~Parameter Information Block
~A  Depth        SN          SP         DIR          GR     
# ...
  1979.0000     29.5236     12.9503     29.2328     37.3866
  1979.2500     29.9800     13.0300     28.4275     35.6342
  1979.5000     30.4062     13.1429     27.4923     33.1130
  1979.7500     30.6953     13.2768     26.4364     31.9752
  1980.0000     30.7994     13.4022     25.3046     31.7324
  1980.2500     30.6389     13.4939     24.1592     32.6713
  1980.5000     30.0646     13.5448     23.0509     35.5318
  1980.7500     28.9103     13.5662     22.0018     38.2722
  1981.0000     27.0777     13.5757     21.0047     43.9210
  1981.2500     24.6869     13.5851     20.0349     49.1906
  1981.5000     22.1637     13.5951     19.0702     59.7148
  1981.7500     20.0171     13.5953     18.1071     67.8547
  1982.0000     18.4887     13.5693     17.1649     79.4062
  1982.2500     17.4716     13.5058     16.2757     85.3145
  1982.5000     16.7200     13.4092     15.4674     90.6679
  1982.7500     16.0922     13.3022     14.7532     92.4176
  1983.0000     15.6054     13.2187     14.1320     93.6517
  1983.2500     15.3045     13.1909     13.5956     93.9081
  1983.5000     15.1526     13.2377     13.1347     93.5068
  1983.7500     15.0580     13.3595     12.7389     92.8998
  1984.0000     14.9240     13.5407     12.3952     92.1453
  1984.2500     14.6779     13.7577     12.0886     92.0336
  1984.5000     14.3033     13.9857     11.8065     92.4633
  1984.7500     13.8425     14.2008     11.5440     92.9167
  1985.0000     13.3913     14.3802     11.3021     93.3540
  1985.2500     13.0699     14.5028     11.0812     93.3728
  1985.5000     12.9372     14.5529     10.8753     93.3607
  1985.7500     12.9408     14.5278     10.6726     93.6836
  1986.0000     12.9702     14.4443     10.4604     94.8669
  1986.2500     12.9189     14.3394     10.2305     95.8494
  1986.5000     12.7293     14.2612      9.9805     96.8919
  1986.7500     12.4272     14.2516      9.7125     97.0423
  1987.0000     12.0571     14.3322      9.4323     96.3884
  1987.2500     11.6067     14.4997      9.1482     95.4780
  1987.5000     11.0668     14.7334      8.8707     94.0176
  1987.7500     10.5423     15.0089      8.6101     93.6115
  1988.0000     10.2004     15.3103      8.3733     94.7117
  1988.2500     10.0890     15.6345      8.1639     96.5073
  1988.5000     10.1209     15.9901      7.9836     99.7844
  1988.7500     10.2161     16.3887      7.8341    101.7458
  1989.0000     10.3327     16.8335      7.7177    103.9615
  1989.2500     10.4032     17.3135      7.6361    105.0835
  1989.5000     10.3553     17.8058      7.5891    106.5832
  1989.7500     10.1919     18.2807      7.5749    107.5189
  1990.0000     10.0089     18.7029      7.5912    108.6283
  1990.2500      9.9150     19.0394      7.6369    109.0605
  1990.5000      9.9431     19.2762      7.7124    109.4956
  1990.7500     10.0688     19.4308      7.8203    110.0308
  1991.0000     10.2619     19.5445      7.9639    111.5122
  1991.2500     10.4902     19.6595      8.1473    112.5132
  1991.5000     10.7284     19.7968      8.3743    112.5605
  1991.7500     10.9770     19.9516      8.6473    111.0209
  1992.0000     11.2617     20.1049      8.9671    106.6537
  1992.2500     11.6130     20.2400      9.3330    103.1634
  1992.5000     12.0417     20.3527      9.7445     98.4338
  1992.7500     12.5412     20.4485     10.2018     95.9876
  1993.0000     13.0758     20.5330     10.7033     93.2636
  1993.2500     13.5844     20.6047     11.2428     91.8796
  1993.5000     14.0269     20.6548     11.8081     90.3048
  1993.7500     14.4245     20.6744     12.3821     89.5774
  1994.0000     14.8578     20.6630     12.9475     88.8810
  1994.2500     15.3617     20.6314     13.4903     88.6284
  1994.5000     15.8654     20.5932     14.0019     88.5960
  1994.7500     16.2978     20.5494     14.4788     88.8188
  1995.0000     16.6520     20.4761     14.9205     89.3672
  1995.2500     16.9502     20.3274     15.3246     89.7444
  1995.5000     17.2517     20.0541     15.6835     90.2146
  1995.7500     17.6188     19.6312     15.9840     90.4504
  1996.0000     18.0001     19.0779     16.2130     90.7019
  1996.2500     18.2609     18.4566     16.3608     90.8827
  1996.5000     18.3417     17.8485     16.4240     91.4170
  1996.7500     18.2715     17.3208     16.4090     92.0159
  1997.0000     18.0489     16.9052     16.3368     93.1329
  1997.2500     17.6700     16.5940     16.2420     93.8507
  1997.5000     17.2309     16.3527     16.1634     94.5050
  1997.7500     16.8468     16.1413     16.1325     94.4262
  1998.0000     16.5629     15.9365     16.1678     93.5743
  1998.2500     16.3820     15.7426     16.2731     92.9985
  1998.5000     16.2546     15.5832     16.4352     93.0961
  1998.7500     16.1161     15.4790     16.6215     93.7630
  1999.0000     16.0208     15.4295     16.7887     94.2426
  1999.2500     16.1225     15.4159     16.9023     93.2371
  1999.5000     16.5019     15.4178     16.9563     89.1708
  1999.7500     17.0951     15.4244     16.9771     85.1623
  2000.0000     17.7409     15.4290     17.0071     78.4718
  2000.2500     18.2649     15.4195     17.0849     74.2994
  2000.5000     18.5920     15.3750     17.2308     69.4411
  2000.7500     18.7903     15.2730     17.4412     67.4330
  2001.0000     18.9608     15.0997     17.6894     66.2770
  2001.2500     19.1420     14.8601     17.9346     66.5165
  2001.5000     19.3210     14.5772     18.1387     67.7906
  2001.7500     19.4495     14.2796     18.2809     68.8833
  2002.0000     19.4642     13.9859     18.3615     70.3623
  2002.2500     19.3381     13.7022     18.3960     71.0345
  2002.5000     19.1132     13.4288     18.4072     71.5194
  2002.7500     18.8647     13.1634     18.4174     71.6701
  2003.0000     18.6268     12.8990     18.4402     71.9397
  2003.2500     18.3928     12.6303     18.4737     72.0074
  2003.5000     18.1855     12.3694     18.5023     71.1506
  2003.7500     18.0583     12.1559     18.5100     69.6023
  2004.0000     18.0566     12.0439     18.4927     66.2258
  2004.2500     18.2443     12.0738     18.4615     63.9847
  2004.5000     18.6645     12.2552     18.4376     61.6851
  2004.7500     19.2181     12.5741     18.4460     60.9828
  2005.0000     19.6718     13.0095     18.5121     60.7284
  2005.2500     19.8769     13.5385     18.6597     60.7915
  2005.5000     19.9651     14.1341     18.9072     60.9825
  2005.7500     20.1812     14.7722     19.2608     61.1529
  2006.0000     20.5459     15.4466     19.7059     61.5325
  2006.2500     20.9072     16.1743     20.2034     61.8975
  2006.5000     21.2267     16.9781     20.6977     62.5559
  2006.7500     21.5561     17.8562     21.1385     63.0060
  2007.0000     21.8738     18.7724     21.5064     63.6656
  2007.2500     22.1565     19.6791     21.8213     64.0836
  2007.5000     22.4765     20.5475     22.1243     64.4957
  2007.7500     22.8950     21.3720     22.4496     64.4625
  2008.0000     23.3666     22.1560     22.8099     63.8332
  2008.2500     23.8054     22.8996     23.2045     63.1170
  2008.5000     24.1814     23.5995     23.6368     61.8257
  2008.7500     24.5618     24.2501     24.1256     60.8542
  2009.0000     25.0534     24.8461     24.6977     59.1053
  2009.2500     25.6867     25.3890     25.3694     57.6785
  2009.5000     26.3544     25.8947     26.1319     55.2110
  2009.7500     26.9310     26.3925     26.9524     53.4548
  2010.0000     27.4777     26.9107     27.7939     50.7581
  2010.2500     28.1720     27.4567     28.6334     48.8544
  2010.5000     29.0739     28.0070     29.4561     45.5943
  2010.7500     30.1072     28.5155     30.2299     43.0969
  2011.0000     31.1686     28.9362     30.8891     39.1694
  2011.2500     32.1546     29.2463     31.3487     36.7793
  2011.5000     32.9624     29.4579     31.5322     34.0816
  2011.7500     33.5393     29.6113     31.3810     33.0698
  2012.0000     33.8733     29.7546     30.8492     32.9270
  2012.2500     33.9309     29.9237     29.9166     33.7940
