~Version Information
VERS.                      2.0: CWLS Log ASCII Standard - VERSION 2.0
WRAP.                       NO: One line per depth step
~Well Information Block
STRT.FT               965.2500: 
STOP.FT              2602.5000: 
STEP.FT                 0.2500: 
NULL.                -999.2500: 
COMP.          Petrogulf Corporation: COMPANY
WELL.             Valejo 8-12V: WELL
FLD.           Purgatorie River: FIELD
LOC.           1510' FNL & 1460' FWL: LOCATION
CNTY.               Las Animas: COUNTY
SRVC.                         : SERVICE COMPANY
DATE.          Fri Nov 14 05:32:33 2003: LOG DATE
UWI.                          : UNIQUE WELL ID
STAT.                 Colorado: STATE
~Curve Information Block
DEPT.FT            0 000 00 00: Depth
RILD.Ohm-m                    : DIL Deep Resistivity
RILM.Ohm-m                    : DIL Medium Resistivity
RLL3.Ohm-m                    : DIL Shallow Resistivity
SP.mV                         : DIL Spontaneous Potential
GR.GAPI                       : Gamma Ray
~Parameter Information Block
~A  Depth       RILD        RILM        RLL3         SP          GR     
# ...
  2337.2500     12.5897     14.6797     26.3065      1.4325     87.7915
  2337.5000     12.8932     15.0578     26.0566      1.4574     87.8478
  2337.7500     13.1836     15.4427     25.5950      1.5122     88.6902
  2338.0000     13.4602     15.8173     25.1503      1.6044     89.2921
  2338.2500     13.7262     16.1558     24.7758      1.7299     88.8828
  2338.5000     13.9875     16.4263     24.3812      1.8756     87.7866
  2338.7500     14.2515     16.6037     23.8941      2.0245     87.4697
  2339.0000     14.5289     16.6912     23.3810      2.1587     88.4831
  2339.2500     14.8325     16.7377     23.0104      2.2630     90.2996
  2339.5000     15.1739     16.8323     22.8970      2.3293     94.5284
  2339.7500     15.5572     17.0782     22.9842      2.3605     97.9989
  2340.0000     15.9759     17.5616     23.1235      2.3711    103.2473
  2340.2500     16.4145     18.3333     23.3603      2.3821    106.0482
  2340.5000     16.8535     19.4040     24.1776      2.4135    107.6210
  2340.7500     17.2752     20.7447     26.3560      2.4761    106.0944
  2341.0000     17.6664     22.2784     30.4159      2.5698     99.8251
  2341.2500     18.0187     23.8650     36.0513      2.6881     93.8052
  2341.5000     18.3257     25.3026     42.0433      2.8245     83.7131
  2341.7500     18.5802     26.3755     46.7959      2.9726     76.9202
  2342.0000     18.7730     26.9438     49.1637      3.1254     67.3989
  2342.2500     18.8984     27.0061     49.0015      3.2727     61.9731
  2342.5000     18.9643     26.6793     47.0666      3.4007     55.8242
  2342.7500     18.9961     26.1240     44.3960      3.4933     53.1308
  2343.0000     19.0278     25.4736     41.6615      3.5371     51.1810
  2343.2500     19.0833     24.7970     38.9656      3.5289     51.4324
  2343.5000     19.1617     24.0998     36.1167      3.4799     54.7049
  2343.7500     19.2399     23.3616     33.0243      3.4143     58.9922
  2344.0000     19.2910     22.5946     29.8698      3.3638     67.9503
  2344.2500     19.3029     21.8762     27.0399      3.3598     74.7124
  2344.5000     19.2814     21.3226     24.9897      3.4245     84.2590
  2344.7500     19.2400     21.0280     24.0761      3.5631     89.4001
  2345.0000     19.1887     21.0213     24.3522      3.7611     94.5715
  2345.2500     19.1349     21.2611     25.4662      3.9897     96.4245
  2345.5000     19.0911     21.6563     26.8403      4.2190     97.7960
  2345.7500     19.0782     22.0991     28.0266      4.4325     98.5112
  2346.0000     19.1176     22.5003     28.9237      4.6355     99.7162
  2346.2500     19.2211     22.8175     29.7090      4.8507     99.9569
  2346.5000     19.3874     23.0620     30.6382      5.1038     97.6994
  2346.7500     19.6082     23.2785     31.8901      5.4070     94.1303
  2347.0000     19.8744     23.5163     33.4616      5.7521     87.1929
  2347.2500     20.1771     23.8123     35.1071      6.1132     82.9414
  2347.5000     20.5012     24.1884     36.4149      6.4558     78.8786
  2347.7500     20.8213     24.6456     37.0259      6.7463     77.9617
  2348.0000     21.1086     25.1494     36.8206      6.9622     78.4246
  2348.2500     21.3457     25.6241     35.9381      7.1014     79.0098
  2348.5000     21.5355     25.9757     34.6784      7.1841     79.0686
  2348.7500     21.6947     26.1370     33.3877      7.2409     78.6152
  2349.0000     21.8358     26.0991     32.3444      7.2910     78.2080
  2349.2500     21.9575     25.9100     31.6651      7.3306     78.4356
  2349.5000     22.0507     25.6508     31.2953      7.3396     79.0449
  2349.7500     22.1143     25.4118     31.1053      7.2986     79.2900
  2350.0000     22.1623     25.2737     31.0053      7.2015     79.4650
  2350.2500     22.2175     25.2865     30.9780      7.0575     79.4977
  2350.5000     22.2975     25.4527     31.0338      6.8864     78.8157
  2350.7500     22.4054     25.7290     31.1707      6.7095     77.4063
  2351.0000     22.5261     26.0537     31.3814      6.5394     73.7782
  2351.2500     22.6279     26.3811     31.6771      6.3726     70.8331
  2351.5000     22.6730     26.6969     32.0977      6.1927     66.8542
  2351.7500     22.6450     27.0053     32.6959      5.9834     64.9565
  2352.0000     22.5765     27.3084     33.4971      5.7434     63.0134
  2352.2500     22.5487     27.6001     34.4643      5.4923     61.8478
  2352.5000     22.6490     27.8766     35.5141      5.2634     59.9378
  2352.7500     22.9176     28.1488     36.5665      5.0891     58.7525
  2353.0000     23.3228     28.4385     37.5594      4.9878     57.5700
  2353.2500     23.7803     28.7555     38.4062      4.9589     57.3375
  2353.5000     24.2019     29.0734     38.9558      4.9851     57.9247
  2353.7500     24.5345     29.3309     39.0231      5.0403     58.8548
  2354.0000     24.7648     29.4735     38.4927      5.1001     60.5525
  2354.2500     24.9000     29.5024     37.4292      5.1506     61.4889
  2354.5000     24.9512     29.4844     36.1100      5.1929     62.1812
  2354.7500     24.9304     29.5072     34.9435      5.2394     62.2517
  2355.0000     24.8536     29.6203     34.3134      5.3047     62.3213
  2355.2500     24.7389     29.8065     34.4287      5.3974     62.5055
  2355.5000     24.6031     30.0012     35.2475      5.5166     62.2952
  2355.7500     24.4634     30.1454     36.5018      5.6562     61.0967
  2356.0000     24.3417     30.2301     37.7992      5.8099     57.4072
  2356.2500     24.2601     30.2911     38.7482      5.9714     54.4984
  2356.5000     24.2280     30.3572     39.0762      6.1294     51.4064
  2356.7500     24.2335     30.4026     38.7229      6.2672     50.6783
  2357.0000     24.2495     30.3525     37.8551      6.3728     50.8954
  2357.2500     24.2533     30.1444     36.7598      6.4486     51.2175
  2357.5000     24.2413     29.7929     35.6902      6.5082     51.5039
  2357.7500     24.2295     29.3965     34.8168      6.5658     51.8125
  2358.0000     24.2402     29.0832     34.3001      6.6284     52.8412
  2358.2500     24.2885     28.9456     34.3474      6.6960     53.6415
  2358.5000     24.3752     29.0029     35.1333      6.7646     54.1229
  2358.7500     24.4861     29.1986     36.6238      6.8304     53.8351
  2359.0000     24.5992     29.4276     38.4606      6.8901     53.2685
  2359.2500     24.6932     29.5878     40.0476      6.9411     53.3797
  2359.5000     24.7563     29.6318     40.8177      6.9797     54.6864
  2359.7500     24.7878     29.5840     40.5111      6.9986     56.1424
  2360.0000     24.7937     29.5084     39.3016      6.9878     58.3503
  2360.2500     24.7800     29.4660     37.7123      6.9395     59.1624
  2360.5000     24.7507     29.4952     36.3669      6.8524     58.5732
  2360.7500     24.7124     29.6325     35.7096      6.7323     57.1186
  2361.0000     24.6808     29.9377     35.8543      6.5903     54.7558
  2361.2500     24.6778     30.4808     36.6117      6.4428     54.0572
  2361.5000     24.7187     31.2702     37.6083      6.3104     55.1258
  2361.7500     24.7983     32.1520     38.3857      6.2106     57.0644
  2362.0000     24.8884     32.7874     38.4819      6.1473     61.2926
  2362.2500     24.9547     32.8382     37.6269      6.1054     65.1480
  2362.5000     24.9776     32.2810     36.0881      6.0566     73.5272
  2362.7500     24.9581     31.4796     34.8263      5.9778     81.2370
  2363.0000     24.9004     30.9010     35.0310      5.8684     95.1582
  2363.2500     24.7918     30.8215     37.2722      5.7552    104.7323
  2363.5000     24.6040     31.2446     41.1811      5.6822    117.1405
  2363.7500     24.3191     31.9514     46.1110      5.6917    123.0747
  2364.0000     23.9551     32.5932     51.8640      5.8077    127.4556
  2364.2500     23.5637     32.8120     58.1974      6.0285    127.1907
  2364.5000     23.2040     32.3789     63.5264      6.3320    122.3739
  2364.7500     22.9137     31.2945     64.9590      6.6834    116.7279
  2365.0000     22.6972     29.7768     60.5420      7.0395    105.8939
