~Version Information
 VERS.                2.0:  CWLS LOG ASCII STANDARD -VERSION 2.0
 WRAP.                 NO:  ONE LINE PER DEPTH STEP
~WELL INFORMATION BLOCK
#MNEM.UNIT       DATA		            DESCRIPTION OF MNEMONIC
#---------    -------------            ------------------------
 STRT.FT  0.500                          :START DEPTH
 STOP.FT  1808.700                       :STOP DEPTH
 STEP.FT  0.100                          :STEP    UP_HOLE  
 NULL.    -999.25                        :NULL VALUE
 COMP.              EL PASO PRODUCTIONS  :COMPANY
 WELL.                     COREHOLE #38  :WELL
 FLD .                 PURGATOIRE RIVER  :FIELD
 LOC .      15   35S   65W               :LOCATION
 CNTY.                           COLFAX  :COUNTY
 STAT.                     NM            :STATE
 CTRY.                                   :
 SRVC.     O'DRISCOLL                    :SERVICE COMPANY
 DATE.   04/28/05                        :LOG DATE
 API .                                   :API NUMBER
 LIC .                                   :LICENSE NUMBER
~Curve Information Block
#MNEM.UNIT      API CODE     Curve Description
#---------    -------------  ------------------------
 DEPT     .FT        00 001 00 00          :  1  DEPTH   
 GAMMA    .API-GR    00 310 00 00          :  2                GAMMA
 VOLTAGE  .MV        00 000 00 00          :  3              VOLTAGE
 CALIPER  .INCH      00 280 00 00          :  4              CALIPER
 DEN(LS)  .G/CC      00 350 00 00          :  5              DEN(LS)
 DEN(SS)  .G/CC      00 350 00 00          :  6              DEN(SS)
 CURRENT  .UA        00 000 00 00          :  7              CURRENT
 RES(SG)  .OHM-M     00 220 00 00          :  8              RES(SG)
 POR(DEN) .PERCENT   00 890 00 00          :  9             POR(DEN)
 DEN(LS)  .CPS       00 350 00 00          : 10              DEN(LS)
 DEN(SS)  .CPS       00 350 00 00          : 11              DEN(SS)
 COMP     .G/CC      00 356 00 00          : 12                 COMP
 DEN(CDL) .G/CC      00 350 00 00          : 13             DEN(CDL)
 TEMP     .DEG F     00 660 00 00          : 14                 TEMP
 DEL_TEMP .DEG F     00 000 00 00          : 15             DEL_TEMP
 TIME     .MINUTES   00 000 00 00          : 16                 TIME
~Parameter Information Block
#MNEM.UNIT   Information     Description
#---------- ---------------  ------------------------
 FILE.      ORIGINAL           :File Type
 FIID.      9139A              :File Type Identifier
 VERS.      3.58G              :System Version
 SER .      1                  :System Serial Number
 TRUK.      .498775            :Truck Calibration Number
 TOOL.        1245             :Tool Serial Number
 TIME.      1507               :Time    HrHrMinMin
 LAT .       36 59'            :Latitude
 LON .       104 39'           :Longitude
 LMF .            GL           :Log Measured From
 DMF .            GL           :Driller Measured From
 PD  .            GL           :Permanent Data
 PDEV.                         :Elevation Permanent Data
 EKB .M                        :Elevation Kelly Bushing
 ELEV.DF                       :Elevation DF
 EGL .M        7777            :Elevation Ground Level
 DRDP.          1825           :Driller's Depth
 CASD.       10.               :Casing Diameter
 CASB.           300           :Casing Bottom
 CASX.         STEEL           :Casing Type
 CAST.                         :Casing Thickness
 TNOC.                         :Time Circulation Stopped
 LOGU.        108              :Logging Unit
 RECB.           R.SIPES       :Recorded By
 OSR1.          9057           :Other Services
 OSR2.                         :Other Services
 OSR3.                         :Other Services
 BS  .MM         3.5           :Bit Size
 MST .                         :Mean Surface Temperature
 TGRD.                         :Temperature Gradiant
 MAGN.            12           :Magnetic Declination
 MDEN.       2.7               :Density Matrix
 MATR.      SANDSTONE          :Neutron Matrix
 DTMT.            54           :Delta T Matrix
 DTFL.                         :Delta T Fluid
 MUDS.                         :Mud Sample Source
 MRS .                         :Mud Resistivity
 MTP .                         :Mud Temperature
 MFRS.                         :Resistivity Mud Filtrate
 MFTP.                         :Temperature Mud Filtrate
 MCRS.                         :Resistivity Mud Cake
 MCTP.                         :Temperature Mud Cake
 FTYP.                         :Fluid Type
 FD  .K/M3                     :Fluid Density
 DFV .S                        :Fluid Viscosity
 FPH .                         :Fuild PH
 ELCO.       50000             :Electron Cutoff
~Other Information
#MNEM.UNIT  Information      Description
#---------- ---------------  ------------------------
# -------------------------- 
~A DEPTH  GAMMA    VOLTAGE  CALIPER DEN(LS) DEN(SS) CURRENT  RES(SG)  POR(DEN) DEN(LS) DEN(SS) COMP  DEN(CDL) TEMP  DEL_TEMP TIME    
# ...
1802.700  -999.25  -999.25   3.0  2.84 3.01 -999.25  -999.25  11.2  350.37 3475.99 -0.328 2.40 -999.25 -999.25 0.20000 
1802.800  -999.25  -999.25   3.0  2.89 3.00 -999.25  -999.25  -0.3  315.30 3516.71 -0.186 2.40 -999.25 -999.25 0.20000 
1802.900  -999.25  -999.25   3.0  2.79 3.04 -999.25  -999.25  25.0  390.46 3394.35 -0.512 2.44 -999.25 -999.25 0.20000 
1803.000  -999.25  -999.25   3.0  2.77 3.00 -999.25  -999.25  21.4  400.48 3521.88 -0.438 2.45 -999.25 -999.25 0.30000 
1803.100  -999.25  -999.25   3.0  2.76 2.95 -999.25  -999.25  19.1  415.53 3659.94 -0.381 2.46 -999.25 -999.25 0.19900 
1803.200  -999.25  -999.25   3.0  2.81 2.94 -999.25  -999.25   8.0  375.43 3704.14 -0.242 2.44 -999.25 -999.25 0.20100 
1803.300  -999.25  -999.25   3.0  2.91 3.00 -999.25  -999.25  -3.3  305.28 3521.90 -0.151 2.49 -999.25 -999.25 0.20000 
1803.400  -999.25  -999.25   3.0  2.72 2.99 -999.25  -999.25  32.6  450.61 3526.99 -0.573 2.49 -999.25 -999.25 0.20000 
1803.500  -999.25  -999.25   3.0  2.82 2.95 -999.25  -999.25   6.4  365.40 3685.31 -0.227 2.45 -999.25 -999.25 0.20000 
1803.600  -999.25  -999.25   3.0  2.75 2.94 -999.25  -999.25  18.1  420.55 3715.98 -0.357 2.36 -999.25 -999.25 0.19900 
1803.700  -999.25  -999.25   3.0  2.76 2.96 -999.25  -999.25  19.1  413.85 3649.75 -0.383 2.41 -999.25 -999.25 0.30100 
1803.800  -999.25  -999.25   3.0  2.71 2.93 -999.25  -999.25  24.3  455.63 3731.34 -0.428 2.33 -999.25 -999.25 0.19900 
1803.900  -999.25  -999.25   3.0  2.72 2.90 -999.25  -999.25  18.4  445.60 3830.20 -0.337 2.33 -999.25 -999.25 0.20100 
1804.000  -999.25  -999.25   3.0  2.71 2.96 -999.25  -999.25  29.4  460.64 3639.31 -0.508 2.34 -999.25 -999.25 0.20000 
1804.100  -999.25  -999.25   3.0  2.75 2.93 -999.25  -999.25  17.1  420.53 3741.53 -0.340 2.38 -999.25 -999.25 0.20000 
1804.200  -999.25  -999.25   3.0  2.76 2.94 -999.25  -999.25  16.7  410.51 3690.52 -0.345 2.37 -999.25 -999.25 0.19900 
1804.300  -999.25  -999.25   3.0  2.79 2.96 -999.25  -999.25  13.5  390.46 3649.64 -0.317 2.41 -999.25 -999.25 0.20000 
1804.400  -999.25  -999.25   3.0  2.73 2.92 -999.25  -999.25  19.7  440.58 3772.23 -0.364 2.38 -999.25 -999.25 0.20000 
1804.500  -999.25  -999.25   3.0  2.74 2.91 -999.25  -999.25  17.0  430.56 3792.80 -0.328 2.28 -999.25 -999.25 0.30000 
1804.600  -999.25  -999.25   3.0  2.70 2.93 -999.25  -999.25  26.7  470.66 3746.65 -0.453 2.28 -999.25 -999.25 0.20100 
1804.700  -999.25  -999.25   3.0  2.59 2.91 -999.25  -999.25  47.0  581.01 3803.05 -0.692 2.32 -999.25 -999.25 0.20000 
1804.800  -999.25  -999.25   3.0  2.79 2.97 -999.25  -999.25  14.4  385.45 3598.46 -0.339 2.32 -999.25 -999.25 0.19900 
1804.900  -999.25  -999.25   3.0  2.79 2.90 -999.25  -999.25   7.2  390.48 3823.36 -0.209 2.39 -999.25 -999.25 0.20000 
1805.000  -999.25  -999.25   3.0  2.73 2.89 -999.25  -999.25  15.5  437.24 3864.32 -0.296 2.44 -999.25 -999.25 0.30000 
1805.100  -999.25  -999.25   3.1  2.77 2.89 -999.25  -999.25   8.4  405.49 3884.78 -0.210 2.49 -999.25 -999.25 0.20000 
1805.200  -999.25  -999.25   3.0  2.70 2.95 -999.25  -999.25  29.6  465.66 3656.34 -0.508 2.48 -999.25 -999.25 0.20000 
1805.300  -999.25  -999.25   3.0  2.83 2.91 -999.25  -999.25   0.6  355.38 3792.75 -0.142 2.45 -999.25 -999.25 0.20100 
1805.400  -999.25  -999.25   3.0  2.76 2.90 -999.25  -999.25  11.9  413.85 3838.94 -0.259 2.38 -999.25 -999.25 0.29900 
1805.500  -999.25  -999.25   3.0  2.68 2.89 -999.25  -999.25  24.0  485.71 3884.86 -0.392 2.43 -999.25 -999.25 0.20100 
1805.600  -999.25  -999.25   3.0  2.71 2.95 -999.25  -999.25  27.9  460.64 3670.20 -0.484 2.42 -999.25 -999.25 0.19900 
1805.700  -999.25  -999.25   3.0  2.77 2.94 -999.25  -999.25  14.1  403.82 3716.24 -0.310 2.40 -999.25 -999.25 0.30100 
1805.800  -999.25  -999.25   3.0  2.79 2.89 -999.25  -999.25   4.9  390.46 3889.99 -0.170 2.46 -999.25 -999.25 0.19900 
1805.900  -999.25  -999.25   3.0  2.72 2.89 -999.25  -999.25  17.3  445.61 3857.50 -0.319 2.46 -999.25 -999.25 0.20000 
1806.000  -999.25  -999.25   3.0  2.81 2.94 -999.25  -999.25   7.4  373.77 3710.91 -0.233 2.50 -999.25 -999.25 0.30000 
1806.100  -999.25  -999.25   3.0  2.71 2.95 -999.25  -999.25  28.2  460.65 3664.89 -0.488 2.49 -999.25 -999.25 0.20000 
1806.200  -999.25  -999.25   3.0  2.84 2.92 -999.25  -999.25   0.7  350.39 3758.64 -0.149 2.49 -999.25 -999.25 0.20000 
1806.300  -999.25  -999.25   3.0  2.77 2.87 -999.25  -999.25   7.1  407.17 3930.82 -0.188 2.43 -999.25 -999.25 0.30000 
1806.400  -999.25  -999.25   3.0  2.81 3.01 -999.25  -999.25  17.5  375.44 3470.79 -0.404 2.51 -999.25 -999.25 0.20000 
1806.500  -999.25  -999.25   3.1  2.71 2.94 -999.25  -999.25  26.5  460.64 3704.05 -0.460 2.45 -999.25 -999.25 0.30000 
1806.600  -999.25  -999.25   3.0  2.84 2.95 -999.25  -999.25   2.7  345.36 3664.90 -0.190 2.41 -999.25 -999.25 0.20000 
1806.700  -999.25  -999.25   3.0  2.75 2.94 -999.25  -999.25  19.2  420.53 3687.10 -0.376 2.44 -999.25 -999.25 0.30000 
1806.800  -999.25  -999.25   3.0  2.73 2.92 -999.25  -999.25  20.8  443.93 3762.11 -0.379 2.41 -999.25 -999.25 0.30000 
1806.900  -999.25  -999.25   3.1  2.75 2.87 -999.25  -999.25   8.6  417.19 3953.13 -0.199 2.36 -999.25 -999.25 0.30000 
1807.000  -999.25  -999.25   3.1  2.70 2.99 -999.25  -999.25  34.5  465.67 3554.25 -0.591 2.40 -999.25 -999.25 0.20000 
1807.100  -999.25  -999.25   3.1  2.75 2.92 -999.25  -999.25  16.2  423.89 3785.88 -0.320 2.43 -999.25 -999.25 0.30000 
1807.200  -999.25  -999.25   3.0  2.80 2.92 -999.25  -999.25   8.0  383.78 3756.87 -0.231 2.34 -999.25 -999.25 0.30000 
1807.300  -999.25  -999.25   3.0  2.73 2.86 -999.25  -999.25  12.0  443.09 3991.16 -0.230 2.37 -999.25 -999.25 0.40000 
1807.400  -999.25  -999.25   3.0  2.71 2.99 -999.25  -999.25  34.0  464.00 3557.70 -0.583 2.39 -999.25 -999.25 0.30000 
1807.500  -999.25  -999.25   3.0  2.68 2.89 -999.25  -999.25  26.1  493.24 3869.46 -0.421 2.42 -999.25 -999.25 0.40000 
1807.600  -999.25  -999.25   3.0  2.78 2.93 -999.25  -999.25  11.4  397.99 3751.84 -0.271 2.38 -999.25 -999.25 0.40000 
1807.700  -999.25  -999.25   2.7  2.87 2.94 -999.25  -999.25  -2.2  330.34 3695.57 -0.129 2.44 -999.25 -999.25 0.40000 
1807.800  -999.25  -999.25   2.6  2.70 2.91 -999.25  -999.25  24.5  473.19 3810.59 -0.414 2.48 -999.25 -999.25 0.40000 
1807.900  -999.25  -999.25  -999.25 2.72 2.89 -999.25  -999.25  17.8  450.62 3869.57 -0.322 2.47 -999.25 -999.25 0.40000 
1808.000  -999.25  -999.25  -999.25 2.74 2.88 -999.25  -999.25  12.5  432.57 3923.33 -0.250 2.44 -999.25 -999.25 0.50000 
1808.100  -999.25  -999.25  -999.25 2.74 2.90 -999.25  -999.25  15.2  428.56 3828.54 -0.300 2.45 -999.25 -999.25 0.50000 
1808.200  -999.25  -999.25  -999.25 2.78 2.90 -999.25  -999.25   7.8  394.47 3829.51 -0.215 2.42 -999.25 -999.25 0.50000 
1808.300  -999.25  -999.25  -999.25 2.71 2.90 -999.25  -999.25  20.6  457.31 3831.81 -0.363 2.36 -999.25 -999.25 0.60000 
1808.400  -999.25  -999.25  -999.25 2.65 2.87 -999.25  -999.25  27.4  515.80 3946.22 -0.421 2.34 -999.25 -999.25 0.80000 
1808.500  -999.25  -999.25  -999.25 2.66 2.88 -999.25  -999.25  28.1  509.24 3898.48 -0.439 2.27 -999.25 -999.25 5.79900 
1808.600  -999.25  -999.25  -999.25 -999.25 2.70 -999.25  -999.25  -999.25 -999.25 4541.11 -999.25 2.23 -999.25 -999.25 -999.25 
1808.700  -999.25  -999.25  -999.25 -999.25 2.71 -999.25  -999.25  -999.25 -999.25 4537.96 -999.25 2.22 -999.25 -999.25 -999.25
