~Version Information
VERS.                      2.0: CWLS Log ASCII Standard - VERSION 2.0
WRAP.                       NO: One line per depth step
~Well Information Block
STRT.FT              1882.7500: 
STOP.FT              2400.5000: 
STEP.FT                 0.2500: 
NULL.                -999.2500: 
COMP.          Pioneer Natural Resources: COMPANY
WELL.          Flying Horse 12-11: WELL
FLD.           Purgatoire River: FIELD
LOC.           2,428' FNL & 308' FWL------: LOCATION
PROV.                 Colorado: PROVINCE
CNTY.               Las Animas: COUNTRY
SRVC.                         : SERVICE COMPANY
DATE.          Fri Jun 10 06:52:30 2005: LOG DATE
UWI.                          : UNIQUE WELL ID
~Curve Information Block
DEPT.FT            0 000 00 00: Depth
CCL.                          : Casing Collar Locator
TT3.usec                      : CBL 3' Travel Time
AMP3.mV                       : CBL 3' Amplitude
AMP5.mV                       : CBL 5' Amplitude
GR.GAPI                       : Gamma Ray
~Parameter Information Block
~A  Depth       CCL         TT3         AMP3        AMP5         GR     
# ...
  2274.7500      0.0000    259.0438     71.1624     97.5310     92.7557
  2275.0000      0.0000    259.0311     71.0835     97.0087     88.8261
  2275.2500      0.0000    259.0097     71.0712     97.5310     86.3606
  2275.5000      0.0000    258.9976     71.0622     97.7921     85.3164
  2275.7500      0.0000    259.0038     70.9764     98.3144     85.1290
  2276.0000      0.0000    259.0284     70.7104     97.8792     85.2239
  2276.2500      0.0000    259.0689     70.1786     98.1403     85.4535
  2276.5000      0.0000    259.1197     69.3861     98.8367     86.0970
  2276.7500      0.0000    259.1685     68.4666     98.5755     87.5110
  2277.0000      0.0000    259.2003     67.6195     98.4014     89.9367
  2277.2500      0.0000    259.2090     66.9893     98.4885     93.4998
  2277.5000      0.0000    259.2018     66.6048     97.8792     97.9179
  2277.7500      0.0000    259.1910     66.4128     93.5268    102.0705
  2278.0000      0.0000    259.1832     66.3419     92.7434    104.2721
  2278.2500      0.0000    259.1780     66.3367     91.3507    103.4457
  2278.5000      0.0000    259.1735     66.3610     91.7859    100.1196
  2278.7500      0.0000    259.1684     66.3896     91.0025     96.0039
  2279.0000      0.0000    259.1628     66.4020     90.4802     92.5180
  2279.2500      0.0000    259.1650     66.3839     90.3061     89.9147
  2279.5000      0.0000    259.2043     66.3181     90.2191     87.7345
  2279.7500      0.0000    259.4116     66.1201     89.1745     85.7097
  2280.0000      0.0000    260.1795     65.5087     65.4978     84.0138
  2280.2500      0.0000    262.3167     63.9012     34.4222     82.8753
  2280.5000      0.0000    266.7591     60.5911     91.0025     82.1885
  2280.7500      0.0000    273.4701     55.3282     58.7082     81.4092
  2281.0000      0.0000    280.3438     48.8668     68.3704     79.7280
  2281.2500      0.0000    284.0008     42.7541     65.1497     76.6558
  2281.5000      0.0000    282.5927     38.3615     67.9352     72.7826
  2281.7500      0.0000    277.5458     36.0865     67.5870     69.7741
  2282.0000      0.0000    272.0319     35.3946     68.2833     69.2085
  2282.2500      0.0000    268.2258     35.4235     68.1092     71.3590
  2282.5000     -2.0000    266.4217     35.5178     68.3704     75.2648
  2282.7500      0.0000    266.0226     35.3903     68.2833     79.8497
  2283.0000      0.0000    266.6165     34.9648     68.1963     84.7882
  2283.2500      0.0000    268.1624     34.2164     67.9352     90.4762
  2283.5000      0.0000    270.4318     33.3397     68.4574     97.4493
  2283.7500      0.0000    272.4288     33.1186     68.6315    105.5846
  2284.0000      0.0000    272.6959     34.7939     68.4574    113.3718
  2284.2500      0.0000    270.5620     39.1007     68.1092    118.1231
  2284.5000      0.0000    266.8946     45.4111     68.8927    117.6942
  2284.7500      0.0000    263.3311     52.0620     65.0626    112.4278
  2285.0000      0.0000    260.9326     57.5094     40.7766    105.0436
  2285.2500      0.0000    259.7437     61.1032    100.5776     98.2905
  2285.5000      0.0000    259.2954     63.0306     71.3300     92.8664
  2285.7500      0.0000    259.1630     63.8527     88.6522     87.5512
  2286.0000      0.0000    259.1362     64.1074     91.1766     80.8977
  2286.2500      0.0000    259.1455     64.1400     92.1341     72.7558
  2286.5000      0.0000    259.1718     64.1102     92.1341     64.6667
  2286.7500      0.0000    259.1985     64.0707     90.5672     58.9831
  2287.0000      0.0000    259.2085     64.0286     91.2636     57.2760
  2287.2500      0.0000    259.1919     63.9805     91.3507     59.2465
  2287.5000      0.0000    259.1543     63.9261     91.3507     63.1446
  2287.7500      0.0000    259.1141     63.8711     91.4377     67.2523
  2288.0000      0.0000    259.0907     63.8267     91.3507     71.0312
  2288.2500      0.0000    259.0921     63.8044     91.1766     75.0638
  2288.5000      0.0000    259.1094     63.8061     91.3507     80.1361
  2288.7500      0.0000    259.1243     63.8201     91.6118     86.2078
  2289.0000      0.0000    259.1236     63.8310     91.1766     91.9981
  2289.2500      0.0000    259.1090     63.8337     91.3507     95.6979
  2289.5000      0.0000    259.0927     63.8374     91.9600     96.4578
  2289.7500      0.0000    259.0849     63.8571     91.7859     95.1795
  2290.0000      0.0000    259.0870     63.9030     91.6118     93.7514
  2290.2500      0.0000    259.0934     63.9714     91.6118     93.6518
  2290.5000      0.0000    259.0988     64.0470     91.4377     95.2237
  2290.7500      0.0000    259.1018     64.1130     91.8729     97.7228
  2291.0000      0.0000    259.1053     64.1590     91.2636     99.8766
  2291.2500      0.0000    259.1116     64.1829     91.6118    100.8713
  2291.5000      0.0000    259.1180     64.1879     90.7413    100.9671
  2291.7500      0.0000    259.1193     64.1820     92.6564    100.9283
  2292.0000      0.0000    259.1125     64.1769     91.6118    101.0672
  2292.2500      0.0000    259.0992     64.1837     91.6989    101.2607
  2292.5000      0.0000    259.0837     64.2090     91.4377    101.5429
  2292.7500      0.0000    259.0721     64.2550     91.6118    101.9224
  2293.0000      0.0000    259.0693     64.3219     91.0025    101.9666
  2293.2500      0.0000    259.0768     64.4076     92.0470    101.4006
  2293.5000      0.0000    259.0910     64.5046     92.5693    100.9439
  2293.7500      0.0000    259.1066     64.6006     91.4377    101.7256
  2294.0000      0.0000    259.1202     64.6821     91.6989    103.9035
  2294.2500      0.0000    259.1311     64.7368     91.7859    106.3303
  2294.5000      0.0000    259.1397     64.7559     92.1341    107.5348
  2294.7500      0.0000    259.1461     64.7411     92.3082    106.7305
  2295.0000      0.0000    259.1483     64.7132     91.8729    104.0462
  2295.2500      0.0000    259.1423     64.7042     92.0470    100.1150
  2295.5000      0.0000    259.1251     64.7380     92.0470     95.5202
  2295.7500      0.0000    259.0975     64.8196     91.6989     90.6232
  2296.0000      0.0000    259.0662     64.9405     92.0470     85.8652
  2296.2500      0.0000    259.0421     65.0837     91.9600     81.9489
  2296.5000      0.0000    259.0346     65.2243     91.6989     79.3715
  2296.7500      0.0000    259.0461     65.3326     91.4377     77.8799
  2297.0000      0.0000    259.0700     65.3856     92.3082     76.7209
  2297.2500      0.0000    259.0958     65.3778     91.9600     75.4136
  2297.5000      0.0000    259.1142     65.3275     91.8729     74.0561
  2297.7500      0.0000    259.1219     65.2729     92.2211     72.8577
  2298.0000      0.0000    259.1216     65.2523     92.6564     71.6128
  2298.2500      0.0000    259.1195     65.2839     92.6564     69.7909
  2298.5000      0.0000    259.1187     65.3622     92.3952     67.1654
  2298.7500      0.0000    259.1164     65.4708     92.3082     64.1914
  2299.0000      0.0000    259.1074     65.5938     92.0470     61.5976
  2299.2500      0.0000    259.0910     65.7148     92.0470     59.6818
  2299.5000      0.0000    259.0732     65.8128     92.2211     58.2517
  2299.7500      0.0000    259.0627     65.8694     92.4823     57.2053
  2300.0000      0.0000    259.0623     65.8821     92.2211     56.8713
  2300.2500      0.0000    259.0651     65.8697     92.3952     57.6344
  2300.5000      0.0000    259.0603     65.8607     91.9600     59.2719
  2300.7500      0.0000    259.0433     65.8716     92.2211     60.8285
  2301.0000      0.0000    259.0211     65.8946     92.3952     61.3556
  2301.2500      0.0000    259.0056     65.9088     92.6564     60.7831
  2301.5000      0.0000    259.0044     65.9018     93.0045     59.7561
  2301.7500      0.0000    259.0170     65.8825     92.4823     58.5560
  2302.0000      0.0000    259.0372     65.8741     93.2657     56.7518
  2302.2500      0.0000    259.0573     65.8995     92.6564     54.2613
  2302.5000      0.0000    259.0710     65.9680     92.4823     52.1599
