~Version Information
VERS.                      2.0: CWLS Log ASCII Standard - VERSION 2.0
WRAP.                       NO: One line per depth step
~Well Information Block
STRT.FT               710.0000: 
STOP.FT              2304.5000: 
STEP.FT                 0.2500: 
NULL.                -999.2500: 
COMP.          Pioneer Natural Resources: COMPANY
WELL.           Ogallela 44-12: WELL
FLD.           Purgatoire River: FIELD
LOC.           610' FSL & 671' FEL: LOCATION
PROV.                 Colorado: PROVINCE
CNTY.               Las Animas: COUNTRY
SRVC.                Patterson: SERVICE COMPANY
DATE.          Wed Feb 23 00:14:59 2005: LOG DATE
UWI.           05 071 08283 00: UNIQUE WELL ID
~Curve Information Block
DEPT.FT            0 000 00 00: Depth
SN.Ohm-m                      : IEL Short Normal
SP.mV                         : IEL Spontaneous Potential
DIR.Ohm-m                     : IEL Induction Resistivity
GR.GAPI                       : Gamma Ray
~Parameter Information Block
~A  Depth        SN          SP         DIR          GR     
# ...
   810.5000   2000.0000   2040.0000     57.2013     68.7142
   810.7500   2000.0000   2040.0000     57.2212     69.7871
   811.0000   2000.0000   2040.0000     57.3170     70.2595
   811.2500   2000.0000   2040.0000     57.7196     69.4458
   811.5000   2000.0000   2040.0000     58.3769     66.8886
   811.7500   2000.0000   2040.0000     59.1814     65.0492
   812.0000   2000.0000   2040.0000     60.1050     63.4201
   812.2500   2000.0000   2040.0000     61.1646     63.3230
   812.5000   2000.0000   2040.0000     62.2933     64.0002
   812.7500   2000.0000   2040.0000     63.2788     64.4122
   813.0000   2000.0000   2040.0000     63.8776     64.4405
   813.2500   2000.0000   2040.0000     63.9877     64.1300
   813.5000   2000.0000   2040.0000     63.6902     63.5382
   813.7500   2000.0000   2040.0000     63.0867     63.1853
   814.0000   2000.0000   2040.0000     62.1764     62.6209
   814.2500   2000.0000   2040.0000     60.9499     62.0977
   814.5000   2000.0000   2040.0000     59.5525     61.2337
   814.7500   2000.0000   2040.0000     58.2669     60.9767
   815.0000   2000.0000   2040.0000     57.3026     61.7468
   815.2500   2000.0000   2040.0000     56.6239     63.1628
   815.5000   2000.0000   2040.0000     55.9565     66.4546
   815.7500   2000.0000   2040.0000     54.9425     69.2004
   816.0000   2000.0000   2040.0000     53.3186     73.4317
   816.2500   2000.0000   2040.0000     51.0000     75.6761
   816.5000   2000.0000   2040.0000     48.0495     77.2012
   816.7500   2000.0000   2040.0000     44.6032     76.9859
   817.0000   2000.0000   2040.0000     40.8423     76.0760
   817.2500   2000.0000   2040.0000     37.0046     76.1971
   817.5000   2000.0000   2040.0000     33.3659     79.0649
   817.7500   2000.0000   2040.0000     30.1663     83.1705
   818.0000   2000.0000   2040.0000     27.5398     92.3431
   818.2500   2000.0000   2040.0000     25.4989     99.9609
   818.5000   2000.0000   2040.0000     23.9683    112.7439
   818.7500   2000.0000   2040.0000     22.8291    121.7389
   819.0000   2000.0000   2040.0000     21.9552    134.9767
   819.2500   2000.0000   2040.0000     21.2372    142.7283
   819.5000   2000.0000   2040.0000     20.5972    150.9901
   819.7500   2000.0000   2040.0000     19.9930    153.6514
   820.0000   2000.0000   2040.0000     19.4108    153.6706
   820.2500   2000.0000   2040.0000     18.8537    151.7327
   820.5000   2000.0000   2040.0000     18.3308    147.0631
   820.7500   2000.0000   2040.0000     17.8521    143.1976
   821.0000   2000.0000   2040.0000     17.4265    136.7898
   821.2500   2000.0000   2040.0000     17.0611    132.5385
   821.5000   2000.0000   2040.0000     16.7595    127.3044
   821.7500   2000.0000   2040.0000     16.5210    125.2320
   822.0000   2000.0000   2040.0000     16.3386    124.7216
   822.2500   2000.0000   2040.0000     16.1978    125.9175
   822.5000   2000.0000   2040.0000     16.0746    129.4149
   822.7500   2000.0000   2040.0000     15.9364    132.6919
   823.0000   2000.0000   2040.0000     15.7469    138.8055
   823.2500   2000.0000   2040.0000     15.4773    143.2668
   823.5000   2000.0000   2040.0000     15.1187    149.2039
   823.7500   2000.0000   2040.0000     14.6855    151.9437
   824.0000   2000.0000   2040.0000     14.2055    153.9019
   824.2500   2000.0000   2040.0000     13.7059    154.0408
   824.5000   2000.0000   2040.0000     13.2064    153.0859
   824.7500   2000.0000   2040.0000     12.7219    151.9287
   825.0000   2000.0000   2040.0000     12.2682    149.8280
   825.2500   2000.0000   2040.0000     11.8606    148.4271
   825.5000   2000.0000   2040.0000     11.5075    146.4751
   825.7500   2000.0000   2040.0000     11.2053    145.1725
   826.0000   2000.0000   2040.0000     10.9384    143.1664
   826.2500   2000.0000   2040.0000     10.6877    142.0019
   826.5000   2000.0000   2040.0000     10.4409    140.7420
   826.7500   2000.0000   2040.0000     10.1978    139.9027
   827.0000   2000.0000   2040.0000      9.9666    137.7819
   827.2500   2000.0000   2040.0000      9.7540    135.7849
   827.5000   2000.0000   2040.0000      9.5589    133.0500
   827.7500   2000.0000   2040.0000      9.3719    132.1870
   828.0000   2000.0000   2040.0000      9.1822    132.8330
   828.2500   2000.0000   2040.0000      8.9861    134.2945
   828.5000   2000.0000   2040.0000      8.7899    137.2771
   828.7500   2000.0000   2040.0000      8.6072    139.4920
   829.0000   2000.0000   2040.0000      8.4510    142.9117
   829.2500   2000.0000   2040.0000      8.3294    145.1527
   829.5000   2000.0000   2040.0000      8.2463    148.3588
   829.7500   2000.0000   2040.0000      8.2058    150.4413
   830.0000   2000.0000   2040.0000      8.2157    153.5311
   830.2500   2000.0000   2040.0000      8.2861    155.4100
   830.5000   2000.0000   2040.0000      8.4239    157.2374
   830.7500   2000.0000   2040.0000      8.6289    157.0994
   831.0000   2000.0000   2040.0000      8.8931    153.4575
   831.2500   2000.0000   2040.0000      9.2054    148.2876
   831.5000   2000.0000   2040.0000      9.5570    137.1349
   831.7500   2000.0000   2040.0000      9.9465    128.6091
   832.0000   2000.0000   2040.0000     10.3791    116.4090
   832.2500   2000.0000   2040.0000     10.8622    109.6237
   832.5000   2000.0000   2040.0000     11.3992    102.3287
   832.7500   2000.0000   2040.0000     11.9831     99.5056
   833.0000   2000.0000   2040.0000     12.5994     97.9242
   833.2500   2000.0000   2040.0000     13.2364     98.0486
   833.5000   2000.0000   2040.0000     13.8957     98.7863
   833.7500   2000.0000   2040.0000     14.5894     99.3011
   834.0000   2000.0000   2040.0000     15.3208    100.8071
   834.2500   2000.0000   2040.0000     16.0603    103.3061
   834.5000   2000.0000   2040.0000     16.7343    110.8816
   834.7500   2000.0000   2040.0000     17.2419    118.5519
   835.0000   2000.0000   2040.0000     17.4940    131.8744
   835.2500   2000.0000   2040.0000     17.4447    139.8693
   835.5000   2000.0000   2040.0000     17.0961    147.5654
   835.7500   2000.0000   2040.0000     16.4870    149.3704
   836.0000   2000.0000   2040.0000     15.6913    148.3999
   836.2500   2000.0000   2040.0000     14.8217    146.6833
   836.5000   2000.0000   2040.0000     14.0118    145.0927
   836.7500   2000.0000   2040.0000     13.3746    145.9817
   837.0000   2000.0000   2040.0000     12.9682    151.1757
   837.2500   2000.0000   2040.0000     12.7859    156.6646
   837.5000   2000.0000   2040.0000     12.7685    165.6421
   837.7500   2000.0000   2040.0000     12.8296    170.6737
   838.0000   2000.0000   2040.0000     12.8871    175.0497
   838.2500   2000.0000   2040.0000     12.8922    175.5168
   838.5000   2000.0000   2040.0000     12.8434    173.2807
   838.7500   2000.0000   2040.0000     12.7752    170.7658
   839.0000   2000.0000   2040.0000     12.7321    166.8110
   839.2500   2000.0000   2040.0000     12.7453    164.3292
   839.5000   2000.0000   2040.0000     12.8252    160.6508
   839.7500   2000.0000   2040.0000     12.9654    157.8890
   840.0000   2000.0000   2040.0000     13.1522    152.4277
   840.2500   2000.0000   2040.0000     13.3697    147.6236
   840.5000   2000.0000   2040.0000     13.6030    139.5108
   840.7500   2000.0000   2040.0000     13.8413    134.6532
   841.0000   2000.0000   2040.0000     14.0766    129.9478
   841.2500   2000.0000   2040.0000     14.2988    128.9096
   841.5000   2000.0000   2040.0000     14.4903    130.2096
   841.7500   2000.0000   2040.0000     14.6299    132.5614
   842.0000   2000.0000   2040.0000     14.7065    137.4896
   842.2500   2000.0000   2040.0000     14.7304    141.2091
   842.5000   2000.0000   2040.0000     14.7264    146.4898
   842.7500   2000.0000   2040.0000     14.7136    149.2114
   843.0000   2000.0000   2040.0000     14.6901    151.4226
   843.2500   2000.0000   2040.0000     14.6359    151.6612
   843.5000   2000.0000   2040.0000     14.5300    150.5987
   843.7500   2000.0000   2040.0000     14.3667    149.1827
