~Version Information
 VERS.                                  2.0 : CWLS LAS VERSION
 WRAP.                                   NO : WRAPING MODE
 SWARE .                 MController 2.5.0I : SOFTWARE VERSION
~Well Information
 WELL.                      Anderson 18-43v : WELL
 COMP.                       Petrogulf Corp : COMPANY
 FLD.                      Purgatorie River : FIELD
 LOC.                NE/SE Sec 18 T33S R67W : LOCATION
 DATE.                              9/01/04 : DATE(S) LOGGED
 SRVC.       Blanco geological services LLC : SERVICE COMPANY
 STAT.                                   CO : STATE
 CNTY.                           Las Animas : COUNTY
 CTRY.                                  USA : COUNTRY
 API.                       05-071-08156-00 : API NUMBER
 STRT.FT                             158.00 : START DEPTH
 STOP.FT                            2300.00 : STOP DEPTH
 STEP.FT                               1.00 : DEPTH INCREMENT
 NULL.                                -9999 : NULL VALUE
~Curve information
 DEPTH.FT                                   :
 ROP.MIN/FT                                 :
 GAS.UNITS                                  :
~ASCII Log data
# ...
      1558.0          0.3         16.4 
      1559.0          0.2          5.8 
      1560.0          1.8        186.1 
      1561.0          0.3        190.4 
      1562.0          0.3        176.7 
      1563.0          0.3        137.6 
      1564.0          0.3        105.5 
      1565.0          0.2         81.8 
      1566.0          0.3         65.9 
      1567.0          0.2         48.5 
      1568.0          0.2         33.9 
      1569.0          0.2         29.0 
      1570.0          0.2         33.9 
      1571.0          0.3         43.6 
      1572.0          0.2         48.6 
      1573.0          0.2         50.4 
      1574.0          0.3         50.4 
      1575.0          0.3         47.6 
      1576.0          0.3         44.8 
      1577.0          0.3         43.2 
      1578.0          0.3         39.7 
      1579.0          0.3         35.3 
      1580.0          0.3         30.3 
      1581.0          0.3         28.6 
      1582.0          0.3         28.7 
      1583.0          0.3         30.4 
      1584.0          0.3         32.1 
      1585.0          0.3         30.7 
      1586.0          0.3         30.2 
      1587.0          0.3         36.3 
      1588.0          0.3         38.5 
      1589.0          0.3         35.2 
      1590.0          0.2         16.3 
      1591.0          0.3         10.3 
      1592.0          1.9        248.9 
      1593.0          0.6        226.3 
      1594.0          0.4        110.9 
      1595.0          0.4         70.8 
      1596.0          0.3         50.7 
      1597.0          0.4         38.8 
      1598.0          0.3         39.6 
      1599.0          0.3         39.6 
      1600.0          0.3         37.3 
      1601.0          0.3         34.7 
      1602.0          0.3         35.4 
      1603.0          0.3         37.3 
      1604.0          0.3         38.3 
      1605.0          0.3         38.2 
      1606.0          0.3         36.9 
      1607.0          0.3         34.5 
      1608.0          0.3         29.9 
      1609.0          0.4         28.0 
      1610.0          0.4         31.8 
      1611.0          0.4         31.6 
      1612.0          0.4         28.2 
      1613.0          0.4         28.5 
      1614.0          0.3         30.1 
      1615.0          0.3         30.7 
      1616.0          0.4         31.5 
      1617.0          0.4         32.0 
      1618.0          0.4         34.4 
      1619.0          0.4         34.4 
      1620.0          0.3         34.4 
      1621.0          0.2         37.1 
      1622.0          2.3        116.8 
      1623.0          0.4        126.7 
      1624.0          0.4        119.9 
      1625.0          0.4         88.1 
      1626.0          0.4         59.3 
      1627.0          0.4         43.6 
      1628.0          0.4         32.9 
      1629.0          0.3         39.2 
      1630.0          0.4         43.3 
      1631.0          0.4         44.3 
      1632.0          0.4         43.8 
      1633.0          0.3         42.5 
      1634.0          0.3         41.0 
      1635.0          0.3         41.1 
      1636.0          0.3         39.7 
      1637.0          0.4         36.1 
      1638.0          0.4         31.2 
      1639.0          0.4         27.0 
      1640.0          0.4         24.0 
      1641.0          0.4         24.8 
      1642.0          0.5         22.0 
      1643.0          0.6         29.2 
      1644.0          0.3         30.4 
      1645.0          0.3         32.4 
      1646.0          0.3         32.6 
      1647.0          0.3         31.4 
      1648.0          0.3         33.6 
      1649.0          0.3         35.9 
      1650.0          0.2         35.0 
      1651.0          0.2         24.8 
      1652.0          1.9        112.0 
      1653.0          0.5        112.0 
      1654.0          0.3         80.9 
      1655.0          0.3         62.7 
      1656.0          0.2         53.0 
      1657.0          0.3         48.5 
      1658.0          0.3         44.4 
      1659.0          0.3         40.9 
      1660.0          0.3         37.9 
      1661.0          0.3         37.1 
      1662.0          0.3         35.8 
      1663.0          0.3         31.9 
      1664.0          0.3         33.5 
      1665.0          0.3         35.2 
      1666.0          0.2         36.1 
      1667.0          0.3         37.1 
      1668.0          0.2         36.9 
      1669.0          0.3         36.9 
      1670.0          0.3         36.6 
      1671.0          0.3         34.2 
      1672.0          0.3         31.3 
      1673.0          0.2         28.7 
      1674.0          0.2         24.1 
      1675.0          0.2         22.3 
      1676.0          0.2         20.5 
      1677.0          0.2         19.9 
      1678.0          0.2         21.7 
      1679.0          0.3         21.5 
      1680.0          0.2         16.6 
      1681.0          0.2          8.4 
      1682.0          1.5         87.3 
      1683.0          0.5        104.0 
      1684.0          0.6        100.0 
      1685.0          0.3         62.6 
      1686.0          0.2         47.9 
      1687.0          0.3         43.0 
      1688.0          0.3         37.7 
      1689.0          0.2         35.2 
      1690.0          0.4         38.3 
      1691.0          0.5         38.9 
      1692.0          0.3         36.6 
      1693.0          0.3         34.8 
      1694.0          0.3         34.0 
      1695.0          0.3         33.6 
      1696.0          0.3         33.1 
      1697.0          0.2         33.1 
      1698.0          0.2         33.5 
      1699.0          0.3         33.6 
      1700.0          0.2         32.9 
      1701.0          0.3         32.0 
      1702.0          0.2         30.9 
      1703.0          0.2         30.0 
      1704.0          0.2         26.9 
      1705.0          0.2         22.4 
      1706.0          0.2         21.0 
      1707.0          0.2         20.3 
      1708.0          0.2         20.1 
      1709.0          0.2         17.6 
      1710.0          0.2         17.1 
      1711.0          0.3         10.9 
      1712.0          2.0        103.7 
      1713.0          0.4        108.0 
      1714.0          0.4        100.5 
      1715.0          0.4         69.0 
      1716.0          0.4         46.0 
      1717.0          0.4         36.8 
      1718.0          0.3         34.0 
      1719.0          0.3         37.0 
      1720.0          0.3         40.5 
      1721.0          0.3         41.1 
      1722.0          0.2         40.3 
      1723.0          0.3         38.2 
      1724.0          0.3         33.9 
      1725.0          0.3         31.6 
      1726.0          0.3         31.3 
      1727.0          0.3         31.4 
      1728.0          0.3         32.2 
      1729.0          0.3         32.8 
      1730.0          0.3         32.8 
      1731.0          0.3         34.1 
      1732.0          0.2         35.3 
      1733.0          0.2         35.5 
      1734.0          0.3         34.6 
      1735.0          0.3         30.7 
      1736.0          0.2         28.9 
      1737.0          0.2         26.6 
      1738.0          0.2         25.9 
      1739.0          0.2         24.0 
      1740.0          0.2         20.6 
      1741.0          0.2         13.5 
      1742.0          1.9         95.4 
      1743.0          0.2        100.7 
      1744.0          0.4        100.4 
      1745.0          0.3         81.2 
      1746.0          0.4         56.4 
      1747.0          0.4         38.9 
      1748.0          0.4         33.7 
      1749.0          0.4         35.9 
      1750.0          0.4         37.5 
      1751.0          0.3         36.6 
      1752.0          0.4         31.3 
      1753.0          0.4         30.7 
      1754.0          0.4         31.1 
      1755.0          0.4         31.6 
      1756.0          0.4         31.7 
      1757.0          0.4         31.9 
