~Version Information
VERS.                      2.0: CWLS Log ASCII Standard - VERSION 2.0
WRAP.                       NO: One line per depth step
~Well Information Block
STRT.FT               770.0000: 
STOP.FT              1997.7000: 
STEP.FT                 0.1000: 
NULL.                -999.2500: 
COMP.          Pioneer Natural Resources: COMPANY
WELL.          Titan Federal 34-17: WELL
FLD.           Purgatoire River: FIELD
LOC.           321' FSL & 1911' FEL--: LOCATION
STAT.                 Colorado: State
CNTY.               Las Animas: COUNTY
CTRY. USA : Country
SECT. 17 : Section
TOWN. 32S : Township
RANG. 65W : Range
SRVC.                Patterson: SERVICE COMPANY
DATE.          Thu Oct 06 15:09:27 2005: LOG DATE
API.           05 071 08272 00: UNIQUE WELL ID
~Curve Information Block
DEPT.FT            0 000 00 00: Depth
DCAL.in                       : CDL Caliper
RHOB.g/cc                     : CDL Bulk Density
RHOC.g/cc                     : CDL Density Correction
DPOR.pu                       : CDL Density Porosity
NPOR.pu                       : Neutron Porosity
GR.GAPI                       : Gamma Ray
~Parameter Information Block
~A  Depth       DCAL        RHOB        RHOC        DPOR        NPOR         GR     
# ...
  1893.2000      7.8633      2.5238      0.0791      7.6488     16.4645     75.1988
  1893.3000      7.8614      2.5290      0.0612      7.3320     16.0969     66.7948
  1893.4000      7.8614      2.5300      0.0593      7.2736     15.5286     60.8700
  1893.5000      7.8612      2.5275      0.0685      7.4247     15.1545     63.9981
  1893.6000      7.8612      2.5166      0.0596      8.0876     15.1786     72.6846
  1893.7000      7.8612      2.5042      0.0186      8.8363     15.4575     79.0594
  1893.8000      7.8641      2.5065      0.0259      8.6990     15.8242     81.6458
  1893.9000      7.8641      2.5186      0.0386      7.9632     16.0620     84.8093
  1894.0000      7.8664      2.5200      0.0697      7.8765     16.0938     91.0219
  1894.1000      7.8664      2.5079      0.0315      8.6091     16.1013     96.0175
  1894.2000      7.8664      2.5021      0.0087      8.9618     16.1193     92.5356
  1894.3000      7.8668      2.5154      0.0242      8.1603     15.9896     81.8254
  1894.4000      7.8668      2.5389      0.0401      6.7311     15.8871     76.3578
  1894.5000      7.8668      2.5573      0.0582      5.6186     16.1045     77.6285
  1894.6000      7.8668      2.5633      0.0575      5.2531     16.4250     74.4953
  1894.7000      7.8668      2.5584      0.0855      5.5500     16.4448     70.5233
  1894.8000      7.8656      2.5492      0.0557      6.1073     16.1653     72.8352
  1894.9000      7.8656      2.5433      0.0615      6.4668     16.1762     74.3820
  1895.0000      7.8646      2.5389      0.0520      6.7318     16.6337     72.3265
  1895.1000      7.8646      2.5284      0.0528      7.3718     16.8264     72.5874
  1895.2000      7.8646      2.5116      0.0234      8.3862     16.4088     77.3240
  1895.3000      7.8649      2.5003      0.0183      9.0726     16.1614     85.1692
  1895.4000      7.8649      2.4969      0.0343      9.2800     16.4516     95.0210
  1895.5000      7.8642      2.4909      0.0508      9.6397     16.7063    102.1916
  1895.6000      7.8642      2.4789      0.0223     10.3696     16.7195    101.0013
  1895.7000      7.8642      2.4712      0.0123     10.8345     16.7801     92.1573
  1895.8000      7.8637      2.4799      0.0272     10.3106     17.0930     82.5408
  1895.9000      7.8637      2.4989      0.0394      9.1579     17.6214     80.5085
  1896.0000      7.8635      2.5128      0.0507      8.3126     17.9864     86.9420
  1896.1000      7.8635      2.5208      0.0422      7.8324     17.7296     93.1415
  1896.2000      7.8635      2.5294      0.0348      7.3105     17.1196     92.3653
  1896.3000      7.8633      2.5364      0.0495      6.8835     16.9606     85.8095
  1896.4000      7.8633      2.5353      0.0459      6.9495     17.1742     80.2523
  1896.5000      7.8633      2.5248      0.0612      7.5906     17.0196     80.6385
  1896.6000      7.8633      2.5053      0.0380      8.7708     16.4643     83.7947
  1896.7000      7.8633      2.4815      0.0170     10.2097     16.0605     83.4408
  1896.8000      7.8625      2.4677     -0.0159     11.0495     16.0454     80.5242
  1896.9000      7.8625      2.4733      0.0324     10.7078     16.2413     78.5043
  1897.0000      7.8623      2.4886      0.0447      9.7842     16.4784     79.7999
  1897.1000      7.8623      2.4992      0.0684      9.1395     16.5660     84.1947
  1897.2000      7.8623      2.5003      0.0371      9.0721     16.3111     86.9392
  1897.3000      7.8627      2.4913      0.0502      9.6208     15.8056     84.9800
  1897.4000      7.8627      2.4770      0.0171     10.4857     15.6577     81.6925
  1897.5000      7.8631      2.4748      0.0355     10.6173     16.1723     82.1357
  1897.6000      7.8631      2.4925      0.0334      9.5450     16.3771     86.8518
  1897.7000      7.8631      2.5090      0.0810      8.5468     15.7573     93.8474
  1897.8000      7.8640      2.5035      0.0579      8.8806     15.2288    100.0702
  1897.9000      7.8640      2.4886      0.0052      9.7840     15.1945    102.3034
  1898.0000      7.8652      2.4843      0.0482     10.0449     15.2131    102.9603
  1898.1000      7.8652      2.4849      0.0287     10.0075     15.0758    104.2483
  1898.2000      7.8652      2.4804      0.0478     10.2797     14.8433    103.1269
  1898.3000      7.8660      2.4773      0.0142     10.4684     14.7436     97.0747
  1898.4000      7.8660      2.4838      0.0378     10.0698     14.8697     89.8686
  1898.5000      7.8648      2.4973      0.0179      9.2541     15.3368     85.1750
  1898.6000      7.8648      2.5095      0.0356      8.5155     16.2833     79.6238
  1898.7000      7.8648      2.5117      0.0342      8.3810     17.3230     74.4152
  1898.8000      7.8632      2.5020      0.0330      8.9709     17.9329     77.5940
  1898.9000      7.8632      2.4847      0.0317     10.0161     17.9344     87.0395
  1899.0000      7.8637      2.4671      0.0417     11.0843     17.6517     87.6785
  1899.1000      7.8637      2.4613     -0.0140     11.4343     17.3926     75.6756
  1899.2000      7.8637      2.4720      0.0372     10.7899     17.1449     65.7884
  1899.3000      7.8632      2.4874      0.0169      9.8525     16.9714     67.3072
  1899.4000      7.8632      2.5038      0.0232      8.8597     16.8982     75.9503
  1899.5000      7.8620      2.5205      0.0587      7.8492     16.9576     85.4297
  1899.6000      7.8620      2.5244      0.0776      7.6145     17.3202     92.3444
  1899.7000      7.8620      2.5196      0.0256      7.9025     17.9162     92.9426
  1899.8000      7.8637      2.5305      0.0607      7.2402     18.4846     87.9713
  1899.9000      7.8637      2.5608      0.0746      5.4076     18.6046     83.9416
  1900.0000      7.8660      2.5849      0.1087      3.9464     18.2759     82.8087
  1900.1000      7.8660      2.5741      0.0941      4.5983     18.0412     84.0191
  1900.2000      7.8660      2.5301      0.0305      7.2643     17.9925     86.7632
  1900.3000      7.8664      2.4878     -0.0265      9.8321     17.7932     89.3748
  1900.4000      7.8664      2.4721     -0.0019     10.7798     17.5550     91.2356
  1900.5000      7.8653      2.4759      0.0212     10.5528     17.4749     91.9292
  1900.6000      7.8653      2.4871     -0.0277      9.8731     17.1975     90.6604
  1900.7000      7.8653      2.4982      0.0485      9.1971     16.5835     87.1400
  1900.8000      7.8634      2.5016      0.0371      8.9917     16.1629     80.3801
  1900.9000      7.8634      2.5016      0.0241      8.9917     16.1016     74.4895
  1901.0000      7.8612      2.4994      0.0697      9.1243     15.9072     76.4224
  1901.1000      7.8612      2.4935     -0.0024      9.4873     15.5892     82.5049
  1901.2000      7.8612      2.4929      0.0345      9.5225     15.7105     85.2641
  1901.3000      7.8608      2.4958      0.0564      9.3481     16.3463     83.5584
  1901.4000      7.8608      2.4963      0.0360      9.3122     17.0896     78.9902
  1901.5000      7.8618      2.5063     -0.0186      8.7119     17.6037     76.1983
  1901.6000      7.8618      2.5332      0.0595      7.0818     17.8515     79.4327
  1901.7000      7.8618      2.5588      0.1014      5.5281     17.6365     86.3744
  1901.8000      7.8618      2.5681      0.0670      4.9613     16.9100     89.5236
  1901.9000      7.8618      2.5650      0.0772      5.1536     16.2573     85.6489
  1902.0000      7.8613      2.5484      0.0658      6.1574     16.0914     78.4719
  1902.1000      7.8613      2.5162      0.0483      8.1083     16.2429     72.2459
  1902.2000      7.8613      2.4885     -0.0259      9.7870     16.4228     67.9480
  1902.3000      7.8627      2.4896      0.0079      9.7198     16.7127     65.4930
  1902.4000      7.8627      2.5052      0.0772      8.7779     17.1680     63.8874
  1902.5000      7.8657      2.5084      0.0450      8.5814     17.5551     63.5279
  1902.6000      7.8657      2.5065      0.0018      8.6963     17.6734     67.7962
  1902.7000      7.8657      2.5150      0.0408      8.1848     17.3942     76.1596
