~Version Information
VERS.                      2.0: CWLS Log ASCII Standard - VERSION 2.0
WRAP.                       NO: One line per depth step
~Well Information Block
STRT.FT               742.5000: 
STOP.FT              2463.5000: 
STEP.FT                 0.2500: 
NULL.                -999.2500: 
COMP.          Petrogulf Corporation: COMPANY
WELL.           Montoya 12-44V: WELL
FLD.           Purgatorie River: FIELD
LOC.           698' FSL & 599' FEL: LOCATION
CNTY.               Las Animas: COUNTY
SRVC.                         : SERVICE COMPANY
DATE.          Sun Aug 08 06:43:17 2004: LOG DATE
UWI.           05 071 08094 00: UNIQUE WELL ID
STAT.                 Colorado: STATE
~Curve Information Block
DEPT.FT            0 000 00 00: Depth
SN.Ohm-m                      : IEL Short Normal
SP.mV                         : IEL Spontaneous Potential
DIR.Ohm-m                     : IEL Induction Resistivity
GR.GAPI                       : Gamma Ray
~Parameter Information Block
~A  Depth        SN          SP         DIR          GR     
# ...
  1747.5000     10.5372    -91.3742      8.6601    132.4284
  1747.7500     10.9246    -89.6259      8.7409    131.2125
  1748.0000     11.2643    -88.1734      8.8836    128.1072
  1748.2500     11.4961    -87.1690      9.0821    126.1570
  1748.5000     11.5776    -86.6872      9.3175    124.5323
  1748.7500     11.5127    -86.7198      9.5573    124.2432
  1749.0000     11.3579    -87.1931      9.7572    124.1512
  1749.2500     11.1986    -87.9951      9.8784    123.9440
  1749.5000     11.1092    -89.0095      9.9125    123.1986
  1749.7500     11.1223    -90.1306      9.8963    122.4339
  1750.0000     11.2275    -91.2634      9.8971    121.2500
  1750.2500     11.3967    -92.3160      9.9813    120.6833
  1750.5000     11.6195    -93.1959     10.1901    119.8267
  1750.7500     11.9219    -93.8170     10.5295    118.6114
  1751.0000     12.3563    -94.1199     10.9732    115.1374
  1751.2500     12.9699    -94.0953     11.4728    111.9374
  1751.5000     13.7759    -93.8046     11.9781    106.5672
  1751.7500     14.7540    -93.3811     12.4648    102.8498
  1752.0000     15.8766    -93.0105     12.9555     97.3566
  1752.2500     17.1352    -92.8967     13.5165     94.1038
  1752.5000     18.5395    -93.2076     14.2265     90.5878
  1752.7500     20.0918    -94.0336     15.1378     89.3345
  1753.0000     21.7665    -95.3564     16.2449     88.7024
  1753.2500     23.5159    -97.0492     17.4718     88.7098
  1753.5000     25.2994    -98.9015     18.6932     88.9396
  1753.7500     27.1135   -100.6728     19.8107     89.1734
  1754.0000     29.0023   -102.1472     20.8519     89.4812
  1754.2500     31.0417   -103.1793     21.9961     89.5618
  1754.5000     33.3095   -103.7197     23.4690     89.8094
  1754.7500     35.8542   -103.8130     25.3679     90.4310
  1755.0000     38.6788   -103.5769     27.5084     92.0635
  1755.2500     41.7417   -103.1677     29.4194     93.0587
  1755.5000     44.9662   -102.7417     30.6159     93.3299
  1755.7500     48.2451   -102.4218     30.9909     92.4900
  1756.0000     51.4366   -102.2765     30.8694     89.8646
  1756.2500     54.3603   -102.3077     30.6955     87.2220
  1756.5000     56.8072   -102.4562     30.7586     81.8384
  1756.7500     58.5678   -102.6239     31.1195     77.6406
  1757.0000     59.4712   -102.6952     31.6434     72.0732
  1757.2500     59.4177   -102.5684     32.0742     69.9656
  1757.5000     58.3941   -102.1789     32.1459     70.0622
  1757.7500     56.4734   -101.5081     31.7076     71.9217
  1758.0000     53.8034   -100.5832     30.7810     75.9526
  1758.2500     50.5879    -99.4715     29.5155     78.7354
  1758.5000     47.0554    -98.2619     28.0854     82.6910
  1758.7500     43.4192    -97.0481     26.6194     85.4296
  1759.0000     39.8435    -95.9106     25.1933     90.0583
  1759.2500     36.4342    -94.9039     23.8535     93.2330
  1759.5000     33.2570    -94.0544     22.6267     97.0816
  1759.7500     30.3623    -93.3694     21.5069     98.6561
  1760.0000     27.7966    -92.8461     20.4506     99.8947
  1760.2500     25.5906    -92.4905     19.3993    100.4308
  1760.5000     23.7383    -92.3161     18.3081    100.9603
  1760.7500     22.1866    -92.3476     17.1647    100.8459
  1761.0000     20.8497    -92.5981     15.9915     99.7507
  1761.2500     19.6455    -93.0530     14.8440     98.6524
  1761.5000     18.5312    -93.6561     13.7992     96.9876
  1761.7500     17.5168    -94.3097     12.9312     96.0371
  1762.0000     16.6461    -94.8910     12.2872     95.1688
  1762.2500     15.9613    -95.2824     11.8778     95.2167
  1762.5000     15.4756    -95.4010     11.6822     96.3904
  1762.7500     15.1657    -95.2260     11.6606     97.8131
  1763.0000     14.9848    -94.8062     11.7659    100.8418
  1763.2500     14.8846    -94.2499     11.9535    103.4454
  1763.5000     14.8396    -93.6984     12.1910    107.5630
  1763.7500     14.8631    -93.2910     12.4646    109.5734
  1764.0000     15.0085    -93.1279     12.7769    110.0557
  1764.2500     15.3526    -93.2496     13.1353    108.4858
  1764.5000     15.9707    -93.6335     13.5367    104.2842
  1764.7500     16.9159    -94.2123     13.9594    101.2195
  1765.0000     18.2135    -94.9008     14.3721     97.4174
  1765.2500     19.8679    -95.6318     14.7605     95.3637
  1765.5000     21.8736    -96.3707     15.1577     91.7175
  1765.7500     24.2180    -97.1096     15.6563     88.0351
  1766.0000     26.8767    -97.8519     16.3916     80.2269
  1766.2500     29.8040    -98.5821     17.5068     74.1544
  1766.5000     32.9240    -99.2497     19.1105     65.6409
  1766.7500     36.1245    -99.7761     21.2260     61.2247
  1767.0000     39.2597   -100.0743     23.7511     56.9399
  1767.2500     42.1706   -100.0830     26.4913     55.4382
  1767.5000     44.7188    -99.7911     29.3098     54.3664
  1767.7500     46.8160    -99.2406     32.2679     53.7406
  1768.0000     48.4340    -98.5067     35.5563     51.9758
  1768.2500     49.5926    -97.6734     39.2194     50.2345
  1768.5000     50.3352    -96.7995     42.8694     47.4820
  1768.7500     50.7043    -95.9155     45.6442     45.8190
  1769.0000     50.7262    -95.0304     46.6123     43.3991
  1769.2500     50.4038    -94.1608     45.4025     41.7603
  1769.5000     49.7199    -93.3508     42.4153     39.6447
  1769.7500     48.6482    -92.6820     38.4829     38.6666
  1770.0000     47.1696    -92.2563     34.4205     37.7028
  1770.2500     45.2845    -92.1652     30.7647     37.3777
  1770.5000     43.0122    -92.4517     27.7089     38.2103
  1770.7500     40.3807    -93.0915     25.1804     40.4234
  1771.0000     37.4231    -93.9930     22.9879     46.8564
  1771.2500     34.1922    -95.0207     20.9665     52.8338
  1771.5000     30.7865    -96.0335     19.0589     62.8492
  1771.7500     27.3580    -96.9217     17.3004     69.4535
  1772.0000     24.0874    -97.6242     15.7513     78.9416
  1772.2500     21.1315    -98.1344     14.4409     85.3619
  1772.5000     18.5781    -98.4753     13.3485     95.6510
  1772.7500     16.4347    -98.6868     12.4155    102.6308
  1773.0000     14.6546    -98.7956     11.5733    111.8229
  1773.2500     13.1796    -98.8119     10.7749    116.3106
  1773.5000     11.9737    -98.7282     10.0127    120.2925
  1773.7500     11.0296    -98.5287      9.3111    121.6382
  1774.0000     10.3531    -98.1973      8.7031    123.2019
  1774.2500      9.9374    -97.7168      8.2126    124.7035
  1774.5000      9.7455    -97.0640      7.8478    128.0164
  1774.7500      9.7070    -96.2034      7.6030    130.4586
  1775.0000      9.7304    -95.0866      7.4619    132.9026
  1775.2500      9.7233    -93.6655      7.3984    132.9940
  1775.5000      9.6136    -91.9222      7.3775    131.0603
  1775.7500      9.3623    -89.8925      7.3611    129.3283
  1776.0000      8.9685    -87.6898      7.3181    127.6000
  1776.2500      8.4706    -85.4940      7.2371    127.2329
  1776.5000      7.9433    -83.5216      7.1309    127.2056
  1776.7500      7.4830    -81.9741      7.0276    127.0057
  1777.0000      7.1792    -80.9868      6.9550    125.8301
  1777.2500      7.0819    -80.5959      6.9291    124.5084
  1777.5000      7.1847    -80.7392      6.9513    122.6451
  1777.7500      7.4347    -81.2886      7.0143    122.2122
  1778.0000      7.7611    -82.0972      7.1102    123.2970
  1778.2500      8.1044    -83.0491      7.2353    124.7933
  1778.5000      8.4305    -84.0850      7.3850    127.0037
  1778.7500      8.7281    -85.1979      7.5460    128.0087
  1779.0000      8.9953    -86.4066      7.6938    128.8383
  1779.2500      9.2261    -87.7198      7.8020    129.0802
  1779.5000      9.4070    -89.1079      7.8583    128.8282
  1779.7500      9.5237    -90.4913      7.8747    128.0962
  1780.0000      9.5754    -91.7493      7.8845    126.5624
  1780.2500      9.5824    -92.7469      7.9296    126.0346
  1780.5000      9.5829    -93.3684      8.0461    127.5644
  1780.7500      9.6199    -93.5528      8.2512    130.5549
