~Version Information
VERS.                      2.0: CWLS Log ASCII Standard - VERSION 2.0
WRAP.                       NO: One line per depth step
~Well Information Block
STRT.FT               185.5000: 
STOP.FT              2039.2500: 
STEP.FT                 0.2500: 
NULL.                -999.2500: 
COMP.          Petrogulf Corporation: COMPANY
WELL.            Montoya 7-12R: WELL
FLD.           Purgatorie River: FIELD
LOC.           1769' FNL & 658' FWL--: LOCATION
PROV.                       CO: PROVINCE
CNTY.               Las Animas: COUNTRY
SRVC.                         : SERVICE COMPANY
DATE.          Wed Feb 09 09:05:42 2005: LOG DATE
UWI.         005 071 08240  : UNIQUE WELL ID
~Curve Information Block
DEPT.FT            0 000 00 00: Depth
CCL.                          : Casing Collar Locator
CCLRT.                        : CCLRT
TT3.usec                      : CBL 3' Travel Time
AMP3.mV                       : CBL 3' Amplitude
GR.GAPI                       : Gamma Ray
~Parameter Information Block
~A  Depth       CCL        CCLRT        TT3         AMP3         GR     
# ...
  1165.5000      0.0000   -999.2500    609.6121      4.8264    127.3792
  1165.7500      0.0000   -999.2500    592.3276      4.5399    125.2514
  1166.0000      0.0000   -999.2500    578.7387      4.3133    124.5900
  1166.2500      0.0000   -999.2500    571.3605      4.1389    125.2448
  1166.5000      0.0000   -999.2500    571.1396      4.0311    126.7223
  1166.7500      0.0000   -999.2500    579.0448      4.0058    128.9258
  1167.0000      0.0000   -999.2500    596.5522      4.0647    132.6028
  1167.2500      0.0000   -999.2500    623.5860      4.1937    138.3414
  1167.5000      0.0000   -999.2500    656.3703      4.3697    144.9300
  1167.7500      0.0000   -999.2500    688.2726      4.5693    149.6171
  1168.0000      0.0000   -999.2500    713.0795      4.7731    150.7761
  1168.2500      0.0000   -999.2500    727.2940      4.9642    149.8463
  1168.5000      0.0000   -999.2500    730.3458      5.1245    149.8070
  1168.7500      0.0000   -999.2500    724.5801      5.2403    151.7278
  1169.0000      0.0000   -999.2500    715.0248      5.3150    153.4692
  1169.2500      0.0000   -999.2500    707.0200      5.3751    151.9790
  1169.5000      0.0000   -999.2500    702.7269      5.4521    146.3941
  1169.7500      0.0000   -999.2500    700.2869      5.5486    138.6411
  1170.0000      0.0000   -999.2500    696.7881      5.6268    131.4664
  1170.2500      0.0000   -999.2500    691.7222      5.6428    126.4606
  1170.5000      0.0000   -999.2500    687.3906      5.5873    123.8541
  1170.7500      0.0000   -999.2500    686.4343      5.4858    123.4152
  1171.0000      0.0000   -999.2500    689.4143      5.3645    124.9166
  1171.2500      0.0000   -999.2500    694.3962      5.2315    127.9247
  1171.5000      0.0000   -999.2500    698.3597      5.0897    131.5470
  1171.7500      0.0000   -999.2500    699.1959      4.9525    134.6270
  1172.0000      0.0000   -999.2500    697.0573      4.8386    136.2343
  1172.2500      0.0000   -999.2500    694.2786      4.7610    135.9304
  1172.5000      0.0000   -999.2500    693.8553      4.7261    133.6480
  1172.7500      0.0000   -999.2500    697.2985      4.7361    129.4369
  1173.0000      0.0000   -999.2500    703.4513      4.7860    123.4922
  1173.2500      0.0000   -999.2500    709.2462      4.8626    116.4960
  1173.5000      0.0000   -999.2500    711.6714      4.9487    109.7967
  1173.7500      0.0000   -999.2500    709.4204      5.0296    105.2036
  1174.0000      0.0000   -999.2500    703.4490      5.0974    104.3614
  1174.2500      0.0000   -999.2500    696.1925      5.1531    107.7159
  1174.5000      0.0000   -999.2500    689.8113      5.2080    113.8901
  1174.7500      0.0000   -999.2500    684.9539      5.2791    120.4517
  1175.0000      0.0000   -999.2500    681.2533      5.3721    125.4731
  1175.2500      0.0000   -999.2500    678.6740      5.4647    128.3148
  1175.5000      0.0000   -999.2500    678.1241      5.5198    129.2358
  1175.7500      0.0000   -999.2500    680.7780      5.5202    128.9776
  1176.0000      0.0000   -999.2500    686.6423      5.4804    128.8822
  1176.2500      0.0000   -999.2500    693.7888      5.4162    130.5037
  1176.5000      0.0000   -999.2500    699.4925      5.3155    134.3230
  1176.7500      0.0000   -999.2500    702.4088      5.1552    139.2376
  1177.0000      0.0000   -999.2500    703.3777      4.9427    143.8076
  1177.2500      0.0000   -999.2500    704.0172      4.7285    147.4057
  1177.5000      0.0000   -999.2500    705.1860      4.5781    149.6666
  1177.7500      0.0000   -999.2500    707.0941      4.5333    149.7428
  1178.0000      0.0000   -999.2500    710.0129      4.5957    147.1301
  1178.2500      0.0000   -999.2500    713.8486      4.7412    142.7587
  1178.5000      0.0000   -999.2500    717.1650      4.9405    138.3885
  1178.7500      0.0000   -999.2500    717.5400      5.1624    135.2394
  1179.0000      0.0000   -999.2500    713.4629      5.3641    133.7588
  1179.2500      0.0000   -999.2500    705.9636      5.4966    134.0098
  1179.5000      0.0000   -999.2500    698.3344      5.5296    135.1484
  1179.7500      0.0000   -999.2500    693.9936      5.4724    134.7360
  1180.0000      0.0000   -999.2500    694.1350      5.3717    130.0333
  1180.2500      0.0000   -999.2500    697.1519      5.2873    120.6411
  1180.5000      0.0000   -999.2500    700.2291      5.2616    109.0962
  1180.7500      0.0000   -999.2500    701.4128      5.2988     98.4354
  1181.0000      0.0000   -999.2500    700.3382      5.3680     89.8702
  1181.2500      0.0000   -999.2500    697.5920      5.4249     83.0920
  1181.5000      0.0000   -999.2500    693.8920      5.4338     77.8390
  1181.7500      0.0000   -999.2500    689.7578      5.3796     74.4010
  1182.0000      0.0000   -999.2500    685.5283      5.2682     73.0104
  1182.2500      0.0000   -999.2500    681.4545      5.1190     73.3401
  1182.5000      0.0000   -999.2500    677.7549      4.9518     74.5592
  1182.7500      0.0000   -999.2500    674.5995      4.7786     75.5132
  1183.0000      0.0000   -999.2500    672.0520      4.6103     74.8854
  1183.2500      0.0000   -999.2500    670.0753      4.4698     71.7807
  1183.5000      0.0000   -999.2500    668.5981      4.3926     66.6061
  1183.7500      0.0000   -999.2500    667.5643      4.4074     61.0852
  1184.0000      0.0000   -999.2500    666.9284      4.5179     57.0833
  1184.2500      0.0000   -999.2500    666.6286      4.6976     55.6191
  1184.5000      0.0000   -999.2500    666.5739      4.8959     56.8868
  1184.7500      0.0000   -999.2500    666.6697      5.0551     60.4627
  1185.0000      0.0000   -999.2500    666.8574      5.1355     65.0333
  1185.2500      0.0000   -999.2500    667.1196      5.1372     68.3809
  1185.5000      0.0000   -999.2500    667.4467      5.0965     68.4858
  1185.7500      0.0000   -999.2500    667.8234      5.0528     65.0949
  1186.0000      0.0000   -999.2500    668.2596      5.0179     59.9565
  1186.2500      0.0000   -999.2500    668.8154      4.9827     55.2629
  1186.5000      0.0000   -999.2500    669.6249      4.9515     52.1098
  1186.7500      0.0000   -999.2500    670.9985      4.9554     50.5925
  1187.0000      0.0000   -999.2500    673.6690      5.0281     50.9956
  1187.2500      0.0000   -999.2500    678.9628      5.1741     54.3879
  1187.5000      0.0000   -999.2500    688.4547      5.3661     61.5957
  1187.7500      0.0000   -999.2500    702.8688      5.5721     71.4328
  1188.0000      0.0000   -999.2500    720.6953      5.7838     80.5870
  1188.2500      0.0000   -999.2500    737.6501      6.0135     86.0375
  1188.5000      0.0000   -999.2500    748.0738      6.2583     87.4456
  1188.7500      0.0000   -999.2500    748.1433      6.4739     86.7633
  1189.0000      0.0000   -999.2500    738.6583      6.5978     85.9190
  1189.2500      0.0000   -999.2500    724.5719      6.5994     85.3202
  1189.5000      0.0000   -999.2500    711.4367      6.5016     84.0381
  1189.7500      0.0000   -999.2500    702.3121      6.3560     80.9470
  1190.0000      0.0000   -999.2500    697.6846      6.2086     76.0439
  1190.2500      0.0000   -999.2500    697.1853      6.0888     70.8466
  1190.5000      0.0000   -999.2500    700.4337      6.0144     67.1002
  1190.7500      0.0000   -999.2500    706.2677      5.9929     65.1285
  1191.0000      0.0000   -999.2500    711.9981      6.0126     63.8186
  1191.2500      0.0000   -999.2500    714.4566      6.0388     62.0113
  1191.5000      0.0000   -999.2500    712.2567      6.0315     59.3967
  1191.7500      0.0000   -999.2500    706.6987      5.9764     56.2582
  1192.0000      0.0000   -999.2500    700.2596      5.8938     53.0707
  1192.2500      0.0000   -999.2500    694.5664      5.8138     50.5250
  1192.5000      0.0000   -999.2500    689.8723      5.7450     49.4286
  1192.7500      0.0000   -999.2500    685.8214      5.6693     50.1757
  1193.0000      0.0000   -999.2500    682.2062      5.5525     52.4350
  1193.2500      0.0000   -999.2500    679.1253      5.3514     55.4651
