~Version Information
VERS.                      2.0: CWLS Log ASCII Standard - VERSION 2.0
WRAP.                       NO: One line per depth step
~Well Information Block
STRT.FT                -7.0000: 
STOP.FT               867.2500: 
STEP.FT                 0.2500: 
NULL.                -999.2500: 
COMP.          Pioneer Natural Resources: COMPANY
WELL.          Claim Jumper 41-22: WELL
FLD.           Purgatorie River: FIELD
LOC.           1120' FNL & 977' FEL--: LOCATION
PROV.                       CO: PROVINCE
CNTY.               Las Animas: COUNTRY
SRVC.          Patterson Wireline: SERVICE COMPANY
DATE.          Mon Jun 27 12:47:30 2005: LOG DATE
UWI.           05 071 08405 00: UNIQUE WELL ID
~Curve Information Block
DEPT.FT            0 000 00 00: Depth
CCL.                          : Casing Collar Locator
TT3.usec                      : CBL 3' Travel Time
AMP3.mV                       : CBL 3' Amplitude
GR.GAPI                       : Gamma Ray
~Parameter Information Block
~A  Depth       CCL         TT3         AMP3         GR     
# ...
   596.0000      0.0000    830.3098      7.0729     64.5364
   596.2500      0.0000    826.5166      7.0901     62.8235
   596.5000      0.0000    825.4576      7.0861     62.0308
   596.7500      0.0000    823.4487      7.0572     61.6518
   597.0000      0.0000    818.5429      7.0243     60.7336
   597.2500      0.0000    811.8503      7.0190     58.3403
   597.5000      0.0000    806.6957      7.0519     54.5841
   597.7500      0.0000    805.9994      7.0959     50.8296
   598.0000      0.0000    810.1414      7.1096     48.6348
   598.2500      0.0000    817.1325      7.0718     48.5208
   598.5000      0.0000    824.2718      6.9905     49.7959
   598.7500      0.0000    829.3801      6.8866     51.4150
   599.0000      0.0000    831.4688      6.7832     52.8366
   599.2500      0.0000    831.4347      6.7052     54.1476
   599.5000      0.0000    831.3238      6.6746     55.6605
   599.7500      0.0000    831.4529      6.7027     57.5469
   600.0000      0.0000    828.9782      6.7873     59.7465
   600.2500      0.0000    821.1186      6.9101     61.8444
   600.5000      0.0000    809.5610      7.0343     62.7807
   600.7500      0.0000    800.2087      7.1143     61.1162
   601.0000      0.0000    798.3445      7.1234     56.2486
   601.2500      0.0000    804.5219      7.0715     49.3526
   601.5000      0.0000    814.8342      6.9875     42.7472
   601.7500      0.0000    824.2712      6.8894     38.3143
   602.0000      0.0000    829.7892      6.7828     36.5733
   602.2500      0.0000    831.3629      6.6809     36.9584
   602.5000      0.0000    831.0425      6.6073     38.5925
   602.7500      0.0000    830.9028      6.5735     40.7432
   603.0000      0.0000    831.4326      6.5659     42.8473
   603.2500      0.0000    831.8058      6.5592     44.4579
   603.5000      0.0000    831.4235      6.5389     45.3449
   603.7500      0.0000    830.5935      6.5151     45.5622
   604.0000      0.0000    829.6133      6.5147     45.2738
   604.2500      0.0000    828.0198      6.5568     44.5958
   604.5000      0.0000    825.2994      6.6347     43.7582
   604.7500      0.0000    821.7832      6.7274     43.2267
   605.0000      0.0000    818.2870      6.8306     43.3214
   605.2500      0.0000    815.1845      6.9650     43.8171
   605.5000      0.0000    812.3826      7.1502     44.3021
   605.7500      0.0000    810.1909      7.3754     44.9021
   606.0000      0.0000    809.5461      7.6045     46.3662
   606.2500      0.0000    810.6800      7.8084     49.4584
   606.5000      0.0000    811.8439      7.9866     54.2817
   606.7500      0.0000    810.7372      8.1568     59.8098
   607.0000      0.0000    807.4280      8.3268     63.9986
   607.2500      0.0000    804.4075      8.4807     65.0539
   607.5000      0.0000    803.2191      8.5930     63.1360
   607.7500      0.0000    802.1223      8.6522     60.4760
   608.0000      0.0000    797.7437      8.6656     59.3677
   608.2500      0.0000    788.7880      8.6427     60.3009
   608.5000      0.0000    777.8936      8.5862     62.2841
   608.7500      0.0000    769.8420      8.5017     64.3874
   609.0000      0.0000    768.1671      8.4028     66.4011
   609.2500      0.0000    773.2440      8.2944     68.3232
   609.5000      0.0000    782.5601      8.1576     69.9613
   609.7500      0.0000    792.2257      7.9696     71.3086
   610.0000      0.0000    798.9243      7.7360     72.9347
   610.2500      0.0000    801.2971      7.4954     75.4313
   610.5000      0.0000    799.8535      7.2920     78.4857
   610.7500      0.0000    796.0977      7.1485     80.9166
   611.0000      0.0000    791.7251      7.0580     81.6405
   611.2500      0.0000    787.8088      6.9964     80.3745
   611.5000      0.0000    784.3442      6.9472     77.6576
   611.7500      0.0000    780.9112      6.9138     74.4776
   612.0000      0.0000    777.9222      6.9015     71.7251
   612.2500      0.0000    777.1122      6.8955     69.9148
   612.5000      0.0000    780.5529      6.8691     69.2994
   612.7500      0.0000    788.7039      6.8102     69.7912
   613.0000      0.0000    799.4101      6.7292     70.6644
   613.2500      0.0000    809.2686      6.6432     70.8703
   613.5000      0.0000    816.0430      6.5634     69.9903
   613.7500      0.0000    819.6028      6.4920     68.6612
   614.0000      0.0000    820.9479      6.4248     67.8195
   614.2500      0.0000    820.8900      6.3561     67.6077
   614.5000      0.0000    819.6390      6.2831     67.2648
   614.7500      0.0000    817.3504      6.2053     66.1240
   615.0000      0.0000    814.8337      6.1199     64.4693
   615.2500      0.0000    813.3667      6.0204     63.1780
   615.5000      0.0000    813.5281      5.9046     62.6267
   615.7500      0.0000    814.3690      5.7827     62.2412
   616.0000      0.0000    814.0174      5.6756     61.2119
   616.2500      0.0000    811.0026      5.6032     59.3952
   616.5000      0.0000    805.0522      5.5729     57.2916
   616.7500      0.0000    797.1926      5.5767     55.3211
   617.0000      0.0000    789.6232      5.5948     53.3980
   617.2500      0.0000    785.1924      5.6049     51.1878
   617.5000      0.0000    785.9405      5.5987     48.5553
   617.7500      0.0000    791.3112      5.5960     45.7282
   618.0000      0.0000    797.9064      5.6365     43.1727
   618.2500      0.0000    801.4683      5.7453     41.4405
   618.5000      0.0000    799.4542      5.9036     41.0059
   618.7500      0.0000    792.2800      6.0560     41.9752
   619.0000      0.0000    783.0846      6.1493     43.9063
   619.2500      0.0000    776.5560      6.1687     46.1061
   619.5000      0.0000    776.6671      6.1435     48.0954
   619.7500      0.0000    784.0099      6.1240     49.6591
   620.0000      0.0000    795.2810      6.1446     50.5635
   620.2500      0.0000    805.9234      6.2048     50.5004
   620.5000      0.0000    813.3088      6.2781     49.5156
   620.7500      0.0000    817.4922      6.3378     48.4416
   621.0000      0.0000    819.7970      6.3727     48.4154
   621.2500      0.0000    821.3712      6.3878     49.5595
   621.5000      0.0000    822.8004      6.3984     50.4559
   621.7500      0.0000    824.2211      6.4213     49.5051
   622.0000      0.0000    825.1616      6.4630     46.7383
   622.2500      0.0000    824.4790      6.5122     43.8801
   622.5000      0.0000    821.5441      6.5454     42.6049
   622.7500      0.0000    818.1093      6.5437     43.0472
   623.0000      0.0000    817.7934      6.5086     43.9619
   623.2500      0.0000    822.1901      6.4655     43.9098
   623.5000      0.0000    827.8420      6.4522     42.1449
   623.7500      0.0000    828.1598      6.4967     38.8580
   624.0000      0.0000    818.4728      6.5969     35.0485
   624.2500      0.0000    799.7094      6.7154     32.0322
   624.5000      0.0000    778.6346      6.8029     30.7320
   624.7500      0.0000    764.6225      6.8322     31.2624
   625.0000      0.0000    764.2914      6.7998     32.9784
   625.2500      0.0000    777.5580      6.6916     34.8591
   625.5000      0.0000    798.3831      6.4810     36.1186
   625.7500      0.0000    819.4025      6.1846     36.6188
   626.0000      0.0000    836.1556      5.8870     36.6329
   626.2500      0.0000    847.7090      5.6816     36.3852
   626.5000      0.0000    854.5875      5.6012     36.0236
   626.7500      0.0000    857.0921      5.6185     35.8960
   627.0000      0.0000    855.3460      5.6964     36.6489
   627.2500      0.0000    850.1283      5.8351     38.9887
   627.5000      0.0000    842.9907      6.0823     43.1908
   627.7500      0.0000    835.3177      6.4842     48.7978
   628.0000      0.0000    827.6188      6.9975     54.9664
   628.2500      0.0000    820.0797      7.4711     61.0940
   628.5000      0.0000    813.0547      7.7585     66.8471
   628.7500      0.0000    806.2041      7.8387     71.6648
   629.0000      0.0000    798.0820      7.7939     74.7807
   629.2500      0.0000    788.0563      7.6989     75.9319
