~Version Information
VERS.                      2.0: CWLS Log ASCII Standard - VERSION 2.0
WRAP.                       NO: One line per depth step
~Well Information Block
STRT.FT                -7.0500: 
STOP.FT              3072.6000: 
STEP.FT                 0.0500: 
NULL.                -999.2500: 
COMP.          Pioneer Natural Resources: COMPANY
WELL.              Stones 24-8: WELL
FLD.           Purgatoire River: FIELD
LOC.           648' FSL & 2264' FWL--: LOCATION
PROV.                 Colorado: PROVINCE
CNTY.               Las Animas: COUNTRY
SRVC.                Patterson: SERVICE COMPANY
DATE.          Fri Feb 04 12:43:19 2005: LOG DATE
UWI.           05 071 07945 00: UNIQUE WELL ID
~Curve Information Block
DEPT.FT            0 000 00 00: Depth
CCL.                          : Casing Collar Locator
TT3.usec                      : CBL 3' Travel Time
AMP3.mV                       : CBL 3' Amplitude
GR.GAPI                       : Gamma Ray
~Parameter Information Block
~A  Depth       CCL         TT3         AMP3         GR     
# ...
   817.0500      0.0000    846.4062      1.9425     54.4594
   817.1000      0.0000    846.4062      1.9425     54.4594
   817.1500      0.0000    846.4062      1.9425     54.4594
   817.2000      0.0000    846.4062      1.9425     54.4594
   817.2500      0.0000    872.2020      1.9870     52.7358
   817.3000      0.0000    872.2020      1.9870     52.7358
   817.3500      0.0000    872.2020      1.9870     52.7358
   817.4000      0.0000    872.2020      1.9870     52.7358
   817.4500      0.0000    872.2020      1.9870     52.7358
   817.5000      0.0000    890.4579      2.0417     50.4315
   817.5500      0.0000    890.4579      2.0417     50.4315
   817.6000      0.0000    890.4579      2.0417     50.4315
   817.6500      0.0000    890.4579      2.0417     50.4315
   817.7000      0.0000    890.4579      2.0417     50.4315
   817.7500      0.0000    898.2374      2.1118     48.2186
   817.8000      0.0000    898.2374      2.1118     48.2186
   817.8500      0.0000    898.2374      2.1118     48.2186
   817.9000      0.0000    898.2374      2.1118     48.2186
   817.9500      0.0000    898.2374      2.1118     48.2186
   818.0000      0.0000    895.6193      2.1923     46.7889
   818.0500      0.0000    895.6193      2.1923     46.7889
   818.1000      0.0000    895.6193      2.1923     46.7889
   818.1500      0.0000    895.6193      2.1923     46.7889
   818.2000      0.0000    895.6193      2.1923     46.7889
   818.2500      0.0000    882.2638      2.2670     46.5177
   818.3000      0.0000    882.2638      2.2670     46.5177
   818.3500      0.0000    882.2638      2.2670     46.5177
   818.4000      0.0000    882.2638      2.2670     46.5177
   818.4500      0.0000    882.2638      2.2670     46.5177
   818.5000      0.0000    856.8273      2.3194     47.3879
   818.5500      0.0000    856.8273      2.3194     47.3879
   818.6000      0.0000    856.8273      2.3194     47.3879
   818.6500      0.0000    856.8273      2.3194     47.3879
   818.7000      0.0000    856.8273      2.3194     47.3879
   818.7500      0.0000    821.4833      2.3430     49.2322
   818.8000      0.0000    821.4833      2.3430     49.2322
   818.8500      0.0000    821.4833      2.3430     49.2322
   818.9000      0.0000    821.4833      2.3430     49.2322
   818.9500      0.0000    821.4833      2.3430     49.2322
   819.0000      0.0000    785.1064      2.3439     51.9775
   819.0500      0.0000    785.1064      2.3439     51.9775
   819.1000      0.0000    785.1064      2.3439     51.9775
   819.1500      0.0000    785.1064      2.3439     51.9775
   819.2000      0.0000    785.1064      2.3439     51.9775
   819.2500      0.0000    760.2737      2.3338     55.6495
   819.3000      0.0000    760.2737      2.3338     55.6495
   819.3500      0.0000    760.2737      2.3338     55.6495
   819.4000      0.0000    760.2737      2.3338     55.6495
   819.4500      0.0000    760.2737      2.3338     55.6495
   819.5000      0.0000    758.0490      2.3211     60.1924
   819.5500      0.0000    758.0490      2.3211     60.1924
   819.6000      0.0000    758.0490      2.3211     60.1924
   819.6500      0.0000    758.0490      2.3211     60.1924
   819.7000      0.0000    758.0490      2.3211     60.1924
   819.7500      0.0000    783.8579      2.3072     65.3981
   819.8000      0.0000    783.8579      2.3072     65.3981
   819.8500      0.0000    783.8579      2.3072     65.3981
   819.9000      0.0000    783.8579      2.3072     65.3981
   819.9500      0.0000    783.8579      2.3072     65.3981
   820.0000      0.0000    833.0114      2.2906     71.0134
   820.0500      0.0000    833.0114      2.2906     71.0134
   820.1000      0.0000    833.0114      2.2906     71.0134
   820.1500      0.0000    833.0114      2.2906     71.0134
   820.2000      0.0000    833.0114      2.2906     71.0134
   820.2500      0.0000    888.1578      2.2717     76.7216
   820.3000      0.0000    888.1578      2.2717     76.7216
   820.3500      0.0000    888.1578      2.2717     76.7216
   820.4000      0.0000    888.1578      2.2717     76.7216
   820.4500      0.0000    888.1578      2.2717     76.7216
   820.5000      0.0000    925.4397      2.2533     81.8303
   820.5500      0.0000    925.4397      2.2533     81.8303
   820.6000      0.0000    925.4397      2.2533     81.8303
   820.6500      0.0000    925.4397      2.2533     81.8303
   820.7000      0.0000    925.4397      2.2533     81.8303
   820.7500      0.0000    928.1414      2.2369     85.0854
   820.8000      0.0000    928.1414      2.2369     85.0854
   820.8500      0.0000    928.1414      2.2369     85.0854
   820.9000      0.0000    928.1414      2.2369     85.0854
   820.9500      0.0000    928.1414      2.2369     85.0854
   821.0000      0.0000    896.9045      2.2209     85.0997
   821.0500      0.0000    896.9045      2.2209     85.0997
   821.1000      0.0000    896.9045      2.2209     85.0997
   821.1500      0.0000    896.9045      2.2209     85.0997
   821.2000      0.0000    896.9045      2.2209     85.0997
   821.2500      0.0000    847.8560      2.2024     81.2628
   821.3000      0.0000    847.8560      2.2024     81.2628
   821.3500      0.0000    847.8560      2.2024     81.2628
   821.4000      0.0000    847.8560      2.2024     81.2628
   821.4500      0.0000    847.8560      2.2024     81.2628
   821.5000      0.0000    800.9361      2.1801     74.5096
   821.5500      0.0000    800.9361      2.1801     74.5096
   821.6000      0.0000    800.9361      2.1801     74.5096
   821.6500      0.0000    800.9361      2.1801     74.5096
   821.7000      0.0000    800.9361      2.1801     74.5096
   821.7500      0.0000    768.5429      2.1558     67.4071
   821.8000      0.0000    768.5429      2.1558     67.4071
   821.8500      0.0000    768.5429      2.1558     67.4071
   821.9000      0.0000    768.5429      2.1558     67.4071
   821.9500      0.0000    768.5429      2.1558     67.4071
   822.0000      0.0000    752.9789      2.1348     63.0505
   822.0500      0.0000    752.9789      2.1348     63.0505
   822.1000      0.0000    752.9789      2.1348     63.0505
   822.1500      0.0000    752.9789      2.1348     63.0505
   822.2000      0.0000    752.9789      2.1348     63.0505
   822.2500      0.0000    752.0218      2.1232     62.7900
   822.3000      0.0000    752.0218      2.1232     62.7900
   822.3500      0.0000    752.0218      2.1232     62.7900
   822.4000      0.0000    752.0218      2.1232     62.7900
   822.4500      0.0000    752.0218      2.1232     62.7900
   822.5000      0.0000    764.7028      2.1247     64.7335
   822.5500      0.0000    764.7028      2.1247     64.7335
   822.6000      0.0000    764.7028      2.1247     64.7335
   822.6500      0.0000    764.7028      2.1247     64.7335
   822.7000      0.0000    764.7028      2.1247     64.7335
   822.7500      0.0000    790.8334      2.1385     65.4675
   822.8000      0.0000    790.8334      2.1385     65.4675
   822.8500      0.0000    790.8334      2.1385     65.4675
   822.9000      0.0000    790.8334      2.1385     65.4675
   822.9500      0.0000    790.8334      2.1385     65.4675
   823.0000      0.0000    825.0416      2.1605     63.5923
   823.0500      0.0000    825.0416      2.1605     63.5923
   823.1000      0.0000    825.0416      2.1605     63.5923
   823.1500      0.0000    825.0416      2.1605     63.5923
   823.2000      0.0000    825.0416      2.1605     63.5923
   823.2500      0.0000    853.2700      2.1859     60.6293
   823.3000      0.0000    853.2700      2.1859     60.6293
   823.3500      0.0000    853.2700      2.1859     60.6293
   823.4000      0.0000    853.2700      2.1859     60.6293
   823.4500      0.0000    853.2700      2.1859     60.6293
   823.5000      0.0000    859.1169      2.2121     58.4216
   823.5500      0.0000    859.1169      2.2121     58.4216
   823.6000      0.0000    859.1169      2.2121     58.4216
   823.6500      0.0000    859.1169      2.2121     58.4216
   823.7000      0.0000    859.1169      2.2121     58.4216
