~Version Information
VERS.                      2.0: CWLS Log ASCII Standard - VERSION 2.0
WRAP.                       NO: One line per depth step
~Well Information Block
STRT.FT               340.0000: 
STOP.FT              1731.0000: 
STEP.FT                 0.1000: 
NULL.                -999.2500: 
COMP.          Pioneer Natural Resources: COMPANY
WELL.          Rancher 12-35 Tr: WELL
FLD.           Purgatoire River: FIELD
LOC.           2242' FNL & 308' FWL SWNW 35 32S 67W: LOCATION
PROV.                 Colorado: PROVINCE
CNTY.               Las Animas: COUNTRY
SRVC.                Patterson: SERVICE COMPANY
DATE.          Tue Jul 05 07:18:22 2005: LOG DATE
UWI.              05 071 08430 00: UNIQUE WELL ID
~Curve Information Block
DEPT.FT            0 000 00 00: Depth
DCAL.in                       : CDL Caliper
RHOB.g/cc                     : CDL Bulk Density
RHOC.g/cc                     : CDL Density Correction
DPOR.pu                       : CDL Density Porosity
GR.GAPI                       : Gamma Ray
NPOR.pu                       : Neutron Porosity
~Parameter Information Block
~A  Depth       DCAL        RHOB        RHOC        DPOR         GR         NPOR    
# ...
  1069.6000      8.1245      2.5268     -0.0209      7.4670    145.0214     29.6539
  1069.7000      8.1245      2.5376      0.0058      6.8107    150.6321     29.4245
  1069.8000      8.1119      2.5444      0.0416      6.3995    151.2163     28.3566
  1069.9000      8.1119      2.5376      0.0429      6.8109    147.4476     27.3027
  1070.0000      8.0851      2.5206      0.0196      7.8429    142.3699     27.2818
  1070.1000      8.0851      2.5026      0.0366      8.9329    142.4606     27.9309
  1070.2000      8.0851      2.4956     -0.0029      9.3590    148.6952     28.1082
  1070.3000      8.0454      2.4984      0.0258      9.1887    153.3640     27.7393
  1070.4000      8.0454      2.5005      0.0036      9.0616    150.0049     27.5015
  1070.5000      8.0452      2.5056      0.0281      8.7545    141.3994     27.9329
  1070.6000      8.0452      2.5157      0.0351      8.1395    137.3445     28.9697
  1070.7000      8.0452      2.5225      0.0282      7.7253    138.9042     29.7309
  1070.8000      8.0501      2.5275      0.0684      7.4269    138.4124     29.6497
  1070.9000      8.0501      2.5392      0.0075      6.7161    134.8250     29.1892
  1071.0000      8.0686      2.5617      0.0244      5.3544    133.5962     28.7166
  1071.1000      8.0686      2.5909      0.0210      3.5801    136.4079     28.1100
  1071.2000      8.0686      2.6136      0.1045      2.2074    137.1848     27.4512
  1071.3000      8.0517      2.6139      0.0680      2.1858    132.2625     27.1493
  1071.4000      8.0517      2.5924      0.0800      3.4923    128.4209     27.3648
  1071.5000      8.0527      2.5654      0.0166      5.1293    132.8215     27.6056
  1071.6000      8.0527      2.5441      0.0563      6.4207    140.7724     27.7747
  1071.7000      8.0527      2.5223      0.0733      7.7421    142.2724     28.3577
  1071.8000      8.0325      2.5022      0.0332      8.9557    138.4928     29.3244
  1071.9000      8.0325      2.4928      0.0864      9.5249    135.9107     30.1463
  1072.0000      8.0268      2.4853      0.0482      9.9830    135.0452     30.4748
  1072.1000      8.0268      2.4769      0.0477     10.4896    135.4205     30.2527
  1072.2000      8.0268      2.4780      0.0716     10.4218    137.4066     29.7103
  1072.3000      8.0024      2.4898      0.0360      9.7121    139.7257     29.3125
  1072.4000      8.0024      2.5075      0.0584      8.6360    144.3538     29.1220
  1072.5000      7.9989      2.5244      0.0582      7.6148    153.7312     29.0468
  1072.6000      7.9989      2.5337      0.0499      7.0470    163.1218     29.0125
  1072.7000      7.9989      2.5408      0.0842      6.6194    166.3038     28.9155
  1072.8000      8.0018      2.5573      0.0172      5.6153    163.0764     28.7032
  1072.9000      8.0018      2.5825      0.0733      4.0913    157.6431     28.3709
  1073.0000      8.0083      2.5976      0.0542      3.1739    150.7028     28.2017
  1073.1000      8.0083      2.5920      0.0768      3.5134    138.1970     28.3980
  1073.2000      8.0083      2.5746     -0.0098      4.5688    121.5743     28.6446
  1073.3000      8.0239      2.5630     -0.0293      5.2704    110.0248     28.6888
  1073.4000      8.0239      2.5693     -0.0444      4.8901    111.7425     28.7499
  1073.5000      8.0317      2.5850      0.0496      3.9411    121.6143     28.9030
  1073.6000      8.0317      2.5877      0.0164      3.7756    129.3045     28.9488
  1073.7000      8.0317      2.5758      0.0099      4.4963    134.2605     29.0738
  1073.8000      8.0464      2.5592      0.0437      5.5017    137.2602     29.4007
  1073.9000      8.0464      2.5377      0.0433      6.8062    137.8167     29.3395
  1074.0000      8.0118      2.5135      0.0370      8.2736    135.9392     28.6742
  1074.1000      8.0118      2.4960      0.0064      9.3362    132.1858     28.0800
  1074.2000      8.0118      2.4846      0.0255     10.0248    132.6637     28.0378
  1074.3000      8.0092      2.4741      0.0029     10.6595    137.6187     28.1282
  1074.4000      8.0092      2.4740     -0.0289     10.6642    138.3541     27.6096
  1074.5000      8.0406      2.4903     -0.0357      9.6764    133.3114     26.5479
  1074.6000      8.0406      2.5126      0.0163      8.3279    128.9193     25.8385
  1074.7000      8.0406      2.5322      0.0079      7.1383    126.2922     25.9503
  1074.8000      8.0805      2.5444      0.0642      6.3982    124.3047     26.1473
  1074.9000      8.0805      2.5416      0.0424      6.5696    123.7680     25.8008
  1075.0000      7.9967      2.5281      0.0300      7.3882    123.4986     25.4642
  1075.1000      7.9967      2.5248     -0.0339      7.5888    121.5681     25.5558
  1075.2000      7.9967      2.5426      0.0048      6.5119    117.4987     25.7190
  1075.3000      8.0074      2.5707      0.0239      4.8046    112.8454     25.5557
  1075.4000      8.0074      2.5939      0.0870      3.4004    110.3146     25.1881
  1075.5000      7.9991      2.5995      0.0632      3.0631    109.9233     24.6489
  1075.6000      7.9991      2.5853      0.0353      3.9194    105.4218     23.8236
  1075.7000      7.9991      2.5626      0.0014      5.2979     94.5215     23.6191
  1075.8000      7.9709      2.5387      0.0176      6.7437     85.5356     24.5772
  1075.9000      7.9709      2.5134      0.0002      8.2794     83.1762     25.5031
  1076.0000      7.9916      2.4907      0.0078      9.6563     84.3893     25.2425
  1076.1000      7.9916      2.4779     -0.0082     10.4314     88.9870     24.1356
  1076.2000      7.9916      2.4813      0.0327     10.2214     96.3816     23.2331
  1076.3000      8.0191      2.4973      0.0441      9.2571    100.0726     23.1018
  1076.4000      8.0191      2.5097      0.0945      8.5039     99.5269     23.8414
  1076.5000      8.0009      2.5173      0.0729      8.0410    102.8921     24.9257
  1076.6000      8.0009      2.5409      0.0835      6.6142    111.7445     25.4596
  1076.7000      8.0009      2.5887      0.1180      3.7175    119.0941     25.3264
  1076.8000      7.9743      2.6407      0.2030      0.5629    119.9864     25.0720
  1076.9000      7.9743      2.6707      0.1809     -1.2523    117.0575     25.4529
  1077.0000      7.9359      2.6811      0.1615     -1.8831    116.0671     26.4981
  1077.1000      7.9359      2.6893      0.1884     -2.3833    114.3031     27.0214
  1077.2000      7.9359      2.6941      0.1503     -2.6713    107.6095     26.7484
  1077.3000      7.9269      2.6869      0.1605     -2.2352    100.9884     26.6625
  1077.4000      7.9269      2.6683      0.0872     -1.1108     99.2219     27.0779
  1077.5000      7.9361      2.6428      0.0590      0.4378    100.5654     27.6855
  1077.6000      7.9361      2.6097      0.0658      2.4426    101.1462     28.1599
  1077.7000      7.9361      2.5797      0.0166      4.2594    100.5672     28.2175
  1077.8000      7.9872      2.5723      0.0324      4.7081    101.2148     27.6089
  1077.9000      7.9872      2.5775      0.1141      4.3914    103.4465     26.5075
  1078.0000      8.0099      2.5783      0.0055      4.3481    106.3679     25.5872
  1078.1000      8.0099      2.5780      0.0838      4.3634    109.9653     25.4123
  1078.2000      8.0099      2.5733      0.0632      4.6462    115.6338     26.2240
  1078.3000      8.0334      2.5636      0.0247      5.2380    121.3672     27.6590
  1078.4000      8.0334      2.5550     -0.0010      5.7572    123.0957     28.9601
  1078.5000      8.0386      2.5372      0.0431      6.8348    124.1914     29.6428
  1078.6000      8.0386      2.5045      0.0033      8.8192    128.7590     29.6801
  1078.7000      8.0386      2.4751      0.0090     10.5985    133.2810     29.3673
  1078.8000      8.0706      2.4568      0.0189     11.7089    135.0582     29.1024
  1078.9000      8.0706      2.4359     -0.0151     12.9766    135.1939     29.0799
  1079.0000      8.0719      2.4207     -0.0923     13.8990    133.8742     29.3517
  1079.1000      8.0719      2.4340     -0.0146     13.0935    131.8005     29.4436
