~Version Information
VERS.                      2.0: CWLS Log ASCII Standard - VERSION 2.0
WRAP.                       NO: One line per depth step
~Well Information Block
STRT.FT               492.8000: 
STOP.FT              1992.0000: 
STEP.FT                 0.1000: 
NULL.                -999.2500: 
COMP.          Petrogulf Corporation: COMPANY
WELL.               Furu 6-23R: WELL
FLD.           Purgatoire River: FIELD
LOC.           2211' FSL & 1780' FWL--: LOCATION
CNTY.               Las Animas: COUNTY
SRVC.                Patterson: SERVICE COMPANY
DATE.          Thu Jun 22 14:21:35 2006: LOG DATE
UWI.           05 071 08266 00: UNIQUE WELL ID
STAT.                 Colorado: STATE
~Curve Information Block
DEPT.FT            0 000 00 00: Depth
DCAL.in                       : CDL Caliper
RHOB.g/cc                     : CDL Bulk Density
RHOC.g/cc                     : CDL Density Correction
DPOR.pu                       : CDL Density Porosity
NPOR.pu                       : Neutron Porosity
GR.GAPI                       : Gamma Ray
~Parameter Information Block
~A  Depth       DCAL        RHOB        RHOC        DPOR        NPOR         GR     
# ...
  1568.0000      8.1841      2.5419      0.0723      6.5493     27.4526    131.3000
  1568.1000      8.1841      2.5231      0.0523      7.6895     27.5498    133.5721
  1568.2000      8.1841      2.5029      0.0460      8.9171     28.1992    139.3915
  1568.3000      8.1837      2.4942      0.0138      9.4427     28.9653    144.6384
  1568.4000      8.1837      2.4998      0.0203      9.1047     29.2466    146.2101
  1568.5000      8.1852      2.5135      0.0324      8.2741     29.3446    149.9447
  1568.6000      8.1852      2.5255      0.0764      7.5460     29.6441    154.9069
  1568.7000      8.1852      2.5239      0.0692      7.6439     29.8680    149.3291
  1568.8000      8.1853      2.5064      0.0409      8.7049     29.8116    133.2855
  1568.9000      8.1853      2.4867      0.0283      9.8991     29.7448    119.7655
  1569.0000      8.1831      2.4788     -0.0100     10.3774     29.9494    117.6912
  1569.1000      8.1831      2.4811      0.0575     10.2335     30.2584    125.8242
  1569.2000      8.1831      2.4785      0.0433     10.3928     30.6885    134.9337
  1569.3000      8.1813      2.4632      0.0430     11.3202     31.3713    140.8645
  1569.4000      8.1813      2.4347      0.0218     13.0515     32.0242    147.9102
  1569.5000      8.1815      2.3871      0.0139     15.9340     32.4935    153.0358
  1569.6000      8.1815      2.3225     -0.0099     19.8460     32.7438    149.0221
  1569.7000      8.1815      2.2589     -0.0186     23.7027     32.4975    140.6391
  1569.8000      8.1812      2.2102      0.0104     26.6568     31.9314    135.6522
  1569.9000      8.1812      2.1837     -0.0568     28.2612     31.4664    132.2002
  1570.0000      8.1798      2.1815      0.0274     28.3920     31.2497    125.0346
  1570.1000      8.1798      2.1986     -0.0057     27.3596     31.1700    115.1418
  1570.2000      8.1798      2.2353      0.0505     25.1329     30.8073    109.4255
  1570.3000      8.1783      2.2848      0.1227     22.1358     29.7819    109.9369
  1570.4000      8.1783      2.3349      0.1704     19.0961     28.3566    110.4863
  1570.5000      8.1793      2.3890      0.2033     15.8156     27.1823    106.4453
  1570.6000      8.1793      2.4500      0.2333     12.1225     26.5295    104.9194
  1570.7000      8.1793      2.5006      0.1521      9.0566     26.2633    111.4942
  1570.8000      8.1810      2.5278      0.0613      7.4074     25.9920    117.2583
  1570.9000      8.1810      2.5366      0.0755      6.8698     25.3427    113.2892
  1571.0000      8.1808      2.5396      0.0303      6.6894     24.6242    103.4152
  1571.1000      8.1808      2.5480      0.0580      6.1838     24.4094     98.4531
  1571.2000      8.1808      2.5561      0.0661      5.6898     24.6259    101.8644
  1571.3000      8.1808      2.5540      0.0324      5.8183     24.6149    107.9000
  1571.4000      8.1808      2.5449      0.0322      6.3717     24.0453    112.4592
  1571.5000      8.1800      2.5391      0.0191      6.7202     23.5598    114.0795
  1571.6000      8.1800      2.5433      0.0502      6.4639     23.9544    112.1025
  1571.7000      8.1800      2.5543      0.0462      5.8030     24.9360    109.4605
  1571.8000      8.1802      2.5638      0.0430      5.2272     25.6005    107.4122
  1571.9000      8.1802      2.5662      0.0513      5.0805     25.5428    104.0629
  1572.0000      8.1821      2.5577      0.0593      5.5922     25.2045    102.9900
  1572.1000      8.1821      2.5429     -0.0024      6.4935     24.8855    107.1329
  1572.2000      8.1821      2.5405      0.0186      6.6378     24.3537    111.6584
  1572.3000      8.1834      2.5559      0.0502      5.7037     24.0211    115.8179
  1572.4000      8.1834      2.5685      0.0693      4.9419     24.2574    119.9197
  1572.5000      8.1827      2.5611      0.0772      5.3854     24.4262    121.5119
  1572.6000      8.1827      2.5447      0.0194      6.3823     24.0493    120.6321
  1572.7000      8.1827      2.5428      0.0494      6.4956     23.7752    118.3274
  1572.8000      8.1797      2.5570      0.0560      5.6393     24.2927    117.8259
  1572.9000      8.1797      2.5681      0.0812      4.9663     25.2250    119.7758
  1573.0000      8.1773      2.5661      0.0392      5.0819     25.8176    117.6874
  1573.1000      8.1773      2.5546      0.0507      5.7816     25.9366    111.7385
  1573.2000      8.1773      2.5365      0.0494      6.8767     25.8490    110.0388
  1573.3000      8.1775      2.5229      0.0415      7.7023     25.8371    113.8047
  1573.4000      8.1775      2.5288      0.0773      7.3472     26.1790    119.8452
  1573.5000      8.1800      2.5504      0.0560      6.0386     26.6484    128.8173
  1573.6000      8.1800      2.5690      0.0653      4.9113     26.6910    141.5376
  1573.7000      8.1800      2.5673      0.1067      5.0098     26.5041    150.1802
  1573.8000      8.1834      2.5499      0.0453      6.0679     26.8729    146.6235
  1573.9000      8.1834      2.5436      0.0544      6.4509     27.6384    136.7110
  1574.0000      8.1846      2.5556      0.0961      5.7228     27.8429    128.7587
  1574.1000      8.1846      2.5608      0.1164      5.4033     27.0688    123.4147
  1574.2000      8.1846      2.5438      0.0650      6.4359     25.6424    117.9491
  1574.3000      8.1840      2.5277      0.0357      7.4098     24.4554    112.3277
  1574.4000      8.1840      2.5382      0.0592      6.7755     24.0622    110.3383
  1574.5000      8.1838      2.5643      0.0759      5.1929     24.1242    110.2176
  1574.6000      8.1838      2.5935      0.0419      3.4247     24.1131    105.6278
  1574.7000      8.1838      2.6300      0.0631      1.2108     23.9416     97.9890
  1574.8000      8.1846      2.6656      0.0881     -0.9478     23.7148     94.1481
  1574.9000      8.1846      2.6912      0.0868     -2.4988     23.4558     93.3445
  1575.0000      8.1846      2.7078      0.0991     -3.5008     22.9925     92.8181
  1575.1000      8.1846      2.7023      0.1014     -3.1682     22.2140     95.6883
  1575.2000      8.1846      2.6664      0.0527     -0.9914     21.7087     98.9054
  1575.3000      8.1835      2.6245     -0.0222      1.5440     21.7434     95.4333
  1575.4000      8.1835      2.6071     -0.0284      2.5997     21.5982     89.0592
  1575.5000      8.1835      2.6179     -0.0310      1.9437     21.0113     88.1134
  1575.6000      8.1835      2.6395      0.0116      0.6349     20.6124     89.4676
  1575.7000      8.1835      2.6501      0.0449     -0.0078     20.5079     88.4795
  1575.8000      8.1846      2.6441      0.0304      0.3576     20.3127     91.0584
  1575.9000      8.1846      2.6367      0.0659      0.8087     19.8934    100.2874
  1576.0000      8.1843      2.6315      0.0933      1.1206     19.2200    109.2460
  1576.1000      8.1843      2.6182      0.0484      1.9248     18.7676    112.8052
  1576.2000      8.1843      2.6031      0.0238      2.8433     19.0236    113.6327
  1576.3000      8.1825      2.5976      0.0714      3.1731     19.5553    112.6117
  1576.4000      8.1825      2.5990      0.0288      3.0888     19.8947    106.5960
  1576.5000      8.1817      2.6018      0.0493      2.9190     20.4395     99.0837
  1576.6000      8.1817      2.6053      0.0253      2.7085     21.8293     94.6646
  1576.7000      8.1817      2.6115      0.0630      2.3362     23.5791     91.8124
  1576.8000      8.1839      2.6144      0.0591      2.1586     24.3383     90.1090
  1576.9000      8.1839      2.6024      0.0764      2.8869     24.0047     92.5068
  1577.0000      8.1858      2.5786     -0.0095      4.3278     23.8444     98.8209
  1577.1000      8.1858      2.5637      0.0336      5.2280     24.4182    105.7505
  1577.2000      8.1858      2.5679      0.0401      4.9728     24.9738    114.1937
  1577.3000      8.1864      2.5832      0.0387      4.0499     25.1623    123.4694
  1577.4000      8.1864      2.6055      0.0484      2.6995     25.5029    126.8683
  1577.5000      8.1902      2.6419      0.0093      0.4928     26.0257    126.4716
