~Version Information
VERS.                      2.0: CWLS Log ASCII Standard - VERSION 2.0
WRAP.                       NO: One line per depth step
~Well Information Block
STRT.FT               928.1000: 
STOP.FT              2417.7000: 
STEP.FT                 0.1000: 
NULL.                -999.2500: 
COMP.          Pioneer Natural Resources: COMPANY
WELL.            Chevron 13-13: WELL
FLD.           Purgatoire River: FIELD
LOC.           1560' FSL & 711' FWL--: LOCATION
CNTY.               Las Animas: COUNTY
SRVC.          Superior Well Services: SERVICE COMPANY
DATE.          Mon Feb 12 14:51:53 2007: LOG DATE
UWI.           05 071 08319 00: UNIQUE WELL ID
STAT.                 Colorado: STATE
~Curve Information Block
DEPT.FT            0 000 00 00: Depth
DIR.Ohm-m                     : IEL Induction Resistivity
GR.GAPI                       : Gamma Ray
SN.Ohm-m                      : IEL Short Normal
SP.mV                         : IEL Spontaneous Potential
~Parameter Information Block
~A  Depth       DIR          GR          SN          SP     
# ...
  1732.1000     10.4587    142.4203     10.9911     40.2104
  1732.2000     10.4587    144.4691     10.9911     40.2104
  1732.3000     10.3959    146.3906     11.0604     40.5913
  1732.4000     10.3959    148.0951     11.0604     40.5913
  1732.5000     10.2669    149.5082     10.9909     41.0113
  1732.6000     10.2669    150.5793     10.9909     41.0113
  1732.7000     10.2669    151.2872     10.9909     41.0113
  1732.8000     10.0712    151.6407     10.8123     41.4608
  1732.9000     10.0712    151.6814     10.8123     41.4608
  1733.0000      9.8265    151.4734     10.5247     41.9294
  1733.1000      9.8265    151.0975     10.5247     41.9294
  1733.2000      9.8265    150.6400     10.5247     41.9294
  1733.3000      9.5611    150.1807     10.2181     42.4058
  1733.4000      9.5611    149.7829     10.2181     42.4058
  1733.5000      9.3039    149.4875      9.9627     42.8772
  1733.6000      9.3039    149.3027      9.9627     42.8772
  1733.7000      9.3039    149.2068      9.9627     42.8772
  1733.8000      9.0771    149.1480      9.7761     43.3294
  1733.9000      9.0771    149.0566      9.7761     43.3294
  1734.0000      8.8934    148.8532      9.6865     43.7470
  1734.1000      8.8934    148.4669      9.6865     43.7470
  1734.2000      8.8934    147.8520      9.6865     43.7470
  1734.3000      8.7573    146.9935      9.6779     44.1128
  1734.4000      8.7573    145.9187      9.6779     44.1128
  1734.5000      8.6682    144.6876      9.6721     44.4090
  1734.6000      8.6682    143.3878      9.6721     44.4090
  1734.7000      8.6682    142.1165      9.6721     44.4090
  1734.8000      8.6246    140.9678      9.6499     44.6171
  1734.9000      8.6246    140.0151      9.6499     44.6171
  1735.0000      8.6256    139.3076      9.6300     44.7200
  1735.1000      8.6256    138.8594      9.6300     44.7200
  1735.2000      8.6256    138.6577      9.6300     44.7200
  1735.3000      8.6727    138.6659      9.6511     44.7025
  1735.4000      8.6727    138.8281      9.6511     44.7025
  1735.5000      8.7699    139.0784      9.7439     44.5532
  1735.6000      8.7699    139.3441      9.7439     44.5532
  1735.7000      8.7699    139.5479      9.7439     44.5532
  1735.8000      8.9246    139.6111      9.9499     44.2659
  1735.9000      8.9246    139.4547      9.9499     44.2659
  1736.0000      9.1482    139.0010     10.2966     43.8405
  1736.1000      9.1482    138.1741     10.2966     43.8405
  1736.2000      9.1482    136.9023     10.2966     43.8405
  1736.3000      9.4541    135.1217     10.7446     43.2832
  1736.4000      9.4541    132.7776     10.7446     43.2832
  1736.5000      9.8545    129.8312     11.2790     42.6070
  1736.6000      9.8545    126.2642     11.2790     42.6070
  1736.7000      9.8545    122.0877     11.2790     42.6070
  1736.8000     10.3564    117.3493     11.8737     41.8302
  1736.9000     10.3564    112.1364     11.8737     41.8302
  1737.0000     10.9593    106.5763     12.5394     40.9758
  1737.1000     10.9593    100.8335     12.5394     40.9758
  1737.2000     10.9593     95.0971     12.5394     40.9758
  1737.3000     11.6576     89.5651     13.2501     40.0693
  1737.4000     11.6576     84.4231     13.2501     40.0693
  1737.5000     12.4442     79.8286     13.9817     39.1376
  1737.6000     12.4442     75.8899     13.9817     39.1376
  1737.7000     12.4442     72.6608     13.9817     39.1376
  1737.8000     13.3135     70.1377     14.9362     38.2064
  1737.9000     13.3135     68.2674     14.9362     38.2064
  1738.0000     14.2590     66.9552     16.2598     37.2993
  1738.1000     14.2590     66.0879     16.2598     37.2993
  1738.2000     14.2590     65.5439     16.2598     37.2993
  1738.3000     15.2667     65.2093     18.0620     36.4362
  1738.4000     15.2667     64.9875     18.0620     36.4362
  1738.5000     16.3101     64.8037     20.2524     35.6322
  1738.6000     16.3101     64.6053     20.2524     35.6322
  1738.7000     16.3101     64.3569     20.2524     35.6322
  1738.8000     17.3514     64.0394     22.2108     34.8968
  1738.9000     17.3514     63.6460     22.2108     34.8968
  1739.0000     18.3494     63.1790     23.6478     34.2334
  1739.1000     18.3494     62.6469     23.6478     34.2334
  1739.2000     18.3494     62.0675     23.6478     34.2334
  1739.3000     19.2703     61.4638     24.6422     33.6383
  1739.4000     19.2703     60.8642     24.6422     33.6383
  1739.5000     20.0940     60.2996     25.3811     33.1003
  1739.6000     20.0940     59.8034     25.3811     33.1003
  1739.7000     20.0940     59.4030     25.3811     33.1003
  1739.8000     20.8155     59.1195     25.9754     32.6007
  1739.9000     20.8155     58.9635     25.9754     32.6007
  1740.0000     21.4435     58.9329     26.5543     32.1131
  1740.1000     21.4435     59.0136     26.5543     32.1131
  1740.2000     21.4435     59.1796     26.5543     32.1131
  1740.3000     21.9990     59.3990     27.2234     31.6049
  1740.4000     21.9990     59.6355     27.2234     31.6049
  1740.5000     22.5074     59.8565     27.9538     31.0401
  1740.6000     22.5074     60.0371     27.9538     31.0401
  1740.7000     22.5074     60.1643     27.9538     31.0401
  1740.8000     22.9873     60.2354     28.7145     30.3827
  1740.9000     22.9873     60.2609     28.7145     30.3827
  1741.0000     23.4453     60.2586     29.4261     29.6017
  1741.1000     23.4453     60.2478     29.4261     29.6017
  1741.2000     23.4453     60.2440     29.4261     29.6017
  1741.3000     23.8831     60.2511     30.1412     28.6771
  1741.4000     23.8831     60.2591     30.1412     28.6771
  1741.5000     24.3099     60.2414     31.0425     27.6053
  1741.6000     24.3099     60.1559     31.0425     27.6053
  1741.7000     24.3099     59.9517     31.0425     27.6053
  1741.8000     24.7421     59.5777     32.0116     26.4037
  1741.9000     24.7421     58.9905     32.0116     26.4037
  1742.0000     25.1865     58.1644     32.7564     25.1132
  1742.1000     25.1865     57.0979     32.7564     25.1132
  1742.2000     25.1865     55.8183     32.7564     25.1132
  1742.3000     25.6176     54.3808     33.1830     23.7977
  1742.4000     25.6176     52.8627     33.1830     23.7977
  1742.5000     25.9709     51.3554     33.4923     22.5407
  1742.6000     25.9709     49.9519     33.4923     22.5407
  1742.7000     25.9709     48.7355     33.4923     22.5407
  1742.8000     26.1599     47.7678     33.7245     21.4379
  1742.9000     26.1599     47.0791     33.7245     21.4379
  1743.0000     26.1053     46.6675     33.7123     20.5883
  1743.1000     26.1053     46.4995     33.7123     20.5883
  1743.2000     26.1053     46.5199     33.7123     20.5883
  1743.3000     25.7537     46.6638     33.2752     20.0826
  1743.4000     25.7537     46.8721     33.2752     20.0826
  1743.5000     25.0813     47.1074     32.1826     19.9929
  1743.6000     25.0813     47.3673     32.1826     19.9929
  1743.7000     25.0813     47.6874     32.1826     19.9929
  1743.8000     24.0918     48.1447     30.3810     20.3631
  1743.9000     24.0918     48.8476     30.3810     20.3631
  1744.0000     22.8218     49.9220     28.1778     21.2038
  1744.1000     22.8218     51.4972     28.1778     21.2038
  1744.2000     22.8218     53.6845     28.1778     21.2038
  1744.3000     21.3465     56.5684     25.7853     22.4904
  1744.4000     21.3465     60.1878     25.7853     22.4904
  1744.5000     19.7706     64.5353     23.4982     24.1657
  1744.6000     19.7706     69.5529     23.4982     24.1657
  1744.7000     19.7706     75.1374     23.4982     24.1657
  1744.8000     18.2017     81.1480     21.6052     26.1476
  1744.9000     18.2017     87.4212     21.6052     26.1476
  1745.0000     16.7214     93.7820     19.9032     28.3377
  1745.1000     16.7214    100.0637     19.9032     28.3377
  1745.2000     16.7214    106.1195     19.9032     28.3377
  1745.3000     15.3724    111.8367     18.2377     30.6329
  1745.4000     15.3724    117.1372     18.2377     30.6329
