~Version Information
 VERS.                                  2.0 : CWLS LAS VERSION
 WRAP.                                   NO : WRAPING MODE
 SWARE .                 MController 2.5.0J : SOFTWARE VERSION
~Well Information
 WELL.                        Montoya 6-14R : WELL
 COMP.                       Petrogulf Corp : COMPANY
 FLD.                      Purgatoire River : FIELD
 LOC.                 SW/SW Sec 6 T33S R67W : LOCATION
 DATE.                             11/13/04 : DATE(S) LOGGED
 SRVC.       Blanco Geological Services LLC : SERVICE COMPANY
 STAT.                                   CO : STATE
 CNTY.                           Las Animas : COUNTY
 CTRY.                                  USA : COUNTRY
 API.                       05-071-08242-00 : API NUMBER
 STRT.FT                             484.00 : START DEPTH
 STOP.FT                            2180.00 : STOP DEPTH
 STEP.FT                               1.00 : DEPTH INCREMENT
 NULL.                                -9999 : NULL VALUE
~Curve information
 DEPTH.FT                                   :
 ROP.MIN/FT                                 :
 GAS.UNITS                                  :
~ASCII Log data
# ...
       684.0         0.20         12.0 
       685.0         0.13         11.8 
       686.0         0.13         12.0 
       687.0         0.17         12.5 
       688.0         0.27         12.1 
       689.0         0.17         12.0 
       690.0         0.20         12.4 
       691.0         0.17         12.5 
       692.0         0.17         13.0 
       693.0         0.17         11.9 
       694.0         0.20         12.1 
       695.0         0.17         12.4 
       696.0         0.17         11.6 
       697.0         0.13         11.6 
       698.0         0.17         11.6 
       699.0         0.17         11.6 
       700.0         0.17         12.3 
       701.0         0.17         12.0 
       702.0         0.17         11.9 
       703.0         0.22         12.4 
       704.0         0.20         13.3 
       705.0         0.17         13.0 
       706.0         0.20         13.2 
       707.0         0.13         12.4 
       708.0         0.13         12.6 
       709.0         0.17         12.3 
       710.0         0.13         11.9 
       711.0         0.17         12.4 
       712.0         0.17         12.1 
       713.0         0.17         11.8 
       714.0         0.23         12.6 
       715.0         0.23         45.0 
       716.0         0.27         45.0 
       717.0         0.30        206.1 
       718.0         0.23        208.2 
       719.0         0.27        180.2 
       720.0         0.30        152.0 
       721.0         0.20        109.5 
       722.0         0.27         80.3 
       723.0         0.28         52.0 
       724.0         0.30         37.3 
       725.0         0.23         25.0 
       726.0         0.20         21.3 
       727.0         0.20         17.6 
       728.0         0.13         13.1 
       729.0         0.17         13.0 
       730.0         0.20         11.8 
       731.0         0.17         10.7 
       732.0         0.23         10.5 
       733.0         0.20         11.1 
       734.0         0.20         11.6 
       735.0         0.20         11.3 
       736.0         0.20         10.5 
       737.0         0.20         10.7 
       738.0         0.20         11.2 
       739.0         0.18         11.3 
       740.0         0.17         11.1 
       741.0         0.10         10.8 
       742.0         0.27         10.7 
       743.0         0.17         11.0 
       744.0         0.20         11.2 
       745.0         0.17         11.3 
       746.0         0.23         10.6 
       747.0         0.20         10.5 
       748.0         0.17         11.1 
       749.0         0.23         11.2 
       750.0         0.17         12.4 
       751.0         0.17         16.1 
       752.0         0.10         16.1 
       753.0         0.18         26.4 
       754.0         0.23         42.8 
       755.0         0.17         80.7 
       756.0         0.13         94.3 
       757.0         0.13         94.3 
       758.0         0.13        100.1 
       759.0         0.17         98.4 
       760.0         0.20         93.1 
       761.0         0.17         88.0 
       762.0         0.17         80.5 
       763.0         0.13         71.7 
       764.0         0.13         60.3 
       765.0         0.17         56.2 
       766.0         0.17         39.9 
       767.0         0.17         33.2 
       768.0         0.17         27.2 
       769.0         0.13         21.3 
       770.0         0.17         20.0 
       771.0         0.17         15.7 
       772.0         0.13         13.5 
       773.0         0.13         12.2 
       774.0         0.12         10.9 
       775.0         0.10         10.9 
       776.0         0.17         28.5 
       777.0         0.20         59.4 
       778.0         0.10         97.2 
       779.0         0.13        124.6 
       780.0         0.10        124.6 
       781.0         0.17        135.7 
       782.0         0.17        135.4 
       783.0         0.17        130.6 
       784.0         0.13        121.5 
       785.0         0.17        119.4 
       786.0         0.17         96.0 
       787.0         0.20         89.1 
       788.0         0.17         70.0 
       789.0         0.17         48.0 
       790.0         0.17         46.9 
       791.0         0.17         35.4 
       792.0         0.13         26.0 
       793.0         0.13         21.5 
       794.0         0.13         19.5 
       795.0         0.10         19.5 
       796.0         0.17         17.7 
       797.0         0.13         14.4 
       798.0         0.13         14.2 
       799.0         0.15         12.9 
       800.0         0.13         12.0 
       801.0         0.17         10.6 
       802.0         0.10         10.6 
       803.0         0.10         10.0 
       804.0         0.20         10.0 
       805.0         0.27         11.5 
       806.0         0.13         11.5 
       807.0         0.20         13.3 
       808.0         0.23         21.7 
       809.0         0.17         25.2 
       810.0         0.30         93.7 
       811.0         0.25        122.2 
       812.0         0.17        131.2 
       813.0         0.20        133.6 
       814.0         0.20        120.1 
       815.0         0.20        117.3 
       816.0         0.17         92.1 
       817.0         0.20         85.7 
       818.0         0.17         68.0 
       819.0         0.17         49.5 
       820.0         0.13         42.0 
       821.0         0.17         36.2 
       822.0         0.13         28.6 
       823.0         0.20         26.3 
       824.0         0.13         18.9 
       825.0         0.17         16.2 
       826.0         0.17         14.8 
       827.0         0.17         14.2 
       828.0         0.17         11.9 
       829.0         0.17         10.7 
       830.0         0.18         10.6 
       831.0         0.13         10.9 
       832.0         0.20         10.7 
       833.0         0.17         10.8 
       834.0         0.13         10.5 
       835.0         0.17         15.6 
       836.0         0.23         15.6 
       837.0         0.18         25.1 
       838.0         0.13         48.6 
       839.0         0.13         66.3 
       840.0         0.13         83.7 
       841.0         0.10         97.8 
       842.0         0.10        112.5 
       843.0         0.10        125.3 
       844.0         0.10        125.3 
       845.0         0.13        129.5 
       846.0         0.20        124.6 
       847.0         0.20        112.8 
       848.0         0.20         98.6 
       849.0         0.20         88.9 
       850.0         0.17         63.3 
       851.0         0.17         60.2 
       852.0         0.23         41.3 
       853.0         0.20         27.5 
       854.0         0.23         23.5 
       855.0         0.20         17.1 
       856.0         0.30         15.1 
       857.0         0.28         11.3 
       858.0         0.27         10.6 
       859.0         0.13         10.7 
       860.0         0.17         11.3 
       861.0         0.17         10.7 
       862.0         0.17         10.8 
       863.0         0.20          9.7 
       864.0         0.17         10.2 
       865.0         0.27         13.8 
       866.0         0.27         13.8 
       867.0         0.20         22.9 
       868.0         0.23         27.0 
       869.0         0.23         68.7 
       870.0         0.23        134.5 
       871.0         0.20        165.0 
       872.0         0.20        175.5 
       873.0         0.17        174.5 
       874.0         0.20        166.5 
       875.0         0.17        153.0 
       876.0         0.17        135.6 
       877.0         0.17        129.1 
       878.0         0.20        103.6 
       879.0         0.20         96.6 
       880.0         0.20         78.8 
       881.0         0.13         58.1 
       882.0         0.13         51.0 
       883.0         0.13         41.0 
