~Version Information
VERS.                      2.0: CWLS Log ASCII Standard - VERSION 2.0
WRAP.                       NO: One line per depth step
~Well Information Block
STRT.FT               259.0000: 
STOP.FT              2382.0000: 
STEP.FT                 0.2500: 
NULL.                -999.2500: 
COMP.          Pioneer Natural Resources: COMPANY
WELL.          Foothills 12-36: WELL
FLD.           Purgatoire River: FIELD
LOC.           2450' FNL & 201' FWL: LOCATION
PROV.                 Colorado: PROVINCE
CNTY.               Las Animas: COUNTRY
SRVC.                Patterson: SERVICE COMPANY
DATE.          Thu Apr 21 03:00:58 2005: LOG DATE
UWI.           05 071 08339 00: UNIQUE WELL ID
~Curve Information Block
DEPT.FT            0 000 00 00: Depth
SN.Ohm-m                      : IEL Short Normal
SP.mV                         : IEL Spontaneous Potential
DIR.Ohm-m                     : IEL Induction Resistivity
GR.GAPI                       : Gamma Ray
~Parameter Information Block
~A  Depth        SN          SP         DIR          GR     
# ...
  1766.5000     13.3635    -54.7381     10.7713    136.2747
  1766.7500     13.1103    -54.5866     10.5730    133.1095
  1767.0000     12.8041    -54.4247     10.3610    126.1288
  1767.2500     12.4227    -54.2082     10.1364    120.8483
  1767.5000     11.9149    -53.9161      9.9052    113.9822
  1767.7500     11.2779    -53.5706      9.6745    111.0861
  1768.0000     10.6246    -53.2147      9.4497    110.1109
  1768.2500     10.1773    -52.8744      9.2354    111.7624
  1768.5000     10.1176    -52.5489      9.0350    117.2406
  1768.7500     10.3868    -52.2306      8.8512    122.3044
  1769.0000     10.7258    -51.9226      8.6831    130.3745
  1769.2500     10.9162    -51.6425      8.5262    134.9223
  1769.5000     10.8933    -51.4179      8.3742    139.1826
  1769.7500     10.6786    -51.2765      8.2224    140.3844
  1770.0000     10.3133    -51.2289      8.0717    140.9101
  1770.2500      9.8782    -51.2554      7.9290    140.9791
  1770.5000      9.5182    -51.3072      7.8042    140.5864
  1770.7500      9.3388    -51.3261      7.7059    139.6628
  1771.0000      9.3266    -51.2680      7.6380    137.3354
  1771.2500      9.4645    -51.1178      7.5994    135.6867
  1771.5000      9.7503    -50.8916      7.5864    134.0826
  1771.7500     10.0488    -50.6283      7.5963    133.8064
  1772.0000     10.1775    -50.3724      7.6277    134.1873
  1772.2500     10.1210    -50.1551      7.6795    134.5212
  1772.5000      9.9827    -49.9817      7.7489    134.4623
  1772.7500      9.8257    -49.8340      7.8308    133.8660
  1773.0000      9.6862    -49.6842      7.9192    132.3780
  1773.2500      9.6350    -49.5115      8.0094    131.4527
  1773.5000      9.7093    -49.3098      8.0987    130.8324
  1773.7500      9.8281    -49.0872      8.1866    130.8198
  1774.0000      9.8931    -48.8600      8.2739    130.6451
  1774.2500      9.9205    -48.6470      8.3615    130.2445
  1774.5000      9.9748    -48.4626      8.4481    129.6011
  1774.7500     10.0450    -48.3147      8.5309    129.2429
  1775.0000     10.0443    -48.2124      8.6074    128.2213
  1775.2500      9.9185    -48.1768      8.6785    126.8086
  1775.5000      9.7377    -48.2396      8.7484    123.7050
  1775.7500      9.6591    -48.4209      8.8238    121.5242
  1776.0000      9.7748    -48.7052      8.9101    119.0965
  1776.2500     10.0327    -49.0400      9.0098    118.3103
  1776.5000     10.3071    -49.3647      9.1212    118.1207
  1776.7500     10.4777    -49.6422      9.2406    118.2228
  1777.0000     10.5084    -49.8699      9.3659    118.1589
  1777.2500     10.4975    -50.0700      9.4990    118.1256
  1777.5000     10.5561    -50.2720      9.6446    119.0787
  1777.7500     10.6668    -50.4993      9.8046    120.7746
  1778.0000     10.7358    -50.7606      9.9713    124.4254
  1778.2500     10.7216    -51.0460     10.1270    126.8985
  1778.5000     10.6751    -51.3317     10.2493    129.6456
  1778.7500     10.6864    -51.5920     10.3219    130.4608
  1779.0000     10.8035    -51.8103     10.3403    129.9145
  1779.2500     11.0076    -51.9807     10.3100    128.5942
  1779.5000     11.2385    -52.1059     10.2414    126.0863
  1779.7500     11.4275    -52.1987     10.1467    124.5965
  1780.0000     11.5257    -52.2851     10.0402    123.2145
  1780.2500     11.5013    -52.3965      9.9385    123.0394
  1780.5000     11.3651    -52.5522      9.8573    123.9404
  1780.7500     11.2159    -52.7476      9.8085    125.2331
  1781.0000     11.1614    -52.9596      9.7961    128.2005
  1781.2500     11.1842    -53.1617      9.8160    130.9758
  1781.5000     11.1932    -53.3388      9.8571    136.1958
  1781.7500     11.1715    -53.4936      9.9044    139.8215
  1782.0000     11.1397    -53.6464      9.9424    143.9724
  1782.2500     11.0395    -53.8278      9.9593    145.1708
  1782.5000     10.8118    -54.0635      9.9502    144.4487
  1782.7500     10.5509    -54.3608      9.9182    142.7530
  1783.0000     10.3927    -54.7082      9.8715    139.2581
  1783.2500     10.3038    -55.0869      9.8193    136.5485
  1783.5000     10.1733    -55.4821      9.7686    132.3802
  1783.7500     10.0097    -55.8820      9.7249    130.0942
  1784.0000      9.8909    -56.2710      9.6948    128.3700
  1784.2500      9.8237    -56.6254      9.6871    128.4691
  1784.5000      9.8005    -56.9169      9.7100    129.9068
  1784.7500      9.9044    -57.1272      9.7663    131.2415
  1785.0000     10.2300    -57.2644      9.8507    133.0939
  1785.2500     10.7614    -57.3648      9.9498    133.9346
  1785.5000     11.3647    -57.4743     10.0466    134.4083
  1785.7500     11.8690    -57.6244     10.1267    134.2308
  1786.0000     12.1837    -57.8211     10.1865    133.1727
  1786.2500     12.2931    -58.0453     10.2374    131.7226
  1786.5000     12.1849    -58.2588     10.3028    128.0354
  1786.7500     11.9838    -58.4154     10.4080    124.6779
  1787.0000     11.9654    -58.4792     10.5703    119.2839
  1787.2500     12.2375    -58.4440     10.7951    116.1377
  1787.5000     12.6386    -58.3373     11.0785    112.5498
  1787.7500     12.9977    -58.2081     11.4132    110.5951
  1788.0000     13.2946    -58.1069     11.7946    107.3469
  1788.2500     13.5727    -58.0677     12.2263    104.6322
  1788.5000     13.8548    -58.0955     12.7219    100.0347
  1788.7500     14.1655    -58.1669     13.3044     97.2122
  1789.0000     14.5592    -58.2441     13.9996     94.4445
  1789.2500     15.1033    -58.2984     14.8281     93.9111
  1789.5000     15.8303    -58.3231     15.7937     94.6371
  1789.7500     16.7292    -58.3278     16.8714     95.2348
  1790.0000     17.7917    -58.3208     18.0049     94.2864
  1790.2500     19.0120    -58.3065     19.1205     91.6529
  1790.5000     20.3963    -58.3003     20.1587     85.0093
  1790.7500     21.9997    -58.3353     21.1038     79.7774
  1791.0000     23.8547    -58.4376     21.9917     72.6207
  1791.2500     25.9869    -58.5979     22.8964     68.9645
  1791.5000     28.4540    -58.7750     23.8980     65.2753
  1791.7500     31.1416    -58.9235     25.0391     63.7592
  1792.0000     33.7098    -59.0106     26.2877     62.5673
  1792.2500     35.8706    -59.0158     27.5356     62.4843
  1792.5000     37.4837    -58.9282     28.6453     63.3390
  1792.7500     38.4172    -58.7492     29.5156     64.3194
  1793.0000     38.6259    -58.4979     30.1251     66.2469
  1793.2500     38.2967    -58.2098     30.5383     68.2102
  1793.5000     37.7215    -57.9251     30.8796     72.9296
  1793.7500     37.0993    -57.6693     31.2701     77.0329
  1794.0000     36.4976    -57.4443     31.7493     82.8142
  1794.2500     35.9504    -57.2426     32.2387     85.1658
  1794.5000     35.5478    -57.0686     32.5964     85.3062
  1794.7500     35.3480    -56.9391     32.7319     83.3605
  1795.0000     35.3511    -56.8568     32.6718     78.8662
  1795.2500     35.7288    -56.7970     32.5234     75.7933
  1795.5000     36.8232    -56.7274     32.3998     71.8919
  1795.7500     38.7397    -56.6416     32.3841     69.5645
  1796.0000     41.1580    -56.5681     32.5295     65.5838
  1796.2500     43.6318    -56.5483     32.8540     62.2946
  1796.5000     45.9108    -56.5987     33.3235     56.7530
  1796.7500     47.9428    -56.6883     33.8529     53.1972
  1797.0000     49.7476    -56.7586     34.3396     48.8763
  1797.2500     51.4086    -56.7717     34.7012     46.7774
  1797.5000     53.0306    -56.7350     34.8794     44.3162
  1797.7500     54.5654    -56.6768     34.8088     42.6614
  1798.0000     55.8069    -56.6111     34.3958     39.5888
  1798.2500     56.6147    -56.5314     33.5437     37.1925
  1798.5000     56.9817    -56.4234     32.2102     33.7791
  1798.7500     56.8341    -56.2716     30.4469     32.1182
  1799.0000     55.9336    -56.0640     28.3846     31.0167
  1799.2500     54.0340    -55.8015     26.1836     31.2433
  1799.5000     50.9793    -55.5011     23.9903     33.1019
  1799.7500     46.7522    -55.1822     21.9159     35.6567
