~Version Information
VERS.                      2.0: CWLS Log ASCII Standard - VERSION 2.0
WRAP.                       NO: One line per depth step
~Well Information Block
STRT.FT               -10.0000: 
STOP.FT              2184.0000: 
STEP.FT                 0.2500: 
NULL.                -999.2500: 
COMP.          Petrogulf Corporation: COMPANY
WELL.              Silva 1-43R: WELL
FLD.           Purgatorie River: FIELD
LOC.           1971' FSL & 526' FEL--: LOCATION
CNTY.               Las Animas: COUNTY
SRVC.          Patterson Wireline: SERVICE COMPANY
DATE.          Thu Jul 13 13:08:17 2006: LOG DATE
UWI.           05 072 08372 00: UNIQUE WELL ID
STAT.                       CO: STATE
~Curve Information Block
DEPT.FT            0 000 00 00: Depth
CCL.                          : Casing Collar Locator
TT3.usec                      : CBL 3' Travel Time
AMP3.mV                       : CBL 3' Amplitude
GR.GAPI                       : Gamma Ray
~Parameter Information Block
~A  Depth       CCL         TT3         AMP3         GR     
# ...
  1162.5000      0.0000    683.2076      6.5064    102.6585
  1162.7500      0.0000    686.0278      6.1124     93.1962
  1163.0000      0.0000    687.9193      5.7178     84.7035
  1163.2500      0.0000    686.9992      5.3581     79.2179
  1163.5000      0.0000    683.2648      5.0610     77.5350
  1163.7500      0.0000    679.4627      4.8421     78.2765
  1164.0000      0.0000    678.9280      4.7065     79.2282
  1164.2500      0.0000    682.3855      4.6512     79.0645
  1164.5000      0.0000    686.9278      4.6601     77.3962
  1164.7500      0.0000    688.2375      4.7000     74.2417
  1165.0000      0.0000    683.8080      4.7305     70.4177
  1165.2500      0.0000    673.7782      4.7240     67.7385
  1165.5000      0.0000    658.9804      4.6777     67.7701
  1165.7500      0.0000    639.2664      4.6080     70.3634
  1166.0000      0.0000    614.3497      4.5382     73.9058
  1166.2500      0.0000    586.0123      4.4917     76.9811
  1166.5000      0.0000    558.8318      4.4940     79.3304
  1166.7500      0.0000    538.0380      4.5737     81.3790
  1167.0000      0.0000    526.3760      4.7532     83.6050
  1167.2500      0.0000    523.5898      5.0239     86.3177
  1167.5000      0.0000    528.9349      5.3199     89.1846
  1167.7500      0.0000    542.6700      5.5268     90.9945
  1168.0000      0.0000    564.0938      5.5576     90.7607
  1168.2500      0.0000    589.4598      5.4446     89.1131
  1168.5000      0.0000    613.5945      5.3401     87.7998
  1168.7500      0.0000    633.2605      5.4056     87.8422
  1169.0000      0.0000    647.6495      5.7055     88.8889
  1169.2500      0.0000    655.9955      6.2030     90.3037
  1169.5000      0.0000    655.7730      6.8328     92.1634
  1169.7500      2.0000    642.8588      7.5761     95.1718
  1170.0000      0.0000    613.3950      8.4806    100.0797
  1170.2500      0.0000    568.2524      9.5779    107.1566
  1170.5000      0.0000    518.0699     10.7354    115.7861
  1170.7500      0.0000    481.1255     11.6358    124.5330
  1171.0000      0.0000    470.4913     12.0190    132.0225
  1171.2500      0.0000    480.9344     11.9622    137.8550
  1171.5000      0.0000    490.8317     11.8371    142.5326
  1171.7500      0.0000    480.1182     11.9798    146.6681
  1172.0000      0.0000    446.8235     12.4641    150.3550
  1172.2500      0.0000    405.5481     13.1708    152.7457
  1172.5000      0.0000    372.1434     13.9665    152.0961
  1172.7500      0.0000    352.5100     14.7765    147.0305
  1173.0000      0.0000    343.6943     15.5523    137.9718
  1173.2500      0.0000    340.5197     16.2372    126.8359
  1173.5000      0.0000    339.6292     16.7676    115.5423
  1173.7500      0.0000    340.0585     17.0845    105.3570
  1174.0000      0.0000    343.0032     17.1373     97.1993
  1174.2500      0.0000    352.3391     16.8761     91.7735
  1174.5000      0.0000    374.7951     16.2571     89.2322
  1174.7500      0.0000    417.1709     15.2826     89.1849
  1175.0000      0.0000    480.2947     14.0504     91.3612
  1175.2500      0.0000    555.1100     12.7402     95.7594
  1175.5000      0.0000    626.6414     11.5273    101.5769
  1175.7500      0.0000    682.7464     10.5044    106.6402
  1176.0000      0.0000    718.7501      9.6784    109.0024
  1176.2500      0.0000    735.6035      9.0198    109.0445
  1176.5000      0.0000    736.9423      8.5032    109.3014
  1176.7500      0.0000    728.0842      8.1175    112.1519
  1177.0000      0.0000    715.0010      7.8581    117.9770
  1177.2500      0.0000    702.3143      7.7215    125.3699
  1177.5000      0.0000    692.1458      7.7126    132.4516
  1177.7500      0.0000    684.7859      7.8584    137.4856
  1178.0000      0.0000    679.8994      8.1988    138.8101
  1178.2500      0.0000    677.0297      8.7445    135.8004
  1178.5000      0.0000    675.2568      9.4439    130.3786
  1178.7500      0.0000    672.5136     10.2044    126.2157
  1179.0000      0.0000    664.8952     10.9452    125.6510
  1179.2500      0.0000    646.8530     11.6182    128.1870
  1179.5000      0.0000    614.5397     12.1811    131.9775
  1179.7500      0.0000    571.7943     12.5713    135.5275
  1180.0000      0.0000    532.2155     12.7168    137.7760
  1180.2500      0.0000    511.7132     12.5681    137.9785
  1180.5000      0.0000    517.6587     12.1230    136.2746
  1180.7500      0.0000    545.5201     11.4320    133.7507
  1181.0000      0.0000    583.6852     10.5885    131.5945
  1181.2500      0.0000    619.9617      9.7067    130.6753
  1181.5000      0.0000    646.6370      8.8940    131.8875
  1181.7500      0.0000    662.7614      8.2307    135.8105
  1182.0000      0.0000    672.1564      7.7596    141.4137
  1182.2500      0.0000    679.0446      7.4823    145.8101
  1182.5000      0.0000    685.2139      7.3621    146.1535
  1182.7500      0.0000    690.2657      7.3468    141.9036
  1183.0000      0.0000    693.5829      7.3992    135.1123
  1183.2500      0.0000    695.5697      7.5092    128.6655
  1183.5000      0.0000    696.9626      7.6785    124.3088
  1183.7500      0.0000    697.3959      7.8946    122.0951
  1184.0000      0.0000    695.5193      8.1200    121.0276
  1184.2500      0.0000    690.6064      8.3128    119.8063
  1184.5000      0.0000    683.3727      8.4630    117.5790
  1184.7500      0.0000    674.8447      8.5992    115.0898
  1185.0000      0.0000    665.1446      8.7558    114.9489
  1185.2500      0.0000    653.8562      8.9377    119.5400
  1185.5000      0.0000    640.7836      9.1133    128.3301
  1185.7500      0.0000    625.0237      9.2384    137.9118
  1186.0000      0.0000    603.5209      9.2937    144.6407
  1186.2500      0.0000    572.6257      9.3089    146.8076
  1186.5000      0.0000    533.1833      9.3464    144.8431
  1186.7500      0.0000    493.3878      9.4586    140.5232
  1187.0000      0.0000    463.8124      9.6580    136.2104
  1187.2500      0.0000    448.9318      9.9202    133.9532
  1187.5000      0.0000    446.1162     10.1978    134.2422
  1187.7500      0.0000    453.2878     10.4312    135.7043
  1188.0000      0.0000    473.2014     10.5719    136.7729
  1188.2500      0.0000    507.3424     10.6096    137.5822
  1188.5000      0.0000    548.6461     10.5693    139.5077
  1188.7500      0.0000    583.5120     10.4776    143.0264
  1189.0000      0.0000    600.4706     10.3418    146.8999
  1189.2500      0.0000    597.2422     10.1596    149.5742
  1189.5000      0.0000    582.5321      9.9282    150.6696
  1189.7500      0.0000    571.3573      9.6363    150.8005
  1190.0000      0.0000    574.4421      9.2739    150.5076
  1190.2500      0.0000    589.8502      8.8631    149.9219
  1190.5000      0.0000    606.9085      8.4633    149.3053
  1190.7500      0.0000    618.4772      8.1318    149.3213
  1191.0000      0.0000    626.5157      7.8861    150.3808
  1191.2500      0.0000    635.7581      7.7140    151.8695
  1191.5000      0.0000    646.3389      7.6118    152.5197
  1191.7500      0.0000    654.7648      7.5971    151.6077
  1192.0000      0.0000    659.2517      7.6776    149.4138
  1192.2500      0.0000    661.2155      7.8126    146.6874
  1192.5000      0.0000    662.2581      7.9210    144.3193
  1192.7500      0.0000    661.5059      7.9349    143.4295
  1193.0000      0.0000    656.0326      7.8483    144.8825
  1193.2500      0.0000    643.0864      7.7128    148.3111
  1193.5000      0.0000    622.6889      7.5843    152.0610
  1193.7500      0.0000    600.0770      7.4814    154.2842
  1194.0000      0.0000    585.2985      7.3988    153.7182
  1194.2500      0.0000    587.0568      7.3486    149.6869
  1194.5000      0.0000    604.8888      7.3630    142.4693
  1194.7500      0.0000    628.8601      7.4426    133.9567
  1195.0000      0.0000    647.9524      7.5182    127.1495
  1195.2500      0.0000    657.8385      7.4863    124.5290
  1195.5000      0.0000    661.2979      7.2957    126.8378
  1195.7500      0.0000    663.5579      6.9919    132.9785
