~Version Information
VERS.                      2.0: CWLS Log ASCII Standard - VERSION 2.0
WRAP.                       NO: One line per depth step
~Well Information Block
STRT.FT               -14.5000: 
STOP.FT              2676.5000: 
STEP.FT                 0.1000: 
NULL.                -999.2500: 
COMP.          Petrogulf Corporation: COMPANY
WELL.          Latiluppe 8-13V: WELL
FLD.           Purgatorie River: FIELD
LOC.           1069' FWL & 1647' FSL: LOCATION
CNTY.               Las Animas: COUNTY
SRVC.                         : SERVICE COMPANY
DATE.          Tue Nov 18 16:12:50 2003: LOG DATE
UWI.                          : UNIQUE WELL ID
STAT.                 Colorado: STATE
~Curve Information Block
DEPT.FT            0 000 00 00: Depth
CCL.                          : Casing Collar Locator
TT3.usec                      : CBL 3' Travel Time
AMP3.mV                       : CBL 3' Amplitude
GR.GAPI                       : Gamma Ray
~Parameter Information Block
~A  Depth       CCL         TT3         AMP3         GR     
# ...
   347.3000      0.0000    883.8033      3.9084     86.4925
   347.4000      0.0000    883.8033      3.9084     86.4925
   347.5000      0.0000    880.6682      3.8812     85.6631
   347.6000      0.0000    880.6682      3.8812     85.6631
   347.7000      0.0000    880.6682      3.8812     85.6631
   347.8000      0.0000    877.8362      3.9058     85.2686
   347.9000      0.0000    877.8362      3.9058     85.2686
   348.0000      0.0000    871.4277      3.9711     84.5195
   348.1000      0.0000    871.4277      3.9711     84.5195
   348.2000      0.0000    871.4277      3.9711     84.5195
   348.3000      0.0000    860.8638      4.0568     82.6343
   348.4000      0.0000    860.8638      4.0568     82.6343
   348.5000      0.0000    850.0867      4.1575     79.2960
   348.6000      0.0000    850.0867      4.1575     79.2960
   348.7000      0.0000    850.0867      4.1575     79.2960
   348.8000      0.0000    844.5853      4.2783     74.8085
   348.9000      0.0000    844.5853      4.2783     74.8085
   349.0000      0.0000    845.0302      4.4118     70.0908
   349.1000      0.0000    845.0302      4.4118     70.0908
   349.2000      0.0000    845.0302      4.4118     70.0908
   349.3000      0.0000    844.7212      4.5302     66.1965
   349.4000      0.0000    844.7212      4.5302     66.1965
   349.5000      0.0000    835.1814      4.6083     63.6086
   349.6000      0.0000    835.1814      4.6083     63.6086
   349.7000      0.0000    835.1814      4.6083     63.6086
   349.8000      0.0000    813.7813      4.6502     62.1226
   349.9000      0.0000    813.7813      4.6502     62.1226
   350.0000      0.0000    785.3083      4.6890     61.3693
   350.1000      0.0000    785.3083      4.6890     61.3693
   350.2000      0.0000    785.3083      4.6890     61.3693
   350.3000      0.0000    758.0319      4.7557     61.2038
   350.4000      0.0000    758.0319      4.7557     61.2038
   350.5000      0.0000    739.8815      4.8516     61.7415
   350.6000      0.0000    739.8815      4.8516     61.7415
   350.7000      0.0000    739.8815      4.8516     61.7415
   350.8000      0.0000    736.2302      4.9535     63.4278
   350.9000      0.0000    736.2302      4.9535     63.4278
   351.0000      0.0000    747.2187      5.0463     66.9337
   351.1000      0.0000    747.2187      5.0463     66.9337
   351.2000      0.0000    747.2187      5.0463     66.9337
   351.3000      0.0000    766.3669      5.1394     72.3415
   351.4000      0.0000    766.3669      5.1394     72.3415
   351.5000      0.0000    784.1747      5.2433     78.2090
   351.6000      0.0000    784.1747      5.2433     78.2090
   351.7000      0.0000    784.1747      5.2433     78.2090
   351.8000      0.0000    794.4543      5.3366     82.0449
   351.9000      0.0000    794.4543      5.3366     82.0449
   352.0000      0.0000    796.4915      5.3734     82.1983
   352.1000      0.0000    796.4915      5.3734     82.1983
   352.2000      0.0000    796.4915      5.3734     82.1983
   352.3000      0.0000    791.4241      5.3313     79.1397
   352.4000      0.0000    791.4241      5.3313     79.1397
   352.5000      0.0000    778.7183      5.2435     74.7355
   352.6000      0.0000    778.7183      5.2435     74.7355
   352.7000      0.0000    778.7183      5.2435     74.7355
   352.8000      0.0000    757.8492      5.1748     70.6886
   352.9000      0.0000    757.8492      5.1748     70.6886
   353.0000      0.0000    732.5554      5.1635     67.9088
   353.1000      0.0000    732.5554      5.1635     67.9088
   353.2000      0.0000    732.5554      5.1635     67.9088
   353.3000      0.0000    711.3059      5.1906     66.8602
   353.4000      0.0000    711.3059      5.1906     66.8602
   353.5000      0.0000    701.8039      5.2051     67.8088
   353.6000      0.0000    701.8039      5.2051     67.8088
   353.7000      0.0000    701.8039      5.2051     67.8088
   353.8000      0.0000    704.6518      5.1783     70.6204
   353.9000      0.0000    704.6518      5.1783     70.6204
   354.0000      0.0000    711.5294      5.1261     74.5810
   354.1000      0.0000    711.5294      5.1261     74.5810
   354.2000      0.0000    711.5294      5.1261     74.5810
   354.3000      0.0000    708.6501      5.0777     78.5919
   354.4000      0.0000    708.6501      5.0777     78.5919
   354.5000      0.0000    683.7161      5.0302     81.6464
   354.6000      0.0000    683.7161      5.0302     81.6464
   354.7000      0.0000    683.7161      5.0302     81.6464
   354.8000      0.0000    634.1359      4.9471     83.2609
   354.9000      0.0000    634.1359      4.9471     83.2609
   355.0000      0.0000    571.8757      4.8024     83.5856
   355.1000      0.0000    571.8757      4.8024     83.5856
   355.2000      0.0000    571.8757      4.8024     83.5856
   355.3000      0.0000    519.8084      4.6172     83.2857
   355.4000      0.0000    519.8084      4.6172     83.2857
   355.5000      0.0000    500.5563      4.4449     83.4142
   355.6000      0.0000    500.5563      4.4449     83.4142
   355.7000      0.0000    500.5563      4.4449     83.4142
   355.8000      0.0000    525.3149      4.3260     84.8438
   355.9000      0.0000    525.3149      4.3260     84.8438
   356.0000      0.0000    588.4077      4.2599     87.1343
   356.1000      0.0000    588.4077      4.2599     87.1343
   356.2000      0.0000    588.4077      4.2599     87.1343
   356.3000      0.0000    669.6389      4.2187     88.3205
   356.4000      0.0000    669.6389      4.2187     88.3205
   356.5000      0.0000    744.9230      4.1825     86.6838
   356.6000      0.0000    744.9230      4.1825     86.6838
   356.7000      0.0000    744.9230      4.1825     86.6838
   356.8000      0.0000    798.7769      4.1598     82.6869
   356.9000      0.0000    798.7769      4.1598     82.6869
   357.0000      0.0000    827.6220      4.1729     78.5595
   357.1000      0.0000    827.6220      4.1729     78.5595
   357.2000      0.0000    827.6220      4.1729     78.5595
   357.3000      0.0000    833.8978      4.2290     76.0284
   357.4000      0.0000    833.8978      4.2290     76.0284
   357.5000      0.0000    821.8488      4.3074     74.8411
   357.6000      0.0000    821.8488      4.3074     74.8411
   357.7000      0.0000    821.8488      4.3074     74.8411
   357.8000      0.0000    798.9162      4.3758     73.4715
   357.9000      0.0000    798.9162      4.3758     73.4715
   358.0000      0.0000    775.8394      4.4174     70.9030
   358.1000      0.0000    775.8394      4.4174     70.9030
   358.2000      0.0000    775.8394      4.4174     70.9030
   358.3000      0.0000    762.7164      4.4369     67.5862
   358.4000      0.0000    762.7164      4.4369     67.5862
   358.5000      0.0000    765.5277      4.4458     64.9637
   358.6000      0.0000    765.5277      4.4458     64.9637
   358.7000      0.0000    765.5277      4.4458     64.9637
   358.8000      0.0000    784.7062      4.4462     64.4261
   358.9000      0.0000    784.7062      4.4462     64.4261
   359.0000      0.0000    813.9961      4.4327     66.5124
   359.1000      0.0000    813.9961      4.4327     66.5124
   359.2000      0.0000    813.9961      4.4327     66.5124
   359.3000      0.0000    841.6066      4.4033     70.5784
   359.4000      0.0000    841.6066      4.4033     70.5784
   359.5000      0.0000    856.0137      4.3604     75.1851
   359.6000      0.0000    856.0137      4.3604     75.1851
   359.7000      0.0000    856.0137      4.3604     75.1851
   359.8000      0.0000    852.9827      4.3039     79.1070
   359.9000      0.0000    852.9827      4.3039     79.1070
   360.0000      0.0000    838.4136      4.2259     82.1981
   360.1000      0.0000    838.4136      4.2259     82.1981
   360.2000      0.0000    838.4136      4.2259     82.1981
   360.3000      0.0000    824.6277      4.1204     85.4017
   360.4000      0.0000    824.6277      4.1204     85.4017
   360.5000      0.0000    822.0305      3.9977     89.8641
   360.6000      0.0000    822.0305      3.9977     89.8641
