~Version Information
VERS.                      2.0: CWLS Log ASCII Standard - VERSION 2.0
WRAP.                       NO: One line per depth step
~Well Information Block
STRT.FT                -1.5000: 
STOP.FT              1317.0000: 
STEP.FT                 0.2500: 
NULL.                -999.2500: 
COMP.          Pioneer Natural Resources: COMPANY
WELL.              Border 21-3: WELL
FLD.           Purgatoire River: FIELD
LOC.           865' FNL & 1415' FWL: LOCATION
PROV.                 Colorado: PROVINCE
CNTY.               Las Animas: COUNTRY
SRVC.                Patterson: SERVICE COMPANY
DATE.          Tue Dec 14 14:08:05 2004: LOG DATE
UWI.           05 071 08169 00: UNIQUE WELL ID
~Curve Information Block
DEPT.FT            0 000 00 00: Depth
GR.GAPI                       : Gamma Ray
CCL.                          : Casing Collar Locator
TT3.usec                      : CBL 3' Travel Time
AMP3.mV                       : CBL 3' Amplitude
~Parameter Information Block
~A  Depth        GR         CCL         TT3         AMP3    
# ...
   668.5000    128.5998      0.0000    779.1821      8.4304
   668.7500    131.1579      0.0000    779.0016      8.5203
   669.0000    132.9613      0.0000    778.8381      8.5645
   669.2500    134.4250      0.0000    778.7103      8.5375
   669.5000    135.7121      0.0000    778.6343      8.4386
   669.7500    136.5130      0.0000    778.6271      8.2904
   670.0000    136.4072      0.0000    778.6832      8.1275
   670.2500    135.6273      0.0000    778.7519      7.9774
   670.5000    135.1734      0.0000    778.7584      7.8471
   670.7500    135.8402      0.0000    778.6639      7.7311
   671.0000    137.3036      0.0000    778.4988      7.6288
   671.2500    138.4558      0.0000    778.3301      7.5483
   671.5000    138.2886      0.0000    778.2010      7.4982
   671.7500    136.2664      0.0000    778.1121      7.4839
   672.0000    132.6286      0.0000    778.0519      7.5089
   672.2500    128.8721      0.0000    778.0232      7.5697
   672.5000    127.1765      0.0000    778.0363      7.6491
   672.7500    128.5301      0.0000    778.0945      7.7201
   673.0000    131.6259      0.0000    778.1911      7.7581
   673.2500    133.9830      0.0000    778.3121      7.7533
   673.5000    133.9884      0.0000    778.4421      7.7163
   673.7500    131.8089      0.0000    778.5804      7.6735
   674.0000    128.8615      0.0000    778.7446      7.6478
   674.2500    126.6870      0.0000    778.9519      7.6419
   674.5000    125.9632      0.0000    779.1961      7.6419
   674.7500    126.1977      0.0000    779.4442      7.6369
   675.0000    126.3083      0.0000    779.6451      7.6300
   675.2500    125.5698      0.0000    779.7440      7.6333
   675.5000    124.1569      0.0000    779.7041      7.6545
   675.7500    123.0270      0.0000    779.5365      7.6912
   676.0000    123.2698      0.0000    779.3066      7.7329
   676.2500    125.2803      0.0000    779.0996      7.7684
   676.5000    128.3528      0.0000    778.9662      7.7928
   676.7500    131.0396      0.0000    778.8952      7.8097
   677.0000    132.0709      0.0000    778.8040      7.8292
   677.2500    131.2147      0.0000    778.4908      7.8620
   677.5000    129.3094      0.0000    777.5331      7.9104
   677.7500    127.3112      0.0000    775.2695      7.9633
   678.0000    125.3387      0.0000    771.1039      8.0017
   678.2500    122.6326      0.0000    765.1437      8.0138
   678.5000    118.2394      0.0000    758.6235      7.9993
   678.7500    111.7782      0.0000    753.5049      7.9601
   679.0000    103.8602      0.0000    751.4352      7.8905
   679.2500     95.8972      0.0000    752.8535      7.7816
   679.5000     89.4749      0.0000    756.6497      7.6369
   679.7500     85.8394      0.0000    760.4564      7.4852
   680.0000     85.7236      0.0000    761.7505      7.3773
   680.2500     89.2807      0.0000    759.4482      7.3631
   680.5000     96.0539      0.0000    754.7443      7.4578
   680.7500    105.0853      0.0000    750.3265      7.6242
   681.0000    115.0991      0.0000    748.6738      7.7891
   681.2500    124.6192      0.0000    750.8379      7.8875
   681.5000    132.1663      0.0000    756.2103      7.8932
   681.7500    136.7760      0.0000    762.9973      7.8164
   682.0000    138.5583      0.0000    769.1550      7.6844
   682.2500    138.5559      0.0000    773.4017      7.5299
   682.5000    137.7475      0.0000    775.6130      7.3868
   682.7500    136.3205      0.0000    776.4135      7.2818
   683.0000    134.2687      0.0000    776.5316      7.2272
   683.2500    132.4966      0.0000    776.4575      7.2214
   683.5000    132.6331      0.0000    776.4132      7.2547
   683.7500    135.5878      0.0000    776.4498      7.3148
   684.0000    140.6355      0.0000    776.5534      7.3905
   684.2500    145.8223      0.0000    776.7054      7.4758
   684.5000    148.9954      0.0000    776.8809      7.5681
   684.7500    148.7742      0.0000    777.0488      7.6611
   685.0000    145.2167      0.0000    777.2038      7.7418
   685.2500    139.7353      0.0000    777.3759      7.7963
   685.5000    134.1238      0.0000    777.5856      7.8179
   685.7500    129.7052      0.0000    777.8065      7.8089
   686.0000    127.3394      0.0000    777.9718      7.7799
   686.2500    127.4006      0.0000    777.9741      7.7505
   686.5000    129.0745      0.0000    777.6097      7.7453
   686.7500    130.2481      0.0000    776.5819      7.7783
   687.0000    129.0184      0.0000    774.7156      7.8390
   687.2500    125.2852      0.0000    772.1522      7.8993
   687.5000    120.4754      0.0000    769.0214      7.9371
   687.7500    116.0961      0.0000    764.7934      7.9533
   688.0000    112.9632      0.0000    758.4859      7.9674
   688.2500    111.2097      0.0000    750.2153      7.9998
   688.5000    110.2191      0.0000    742.5367      8.0584
   688.7500    108.7675      0.0000    739.5009      8.1344
   689.0000    105.9304      0.0000    743.5718      8.2093
   689.2500    101.9245      0.0000    753.2805      8.2699
   689.5000     97.7573      0.0000    764.2667      8.3177
   689.7500     94.2044      0.0000    772.6836      8.3631
   690.0000     91.4694      0.0000    777.4006      8.4098
   690.2500     89.7056      0.0000    779.4283      8.4446
   690.5000     89.3968      0.0000    780.1678      8.4468
   690.7500     91.0318      0.0000    780.4165      8.4054
   691.0000     94.4408      0.0000    780.4006      8.3307
   691.2500     98.5286      0.0000    780.1558      8.2490
   691.5000    101.9073      0.0000    779.7593      8.1864
   691.7500    103.9420      0.0000    779.3398      8.1541
   692.0000    104.9690      0.0000    778.9933      8.1401
   692.2500    105.5359      0.0000    778.7404      8.1199
   692.5000    105.8839      0.0000    778.5381      8.0778
   692.7500    106.2269      0.0000    778.3121      8.0216
   693.0000    106.9904      0.0000    777.9236      7.9731
   693.2500    108.5173      0.0000    777.0492      7.9453
   693.5000    110.7545      0.0000    774.9639      7.9304
   693.7500    113.4426      0.0000    770.5205      7.9098
   694.0000    116.5724      0.0000    762.7747      7.8743
   694.2500    120.5344      0.0000    752.1372      7.8343
   694.5000    125.6540      0.0000    740.8495      7.8082
   694.7500    131.4560      0.0000    731.9327      7.8018
   695.0000    136.5327      0.0000    727.6367      7.7996
   695.2500    139.5089      0.0000    728.8862      7.7788
   695.5000    140.1436      0.0000    735.4490      7.7338
   695.7500    139.3112      0.0000    745.8127      7.6883
   696.0000    138.1171      0.0000    757.2039      7.6770
   696.2500    137.2520      0.0000    766.7265      7.7150
   696.5000    136.8859      0.0000    772.9053      7.7860
   696.7500    136.7531      0.0000    776.0438      7.8569
   697.0000    136.3728      0.0000    777.2850      7.8997
   697.2500    135.3500      0.0000    777.6281      7.9062
   697.5000    133.3947      0.0000    777.6187      7.8885
   697.7500    130.1111      0.0000    777.4935      7.8644
   698.0000    125.0889      0.0000    777.3403      7.8386
   698.2500    118.5683      0.0000    777.1859      7.8023
   698.5000    112.0649      0.0000    777.0371      7.7531
   698.7500    107.9968      0.0000    776.9007      7.7084
   699.0000    108.1216      0.0000    776.7885      7.6934
   699.2500    112.0216      0.0000    776.7101      7.7169
   699.5000    117.3839      0.0000    776.6379      7.7601
   699.7500    122.1493      0.0000    776.4067      7.7861
   700.0000    126.1628      0.0000    775.5051      7.7648
   700.2500    130.3562      0.0000    772.7950      7.6906
   700.5000    134.8703      0.0000    766.5314      7.5813
   700.7500    138.6185      0.0000    755.5125      7.4709
   701.0000    140.2790      0.0000    741.5208      7.4030
   701.2500    139.0728      0.0000    730.6851      7.4052
   701.5000    134.9851      0.0000    730.4397      7.4488
   701.7500    128.9546      0.0000    743.2469      7.4622
