~Version Information
VERS.                      2.0: CWLS Log ASCII Standard - VERSION 2.0
WRAP.                       NO: One line per depth step
~Well Information Block
STRT.FT               492.8000: 
STOP.FT              1992.0000: 
STEP.FT                 0.1000: 
NULL.                -999.2500: 
COMP.          Petrogulf Corporation: COMPANY
WELL.               Furu 6-23R: WELL
FLD.           Purgatoire River: FIELD
LOC.           2211' FSL & 1780' FWL--: LOCATION
CNTY.               Las Animas: COUNTY
SRVC.                Patterson: SERVICE COMPANY
DATE.          Thu Jun 22 14:21:35 2006: LOG DATE
UWI.           05 071 08266 00: UNIQUE WELL ID
STAT.                 Colorado: STATE
~Curve Information Block
DEPT.FT            0 000 00 00: Depth
DCAL.in                       : CDL Caliper
RHOB.g/cc                     : CDL Bulk Density
RHOC.g/cc                     : CDL Density Correction
DPOR.pu                       : CDL Density Porosity
NPOR.pu                       : Neutron Porosity
GR.GAPI                       : Gamma Ray
~Parameter Information Block
~A  Depth       DCAL        RHOB        RHOC        DPOR        NPOR         GR     
# ...
   982.4000      7.9299      2.2087      0.2807     26.7460     24.6301    146.1606
   982.5000      7.9215      2.1554      0.2605     29.9734     25.1843    141.4821
   982.6000      7.9215      2.0827      0.1472     34.3847     25.5301    136.6882
   982.7000      7.9215      2.0133      0.1221     38.5885     25.8233    130.0940
   982.8000      7.9129      1.9459      0.1367     42.6742     25.4806    124.8882
   982.9000      7.9129      1.8769      0.0844     46.8550     23.9943    123.6750
   983.0000      7.9025      1.8272      0.0560     49.8654     21.7345    123.7502
   983.1000      7.9025      1.8055      0.1035     51.1839     19.4738    123.9322
   983.2000      7.9025      1.7956      0.1107     51.7815     17.8339    125.4730
   983.3000      7.8934      1.7912      0.1474     52.0484     16.8295    125.0923
   983.4000      7.8934      1.8000      0.1524     51.5180     16.1211    121.5234
   983.5000      7.8891      1.8276      0.1403     49.8421     15.7469    117.4918
   983.6000      7.8891      1.8706      0.1494     47.2349     15.8758    117.3272
   983.7000      7.8891      1.9226      0.1073     44.0877     16.2169    123.6236
   983.8000      7.8946      1.9785      0.1472     40.6944     16.6017    129.7363
   983.9000      7.8946      2.0294      0.1535     37.6126     17.2279    128.1021
   984.0000      7.9164      2.0652      0.1178     35.4426     17.9729    123.3105
   984.1000      7.9164      2.0757      0.1225     34.8087     18.5100    121.7171
   984.2000      7.9164      2.0476      0.1047     36.5091     18.8836    120.4454
   984.3000      7.9435      1.9781      0.0759     40.7196     19.1885    116.1969
   984.4000      7.9435      1.8818      0.0361     46.5582     18.9794    112.3453
   984.5000      7.9589      1.7775     -0.0356     52.8799     18.0455    112.5614
   984.6000      7.9589      1.6762     -0.0766     59.0193     16.9655    114.2228
   984.7000      7.9589      1.5872     -0.1152     64.4101     15.9616    112.6089
   984.8000      7.9696      1.5212     -0.1196     68.4132     14.7723    107.3754
   984.9000      7.9696      1.4701     -0.0683     71.5082     13.4035    101.7258
   985.0000      7.9953      1.4186     -0.0788     74.6298     12.2137     96.9857
   985.1000      7.9953      1.3798     -0.0566     76.9842     11.5224     90.7670
   985.2000      7.9953      1.3684      0.1491     77.6729     11.3143     81.9010
   985.3000      8.0375      1.3649      0.2264     77.8820     11.3052     71.3245
   985.4000      8.0375      1.3494      0.2016     78.8233     11.2958     62.0989
   985.5000      8.0714      1.3259      0.1781     80.2515     11.2248     58.3222
   985.6000      8.0714      1.3043      0.1395     81.5594     10.9003     60.4421
   985.7000      8.0714      1.2891      0.1007     82.4773     10.2477     63.8902
   985.8000      8.0837      1.2757      0.0987     83.2884      9.4664     64.8508
   985.9000      8.0837      1.2533      0.0513     84.6512      8.6438     62.4805
   986.0000      8.0725      1.2162      0.0522     86.8989      7.8138     56.3915
   986.1000      8.0725      1.1675      0.0493     89.8498      7.0343     49.6687
   986.2000      8.0725      1.1241      0.0189     92.4782      6.3845     46.6436
   986.3000      8.0266      1.1228     -0.0102     92.5573      6.0741     48.9159
   986.4000      8.0266      1.2014      0.0394     87.7949      6.2203     54.3954
   986.5000      7.9799      1.3690      0.1567     77.6358      6.7171     59.9656
   986.6000      7.9799      1.5962      0.3107     63.8677      7.5626     64.5565
   986.7000      7.9799      1.8323      0.4845     49.5602      8.7736     68.6717
   986.8000      7.9716      2.0362      0.5630     37.1980     10.1861     77.0665
   986.9000      7.9716      2.1895      0.5827     27.9093     11.6867     90.7881
   987.0000      7.9798      2.2937      0.5230     21.5959     13.3586    102.1465
   987.1000      7.9798      2.3758      0.4560     16.6187     15.2854    108.6209
   987.2000      7.9798      2.4637      0.3923     11.2926     17.4969    111.5908
   987.3000      7.9449      2.5414      0.3419      6.5808     19.8845    110.3207
   987.4000      7.9449      2.5753      0.2086      4.5262     21.9857    109.8377
   987.5000      7.8660      2.5776      0.0862      4.3883     23.4674    115.2728
   987.6000      7.8660      2.5804      0.0868      4.2178     24.5295    124.2010
   987.7000      7.8660      2.5892      0.0446      3.6855     25.4883    131.5314
   987.8000      7.8158      2.6013      0.0831      2.9501     26.4531    132.1783
   987.9000      7.8158      2.6163      0.0770      2.0443     27.3144    124.3979
   988.0000      7.8024      2.6310      0.0997      1.1522     28.0082    115.2500
   988.1000      7.8024      2.6445      0.0676      0.3359     28.5532    114.1809
   988.2000      7.8024      2.6550      0.1010     -0.3047     28.8335    120.1305
   988.3000      7.7987      2.6559      0.0866     -0.3573     28.7162    124.9630
   988.4000      7.7987      2.6548      0.0759     -0.2919     28.3071    129.6057
   988.5000      7.7962      2.6611      0.0957     -0.6718     28.0211    137.4627
   988.6000      7.7962      2.6561      0.0965     -0.3715     27.8920    141.1338
   988.7000      7.7962      2.6289      0.0269      1.2808     27.5049    138.9502
   988.8000      7.7949      2.6011      0.0362      2.9618     26.9648    137.7283
   988.9000      7.7949      2.5846      0.0430      3.9621     26.8726    134.6856
   989.0000      7.7956      2.5735      0.0311      4.6374     27.1615    128.7471
   989.1000      7.7956      2.5721      0.0195      4.7191     27.0866    128.5442
   989.2000      7.7956      2.5827      0.0731      4.0771     26.5183    135.2278
   989.3000      7.7946      2.5868      0.0944      3.8284     25.9959    140.4785
   989.4000      7.7946      2.5703      0.0703      4.8308     25.7848    138.8414
   989.5000      7.7914      2.5498      0.0028      6.0754     25.8578    134.8931
   989.6000      7.7914      2.5494      0.0676      6.0996     26.1438    135.1560
   989.7000      7.7914      2.5626      0.0807      5.2992     26.5827    136.6684
   989.8000      7.7902      2.5621      0.0951      5.3275     27.0740    135.3285
   989.9000      7.7902      2.5452     -0.0013      6.3519     27.3118    135.0927
   990.0000      7.7917      2.5388      0.0083      6.7388     27.3091    136.5462
   990.1000      7.7917      2.5504      0.0477      6.0370     27.5003    133.8954
   990.2000      7.7917      2.5616      0.0413      5.3589     27.8789    129.7575
   990.3000      7.7939      2.5652      0.0262      5.1418     28.0708    129.0814
   990.4000      7.7939      2.5722      0.0386      4.7180     28.0766    128.3863
   990.5000      7.7927      2.5885      0.1042      3.7281     27.9371    125.7843
   990.6000      7.7927      2.6010      0.1051      2.9708     27.5620    122.9329
   990.7000      7.7927      2.5982      0.1163      3.1397     27.3088    120.0845
   990.8000      7.7891      2.5976      0.0575      3.1762     27.6051    117.3863
   990.9000      7.7891      2.6252      0.0574      1.5049     28.2512    118.4831
   991.0000      7.7897      2.6688      0.1199     -1.1420     28.8787    123.2586
   991.1000      7.7897      2.6956      0.1198     -2.7607     29.3466    124.5052
   991.2000      7.7897      2.6992      0.0974     -2.9837     29.4915    120.5595
   991.3000      7.7945      2.6906      0.1160     -2.4598     29.3059    114.8430
   991.4000      7.7945      2.6722      0.0885     -1.3460     29.0702    108.6350
   991.5000      7.7978      2.6477      0.0241      0.1384     29.0192    103.9131
   991.6000      7.7978      2.6215      0.0424      1.7303     29.2740    102.5252
   991.7000      7.7978      2.5989     -0.0111      3.0977     29.8487    102.5220
   991.8000      7.7971      2.5971     -0.0534      3.2084     30.3571    103.4612
   991.9000      7.7971      2.6269     -0.0324      1.3971     30.4218    107.4116
