~Version Information
VERS.                      2.0: CWLS Log ASCII Standard - VERSION 2.0
WRAP.                       NO: One line per depth step
~Well Information Block
STRT.FT               710.0000: 
STOP.FT              2922.5000: 
STEP.FT                 0.2500: 
NULL.                -999.2500: 
COMP.          Petrogulf Corporation: COMPANY
WELL.            Montoya 1-41V: WELL
FLD.           Purgatorie River: FIELD
LOC.           610' FNL & 1205' FEL: LOCATION
PROV.                 Colorado: PROVINCE
CNTY.               Las Animas: COUNTRY
SRVC.                Patterson: SERVICE COMPANY
DATE.          Mon Aug 22 08:00:56 2005: LOG DATE
UWI.                          : UNIQUE WELL ID
~Curve Information Block
DEPT.FT            0 000 00 00: Depth
SP.mV                         : DIL Spontaneous Potential
RILD.Ohm-m                    : DIL Deep Resistivity
RILM.Ohm-m                    : DIL Medium Resistivity
RLL3.Ohm-m                    : DIL Shallow Resistivity
GR.GAPI                       : Gamma Ray
~Parameter Information Block
~A  Depth        SP         RILD        RILM        RLL3         GR     
# ...
  2166.0000     35.3638      8.4501      9.1808     12.6349    149.2435
  2166.2500     36.5086      8.5178      9.3334     12.7437    151.4584
  2166.5000     37.6146      8.6520      9.4591     12.7569    143.8713
  2166.7500     38.5271      8.6059      9.3657     12.8387    135.9078
  2167.0000     39.0354      8.7851      9.3993     12.9236    147.3548
  2167.2500     39.1984      8.8037      9.5384     12.9445    164.9297
  2167.5000     39.2221      8.7436      9.7169     12.8712    152.8556
  2167.7500     39.0494      8.8929      9.6982     13.0153    147.9474
  2168.0000     38.7469      8.9538      9.7160     13.1308    143.7257
  2168.2500     38.3676      8.9137      9.8907     13.1568    146.3694
  2168.5000     38.0869      8.9900      9.7797     13.2496    126.3841
  2168.7500     37.9243      9.0571      9.9579     13.2451    128.1924
  2169.0000     37.8563      9.3090      9.8359     13.2768    134.2809
  2169.2500     37.9396      9.1922      9.9096     13.1711    161.1608
  2169.5000     38.3516      9.3775     10.0586     13.0676    122.1024
  2169.7500     39.1739      9.4448     10.1892     13.3522    132.5486
  2170.0000     40.3644      9.6057     10.2395     14.1680    132.2859
  2170.2500     41.9373      9.7758     10.4021     15.4820    111.0805
  2170.5000     43.6811      9.7864     10.6697     15.8346    133.1785
  2170.7500     45.3543     10.0611     10.7654     15.6461    147.9671
  2171.0000     46.7529     10.3298     10.9110     15.4023    157.2119
  2171.2500     47.8149     10.5375     11.2694     15.2105    145.0405
  2171.5000     48.5691     10.7341     11.6129     15.5167    155.2791
  2171.7500     49.2611     11.1398     12.1166     16.7732    145.7674
  2172.0000     49.9024     11.2330     12.6576     18.4683    145.7607
  2172.2500     50.5384     11.4244     12.9952     19.3943    145.0201
  2172.5000     51.1776     11.6366     13.0021     19.9752    154.1255
  2172.7500     51.7687     11.5744     13.0405     20.6631    145.1581
  2173.0000     52.3451     11.8920     13.5942     20.9391    137.5764
  2173.2500     52.9219     12.3812     13.4600     20.6778    132.7842
  2173.5000     53.4463     12.7271     13.4547     20.8824    149.6766
  2173.7500     53.9904     12.9463     13.7021     20.3285    141.2570
  2174.0000     54.5315     13.4177     13.8914     19.1503    140.4025
  2174.2500     55.0917     14.2683     14.5300     18.3800    127.0096
  2174.5000     55.6668     14.1768     14.6500     18.3059    149.6237
  2174.7500     56.2792     14.9529     15.2664     18.8297    154.5021
  2175.0000     57.0034     15.5319     16.3262     20.0132    121.5832
  2175.2500     57.6242     15.8168     17.2783     23.9334    133.1971
  2175.5000     58.1831     16.2641     17.8546     31.1423    125.1278
  2175.7500     58.6753     16.3344     19.0620     35.9564    127.9533
  2176.0000     59.1270     16.3908     19.3811     34.8633    118.8850
  2176.2500     59.5695     16.9378     20.0523     33.4345    140.2976
  2176.5000     60.2109     17.4272     20.8726     30.4235    135.6505
  2176.7500     61.1460     17.0962     21.2420     25.9737    132.1940
  2177.0000     62.4981     17.4719     21.7805     29.3642    120.4360
  2177.2500     64.1305     17.3725     21.9628     41.2870    121.4803
  2177.5000     66.2622     16.8617     22.5750     48.5905     95.8051
  2177.7500     68.2930     18.0059     21.5893     44.9101    119.4113
  2178.0000     70.2231     16.8111     19.7648     33.6045    120.2885
  2178.2500     71.7799     17.3232     19.2839     23.5143    126.3708
  2178.5000     72.7259     16.7367     17.4505     20.3821    142.0707
  2178.7500     73.2007     17.1661     16.3310     20.4612    147.9505
  2179.0000     73.5077     17.4015     16.1900     19.5809    145.3746
  2179.2500     73.8557     17.0957     16.1536     17.7351    149.8385
  2179.5000     74.1377     17.1290     16.5742     16.9438    121.0269
  2179.7500     74.3360     15.5882     17.0416     19.6568    129.6290
  2180.0000     74.3849     16.1606     17.4110     25.2250    134.6294
  2180.2500     74.2828     15.8080     17.4585     28.3077    128.9615
  2180.5000     74.0876     15.8615     17.6930     28.4216    110.8714
  2180.7500     73.8121     15.1886     17.0739     28.4818    121.4641
  2181.0000     73.5169     14.9203     16.7782     26.5391    134.4054
  2181.2500     73.3521     14.8799     17.0054     24.4916    131.7224
  2181.5000     73.1965     15.0573     16.1129     22.4299    160.0892
  2181.7500     72.9724     14.7054     16.4613     22.1367    142.4292
  2182.0000     72.7335     15.3988     16.3895     23.2259    133.7924
  2182.2500     72.5233     15.5905     16.4892     23.5776    133.5872
  2182.5000     72.3189     15.5459     16.1693     23.1720    150.3525
  2182.7500     72.0686     15.2233     16.3449     23.1222    143.6649
  2183.0000     71.8820     15.5644     16.1293     23.4260    121.2423
  2183.2500     71.6557     15.4309     16.0977     21.1774    143.8248
  2183.5000     71.3157     15.7338     17.2880     19.3815    157.6437
  2183.7500     70.7838     15.5207     16.4609     20.1376    147.6085
  2184.0000     70.0998     15.1677     16.9183     22.5012    122.1134
  2184.2500     69.3760     15.3073     17.6158     26.1831    126.0436
  2184.5000     68.7545     15.6982     17.8100     30.7177    129.1964
  2184.7500     68.0960     15.5073     18.0458     33.3100    126.6664
  2185.0000     67.4487     15.3629     17.6870     33.2826    123.9841
  2185.2500     66.6652     15.3541     17.2057     29.0331    119.5641
  2185.5000     65.8631     15.6966     17.4198     25.1943    118.4327
  2185.7500     64.9043     15.3052     16.3420     23.9505    132.9758
  2186.0000     63.7229     15.7888     16.2553     22.0220    145.5728
  2186.2500     62.3378     16.2199     16.3282     20.4681    131.7567
  2186.5000     60.8167     16.9458     16.7907     19.6805    125.7855
  2186.7500     59.2779     17.2216     17.1093     19.3617    156.8627
  2187.0000     57.6617     18.0673     17.7555     19.9066    166.4526
  2187.2500     56.1228     19.2319     18.9346     20.7160    135.1406
  2187.5000     54.8677     19.3742     20.9450     24.5794     88.7185
  2187.7500     54.0176     20.3420     23.4027     40.3788     77.3128
  2188.0000     53.5280     20.5632     25.0860     75.2810     58.3467
  2188.2500     53.3815     20.4619     26.5755    111.1393     49.8972
  2188.5000     53.5716     20.8444     30.2679    120.0483     52.0087
  2188.7500     54.0730     20.9797     32.5867    114.5521     39.9084
  2189.0000     54.9803     20.8399     34.5652    108.3755     34.8585
  2189.2500     56.3615     20.3155     35.9355    109.6629     32.5850
  2189.5000     58.4475     19.3914     36.0913    123.9604     18.1155
  2189.7500     61.4688     18.0075     33.7241    145.7853     26.5342
  2190.0000     65.0392     17.4078     30.0998    162.4538     27.3282
  2190.2500     68.9475     17.4861     25.5787    146.7791     28.5777
  2190.5000     72.9391     17.2349     21.4229     91.9249     44.5814
  2190.7500     76.4179     16.7019     16.6802     39.7878     68.3284
  2191.0000     78.9914     16.2279     14.7000     15.4984    114.7307
  2191.2500     80.2568     15.4993     14.0365      9.7567    144.2681
  2191.5000     80.3481     14.8280     13.3949     10.5063    156.7456
  2191.7500     80.2064     14.0638     13.7981     14.0429    160.5918
  2192.0000     79.9352     13.5721     14.0812     18.1520    158.7309
  2192.2500     79.7791     12.9451     14.1015     20.0872    129.1583
  2192.5000     79.7835     12.1684     13.6307     19.7853    114.0911
  2192.7500     79.8763     11.4767     13.1572     18.7077    123.6724
  2193.0000     79.9160     11.2942     12.6173     17.6594    125.9269
  2193.2500     79.8223     11.1717     12.1914     16.8626    134.7184
  2193.5000     79.6330     11.0262     11.9475     16.2841    126.0356
  2193.7500     79.4813     11.0030     11.7422     15.7531    120.0455
