~Version Information
 VERS.                                  2.0 : CWLS LAS VERSION
 WRAP.                                   NO : WRAPING MODE
 SWARE .                 MController 2.5.0J : SOFTWARE VERSION
~Well Information
 WELL.                          GETEM 21-21 : WELL
 COMP.    PIONEER NATURAL RESOURCES USA INC : COMPANY
 FLD.                      PURGATOIRE RIVER : FIELD
 LOC.                NE/NW SEC 23 T32S R67W : LOCATION
 DATE.                             06/18/05 : DATE(S) LOGGED
 SRVC.       BLANCO GEOLOGICAL SERVICES LLC : SERVICE COMPANY
 STAT.                             COLORADO : STATE
 CNTY.                           LAS ANIMAS : COUNTY
 CTRY.                                  USA : COUNTRY
 API.                       05-071-08411-00 : API NUMBER
 STRT.FT                             321.00 : START DEPTH
 STOP.FT                            2815.00 : STOP DEPTH
 STEP.FT                               1.00 : DEPTH INCREMENT
 NULL.                                -9999 : NULL VALUE
~Curve information
 DEPTH.FT                                   :
 ROP.MIN/FT                                 :
 GAS.UNITS                                  :
~ASCII Log data
# ...
      2521.0         0.30       1046.4 
      2522.0         0.27        953.5 
      2523.0         0.33        927.3 
      2524.0         0.30        895.6 
      2525.0         0.35        845.2 
      2526.0         0.40        791.2 
      2527.0         0.37        740.2 
      2528.0         0.40        704.8 
      2529.0         0.43        698.0 
      2530.0         0.40        706.8 
      2531.0         0.37        704.5 
      2532.0         0.40        700.3 
      2533.0         0.43        691.1 
      2534.0         0.32        677.7 
      2535.0         0.27        661.3 
      2536.0         0.27        642.7 
      2537.0         0.20        626.6 
      2538.0         0.27        612.6 
      2539.0         0.30        593.6 
      2540.0         0.30        577.2 
      2541.0         0.27        567.1 
      2542.0         0.30        568.1 
      2543.0         0.30        533.4 
      2544.0         0.23        574.0 
      2545.0         0.52        594.3 
      2546.0         6.05        882.1 
      2547.0         0.50        718.9 
      2548.0         0.38        683.9 
      2549.0         0.43        688.2 
      2550.0         0.37        744.1 
      2551.0         0.40        773.2 
      2552.0         0.40        755.2 
      2553.0         0.33        732.6 
      2554.0         0.37        699.3 
      2555.0         0.43        662.6 
      2556.0         0.17        669.8 
      2557.0         0.22        662.6 
      2558.0         0.20        653.1 
      2559.0         0.23        694.7 
      2560.0         0.27        654.1 
      2561.0         0.33        674.4 
      2562.0         0.33        690.4 
      2563.0         0.37        683.9 
      2564.0         0.33        769.3 
      2565.0         0.43        854.7 
      2566.0         0.47        776.8 
      2567.0         0.38        780.7 
      2568.0         0.30        750.3 
      2569.0         0.27        713.7 
      2570.0         0.23        680.6 
      2571.0         0.30        659.7 
      2572.0         0.40        621.1 
      2573.0         0.40        587.7 
      2574.0         0.33        575.9 
      2575.0         0.50        629.9 
      2576.0         9.98        792.2 
      2577.0         0.82        727.7 
      2578.0         0.30        686.8 
      2579.0         0.47        645.3 
      2580.0         0.40        638.8 
      2581.0         0.43        650.9 
      2582.0         0.50        760.1 
      2583.0         0.47        828.5 
      2584.0         0.43        816.4 
      2585.0         0.42        801.3 
      2586.0         0.50        791.5 
      2587.0         0.13        787.3 
      2588.0         0.10        775.5 
      2589.0         0.30        776.8 
      2590.0         0.53        754.6 
      2591.0         0.47        713.3 
      2592.0         0.33        643.3 
      2593.0         0.30        593.3 
      2594.0         0.27        583.1 
      2595.0         0.28        593.3 
      2596.0         0.17        618.8 
      2597.0         0.30        663.6 
      2598.0         0.27        702.9 
      2599.0         0.30        719.2 
      2600.0         0.23        662.3 
      2601.0         0.37        681.3 
      2602.0         0.43        763.1 
      2603.0         0.37       1379.4 
      2604.0         0.27       1471.7 
      2605.0         0.30       1280.0 
      2606.0         6.00       1314.0 
      2607.0         0.63       1293.7 
      2608.0         0.58        961.3 
      2609.0         0.33        872.3 
      2610.0         0.47        838.6 
      2611.0         0.40        863.2 
      2612.0         0.50        854.0 
      2613.0         0.37        829.5 
      2614.0         0.50        777.5 
      2615.0         0.55        773.5 
      2616.0         0.53        794.8 
      2617.0         0.47        759.1 
      2618.0         0.40        727.4 
      2619.0         0.53        691.4 
      2620.0         0.77        673.8 
      2621.0         0.95        649.2 
      2622.0         0.97        633.5 
      2623.0         0.83        641.7 
      2624.0         0.87        643.0 
      2625.0         0.82        635.8 
      2626.0         0.87        629.9 
      2627.0         0.80        640.1 
      2628.0         0.70        625.7 
      2629.0         1.15        610.6 
      2630.0         0.83        624.4 
      2631.0         0.33        614.9 
      2632.0         0.40        616.5 
      2633.0         0.43        606.0 
      2634.0         0.33        600.5 
      2635.0         0.42        627.0 
      2636.0         6.05       1481.5 
      2637.0         0.62        948.2 
      2638.0         0.50        822.3 
      2639.0         0.43        829.2 
      2640.0         0.43        788.9 
      2641.0         0.53        820.0 
      2642.0         0.53        789.9 
      2643.0         0.50        745.1 
      2644.0         0.58        763.7 
      2645.0         0.20        767.3 
      2646.0         0.37        762.4 
      2647.0         0.37        742.1 
      2648.0         0.33        726.1 
      2649.0         0.37        713.3 
      2650.0         0.30        688.2 
      2651.0         0.27        681.9 
      2652.0         0.30        683.9 
      2653.0         0.43        638.8 
      2654.0         0.52        657.7 
      2655.0         0.57        627.0 
      2656.0         0.57        614.2 
      2657.0         0.70        587.4 
      2658.0         0.63        578.6 
      2659.0         0.58        571.0 
      2660.0         0.37        582.2 
      2661.0         0.30        577.2 
      2662.0         0.33        583.8 
      2663.0         0.33        582.2 
      2664.0         0.33        586.4 
      2665.0         0.33        597.5 
      2666.0         4.63       1086.3 
      2667.0         0.63       1063.1 
      2668.0         0.47        964.9 
      2669.0         0.43        868.7 
      2670.0         0.40        720.2 
      2671.0         0.53        719.6 
      2672.0         0.50        738.2 
      2673.0         0.42        710.1 
      2674.0         0.50        687.5 
      2675.0         0.67        681.0 
      2676.0         1.80        787.6 
      2677.0         2.82        608.3 
      2678.0         1.22        586.1 
      2679.0         0.73        549.8 
      2680.0         1.43        548.1 
      2681.0         0.98        581.5 
      2682.0         0.77        610.9 
      2683.0         0.43        595.9 
      2684.0         0.33        580.8 
      2685.0         0.30        573.0 
      2686.0         0.27        563.5 
      2687.0         0.27        558.3 
      2688.0         0.30        553.7 
      2689.0         0.23        562.2 
      2690.0         0.28        563.8 
      2691.0         0.27        539.3 
      2692.0         0.27        558.3 
      2693.0         0.27        557.6 
      2694.0         0.30        548.8 
      2695.0         0.27        549.8 
      2696.0         6.43        855.3 
      2697.0         0.60        851.7 
      2698.0         0.40        752.6 
      2699.0         0.43        678.7 
      2700.0         0.53        655.1 
      2701.0         0.48        669.5 
      2702.0         0.40        677.4 
      2703.0         0.47        675.1 
      2704.0         0.47        692.7 
      2705.0         0.43        681.0 
      2706.0         0.47        663.0 
      2707.0         0.43        654.5 
      2708.0         0.45        589.4 
      2709.0         0.50        628.3 
      2710.0         0.40        616.8 
      2711.0         0.47        604.7 
      2712.0         0.47        598.2 
      2713.0         0.43        587.7 
      2714.0         0.47        585.1 
      2715.0         0.43        594.3 
      2716.0         0.52        587.7 
      2717.0         0.47        585.1 
      2718.0         0.53        584.4 
      2719.0         0.50        595.9 
      2720.0         0.47        594.3 
