~Version Information
VERS.                      2.0: CWLS Log ASCII Standard - VERSION 2.0
WRAP.                       NO: One line per depth step
~Well Information Block
STRT.FT               550.0000: 
STOP.FT              1577.7500: 
STEP.FT                 0.2500: 
NULL.                -999.2500: 
COMP.          Pioneer Natural Resources: COMPANY
WELL.          Kristin 22-23 Tr: WELL
FLD.           Purgatoire River: FIELD
LOC.           2273' FNL & 2029' FWL: LOCATION
PROV.                 Colorado: PROVINCE
CNTY.               Las Animas: COUNTRY
SRVC.                Patterson: SERVICE COMPANY
DATE.          Thu Jan 20 21:18:23 2005: LOG DATE
UWI.           05 071 08259 00: UNIQUE WELL ID
~Curve Information Block
DEPT.FT            0 000 00 00: Depth
SN.Ohm-m                      : IEL Short Normal
SP.mV                         : IEL Spontaneous Potential
DIR.Ohm-m                     : IEL Induction Resistivity
GR.GAPI                       : Gamma Ray
~Parameter Information Block
~A  Depth        SN          SP         DIR          GR     
# ...
  1019.0000     31.2287   -186.9231     27.9910     57.9544
  1019.2500     31.2663   -187.0309     27.9645     59.2273
  1019.5000     31.2392   -187.0571     27.9556     61.2668
  1019.7500     31.1377   -187.0069     27.9451     62.1355
  1020.0000     30.9594   -186.8894     27.9013     62.4227
  1020.2500     30.7079   -186.7183     27.8110     62.0865
  1020.5000     30.3911   -186.5107     27.7011     61.2963
  1020.7500     30.0219   -186.2838     27.6094     60.8348
  1021.0000     29.6184   -186.0520     27.5243     60.3725
  1021.2500     29.2031   -185.8246     27.3608     60.2082
  1021.5000     28.8013   -185.6075     27.0174     60.4735
  1021.7500     28.4372   -185.4052     26.4741     61.3347
  1022.0000     28.1238   -185.2241     25.8254     63.8461
  1022.2500     27.8577   -185.0738     25.2135     65.9711
  1022.5000     27.6246   -184.9653     24.7324     68.8148
  1022.7500     27.4112   -184.9065     24.3856     70.0659
  1023.0000     27.2117   -184.8978     24.1139     70.8830
  1023.2500     27.0289   -184.9304     23.8579     70.8918
  1023.5000     26.8693   -184.9876     23.6128     70.4765
  1023.7500     26.7378   -185.0489     23.4301     70.1403
  1024.0000     26.6351   -185.0946     23.3714     69.8781
  1024.2500     26.5571   -185.1105     23.4546     69.8706
  1024.5000     26.4969   -185.0898     23.6388     69.7748
  1024.7500     26.4507   -185.0344     23.8514     69.5483
  1025.0000     26.4206   -184.9541     24.0348     69.2921
  1025.2500     26.4146   -184.8631     24.1711     69.3329
  1025.5000     26.4407   -184.7763     24.2719     69.0988
  1025.7500     26.5016   -184.7046     24.3517     68.1322
  1026.0000     26.5908   -184.6528     24.4109     65.4751
  1026.2500     26.6943   -184.6198     24.4410     63.8021
  1026.5000     26.7992   -184.6012     24.4419     63.1076
  1026.7500     26.9029   -184.5918     24.4353     64.0054
  1027.0000     27.0130   -184.5867     24.4579     66.3423
  1027.2500     27.1361   -184.5818     24.5442     67.9507
  1027.5000     27.2717   -184.5737     24.7112     70.2145
  1027.7500     27.4139   -184.5600     24.9557     71.6842
  1028.0000     27.5562   -184.5408     25.2607     73.5377
  1028.2500     27.6938   -184.5180     25.6016     74.3023
  1028.5000     27.8252   -184.4940     25.9524     74.9782
  1028.7500     27.9539   -184.4702     26.2912     75.5647
  1029.0000     28.0875   -184.4461     26.6035     76.9587
  1029.2500     28.2350   -184.4204     26.8792     77.8662
  1029.5000     28.4022   -184.3942     27.1061     78.2653
  1029.7500     28.5882   -184.3740     27.2663     77.7417
  1030.0000     28.7876   -184.3743     27.3448     76.5444
  1030.2500     28.9989   -184.4168     27.3448     76.1167
  1030.5000     29.2306   -184.5270     27.2965     76.3396
  1030.7500     29.4974   -184.7268     27.2482     76.5779
  1031.0000     29.8103   -185.0267     27.2475     75.9823
  1031.2500     30.1687   -185.4196     27.3235     74.8885
  1031.5000     30.5592   -185.8809     27.4799     73.4030
  1031.7500     30.9597   -186.3749     27.6967     73.2876
  1032.0000     31.3498   -186.8656     27.9430     74.2226
  1032.2500     31.7218   -187.3268     28.1939     74.5136
  1032.5000     32.0855   -187.7470     28.4401     72.7341
  1032.7500     32.4610   -188.1281     28.6833     70.0778
  1033.0000     32.8645   -188.4793     28.9280     65.5664
  1033.2500     33.2980   -188.8116     29.1805     63.3229
  1033.5000     33.7422   -189.1327     29.4501     61.8991
  1033.7500     34.1540   -189.4432     29.7320     62.0060
  1034.0000     34.4746   -189.7334     29.9769     63.0052
  1034.2500     34.6491   -189.9804     30.0854     63.9845
  1034.5000     34.6471   -190.1492     29.9670     65.7848
  1034.7500     34.4703   -190.1973     29.6320     67.1481
  1035.0000     34.1456   -190.0838     29.2176     69.4714
  1035.2500     33.7089   -189.7792     28.9042     71.3389
  1035.5000     33.1883   -189.2722     28.7992     74.6446
  1035.7500     32.5974   -188.5724     28.8857     76.9212
  1036.0000     31.9467   -187.7091     29.0538     79.8027
  1036.2500     31.2625   -186.7266     29.1749     81.1199
  1036.5000     30.5938   -185.6786     29.1587     81.9990
  1036.7500     29.9937   -184.6210     28.9647     81.7939
  1037.0000     29.4908   -183.6051     28.5922     80.3218
  1037.2500     29.0747   -182.6716     28.0746     78.7018
  1037.5000     28.7084   -181.8480     27.4755     75.7352
  1037.7500     28.3542   -181.1472     26.8665     73.7087
  1038.0000     27.9920   -180.5706     26.2973     71.1004
  1038.2500     27.6225   -180.1110     25.7819     69.8469
  1038.5000     27.2606   -179.7573     25.3118     68.8442
  1038.7500     26.9254   -179.4960     24.8797     68.7684
  1039.0000     26.6336   -179.3138     24.4913     69.3641
  1039.2500     26.3970   -179.1973     24.1595     70.0105
  1039.5000     26.2213   -179.1331     23.8907     70.9874
  1039.7500     26.1072   -179.1069     23.6821     71.5650
  1040.0000     26.0508   -179.1029     23.5297     72.3580
  1040.2500     26.0443   -179.1049     23.4370     72.8008
  1040.5000     26.0757   -179.0984     23.4116     73.0180
  1040.7500     26.1322   -179.0737     23.4508     72.6827
  1041.0000     26.2048   -179.0282     23.5287     71.6187
  1041.2500     26.2900   -178.9668     23.6005     70.9011
  1041.5000     26.3883   -178.9004     23.6250     70.3722
  1041.7500     26.5001   -178.8425     23.5921     70.4998
  1042.0000     26.6241   -178.8056     23.5299     71.3845
  1042.2500     26.7560   -178.7974     23.4851     72.3066
  1042.5000     26.8884   -178.8177     23.4932     73.6436
  1042.7500     27.0111   -178.8572     23.5608     74.1716
  1043.0000     27.1156   -178.8985     23.6684     74.4966
  1043.2500     27.2017   -178.9204     23.7869     74.8315
  1043.5000     27.2794   -178.9034     23.8914     75.9557
  1043.7500     27.3588   -178.8357     23.9663     76.8184
  1044.0000     27.4361   -178.7158     24.0014     77.4193
  1044.2500     27.4933   -178.5534     23.9892     77.3665
  1044.5000     27.5146   -178.3662     23.9250     77.8487
  1044.7500     27.5006   -178.1763     23.8126     79.2517
  1045.0000     27.4651   -178.0054     23.6670     82.4977
  1045.2500     27.4225   -177.8717     23.5133     84.1407
  1045.5000     27.3800   -177.7879     23.3831     83.7916
  1045.7500     27.3383   -177.7604     23.3064     81.5966
  1046.0000     27.2990   -177.7909     23.3005     77.0817
  1046.2500     27.2714   -177.8777     23.3552     74.4592
  1046.5000     27.2744   -178.0196     23.4312     72.0043
  1046.7500     27.3314   -178.2200     23.4807     71.1329
  1047.0000     27.4621   -178.4906     23.4849     70.3252
  1047.2500     27.6770   -178.8549     23.4741     70.0453
  1047.5000     27.9779   -179.3481     23.5080     70.2880
  1047.7500     28.3593   -180.0131     23.6333     70.9454
  1048.0000     28.8147   -180.8908     23.8553     72.3712
  1048.2500     29.3422   -182.0032     24.1425     73.3543
  1048.5000     29.9398   -183.3327     24.4523     74.3300
  1048.7500     30.5911   -184.8025     24.7611     74.1410
  1049.0000     31.2520   -186.2696     25.0798     71.6707
  1049.2500     31.8579   -187.5374     25.4513     68.4980
  1049.5000     32.3441   -188.3951     25.9266     62.6975
  1049.7500     32.6687   -188.6710     26.5280     59.3044
  1050.0000     32.8318   -188.2842     27.2082     56.5740
  1050.2500     32.8887   -187.2689     27.8462     56.9329
  1050.5000     32.9383   -185.7615     28.3079     61.5902
  1050.7500     33.0666   -183.9563     28.5407     67.8151
  1051.0000     33.2735   -182.0518     28.5979     81.4941
  1051.2500     33.4488   -180.2111     28.5512     92.3834
  1051.5000     33.4314   -178.5477     28.3880    108.0169
  1051.7500     33.1119   -177.1319     28.0144    115.7431
  1052.0000     32.5030   -176.0041     27.3687    120.7132
  1052.2500     31.7380   -175.1821     26.5259    119.6720
