~Version Information
VERS.                      2.0: CWLS Log ASCII Standard - VERSION 2.0
WRAP.                       NO: One line per depth step
~Well Information Block
STRT.FT               494.2500: 
STOP.FT              1992.0000: 
STEP.FT                 0.2500: 
NULL.                -999.2500: 
COMP.          Petrogulf Corporation: COMPANY
WELL.               Furu 6-23R: WELL
FLD.           Purgatoire River: FIELD
LOC.           2211' FSL & 1780' FWL--: LOCATION
CNTY.               Las Animas: COUNTY
SRVC.                Patterson: SERVICE COMPANY
DATE.          Wed Jun 21 14:57:59 2006: LOG DATE
UWI.           05 071 08266 00: UNIQUE WELL ID
STAT.                 Colorado: STATE
~Curve Information Block
DEPT.FT            0 000 00 00: Depth
GR.GAPI                       : Gamma Ray
RILD.Ohm-m                    : DIL Deep Resistivity
RILM.Ohm-m                    : DIL Medium Resistivity
RLL3.Ohm-m                    : DIL Shallow Resistivity
SP.mV                         : DIL Spontaneous Potential
~Parameter Information Block
~A  Depth        GR         RILD        RILM        RLL3         SP     
# ...
  1390.2500    106.9697     23.7736     26.3317     65.6685     68.8047
  1390.5000    109.3970     24.2155     26.8963     62.9692     68.9154
  1390.7500    112.1597     24.7447     27.3522     55.3857     69.0688
  1391.0000    115.7566     25.3064     27.8061     46.4866     69.2109
  1391.2500    116.8115     25.8259     28.3221     39.9512     69.2931
  1391.5000    115.6891     26.2266     28.8834     37.9621     69.2932
  1391.7500    113.2899     26.4459     29.3856     40.6118     69.2269
  1392.0000    108.6478     26.4471     29.6636     46.0486     69.1374
  1392.2500    106.2661     26.2266     29.5559     51.1783     69.0678
  1392.5000    105.8404     25.8155     28.9887     53.0353     69.0371
  1392.7500    107.9687     25.2720     28.0252     50.3698     69.0354
  1393.0000    113.8377     24.6650     26.8355     44.2707     69.0342
  1393.2500    118.6590     24.0573     25.6133     37.2142     69.0016
  1393.5000    125.9844     23.4937     24.5024     31.4016     68.9131
  1393.7500    130.4790     22.9969     23.5705     27.7413     68.7587
  1394.0000    136.2134     22.5694     22.8206     25.9298     68.5549
  1394.2500    139.1149     22.1992     22.2171     25.1373     68.3611
  1394.5000    141.3823     21.8697     21.7124     24.6550     68.2730
  1394.7500    141.1265     21.5685     21.2686     24.1854     68.3767
  1395.0000    138.3580     21.2927     20.8697     23.7706     68.6937
  1395.2500    135.8557     21.0484     20.5229     23.5473     69.1656
  1395.5000    133.3410     20.8452     20.2498     23.5538     69.6815
  1395.7500    133.5228     20.6911     20.0708     23.7011     70.1201
  1396.0000    137.1286     20.5885     19.9928     23.8641     70.3947
  1396.2500    141.0761     20.5359     20.0055     23.9935     70.4897
  1396.5000    146.3322     20.5305     20.0873     24.1621     70.4610
  1396.7500    147.3720     20.5707     20.2165     24.5008     70.3893
  1397.0000    143.9540     20.6552     20.3802     25.0618     70.3230
  1397.2500    139.5877     20.7799     20.5736     25.7394     70.2610
  1397.5000    133.7664     20.9365     20.7921     26.3380     70.1835
  1397.7500    132.0540     21.1120     21.0264     26.7106     70.0898
  1398.0000    133.0093     21.2912     21.2632     26.8328     70.0059
  1398.2500    134.8411     21.4607     21.4900     26.7810     69.9678
  1398.5000    136.8568     21.6148     21.6979     26.6794     70.0056
  1398.7500    136.8972     21.7580     21.8798     26.6562     70.1343
  1399.0000    135.2873     21.9029     22.0298     26.8188     70.3499
  1399.2500    133.7539     22.0627     22.1429     27.2552     70.6314
  1399.5000    131.6314     22.2448     22.2170     28.0206     70.9461
  1399.7500    130.5401     22.4494     22.2531     29.0354     71.2504
  1400.0000    129.4080     22.6694     22.2589     29.9620     71.4890
  1400.2500    128.9426     22.8926     22.2535     30.3026     71.6067
  1400.5000    128.7316     23.1051     22.2704     29.7896     71.5747
  1400.7500    128.9870     23.2958     22.3520     28.7104     71.4088
  1401.0000    129.6925     23.4610     22.5361     27.7786     71.1568
  1401.2500    129.9297     23.6037     22.8417     27.6550     70.8710
  1401.5000    129.2708     23.7304     23.2585     28.5903     70.5903
  1401.7500    128.1320     23.8467     23.7459     30.4461     70.3354
  1402.0000    125.9231     23.9575     24.2411     32.9165     70.1054
  1402.2500    124.6484     24.0697     24.6754     35.6465     69.8750
  1402.5000    123.9297     24.1968     24.9915     38.1776     69.6065
  1402.7500    124.3466     24.3589     25.1559     39.9136     69.2766
  1403.0000    125.3844     24.5774     25.1655     40.2899     68.8947
  1403.2500    125.6631     24.8656     25.0500     39.0743     68.4941
  1403.5000    125.4115     25.2208     24.8687     36.5465     68.1096
  1403.7500    125.5059     25.6239     24.6986     33.4196     67.7669
  1404.0000    127.3644     26.0461     24.6127     30.5718     67.4867
  1404.2500    129.9266     26.4611     24.6596     28.7156     67.2817
  1404.5000    134.7327     26.8540     24.8549     28.1568     67.1423
  1404.7500    137.5201     27.2241     25.1882     28.7976     67.0322
  1405.0000    139.5101     27.5820     25.6398     30.3738     66.9080
  1405.2500    139.0750     27.9462     26.1963     32.6892     66.7442
  1405.5000    136.4174     28.3407     26.8569     35.6257     66.5406
  1405.7500    134.0022     28.7946     27.6289     38.9837     66.3080
  1406.0000    130.3294     29.3398     28.5170     42.4084     66.0523
  1406.2500    128.0166     30.0043     29.5150     45.5526     65.7736
  1406.5000    124.5602     30.8047     30.6039     48.3294     65.4741
  1406.7500    122.0539     31.7403     31.7574     50.9777     65.1647
  1407.0000    117.7857     32.7902     32.9511     53.8548     64.8676
  1407.2500    114.7597     33.9145     34.1663     57.1487     64.6122
  1407.5000    110.6788     35.0605     35.3851     60.7267     64.4254
  1407.7500    108.5857     36.1731     36.5807     64.1724     64.3193
  1408.0000    106.2200     37.2128     37.7166     66.9429     64.2848
  1408.2500    104.9294     38.1667     38.7594     68.5781     64.2967
  1408.5000    103.5571     39.0448     39.6973     68.9199     64.3258
  1408.7500    103.2378     39.8561     40.5449     68.2694     64.3479
  1409.0000    103.4466     40.5912     41.3263     67.3409     64.3424
  1409.2500    103.6818     41.2318     42.0503     66.9220     64.2897
  1409.5000    104.0688     41.7796     42.7023     67.3970     64.1729
  1409.7500    104.6201     42.2724     43.2608     68.4986     63.9799
  1410.0000    106.0324     42.7648     43.7259     69.5499     63.7049
  1410.2500    107.1108     43.2930     44.1284     70.0642     63.3559
  1410.5000    108.6862     43.8524     44.5120     70.2165     62.9674
  1410.7500    109.8651     44.4018     44.9034     70.7193     62.5984
  1411.0000    111.7712     44.8830     45.3013     72.1381     62.3077
  1411.2500    112.4532     45.2445     45.6869     74.2843     62.1269
  1411.5000    110.9916     45.4627     46.0422     76.3708     62.0568
  1411.7500    108.0955     45.5535     46.3561     77.8457     62.0819
  1412.0000    102.2235     45.5660     46.6178     78.9474     62.1812
  1412.2500     98.4479     45.5615     46.8086     80.2862     62.3294
  1412.5000     94.0677     45.5885     46.9019     81.9821     62.4997
  1412.7500     92.1003     45.6701     46.8769     83.4238     62.6798
  1413.0000     90.8131     45.8052     46.7389     83.8461     62.8823
  1413.2500     91.3610     45.9788     46.5292     82.9761     63.1311
  1413.5000     94.3621     46.1744     46.3161     81.1378     63.4351
  1413.7500     97.4008     46.3842     46.1710     78.9405     63.7770
  1414.0000    102.5554     46.6129     46.1474     76.9780     64.1226
  1414.2500    106.0151     46.8737     46.2688     75.7215     64.4382
  1414.5000    110.7663     47.1772     46.5251     75.4828     64.7085
  1414.7500    113.2956     47.5253     46.8765     76.2947     64.9452
  1415.0000    115.7835     47.9116     47.2662     77.7862     65.1740
  1415.2500    116.7948     48.3261     47.6390     79.3261     65.4081
  1415.5000    118.0316     48.7544     47.9555     80.4638     65.6319
  1415.7500    118.6486     49.1764     48.2015     81.2133     65.8171
  1416.0000    118.2059     49.5707     48.3925     81.7877     65.9603
  1416.2500    116.3706     49.9316     48.5715     82.0995     66.1030
  1416.5000    111.4961     50.2834     48.7880     81.7422     66.3084
  1416.7500    107.7023     50.6761     49.0709     80.5554     66.6117
  1417.0000    102.7120     51.1594     49.4164     79.0610     66.9872
  1417.2500    100.0755     51.7522     49.8071     78.1780     67.3610
  1417.5000     96.3472     52.4287     50.2436     78.4838     67.6571
  1417.7500     93.3216     53.1332     50.7544     79.7918     67.8411
  1418.0000     87.1972     53.8054     51.3687     81.4528     67.9302
