~Version Information
VERS.                      2.0: CWLS Log ASCII Standard - VERSION 2.0
WRAP.                       NO: One line per depth step
~Well Information Block
STRT.FT               392.5000: 
STOP.FT              2252.6000: 
STEP.FT                 0.1000: 
NULL.                -999.2500: 
COMP.          Petrogulf Corporation: COMPANY
WELL.          Alexander 9-43V: WELL
FLD.           Purgatorie River: FIELD
LOC.           1651' FSL & 1081' FEL: LOCATION
CNTY.               Las Animas: COUNTY
SRVC.                         : SERVICE COMPANY
DATE.          Mon Mar 17 08:48:25 2003: LOG DATE
UWI.           05 071 07727 00: UNIQUE WELL ID
STAT.                 Colorado: STATE
~Curve Information Block
DEPT.FT            0 000 00 00: Depth
DCAL.in                       : CDL Caliper
RHOB.g/cc                     : CDL Bulk Density
RHOC.g/cc                     : CDL Density Correction
DPOR.pu                       : CDL Density Porosity
GR.GAPI                       : Gamma Ray
NPOR.pu                       : Neutron Porosity
~Parameter Information Block
~A  Depth       DCAL        RHOB        RHOC        DPOR         GR         NPOR    
# ...
  2005.3000      7.9059      2.5465      0.0410      6.2732     86.4247     22.0988
  2005.4000      7.9059      2.5446      0.0401      6.3902     86.4247     21.9763
  2005.5000      7.9056      2.5417      0.0391      6.5641     85.2601     21.8383
  2005.6000      7.9056      2.5377      0.0379      6.8079     85.2601     21.6672
  2005.7000      7.9056      2.5323      0.0367      7.1357     85.2601     21.4462
  2005.8000      7.9044      2.5252      0.0353      7.5631     84.5975     21.1612
  2005.9000      7.9044      2.5163      0.0337      8.1049     84.5975     20.8030
  2006.0000      7.9025      2.5052      0.0320      8.7743     84.7181     20.3699
  2006.1000      7.9025      2.4919      0.0301      9.5811     84.7181     19.8692
  2006.2000      7.9025      2.4763      0.0278     10.5300     84.7181     19.3172
  2006.3000      7.9011      2.4583      0.0253     11.6193     86.0419     18.7384
  2006.4000      7.9011      2.4381      0.0226     12.8400     86.0419     18.1630
  2006.5000      7.9016      2.4161      0.0198     14.1751     88.9355     17.6237
  2006.6000      7.9016      2.3926      0.0174     15.6002     88.9355     17.1520
  2006.7000      7.9016      2.3681      0.0157     17.0842     88.9355     16.7747
  2006.8000      7.9033      2.3433      0.0153     18.5909     93.2106     16.5121
  2006.9000      7.9033      2.3187      0.0165     20.0815     93.2106     16.3761
  2007.0000      7.9059      2.2950      0.0197     21.5169     97.8321     16.3700
  2007.1000      7.9059      2.2728      0.0249     22.8605     97.8321     16.4884
  2007.2000      7.9059      2.2527      0.0319     24.0812     97.8321     16.7175
  2007.3000      7.9097      2.2349      0.0406     25.1556    101.5255     17.0354
  2007.4000      7.9097      2.2198      0.0502     26.0697    101.5255     17.4136
  2007.5000      7.9117      2.2075      0.0603     26.8208    103.7585     17.8184
  2007.6000      7.9117      2.1976      0.0701     27.4172    103.7585     18.2131
  2007.7000      7.9117      2.1900      0.0791     27.8782    103.7585     18.5612
  2007.8000      7.9103      2.1842      0.0868     28.2326    104.9615     18.8296
  2007.9000      7.9103      2.1795      0.0927     28.5167    104.9615     18.9916
  2008.0000      7.9098      2.1753      0.0965     28.7712    105.8427     19.0303
  2008.1000      7.9098      2.1709      0.0980     29.0378    105.8427     18.9403
  2008.2000      7.9098      2.1656      0.0971     29.3557    105.8427     18.7290
  2008.3000      7.9209      2.1590      0.0936     29.7581    106.6520     18.4156
  2008.4000      7.9209      2.1506      0.0877     30.2685    106.6520     18.0296
  2008.5000      7.9457      2.1402      0.0799     30.8987    107.0258     17.6074
  2008.6000      7.9457      2.1278      0.0705     31.6470    107.0258     17.1883
  2008.7000      7.9457      2.1138      0.0606     32.4983    107.0258     16.8101
  2008.8000      7.9712      2.0985      0.0512     33.4250    106.3565     16.5060
  2008.9000      7.9712      2.0826      0.0436     34.3892    106.3565     16.3013
  2009.0000      7.9998      2.0668      0.0389     35.3462    104.3435     16.2126
  2009.1000      7.9998      2.0519      0.0379     36.2475    104.3435     16.2472
  2009.2000      7.9998      2.0387      0.0408     37.0457    104.3435     16.4038
  2009.3000      8.0455      2.0280      0.0476     37.6975    101.3910     16.6730
  2009.4000      8.0455      2.0202      0.0576     38.1669    101.3910     17.0391
  2009.5000      8.1094      2.0159      0.0697     38.4276     98.5611     17.4810
  2009.6000      8.1094      2.0153      0.0828     38.4646     98.5611     17.9742
  2009.7000      8.1094      2.0185      0.0957     38.2742     98.5611     18.4927
  2009.8000      8.1622      2.0252      0.1072     37.8639     96.9539     19.0106
  2009.9000      8.1622      2.0354      0.1166     37.2511     96.9539     19.5043
  2010.0000      8.1737      2.0484      0.1234     36.4618     96.9292     19.9538
  2010.1000      8.1737      2.0638      0.1275     35.5285     96.9292     20.3440
  2010.2000      8.1737      2.0809      0.1291     34.4882     96.9292     20.6661
  2010.3000      8.1052      2.0992      0.1285     33.3801     97.8141     20.9180
  2010.4000      8.1052      2.1180      0.1263     32.2434     97.8141     21.1042
  2010.5000      7.9834      2.1366      0.1231     31.1149     98.4009     21.2355
  2010.6000      7.9834      2.1545      0.1192     30.0274     98.4009     21.3272
  2010.7000      7.9834      2.1714      0.1150     29.0078     98.4009     21.3980
  2010.8000      7.9071      2.1868      0.1105     28.0753     97.9340     21.4671
  2010.9000      7.9071      2.2005      0.1059     27.2410     97.9340     21.5530
  2011.0000      7.8905      2.2126      0.1011     26.5073     96.7916     21.6709
  2011.1000      7.8905      2.2232      0.0962     25.8683     96.7916     21.8318
  2011.2000      7.8905      2.2324      0.0914     25.3106     96.7916     22.0416
  2011.3000      7.9035      2.2406      0.0868     24.8148     96.0519     22.3010
  2011.4000      7.9035      2.2481      0.0826     24.3576     96.0519     22.6055
  2011.5000      7.9223      2.2554      0.0791     23.9138     96.3337     22.9465
  2011.6000      7.9223      2.2629      0.0764     23.4585     96.3337     23.3123
  2011.7000      7.9223      2.2710      0.0745     22.9692     96.3337     23.6894
  2011.8000      7.9358      2.2799      0.0733     22.4277     97.3413     24.0640
  2011.9000      7.9358      2.2900      0.0728     21.8212     97.3413     24.4233
  2012.0000      7.9416      2.3011      0.0725     21.1433     98.5680     24.7563
  2012.1000      7.9416      2.3135      0.0725     20.3943     98.5680     25.0548
  2012.2000      7.9416      2.3269      0.0722     19.5808     98.5680     25.3134
  2012.3000      7.9370      2.3412      0.0716     18.7147    100.0354     25.5297
  2012.4000      7.9370      2.3561      0.0706     17.8128    100.0354     25.7036
  2012.5000      7.9221      2.3712      0.0689     16.8948    102.0850     25.8369
  2012.6000      7.9221      2.3863      0.0667     15.9818    102.0850     25.9327
  2012.7000      7.9221      2.4009      0.0641     15.0955    102.0850     25.9946
  2012.8000      7.9036      2.4148      0.0612     14.2557    104.6535     26.0265
  2012.9000      7.9036      2.4276      0.0581     13.4798    104.6535     26.0324
  2013.0000      7.8944      2.4391      0.0551     12.7817    107.0328     26.0163
  2013.1000      7.8944      2.4492      0.0523     12.1711    107.0328     25.9825
  2013.2000      7.8944      2.4577      0.0498     11.6533    107.0328     25.9354
  2013.3000      7.8943      2.4647      0.0477     11.2294    108.4523     25.8802
  2013.4000      7.8943      2.4702      0.0459     10.8963    108.4523     25.8221
  2013.5000      7.8954      2.4743      0.0443     10.6478    108.8517     25.7669
  2013.6000      7.8954      2.4772      0.0430     10.4751    108.8517     25.7199
  2013.7000      7.8954      2.4789      0.0417     10.3676    108.8517     25.6857
  2013.8000      7.8950      2.4798      0.0403     10.3138    109.0437     25.6677
  2013.9000      7.8950      2.4800      0.0388     10.3020    109.0437     25.6674
  2014.0000      7.8922      2.4797      0.0372     10.3211    110.0158     25.6842
  2014.1000      7.8922      2.4790      0.0354     10.3606    110.0158     25.7155
  2014.2000      7.8922      2.4782      0.0335     10.4117    110.0158     25.7562
  2014.3000      7.8842      2.4773      0.0316     10.4667    112.0230     25.7998
  2014.4000      7.8842      2.4764      0.0298     10.5198    112.0230     25.8391
  2014.5000      7.8731      2.4757      0.0282     10.5665    114.5397     25.8671
  2014.6000      7.8731      2.4750      0.0269     10.6040    114.5397     25.8784
  2014.7000      7.8731      2.4746      0.0260     10.6307    114.5397     25.8696
  2014.8000      7.8695      2.4743      0.0255     10.6464    117.0957     25.8402
