~Version Information
VERS.                      2.0: CWLS Log ASCII Standard - VERSION 2.0
WRAP.                       NO: One line per depth step
~Well Information Block
STRT.FT                 0.0000: 
STOP.FT              2384.7500: 
STEP.FT                 0.2500: 
NULL.                -999.2500: 
COMP.          Petrogulf Corporation: COMPANY
WELL.           McDaniel 9-34V: WELL
FLD.           Purgatorie River: FIELD
LOC.           620' FSL & 1800' FEL: LOCATION
STAT.                 Colorado: State
CNTY.               Las Animas: COUNTY
CTRY. USA : Country
SECT. 9 : Section
TOWN. 33S : Township
RANG. 67W : Range
SRVC.                Patterson: SERVICE COMPANY
DATE.          Thu Nov 10 12:28:18 2005: LOG DATE
API. 05-071-08333                         : UNIQUE WELL ID
~Curve Information Block
DEPT.FT            0 000 00 00: Depth
AMP3.mV                       : CBL 3' Amplitude
CCL.                          : Casing Collar Locator
GR.GAPI                       : Gamma Ray
TT3.usec                      : CBL 3' Travel Time
~Parameter Information Block
~A  Depth       AMP3        CCL          GR         TT3     
# ...
  1574.5000      6.1820      0.0000     99.2806    560.3749
  1574.7500      6.2223      0.0000    100.3873    564.3379
  1575.0000      6.1954      0.0000    102.7580    575.6292
  1575.2500      6.1367      0.0000    105.9222    585.6953
  1575.5000      6.0968      0.0000    109.5584    589.7736
  1575.7500      6.0898      0.0000    113.4654    590.1917
  1576.0000      6.0849      0.0000    117.7414    589.8727
  1576.2500      6.0506      0.0000    122.7407    589.9368
  1576.5000      6.0000      0.0000    128.5258    591.3654
  1576.7500      5.9728      0.0000    134.4921    595.8739
  1577.0000      5.9918      0.0000    139.8957    603.9570
  1577.2500      6.0547      0.0000    144.6760    612.3814
  1577.5000      6.1293      0.0000    149.3712    616.7028
  1577.7500      6.1560      0.0000    154.0805    615.5494
  1578.0000      6.1030      0.0000    157.7819    609.2765
  1578.2500      6.0135      0.0000    158.9332    599.0091
  1578.5000      5.9733      0.0000    156.6592    590.4418
  1578.7500      6.0332      0.0000    151.3094    591.4607
  1579.0000      6.1691      0.0000    144.1404    602.7976
  1579.2500      6.3216      0.0000    136.7449    617.5529
  1579.5000      6.4478      0.0000    130.6186    629.4800
  1579.7500      6.5467      0.0000    126.7700    636.6526
  1580.0000      6.6681      0.0000    125.2731    640.1835
  1580.2500      6.8576      0.0000    125.0514    642.6154
  1580.5000      7.0868      0.0000    124.5761    645.7813
  1580.7500      7.2765      0.0000    123.3087    649.4440
  1581.0000      7.3624      0.0000    122.3427    652.4936
  1581.2500      7.3434      0.0000    123.3212    653.6752
  1581.5000      7.2921      0.0000    126.8713    651.2834
  1581.7500      7.2755      0.0000    132.0760    644.8593
  1582.0000      7.2804      0.0000    137.1665    634.5021
  1582.2500      7.2533      0.0000    140.6402    617.3295
  1582.5000      7.1613      0.0000    141.9423    590.8625
  1582.7500      6.9992      0.0000    141.2606    560.7602
  1583.0000      6.7923      0.0000    138.8789    537.8256
  1583.2500      6.5834      0.0000    134.9376    527.1504
  1583.5000      6.4068      0.0000    129.8369    526.2493
  1583.7500      6.3013      0.0000    124.8341    530.5844
  1584.0000      6.2955      0.0000    122.0242    536.3329
  1584.2500      6.3505      0.0000    123.1207    541.4359
  1584.5000      6.3709      0.0000    127.7996    544.6989
  1584.7500      6.3004      0.0000    133.4512    542.7882
  1585.0000      6.1701      0.0000    136.9216    532.6693
  1585.2500      6.0471      0.0000    136.5947    517.1835
  1585.5000      5.9703      0.0000    132.9256    503.4197
  1585.7500      5.9467      0.0000    127.3521    495.6833
  1586.0000      5.9676      0.0000    121.0140    493.1027
  1586.2500      5.9863      0.0000    114.4677    494.6688
  1586.5000      5.9411      0.0000    108.2443    503.1924
  1586.7500      5.8386      0.0000    103.1685    518.4325
  1587.0000      5.7598      0.0000     99.8755    533.6614
  1587.2500      5.7680      0.0000     98.1955    548.8542
  1587.5000      5.8540      0.0000     97.4871    572.0002
  1587.7500      5.9771      0.0000     97.7885    600.1152
  1588.0000      6.1171      0.0000    100.2040    618.1356
  1588.2500      6.2598      0.0000    105.6466    619.7250
  1588.5000      6.3575      0.0000    113.3030    614.4025
  1588.7500      6.3594      0.0000    120.8884    614.0517
  1589.0000      6.2903      0.0000    126.6003    620.1532
  1589.2500      6.2353      0.0000    130.4750    626.5456
  1589.5000      6.2515      0.0000    133.7168    629.9578
  1589.7500      6.3351      0.0000    137.0263    630.8890
  1590.0000      6.4492      0.0000    139.7412    627.8860
  1590.2500      6.5395      0.0000    140.5595    618.7543
  1590.5000      6.5319      0.0000    139.0637    605.7056
  1590.7500      6.3795      0.0000    136.3305    593.6409
  1591.0000      6.1676      0.0000    133.7441    583.1691
  1591.2500      6.1049      0.0000    131.3666    570.1250
  1591.5000      6.2366      0.0000    127.8825    555.0271
  1591.7500      6.2967      0.0000    122.1319    546.0947
  1592.0000      6.1003      0.0000    114.3219    542.8245
  1592.2500      5.7934      0.0000    105.7201    533.1194
  1592.5000      5.5331      0.0000     97.6786    521.9504
  1592.7500      5.2970      0.0000     91.2514    531.8708
  1593.0000      5.0422     -2.0000     87.2384    564.9745
  1593.2500      4.7688      2.0000     85.9758    596.8846
  1593.5000      4.4794      0.0000     87.0660    607.2679
  1593.7500      4.2407      0.0000     89.4907    596.7173
  1594.0000      4.2028      0.0000     92.1029    581.9504
  1594.2500      4.3697      0.0000     94.3924    583.0414
  1594.5000      4.4618      0.0000     97.1017    605.7857
  1594.7500      4.3104      0.0000    101.7372    635.0703
  1595.0000      4.1431      0.0000    108.9112    655.0624
  1595.2500      4.1567      0.0000    117.2029    662.5544
  1595.5000      4.2319      0.0000    123.9517    655.8549
  1595.7500      4.2062      0.0000    127.2259    633.8390
  1596.0000      4.0657      0.0000    127.0875    604.3073
  1596.2500      3.8868      0.0000    125.2963    576.7155
  1596.5000      3.7483      0.0000    124.0475    556.1104
  1596.7500      3.6872      0.0000    124.8657    548.2838
  1597.0000      3.7055      0.0000    128.1443    555.9569
  1597.2500      3.7803      0.0000    133.1129    571.2233
  1597.5000      3.8616      0.0000    138.0461    583.3667
  1597.7500      3.9056      0.0000    141.0302    591.9461
  1598.0000      3.9109      0.0000    141.3553    604.9598
  1598.2500      3.9057      0.0000    140.3864    625.0258
  1598.5000      3.9090      0.0000    140.5007    641.8789
  1598.7500      3.9222      0.0000    142.7891    644.2562
  1599.0000      3.9556      0.0000    145.9028    636.0707
  1599.2500      4.0379      0.0000    147.1702    631.2368
  1599.5000      4.1741      0.0000    144.6563    636.5563
  1599.7500      4.3206      0.0000    138.2338    646.6589
  1600.0000      4.4491      0.0000    129.2371    653.4450
  1600.2500      4.5997      0.0000    119.6264    655.1850
  1600.5000      4.8200      0.0000    111.2321    655.6888
  1600.7500      5.1004      0.0000    105.2284    657.9853
  1601.0000      5.3958      0.0000    102.0548    661.1490
  1601.2500      5.6710      0.0000    101.7597    662.3509
  1601.5000      5.9100      0.0000    104.1541    657.9507
  1601.7500      6.0957      0.0000    108.6185    643.0023
  1602.0000      6.2009      0.0000    114.1084    618.1982
  1602.2500      6.2041      0.0000    119.5351    597.6735
  1602.5000      6.1173      0.0000    124.0596    594.5140
  1602.7500      5.9820      0.0000    127.2119    601.4249
  1603.0000      5.8423      0.0000    129.0594    604.6753
  1603.2500      5.7345      0.0000    130.1339    604.5684
  1603.5000      5.6705      0.0000    130.9561    606.6632
  1603.7500      5.6440      0.0000    131.7081    609.1161
  1604.0000      5.6615      0.0000    132.2176    607.6228
  1604.2500      5.7368      0.0000    131.8136    600.4337
  1604.5000      5.8553      0.0000    129.3763    587.7938
  1604.7500      5.9733      0.0000    124.3682    575.4370
  1605.0000      6.0591      0.0000    117.9892    572.8576
  1605.2500      6.1089      0.0000    112.6031    581.1188
  1605.5000      6.1212      0.0000    109.6672    588.1878
  1605.7500      6.0811      0.0000    108.7822    584.6698
  1606.0000      5.9744      0.0000    108.8974    576.7521
  1606.2500      5.8214      0.0000    109.6593    573.7184
  1606.5000      5.6735      0.0000    111.1376    573.9016
  1606.7500      5.5555      0.0000    112.6141    575.0447
  1607.0000      5.4373      0.0000    112.2902    583.9374
  1607.2500      5.2871      0.0000    108.6432    602.1940
  1607.5000      5.1091      0.0000    102.2636    619.1747
  1607.7500      4.9102      0.0000     96.0560    627.2932
