~Version Information
VERS.                      2.0: CWLS Log ASCII Standard - VERSION 2.0
WRAP.                       NO: One line per depth step
~Well Information Block
STRT.FT               520.0000: 
STOP.FT              2183.5000: 
STEP.FT                 0.1000: 
NULL.                -999.2500: 
COMP.          Pioneer Natural Resources: COMPANY
WELL.             Enzo 43-8 Tr: WELL
FLD.           Purgatoire River: FIELD
LOC.           2303' FSL & 604' FEL: LOCATION
PROV.                 Colorado: PROVINCE
CNTY.               Las Animas: COUNTRY
SRVC.                Patterson: SERVICE COMPANY
DATE.          Sun Oct 31 15:10:54 2004: LOG DATE
UWI.           05 071 08213 00: UNIQUE WELL ID
~Curve Information Block
DEPT.FT            0 000 00 00: Depth
DCAL.in                       : CDL Caliper
RHOB.g/cc                     : CDL Bulk Density
RHOC.g/cc                     : CDL Density Correction
DPOR.pu                       : CDL Density Porosity
NPOR.pu                       : Neutron Porosity
GR.GAPI                       : Gamma Ray
~Parameter Information Block
~A  Depth       DCAL        RHOB        RHOC        DPOR        NPOR         GR     
# ...
  1499.2000      8.0524      2.6013      0.0963      2.9545     23.1896    105.7255
  1499.3000      8.0425      2.6888      0.2063     -2.3499     23.1028    104.2111
  1499.4000      8.0425      2.7833      0.1935     -8.0788     23.6851    103.6285
  1499.5000      8.0397      2.8633      0.2462    -12.9302     24.8567    105.6206
  1499.6000      8.0397      2.9225      0.1750    -16.5175     25.9988    107.9962
  1499.7000      8.0397      2.9672      0.1570    -19.2246     26.8026    106.8984
  1499.8000      8.0502      3.0006      0.1235    -21.2481     27.2738    103.1617
  1499.9000      8.0502      3.0133      0.1215    -22.0191     27.4506     99.3199
  1500.0000      8.0988      2.9980      0.0255    -21.0911     27.5319     96.8501
  1500.1000      8.0988      2.9497      0.0271    -18.1638     27.5580     95.9972
  1500.2000      8.0988      2.8583     -0.0336    -12.6259     27.2299     97.1917
  1500.3000      8.1841      2.7463     -0.1455     -5.8385     26.4774    100.5507
  1500.4000      8.1841      2.6640     -0.1106     -0.8473     25.5158    103.8969
  1500.5000      8.2433      2.6159     -0.0315      2.0680     24.4944    104.9163
  1500.6000      8.2433      2.5691     -0.0129      4.9024     23.4522    105.1327
  1500.7000      8.2433      2.5336     -0.0788      7.0560     22.6052    105.7631
  1500.8000      8.2583      2.5387      0.0992      6.7479     22.2104    105.9394
  1500.9000      8.2583      2.5640      0.1245      5.2108     22.1412    106.5134
  1501.0000      8.2442      2.5788      0.1384      4.3154     22.0855    107.6206
  1501.1000      8.2442      2.5793      0.1931      4.2865     21.9665    107.5358
  1501.2000      8.2442      2.5649      0.2066      5.1582     21.9911    107.7913
  1501.3000      8.1887      2.5394      0.1231      6.7032     22.4577    110.7946
  1501.4000      8.1887      2.5178      0.0997      8.0116     23.0764    115.1985
  1501.5000      8.1057      2.5069      0.0619      8.6699     23.1638    117.6712
  1501.6000      8.1057      2.4978      0.0733      9.2255     22.6881    116.3270
  1501.7000      8.1057      2.4842      0.0868     10.0496     22.2152    112.8938
  1501.8000      8.0320      2.4720      0.0638     10.7861     22.1103    113.0130
  1501.9000      8.0320      2.4708      0.0374     10.8623     22.1769    117.2496
  1502.0000      7.9954      2.4873      0.0551      9.8606     22.1778    117.9967
  1502.1000      7.9954      2.5177      0.1117      8.0180     22.1989    112.0869
  1502.2000      7.9954      2.5505      0.0938      6.0303     22.3140    105.1448
  1502.3000      7.9865      2.5811      0.1349      4.1782     22.3170    103.8532
  1502.4000      7.9865      2.6078      0.1144      2.5576     22.0775    108.4865
  1502.5000      7.9803      2.6202      0.1501      1.8088     21.8889    115.2479
  1502.6000      7.9803      2.6080      0.0849      2.5462     22.0124    120.1105
  1502.7000      7.9803      2.5817      0.0585      4.1397     22.4807    117.9445
  1502.8000      7.9746      2.5548      0.0606      5.7720     23.2166    107.6007
  1502.9000      7.9746      2.5297      0.0208      7.2914     23.6973     95.4119
  1503.0000      7.9734      2.5095      0.0222      8.5160     23.4657     89.5972
  1503.1000      7.9734      2.4915      0.0261      9.6063     22.9998     89.5028
  1503.2000      7.9734      2.4732     -0.0091     10.7127     22.8439     89.9265
  1503.3000      7.9747      2.4617     -0.0183     11.4147     22.9208     91.6527
  1503.4000      7.9747      2.4557     -0.0009     11.7765     23.1273     95.6971
  1503.5000      7.9748      2.4462      0.0034     12.3497     23.5135     99.3591
  1503.6000      7.9748      2.4333      0.0115     13.1329     23.8798    101.9803
  1503.7000      7.9748      2.4327     -0.0311     13.1690     23.9689    103.3050
  1503.8000      7.9733      2.4689     -0.0057     10.9767     23.9954    101.3045
  1503.9000      7.9733      2.5505      0.0418      6.0296     24.3707     96.0730
  1504.0000      7.9727      2.6512      0.1522     -0.0750     24.8846     90.1598
  1504.1000      7.9727      2.7239      0.2000     -4.4801     25.0906     85.8177
  1504.2000      7.9727      2.7471      0.1837     -5.8875     24.9666     84.7998
  1504.3000      7.9762      2.7357      0.1682     -5.1928     24.9082     86.0920
  1504.4000      7.9762      2.7019      0.1498     -3.1449     25.2013     87.6136
  1504.5000      7.9885      2.6537      0.0069     -0.2232     25.7653     87.4857
  1504.6000      7.9885      2.6156     -0.0709      2.0822     26.4932     86.4705
  1504.7000      7.9885      2.6022     -0.0471      2.8956     27.1904     88.7914
  1504.8000      8.0111      2.6019     -0.0499      2.9129     27.5063     93.6289
  1504.9000      8.0111      2.6094     -0.0561      2.4633     27.4719     98.0501
  1505.0000      8.0264      2.6253     -0.0008      1.4975     27.1492     99.2979
  1505.1000      8.0264      2.6299      0.0481      1.2192     26.3025     95.4134
  1505.2000      8.0264      2.6061      0.0566      2.6619     25.0543     91.8289
  1505.3000      8.0218      2.5676      0.0993      4.9939     23.8281     93.7412
  1505.4000      8.0218      2.5426      0.0221      6.5100     23.0095     97.3016
  1505.5000      8.0122      2.5430      0.0853      6.4856     22.8446     99.1382
  1505.6000      8.0122      2.5472      0.0865      6.2302     23.0742    101.3354
  1505.7000      8.0122      2.5360      0.0467      6.9119     23.4264    104.9021
  1505.8000      8.0057      2.5264      0.0378      7.4882     23.9159    108.2408
  1505.9000      8.0057      2.5402      0.0324      6.6537     24.3593    109.4072
  1506.0000      8.0020      2.5780      0.0090      4.3659     24.7073    107.2564
  1506.1000      8.0020      2.6422      0.0132      0.4701     25.1338    104.9826
  1506.2000      8.0020      2.7252      0.1511     -4.5574     25.6847    106.1837
  1506.3000      8.0034      2.7801      0.2219     -7.8864     26.2168    106.6725
  1506.4000      8.0034      2.7740      0.1598     -7.5174     26.5556    101.5826
  1506.5000      8.0119      2.7365      0.0419     -5.2424     26.8583     94.0544
  1506.6000      8.0119      2.7043      0.0371     -3.2889     27.4498     92.0616
  1506.7000      8.0119      2.6823      0.0162     -1.9577     28.1441     98.0511
  1506.8000      8.0310      2.6624      0.0063     -0.7518     28.4362    103.4219
  1506.9000      8.0310      2.6331     -0.0473      1.0266     28.2001    102.4957
  1507.0000      8.0517      2.6034     -0.1505      2.8225     27.5654     98.3155
  1507.1000      8.0517      2.5956     -0.0830      3.2942     26.7022     95.2902
  1507.2000      8.0517      2.6055     -0.0129      2.6973     25.9288     95.9749
  1507.3000      8.0612      2.6097      0.0241      2.4424     25.4099     99.8546
  1507.4000      8.0612      2.6074     -0.0193      2.5818     25.0123    105.5987
  1507.5000      8.0602      2.6208     -0.0066      1.7699     24.6538    109.5661
  1507.6000      8.0602      2.6403      0.0976      0.5867     24.2813    107.0872
  1507.7000      8.0602      2.6412      0.0059      0.5330     23.8977    101.7085
  1507.8000      8.0528      2.6369      0.0071      0.7929     23.7212     99.0882
  1507.9000      8.0528      2.6414      0.0426      0.5209     23.8864     98.0926
  1508.0000      8.0469      2.6467      0.0205      0.2016     24.2468     95.2573
  1508.1000      8.0469      2.6485      0.0313      0.0920     24.5251     90.5966
  1508.2000      8.0469      2.6460      0.0304      0.2422     24.6151     89.1317
  1508.3000      8.0504      2.6390      0.0358      0.6653     24.4752     93.9586
  1508.4000      8.0504      2.6255      0.0689      1.4848     24.0905     97.8065
  1508.5000      8.0544      2.6051      0.0113      2.7211     23.5629     94.8316
  1508.6000      8.0544      2.5909     -0.0035      3.5819     23.2793     90.1134
  1508.7000      8.0544      2.5938      0.0197      3.4061     23.5675     87.8984
