~Version Information
VERS.                      2.0: CWLS Log ASCII Standard - VERSION 2.0
WRAP.                       NO: One line per depth step
~Well Information Block
STRT.FT                -5.2500: 
STOP.FT               769.5000: 
STEP.FT                 0.2500: 
NULL.                -999.2500: 
COMP.          Pioneer Natural Resources: COMPANY
WELL.          HG Duran 34-27 Tr: WELL
FLD.           Purgatorie River: FIELD
LOC.           1076' FSL & 1465' FEL: LOCATION
PROV.                 Colorado: PROVINCE
CNTY.               Las Animas: COUNTRY
SRVC.          Patterson Wireline: SERVICE COMPANY
DATE.          Mon Apr 18 09:19:17 2005: LOG DATE
UWI.           05-071-08218-00: UNIQUE WELL ID
~Curve Information Block
DEPT.FT            0 000 00 00: Depth
CCL.                          : Casing Collar Locator
TT3.usec                      : CBL 3' Travel Time
AMP3.mV                       : CBL 3' Amplitude
GR.GAPI                       : Gamma Ray
~Parameter Information Block
~A  Depth       CCL         TT3         AMP3         GR     
# ...
   430.2500      0.0000    774.9912     11.6075    114.7909
   430.5000      0.0000    783.6967     10.9798    108.5790
   430.7500      0.0000    807.3369     10.4935    101.8635
   431.0000      0.0000    844.1218     10.2825     96.3843
   431.2500      0.0000    884.4181     10.4064     93.6917
   431.5000      0.0000    914.4570     10.8160     93.8555
   431.7500      0.0000    928.1836     11.3319     95.5428
   432.0000      0.0000    937.5026     11.7056     97.4805
   432.2500      0.0000    967.6647     11.7950     99.4029
   432.5000      0.0000   1037.9374     11.6733    101.6402
   432.7500      0.0000   1144.3206     11.4652    104.2783
   433.0000      0.0000   1260.7646     11.1216    106.9423
   433.2500      0.0000   1357.7155     10.5137    109.2409
   433.5000      0.0000   1420.4109      9.7147    111.0795
   433.7500      0.0000   1452.0277      9.0122    112.4492
   434.0000      0.0000   1463.8083      8.6482    113.1685
   434.2500     -5.0000   1464.2881      8.6537    112.8931
   434.5000      0.0000   1454.3125      8.8911    111.1455
   434.7500      0.0000   1427.2545      9.1534    107.4380
   435.0000      0.0000   1373.2740      9.2432    101.8949
   435.2500      0.0000   1287.1331      9.0483     95.9576
   435.5000      0.0000   1175.2554      8.5969     91.9911
   435.7500      0.0000   1055.7500      8.0458     91.7758
   436.0000      0.0000    950.4838      7.5882     95.4269
   436.2500      0.0000    874.9009      7.3077    101.5527
   436.5000      0.0000    832.2518      7.1130    108.0579
   436.7500      0.0000    815.2164      6.8663    113.1219
   437.0000      0.0000    812.5524      6.5557    116.1793
   437.2500      0.0000    815.2132      6.2808    118.2069
   437.5000      0.0000    818.5319      6.1028    120.6663
   437.7500      0.0000    821.2059      5.9884    123.8354
   438.0000      0.0000    823.3295      5.8884    126.3665
   438.2500      0.0000    825.0396      5.8113    126.8444
   438.5000      0.0000    826.1161      5.7991    125.5774
   438.7500      0.0000    825.9342      5.8564    124.2585
   439.0000      0.0000    823.1292      5.9270    123.9780
   439.2500      0.0000    815.8666      5.9468    124.3877
   439.5000      0.0000    803.5705      5.9052    124.8237
   439.7500      0.0000    788.4988      5.8400    125.1379
   440.0000      0.0000    774.8344      5.7854    124.9605
   440.2500      0.0000    766.0454      5.7444    123.0058
   440.5000      0.0000    763.3550      5.7149    118.0365
   440.7500      0.0000    766.1650      5.7183    110.5532
   441.0000      0.0000    772.8567      5.7843    103.1129
   441.2500      0.0000    781.1526      5.9094     98.7366
   441.5000      0.0000    788.7175      6.0436     98.7672
   441.7500      0.0000    794.1147      6.1281    101.9819
   442.0000      0.0000    797.2041      6.1462    105.6614
   442.2500      0.0000    798.6223      6.1291    107.5677
   442.5000      0.0000    799.0725      6.1186    107.0362
   442.7500      0.0000    799.0243      6.1333    104.7187
   443.0000      0.0000    798.7632      6.1633    101.8193
   443.2500      0.0000    798.4944      6.1796     99.4133
   443.5000      0.0000    798.3672      6.1479     98.0118
   443.7500      0.0000    798.4442      6.0486     97.7083
   444.0000      0.0000    798.6767      5.8942     98.7456
   444.2500      0.0000    798.9391      5.7220    101.6316
   444.5000      0.0000    799.0962      5.5593    106.7559
   444.7500      0.0000    799.0765      5.3933    113.9825
   445.0000      0.0000    798.9691      5.1850    122.0373
   445.2500      0.0000    799.1472      4.9150    128.0359
   445.5000      0.0000    800.5131      4.6062    128.5700
   445.7500      0.0000    804.9147      4.3000    122.1242
   446.0000      0.0000    815.5997      4.0213    110.1803
   446.2500      0.0000    836.9372      3.7791     95.7293
   446.5000      0.0000    872.6583      3.5913     81.1337
   446.7500      0.0000    923.0834      3.5001     67.4451
   447.0000      0.0000    983.8434      3.5527     55.1082
   447.2500      0.0000   1047.2244      3.7344     44.7971
   447.5000      0.0000   1103.5726      3.8985     37.4280
   447.7500      0.0000   1141.6566      3.8221     33.5106
   448.0000      0.0000   1152.4027      3.4217     32.8750
   448.2500      0.0000   1136.6366      2.8885     35.2836
   448.5000      0.0000   1107.5586      2.5358     41.0279
   448.7500      0.0000   1082.3894      2.5259     50.4151
   449.0000     -5.0000   1071.9427      2.8021     62.6374
   449.2500     -5.0000   1076.7147      3.2555     75.5789
   449.5000      0.0000   1087.0652      3.9108     87.0036
   449.7500      0.0000   1085.4155      4.9365     95.8719
   450.0000      0.0000   1055.6948      6.4375    102.6101
   450.2500      0.0000    997.6444      8.1958    108.3656
   450.5000      0.0000    929.9152      9.6768    113.9037
   450.7500      0.0000    875.0675     10.4169    118.9030
   451.0000      0.0000    843.0729     10.4021    122.2786
   451.2500      0.0000    829.9728     10.0094    123.2305
   451.5000      0.0000    827.3663      9.6347    122.0837
   451.7500      0.0000    829.3927      9.4403    120.2781
   452.0000      0.0000    833.4147      9.3670    119.4743
   452.2500      0.0000    838.5140      9.2665    120.4560
   452.5000      0.0000    844.3465      9.0260    122.7775
   452.7500      0.0000    850.1072      8.6325    125.2836
   453.0000      0.0000    854.2015      8.1601    126.7509
   453.2500      0.0000    855.4194      7.7164    126.3549
   453.5000      0.0000    854.5118      7.3984    124.1051
   453.7500      0.0000    853.7272      7.2504    120.8722
   454.0000      0.0000    854.3315      7.2328    117.6436
   454.2500      0.0000    855.1774      7.2455    114.8135
   454.5000      0.0000    854.2675      7.2047    112.5549
   454.7500      0.0000    851.3466      7.0929    111.5744
   455.0000      0.0000    848.2515      6.9376    112.7391
   455.2500      0.0000    846.7717      6.7639    115.7870
   455.5000      0.0000    846.7572      6.5781    119.0113
   455.7500      0.0000    846.5488      6.3779    120.5857
   456.0000      0.0000    844.9341      6.1652    119.9500
   456.2500      0.0000    842.2774      5.9547    117.6724
   456.5000      0.0000    839.8447      5.7768    114.5381
   456.7500      0.0000    838.6252      5.6671    111.3813
   457.0000      0.0000    839.0852      5.6471    109.2942
   457.2500      0.0000    841.5958      5.7058    109.0614
   457.5000      0.0000    846.5245      5.8006    110.2563
   457.7500      0.0000    853.8694      5.8827    111.2608
   458.0000      0.0000    863.3986      5.9272    110.3782
   458.2500      0.0000    875.3727      5.9398    107.1531
   458.5000      0.0000    890.1039      5.9429    102.8803
   458.7500      0.0000    906.0892      5.9603     99.7827
   459.0000      0.0000    919.6866      6.0044     99.5369
   459.2500      0.0000    927.5370      6.0674    102.3571
   459.5000      0.0000    928.0807      6.1295    107.1078
   459.7500      0.0000    920.6331      6.1845    112.1418
   460.0000      0.0000    905.5256      6.2520    116.3616
   460.2500      0.0000    885.8340      6.3623    119.7161
   460.5000      0.0000    866.8193      6.5374    122.6573
   460.7500      0.0000    852.7539      6.7941    125.2949
   461.0000      0.0000    844.9825      7.1403    127.4123
   461.2500      0.0000    842.6942      7.5512    129.1709
   461.5000      0.0000    844.4308      7.9675    131.2111
   461.7500      0.0000    848.7067      8.3388    133.7755
   462.0000      0.0000    854.0433      8.6581    135.9646
   462.2500      0.0000    859.1110      8.9372    136.3146
   462.5000      0.0000    863.0562      9.1610    134.2938
   462.7500      0.0000    865.7917      9.2829    130.9704
   463.0000      0.0000    867.8182      9.2701    128.1114
   463.2500      0.0000    869.3441      9.1588    126.8481
   463.5000      0.0000    869.4626      9.0513    127.0710
