~Version Information
VERS.                      2.0: CWLS Log ASCII Standard - VERSION 2.0
WRAP.                       NO: One line per depth step
~Well Information Block
STRT.FT                -9.7500: 
STOP.FT              2566.5000: 
STEP.FT                 0.2500: 
NULL.                -999.2500: 
COMP.          Petrogulf Corporation: COMPANY
WELL.             Valejo 8-12V: WELL
FLD.           Purgatorie River: FIELD
LOC.           1510' FNL & 1460' FWL: LOCATION
CNTY.               Las Animas: COUNTY
SRVC.                         : SERVICE COMPANY
DATE.          Tue Nov 18 14:36:15 2003: LOG DATE
UWI.                          : UNIQUE WELL ID
STAT.                 Colorado: STATE
~Curve Information Block
DEPT.FT            0 000 00 00: Depth
CCL.                          : Casing Collar Locator
TT3.usec                      : CBL 3' Travel Time
AMP3.mV                       : CBL 3' Amplitude
GR.GAPI                       : Gamma Ray
~Parameter Information Block
~A  Depth       CCL         TT3         AMP3         GR     
# ...
   492.7500      0.0000    725.7472      6.0379    120.1792
   493.0000      0.0000    724.7551      6.0901    120.4116
   493.2500      0.0000    723.8764      5.9635    118.2369
   493.5000      0.0000    723.3992      5.6785    114.2597
   493.7500      0.0000    723.9059      5.2793    110.0145
   494.0000      0.0000    725.8442      4.8025    106.6614
   494.2500      0.0000    728.7637      4.2584    103.8534
   494.5000      0.0000    731.8663      3.6687    100.1009
   494.7500      0.0000    735.8297      3.1241     94.2715
   495.0000      0.0000    742.5450      2.7618     86.8016
   495.2500      0.0000    751.6221      2.6600     79.7411
   495.5000      0.0000    759.0934      2.7730     75.7332
   495.7500      0.0000    761.7530      2.9811     76.6017
   496.0000     -2.0000    760.9949      3.1852     82.3079
   496.2500      0.0000    760.1912      3.3492     90.8876
   496.5000      0.0000    760.3813      3.4867     99.4394
   496.7500      0.0000    760.6582      3.6348    105.6036
   497.0000      0.0000    760.4210      3.8328    108.5089
   497.2500      0.0000    758.8674      4.0950    108.6236
   497.5000      0.0000    754.3066      4.3817    107.0160
   497.7500      0.0000    746.1962      4.6076    104.8679
   498.0000      0.0000    736.7697      4.6992    103.3648
   498.2500      0.0000    729.1987      4.6468    103.4991
   498.5000      0.0000    724.9082      4.4898    105.6526
   498.7500      0.0000    723.2218      4.2677    109.3918
   499.0000      0.0000    722.7980      4.0001    113.8052
   499.2500      0.0000    722.7285      3.7102    118.1360
   499.5000      0.0000    722.7173      3.4471    121.9585
   499.7500      0.0000    722.8296      3.2804    124.6854
   500.0000      0.0000    723.3654      3.2759    125.3389
   500.2500      0.0000    724.9608      3.4734    123.2687
   500.5000      0.0000    728.9219      3.8643    118.9542
   500.7500      0.0000    737.2015      4.3751    113.7994
   501.0000      0.0000    751.3410      4.8862    109.2180
   501.2500      0.0000    770.9006      5.2927    106.0261
   501.5000      0.0000    793.2122      5.5518    104.3583
   501.7500      0.0000    814.7412      5.6724    103.8033
   502.0000      0.0000    831.7712      5.6765    103.7729
   502.2500      0.0000    839.9656      5.5808    103.9214
   502.5000      0.0000    835.6488      5.3996    104.0574
   502.7500      0.0000    819.7577      5.1449    103.7016
   503.0000      0.0000    800.0040      4.8265    102.2834
   503.2500      0.0000    786.8442      4.4665    100.0848
   503.5000      0.0000    786.0847      4.1072     98.4974
   503.7500      0.0000    795.7773      3.7980     98.8368
   504.0000      0.0000    809.8859      3.5760    100.9581
   504.2500      0.0000    823.5144      3.4662    103.3223
   504.5000      0.0000    834.7921      3.4888    104.3895
   504.7500      0.0000    843.3019      3.6498    103.8045
   505.0000      0.0000    847.4202      3.9238    102.4255
   505.2500      0.0000    843.5421      4.2634    101.5407
   505.5000      0.0000    828.6873      4.6346    101.9494
   505.7500      0.0000    804.3464      5.0292    103.3901
   506.0000      0.0000    777.9784      5.4350    104.6636
   506.2500      0.0000    760.1607      5.8050    104.4737
   506.5000      0.0000    758.1071      6.0722    102.4570
   506.7500      0.0000    770.4088      6.1950     99.5170
   507.0000      0.0000    788.6402      6.1789     97.1983
   507.2500      0.0000    803.9728      6.0601     96.7619
   507.5000      0.0000    811.3326      5.8792     98.6286
   507.7500      0.0000    809.1407      5.6693    102.2485
   508.0000      0.0000    798.2786      5.4548    106.2525
   508.2500      0.0000    780.6882      5.2509    109.0824
   508.5000      0.0000    757.1205      5.0672    109.9543
   508.7500      0.0000    726.5061      4.9134    109.4253
   509.0000      0.0000    688.1509      4.7945    109.0009
   509.2500      0.0000    644.5786      4.6928    110.0362
   509.5000      0.0000    601.9225      4.5652    112.7695
   509.7500      0.0000    567.2783      4.3754    116.1331
   510.0000      0.0000    545.9821      4.1340    118.4522
   510.2500      0.0000    540.9218      3.9011    118.5736
   510.5000      0.0000    552.8298      3.7496    116.5683
   510.7500      0.0000    580.9057      3.7339    113.4746
   511.0000      0.0000    622.9683      3.8848    110.3932
   511.2500      0.0000    673.4869      4.2024    107.7370
   511.5000      0.0000    722.7714      4.6376    105.4606
   511.7500      0.0000    762.5347      5.0993    104.0917
   512.0000      0.0000    792.6967      5.4998    104.9811
   512.2500      0.0000    818.9131      5.7969    108.8809
   512.5000      0.0000    843.9803      5.9945    114.4593
   512.7500      0.0000    865.1091      6.1153    118.9648
   513.0000      0.0000    878.5971      6.1779    120.4938
   513.2500      0.0000    883.9357      6.1873    119.1843
   513.5000      0.0000    883.6981      6.1304    116.2896
   513.7500      0.0000    881.4313      5.9807    112.8643
   514.0000      0.0000    879.7294      5.7191    109.5679
   514.2500      0.0000    879.0380      5.3586    106.9245
   514.5000      0.0000    877.2642      4.9450    105.0546
   514.7500      0.0000    869.8532      4.5318    103.4031
   515.0000      0.0000    850.1042      4.1628    101.4229
   515.2500      0.0000    810.9470      3.8762     99.5156
   515.5000      0.0000    749.3862      3.6971     98.5501
   515.7500      0.0000    671.9324      3.6141     98.4538
   516.0000      0.0000    595.4688      3.5758     98.2510
   516.2500      0.0000    540.6304      3.5245     97.7944
   516.5000      0.0000    522.3652      3.4307     98.5248
   516.7500      0.0000    544.0720      3.2966    102.0215
   517.0000      0.0000    596.1684      3.1418    108.2257
   517.2500      0.0000    658.7460      2.9949    115.2894
   517.5000      0.0000    710.0231      2.8883    120.7446
   517.7500      0.0000    737.3790      2.8496    122.7276
   518.0000      0.0000    742.4213      2.8915    120.6768
   518.2500      0.0000    736.1415      3.0054    115.5307
   518.5000      0.0000    728.8262      3.1652    109.3997
   518.7500      0.0000    722.8866      3.3434    104.7413
   519.0000      0.0000    714.2217      3.5286    103.3111
   519.2500      0.0000    700.6227      3.7282    105.2787
   519.5000      0.0000    687.6924      3.9600    109.0441
   519.7500      0.0000    685.1044      4.2413    112.3317
   520.0000      0.0000    697.9397      4.5721    114.0101
   520.2500      0.0000    723.4150      4.9156    114.7421
   520.5000      0.0000    754.0280      5.2179    115.5704
   520.7500      0.0000    780.7752      5.4678    116.3007
   521.0000      0.0000    795.1786      5.7149    115.7710
   521.2500      0.0000    793.6003      5.9982    113.4232
   521.5000      0.0000    781.1525      6.2770    109.9587
   521.7500      0.0000    768.6996      6.4653    106.3763
   522.0000      0.0000    764.6522      6.5177    102.9292
   522.2500      0.0000    769.7382      6.4584     99.3439
   522.5000      2.0000    779.1379      6.3404     95.5710
   522.7500      2.0000    788.2526      6.1956     91.8514
   523.0000      0.0000    795.2390      6.0163     88.4466
   523.2500      0.0000    798.3856      5.7792     85.9507
   523.5000      0.0000    793.6047      5.4920     85.6271
   523.7500      0.0000    777.0508      5.2090     88.6024
   524.0000      0.0000    748.9889      4.9905     94.5431
   524.2500      0.0000    711.9612      4.8548    101.5511
   524.5000      0.0000    666.4248      4.7810    107.3236
   524.7500      0.0000    613.3425      4.7397    110.1001
   525.0000      0.0000    561.0710      4.7055    109.0890
   525.2500      0.0000    525.0495      4.6578    105.1342
   525.5000      0.0000    519.0036      4.5862    100.8859
   525.7500      0.0000    546.2211      4.4908     99.1202
   526.0000      0.0000    596.4526      4.3715    100.4114
