~Version Information
VERS.                      2.0: CWLS Log ASCII Standard - VERSION 2.0
WRAP.                       NO: One line per depth step
~Well Information Block
STRT.FT                 3.5000: 
STOP.FT              1971.5000: 
STEP.FT                 0.2500: 
NULL.                -999.2500: 
COMP.          Evergreen Operating Corporation: COMPANY
WELL.          McCullough 34-32 Tr: WELL
FLD.           Purgatorie River: FIELD
LOC.           394' FSL & 2077' FEL: LOCATION
PROV.                 Colorado: PROVINCE
CNTY.               Las Animas: COUNTRY
SRVC.                         : SERVICE COMPANY
DATE.          Fri Sep 24 11:00:22 2004: LOG DATE
UWI.           05 071 08157 00: UNIQUE WELL ID
~Curve Information Block
DEPT.FT            0 000 00 00: Depth
GR.GAPI                       : Gamma Ray
CCL.                          : Casing Collar Locator
TT3.usec                      : CBL 3' Travel Time
AMP3.mV                       : CBL 3' Amplitude
~Parameter Information Block
~A  Depth        GR         CCL         TT3         AMP3    
# ...
   506.0000    136.9466      0.0000    684.4614     13.2533
   506.2500    132.0355      0.0000    728.1524     13.2844
   506.5000    127.1897      0.0000    751.3145     13.1127
   506.7500    123.6743      0.0000    759.0989     12.8178
   507.0000    122.5644      0.0000    758.6623     12.4895
   507.2500    123.6929      0.0000    755.7681     12.2001
   507.5000    125.5922      0.0000    754.3300     11.9836
   507.7500    126.8295      0.0000    755.9115     11.8348
   508.0000    127.3174      0.0000    759.4374     11.7232
   508.2500    128.2662      0.0000    762.3671     11.6018
   508.5000    130.7340      0.0000    762.2297     11.4149
   508.7500    134.2189      0.0000    757.2474     11.1246
   509.0000    137.0288      0.0000    746.7962     10.7467
   509.2500    138.0805      0.0000    732.5238     10.3555
   509.5000    137.7859      0.0000    718.5284     10.0376
   509.7500    137.1650      0.0000    708.8229      9.8408
   510.0000    136.8492      0.0000    703.8690      9.7668
   510.2500    137.0978      0.0000    700.0715      9.7920
   510.5000    138.1495      0.0000    693.1957      9.8752
   510.7500    140.2181      0.0000    682.3787      9.9589
   511.0000    143.1634      0.0000    670.7358      9.9861
   511.2500    146.1015      0.0000    662.4665      9.9262
   511.5000    147.6088      0.0000    659.9921      9.7928
   511.7500    146.8905      0.0000    663.4099      9.6443
   512.0000    144.7326      0.0000    671.2411      9.5514
   512.2500    142.7277      0.0000    681.2354      9.5471
   512.5000    141.5549      0.0000    691.4935      9.6077
   512.7500    140.6053      0.0000    701.7202      9.6888
   513.0000    139.2318      0.0000    713.1092      9.7653
   513.2500    137.6667      0.0000    726.4550      9.8259
   513.5000    136.6124      0.0000    740.5223      9.8470
   513.7500    136.4613      0.0000    752.6628      9.7964
   514.0000    137.0665      0.0000    760.9429      9.6708
   514.2500    137.8000      0.0000    765.3276      9.5132
   514.5000    137.6533      0.0000    766.9659      9.3872
   514.7500    135.7392      0.0000    766.7556      9.3355
   515.0000    132.1034      0.0000    764.4163      9.3606
   515.2500    127.8965      0.0000    758.4735      9.4382
   515.5000    124.4570      0.0000    747.3360      9.5444
   515.7500    122.2504      0.0000    731.2387      9.6654
   516.0000    120.9228      0.0000    713.5150      9.7837
   516.2500    120.2207      0.0000    699.5632      9.8700
   516.5000    120.4762      0.0000    694.1443      9.9020
   516.7500    122.1393      0.0000    699.0916      9.8842
   517.0000    125.0538      0.0000    712.4070      9.8385
   517.2500    128.2504      0.0000    728.7600      9.7745
   517.5000    130.3583      0.0000    741.7209      9.6855
   517.7500    130.5296      0.0000    746.8878      9.5737
   518.0000    129.5190      0.0000    743.3744      9.4622
   518.2500    129.6542      0.0000    732.5187      9.3720
   518.5000    132.9609      0.0000    715.9295      9.3077
   518.7500    139.1157      0.0000    695.6128      9.2714
   519.0000    145.6979      0.0000    675.5107      9.2605
   519.2500    150.5104      0.0000    661.2936      9.2410
   519.5000    153.2251      0.0000    657.3190      9.1671
   519.7500    154.5706      0.0000    663.5074      9.0483
   520.0000    154.5365      0.0000    675.5379      8.9534
   520.2500    152.2884      0.0000    688.5758      8.9262
   520.5000    147.8315      0.0000    700.7505      8.9457
   520.7500    142.8809     -3.0000    712.2979      8.9886
   521.0000    139.6767      0.0000    721.7443      9.0709
   521.2500    139.1395      0.0000    725.1917      9.1989
   521.5000    140.2628      0.0000    720.5834      9.3267
   521.7500    141.1552      0.0000    711.1341      9.4013
   522.0000    140.6227      0.0000    702.9764      9.4207
   522.2500    138.9403      0.0000    700.1139      9.4174
   522.5000    137.2377      0.0000    702.5541      9.3985
   522.7500    136.1213      0.0000    708.1349      9.3289
   523.0000    134.9826      0.0000    714.3436      9.1811
   523.2500    132.8487      0.0000    718.7925      8.9861
   523.5000    129.8768      0.0000    719.7058      8.8126
   523.7500    127.6286      0.0000    716.7164      8.7020
   524.0000    127.6163      0.0000    710.8982      8.6432
   524.2500    129.7641      0.0000    703.9125      8.6037
   524.5000    132.5755      0.0000    697.2938      8.5654
   524.7500    134.7305      0.0000    692.3764      8.5377
   525.0000    136.0132      0.0000    690.2144      8.5472
   525.2500    136.4375      0.0000    690.9569      8.6131
   525.5000    135.1408      0.0000    693.5235      8.7267
   525.7500    131.1982      0.0000    696.4478      8.8623
   526.0000    125.3506      0.0000    699.0650      9.0050
   526.2500    119.8070      0.0000    701.6706      9.1630
   526.5000    116.2419      0.0000    704.5654      9.3497
   526.7500    115.0646      0.0000    707.1603      9.5551
   527.0000    116.4704      0.0000    708.2353      9.7369
   527.2500    120.6664      0.0000    707.1897      9.8425
   527.5000    126.7787      0.0000    704.8250      9.8381
   527.7500    132.7460      0.0000    702.7504      9.7207
   528.0000    136.8042      0.0000    702.3082      9.5108
   528.2500    138.5702      0.0000    704.0748      9.2455
   528.5000    138.6018      0.0000    707.6427      8.9790
   528.7500    137.5459      0.0000    711.4556      8.7755
   529.0000    135.9278      0.0000    713.6130      8.6843
   529.2500    134.2256      0.0000    713.8392      8.7164
   529.5000    132.7857      0.0000    714.5263      8.8429
   529.7500    131.7818      0.0000    719.0152      9.0138
   530.0000    131.1863      0.0000    728.5225      9.1799
   530.2500    130.4548      0.0000    740.8505      9.3095
   530.5000    128.3458      0.0000    752.0666      9.4033
   530.7500    123.7688      0.0000    759.3320      9.4960
   531.0000    117.1257      0.0000    762.3395      9.6288
   531.2500    110.4535      0.0000    762.6801      9.8041
   531.5000    105.8214      0.0000    762.2375      9.9652
   531.7500    103.7140      0.0000    761.8950     10.0292
   532.0000    103.1956      0.0000    761.2946      9.9383
   532.2500    103.2649      0.0000    759.4815      9.6698
   532.5000    103.6636      0.0000    755.6005      9.2071
   532.7500    104.7683      0.0000    749.4568      8.5386
   533.0000    107.2388      0.0000    742.3787      7.7001
   533.2500    111.4865      0.0000    737.4202      6.7960
   533.5000    116.9829      0.0000    737.2106      5.9531
   533.7500    122.0940      0.0000    740.9426      5.2550
   534.0000    124.8988      0.0000    744.5502      4.7218
   534.2500    124.4565      0.0000    744.6750      4.3411
   534.5000    121.5095      0.0000    741.9196      4.1037
   534.7500    117.9040      0.0000    739.7114      4.0042
   535.0000    115.2574      0.0000    740.4318      4.0167
   535.2500    114.3082      0.0000    743.4123      4.0839
   535.5000    115.2558      0.0000    746.5950      4.1469
   535.7500    117.8623      0.0000    749.1493      4.1834
   536.0000    120.9202      0.0000    751.8713      4.2118
   536.2500    122.4321      0.0000    755.5489      4.2623
   536.5000    121.0605      0.0000    759.7479      4.3534
   536.7500    117.2521      0.0000    763.2636      4.4968
   537.0000    112.6863      0.0000    765.1774      4.7051
   537.2500    108.9923      0.0000    765.2277      4.9730
   537.5000    107.2135      0.0000    763.5459      5.2541
   537.7500    107.7969      0.0000    760.2560      5.4868
   538.0000    110.5090      0.0000    755.1168      5.6594
   538.2500    114.6654      0.0000    747.6516      5.8436
   538.5000    119.7013      0.0000    738.3868      6.1512
   538.7500    125.2755      0.0000    730.1833      6.6589
   539.0000    130.9127      0.0000    727.2343      7.3705
   539.2500    135.9041      0.0000    731.7263      8.2327
