~Version Information
 VERS.                                  2.0 : CWLS LAS VERSION
 WRAP.                                   NO : WRAPING MODE
 SWARE .                 MController 2.5.0N : SOFTWARE VERSION
~Well Information
 WELL.                    DrewMeister 34-34 : WELL
 COMP.    Pioneer Natural Resources USA Inc : COMPANY
 FLD.                      Purgatoire River : FIELD
 LOC.                 SW/SE SEC34 T32S R65W : LOCATION
 DATE.                             10/03/05 : DATE(S) LOGGED
 SRVC.       Blanco Geological Services LLC : SERVICE COMPANY
 STAT.                             Colorado : STATE
 CNTY.                           Las Animas : COUNTY
 CTRY.                                  USA : COUNTRY
 API.                       05-071-08131-00 : API NUMBER
 STRT.FT                             495.00 : START DEPTH
 STOP.FT                            1150.00 : STOP DEPTH
 STEP.FT                               1.00 : DEPTH INCREMENT
 NULL.                                -9999 : NULL VALUE
~Curve information
 DEPTH.FT                                   :
 ROP.MIN/FT                                 :
 GAS.UNITS                                  :
~ASCII Log data
       495.0     -9999.00          1.1 
       496.0         5.47          0.8 
       497.0         0.07          0.0 
       498.0         0.60          0.1 
       499.0         0.13          0.2 
       500.0         1.23          0.2 
       501.0         5.40          1.6 
       502.0         0.13          1.0 
       503.0         0.33          1.3 
       504.0         0.07          0.9 
       505.0         0.10          0.9 
       506.0         0.27          1.5 
       507.0         0.43          1.6 
       508.0         1.22          1.5 
       509.0         0.13          1.5 
       510.0         0.30          1.0 
       511.0         0.47          1.6 
       512.0         0.53          1.6 
       513.0         0.63          1.6 
       514.0         0.17          1.2 
       515.0         0.92          1.7 
       516.0         0.30          1.5 
       517.0         0.30          0.9 
       518.0         0.10          0.9 
       519.0         0.30          1.9 
       520.0         0.50          1.7 
       521.0         0.10          1.2 
       522.0         0.30          1.1 
       523.0         0.07          1.1 
       524.0         0.40          1.3 
       525.0         0.70          1.1 
       526.0         0.72          1.6 
       527.0         0.10          1.1 
       528.0         0.30          1.3 
       529.0         0.40          0.8 
       530.0         0.23          1.5 
       531.0         0.20          0.6 
       532.0         1.17          1.3 
       533.0         0.27          0.6 
       534.0         0.07          0.6 
       535.0         0.28          1.5 
       536.0         0.23          1.4 
       537.0         0.50          0.9 
       538.0         0.33          1.2 
       539.0         0.20          1.4 
       540.0         0.17          1.2 
       541.0         4.78          1.5 
       542.0         0.32          1.4 
       543.0         0.37          1.3 
       544.0         0.30          1.0 
       545.0         0.10          1.1 
       546.0         0.27          1.9 
       547.0         0.37          1.3 
       548.0         0.43          1.3 
       549.0         0.13          1.0 
       550.0         0.07          1.0 
       551.0         1.17          2.1 
       552.0         1.65          2.1 
       553.0         1.07          2.0 
       554.0         0.17          1.7 
       555.0         0.62          2.1 
       556.0         0.10          1.9 
       557.0         2.07          2.2 
       558.0         0.13          2.0 
       559.0         0.30          2.0 
       560.0         0.85          2.2 
       561.0         1.47          2.2 
       562.0         0.10          2.0 
       563.0         0.10          2.0 
       564.0         0.10          2.0 
       565.0         0.07          2.0 
       566.0         0.10          1.5 
       567.0         0.07          2.1 
       568.0         0.83          2.2 
       569.0         0.13          1.8 
       570.0         0.18          2.2 
       571.0         0.13          1.5 
       572.0         0.17          2.1 
       573.0         0.13          1.7 
       574.0         0.17          2.2 
       575.0         0.17          1.8 
       576.0         0.13          1.9 
       577.0         0.13          2.2 
       578.0         0.13          1.9 
       579.0         0.10          2.3 
       580.0         0.13          2.3 
       581.0         0.13          1.5 
       582.0         0.10          1.5 
       583.0         0.10          1.9 
       584.0         0.10          1.9 
       585.0         0.10          2.3 
       586.0         0.23          2.3 
       587.0         0.13          2.0 
       588.0         0.10          2.0 
       589.0         0.13          2.0 
       590.0         0.13          2.0 
       591.0         0.13          1.8 
       592.0         0.30          2.3 
       593.0         0.13          2.4 
       594.0         0.18          2.1 
       595.0         0.23          2.1 
       596.0         1.93          2.5 
       597.0         0.27          1.9 
       598.0         0.23          1.7 
       599.0         0.20          2.4 
       600.0         0.17          1.9 
       601.0         0.17          2.6 
       602.0         0.15          1.9 
       603.0         0.17          2.3 
       604.0         0.13          2.3 
       605.0         0.17          2.2 
       606.0         0.17          2.2 
       607.0         0.17          2.1 
       608.0         0.17          1.9 
       609.0         0.13          1.9 
       610.0         0.17          2.0 
       611.0         0.17          2.0 
       612.0         0.13          2.0 
       613.0         0.17          2.6 
       614.0         0.33          2.3 
       615.0         0.23          2.7 
       616.0         1.25          2.9 
       617.0         0.27          2.2 
       618.0         0.20          1.8 
       619.0         0.20          2.4 
       620.0         0.17          2.9 
       621.0         0.13          2.9 
       622.0         0.20          2.9 
       623.0         0.17          2.6 
       624.0         0.20          2.3 
       625.0         0.20          2.2 
       626.0         1.98          2.9 
       627.0         0.20          2.4 
       628.0         0.23          2.0 
       629.0         0.10          2.8 
       630.0         0.20          2.0 
       631.0         0.37          2.9 
       632.0         0.30          2.7 
       633.0         0.43          2.9 
       634.0         0.17          2.8 
       635.0         0.17          2.3 
       636.0         0.17          2.2 
       637.0         0.13          2.4 
       638.0         0.22          2.4 
       639.0         0.13          2.4 
       640.0         0.17          2.6 
       641.0         0.40          3.0 
       642.0         0.23          2.7 
       643.0         0.23          2.7 
       644.0         0.20          2.8 
       645.0         0.13          2.3 
       646.0         0.13          2.3 
       647.0         0.13          2.3 
       648.0         0.13          2.3 
       649.0         0.13          2.4 
       650.0         0.13          2.4 
       651.0         0.17          2.1 
       652.0         0.13          2.1 
       653.0         0.17          2.4 
       654.0         0.13          2.1 
       655.0         0.13          2.7 
       656.0         3.32          3.0 
       657.0         0.52          2.9 
       658.0         0.40          2.4 
       659.0         0.23          2.6 
       660.0         0.23          2.2 
       661.0         0.43          2.6 
       662.0         0.27          2.4 
       663.0         0.23          2.1 
       664.0         1.23          3.0 
       665.0         0.32          2.4 
       666.0         0.33          2.4 
       667.0         0.37          3.0 
       668.0         0.33          3.1 
       669.0         0.27          2.9 
       670.0         0.27          2.6 
       671.0         0.23          2.6 
       672.0         0.27          2.7 
       673.0         0.20          2.4 
       674.0         0.20          2.4 
       675.0         0.17          3.1 
       676.0         0.20          2.5 
       677.0         0.20          2.5 
       678.0         0.22          2.6 
       679.0         0.23          2.4 
       680.0         0.17          2.4 
       681.0         0.20          3.2 
       682.0         0.20          3.2 
       683.0         0.20          2.5 
       684.0         0.20          3.4 
       685.0         0.30          3.0 
       686.0         1.43          3.2 
       687.0         0.45          3.0 
       688.0         0.30          3.1 
       689.0         0.27          3.4 
       690.0         0.20          2.8 
       691.0         0.17          2.8 
       692.0         0.20          3.4 
       693.0         0.23          3.0 
       694.0         0.20          2.6 
