~Version Information
VERS.                      2.0: CWLS Log ASCII Standard - VERSION 2.0
WRAP.                       NO: One line per depth step
~Well Information Block
STRT.FT                -2.7500: 
STOP.FT              2141.2500: 
STEP.FT                 0.2500: 
NULL.                -999.2500: 
COMP.          Pioneer Nautural Resources: COMPANY
WELL.             Enzo 43-8 Tr: WELL
FLD.           Purgatorie River: FIELD
LOC.           2303' FSL & 604' FEL--: LOCATION
PROV.                       CO: PROVINCE
CNTY.               Las Animas: COUNTRY
SRVC.                         : SERVICE COMPANY
DATE.          Thu Nov 04 09:01:55 2004: LOG DATE
UWI.            05-071-08213  : UNIQUE WELL ID
~Curve Information Block
DEPT.FT            0 000 00 00: Depth
GR.GAPI                       : Gamma Ray
CCL.                          : Casing Collar Locator
TT3.usec                      : CBL 3' Travel Time
AMP3.mV                       : CBL 3' Amplitude
~Parameter Information Block
~A  Depth        GR         CCL         TT3         AMP3    
# ...
  2107.7500     36.3558      0.0000    690.2982      8.7098
  2108.0000     34.2266      0.0000    701.3708      9.0836
  2108.2500     31.9655      0.0000    715.6569      9.4564
  2108.5000     30.3726      0.0000    728.7022      9.8295
  2108.7500     29.6778      0.0000    737.5945     10.1858
  2109.0000     29.7055      0.0000    742.1779     10.4892
  2109.2500     30.1596      0.0000    743.9166     10.7086
  2109.5000     30.7323      0.0000    744.1906     10.8414
  2109.7500     31.3025      0.0000    743.4466     10.9140
  2110.0000     32.2361      0.0000    741.2608     10.9594
  2110.2500     34.3225      0.0000    736.9283     10.9994
  2110.5000     38.1073      0.0000    730.3448     11.0499
  2110.7500     43.2458      0.0000    722.6264     11.1334
  2111.0000     48.8163      0.0000    715.7946     11.2667
  2111.2500     54.3818      0.0000    711.7346     11.4339
  2111.5000     60.4106      0.0000    711.3381     11.5876
  2111.7500     67.6194      0.0000    714.1817     11.6820
  2112.0000     76.3704      0.0000    718.4800     11.7019
  2112.2500     86.6827      0.0000    721.6077     11.6643
  2112.5000     98.2118      0.0000    721.6104     11.6015
  2112.7500    110.0151      0.0000    718.6854     11.5415
  2113.0000    120.6947      0.0000    714.9598     11.4956
  2113.2500    129.0115      0.0000    712.8120     11.4573
  2113.5000    134.4198      0.0000    713.6180     11.4113
  2113.7500    137.1282      0.0000    717.6475     11.3499
  2114.0000    137.8264      0.0000    724.2421     11.2847
  2114.2500    137.5082      0.0000    731.8774     11.2406
  2114.5000    137.4658      0.0000    738.6824     11.2377
  2114.7500    139.0679      0.0000    743.4233     11.2779
  2115.0000    143.0296      0.0000    746.0164     11.3470
  2115.2500    148.5510      0.0000    747.1329     11.4232
  2115.5000    153.3199      0.0000    747.4927     11.4854
  2115.7500    154.9980      0.0000    747.5151     11.5228
  2116.0000    153.1111      0.0000    747.3789     11.5423
  2116.2500    149.4934      0.0000    747.1813     11.5699
  2116.5000    146.8604      0.0000    746.9997     11.6429
  2116.7500    146.8596      0.0000    746.8802     11.7971
  2117.0000    149.0194      0.0000    746.8242     12.0506
  2117.2500    151.0711      0.0000    746.7715     12.3948
  2117.5000    150.5143      0.0000    746.5201     12.8000
  2117.7500    146.4745      0.0000    745.5786     13.2370
  2118.0000    140.2430      0.0000    743.1257     13.6968
  2118.2500    134.1269      0.0000    738.3793     14.1895
  2118.5000    130.0262      0.0000    731.3637     14.7186
  2118.7500    128.9761      0.0000    723.3597     15.2539
  2119.0000    131.2046      0.0000    716.2823     15.7338
  2119.2500    135.8688      0.0000    711.4146     16.0948
  2119.5000    140.9422      0.0000    708.8113     16.2993
  2119.7500    144.1676      0.0000    707.8687     16.3442
  2120.0000    144.5216      0.0000    708.2864     16.2513
  2120.2500    142.7632      0.0000    710.4728     16.0449
  2120.5000    140.5666      0.0000    715.0704     15.7294
  2120.7500    139.1972      0.0000    721.9844     15.2935
  2121.0000    138.9711      0.0000    729.8689     14.7521
  2121.2500    139.6132      0.0000    736.7889     14.1863
  2121.5000    140.5558      0.0000    741.5016     13.7185
  2121.7500    140.9937      0.0000    744.0354     13.4281
  2122.0000    140.4577      0.0000    745.1823     13.2913
  2122.2500    139.4939      0.0000    745.7049     13.2127
  2122.5000    139.1692      0.0000    745.9899     13.1078
  2122.7500    139.9857      0.0000    746.1065     12.9563
  2123.0000    141.6223      0.0000    745.9443     12.7881
  2123.2500    143.3412      0.0000    745.2703     12.6385
  2123.5000    144.1762      0.0000    743.8351     12.5179
  2123.7500    143.0805      0.0000    741.7126     12.4206
  2124.0000    139.4996      0.0000    739.6569     12.3527
  2124.2500    133.8112      0.0000    738.8171     12.3417
  2124.5000    126.8105      0.0000    739.7593     12.4162
  2124.7500    118.8533      0.0000    741.8931     12.5783
  2125.0000    109.9438      0.0000    744.0415     12.7970
  2125.2500    100.4820      0.0000    745.3510     13.0236
  2125.5000     91.2921      0.0000    745.4601     13.2158
  2125.7500     82.9629      0.0000    744.1230     13.3592
  2126.0000     75.6510      0.0000    741.0956     13.4688
  2126.2500     69.4861      0.0000    736.4095     13.5713
  2126.5000     64.7230      0.0000    730.5347     13.6826
  2126.7500     61.5051      0.0000    724.2919     13.7990
  2127.0000     59.7472      0.0000    718.9017     13.9025
  2127.2500     59.1645      0.0000    715.9899     13.9711
  2127.5000     59.0694      0.0000    716.8159     13.9853
  2127.7500     58.2756      0.0000    720.8790     13.9291
  2128.0000     55.7810      0.0000    724.8871     13.7796
  2128.2500     51.7755      0.0000    722.4701     13.4715
  2128.5000     47.6516      0.0000    703.6267     12.8295
  2128.7500     44.7772      0.0000    654.7970     11.5378
  2129.0000     43.5263      0.0000    564.3282      9.2885
  2129.2500     43.6519      0.0000    434.5485      6.1103
  2129.5000     45.2477      0.0000    288.9558      2.5594
  2129.7500     48.9763      0.0000    161.3372     -0.5483
  2130.0000     55.3988      0.0000     74.0605     -2.6720
  2130.2500     64.1179      0.0000     27.5288     -3.8040
  2130.5000     73.4801      0.0000      8.1955     -4.2743
  2130.7500     81.3202      0.0000      1.9363     -4.4266
  2131.0000     86.3493      0.0000      0.3578     -4.4650
  2131.2500     88.9197      0.0000   -999.2500   -999.2500
  2131.5000     90.5201      0.0000   -999.2500   -999.2500
  2131.7500     92.6133      0.0000   -999.2500   -999.2500
  2132.0000     95.8286      0.0000   -999.2500   -999.2500
  2132.2500     99.9467      0.0000   -999.2500   -999.2500
  2132.5000    104.3445      0.0000   -999.2500   -999.2500
  2132.7500    108.3183      0.0000   -999.2500   -999.2500
  2133.0000    111.2230      0.0000   -999.2500   -999.2500
  2133.2500    112.7433      0.0000   -999.2500   -999.2500
  2133.5000    113.2745      0.0000   -999.2500   -999.2500
  2133.7500    113.7253      0.0000   -999.2500   -999.2500
  2134.0000    114.5799      0.0000   -999.2500   -999.2500
  2134.2500    115.2333      0.0000   -999.2500   -999.2500
  2134.5000    114.4986      0.0000   -999.2500   -999.2500
  2134.7500    111.6400      0.0000   -999.2500   -999.2500
  2135.0000    106.7239      0.0000   -999.2500   -999.2500
  2135.2500    100.1424      0.0000   -999.2500   -999.2500
  2135.5000     92.1603      0.0000   -999.2500   -999.2500
  2135.7500     82.9880      0.0000   -999.2500   -999.2500
  2136.0000     73.1312      0.0000   -999.2500   -999.2500
  2136.2500     63.5715      0.0000   -999.2500   -999.2500
  2136.5000     55.5663      0.0000   -999.2500   -999.2500
  2136.7500     50.1025      0.0000   -999.2500   -999.2500
  2137.0000     47.4361   -999.2500   -999.2500   -999.2500
  2137.2500     47.2009   -999.2500   -999.2500   -999.2500
  2137.5000     48.9810   -999.2500   -999.2500   -999.2500
  2137.7500     52.6757   -999.2500   -999.2500   -999.2500
  2138.0000     58.3438   -999.2500   -999.2500   -999.2500
  2138.2500     65.7119   -999.2500   -999.2500   -999.2500
  2138.5000     73.3494   -999.2500   -999.2500   -999.2500
  2138.7500     77.9560   -999.2500   -999.2500   -999.2500
  2139.0000     75.2956   -999.2500   -999.2500   -999.2500
  2139.2500     63.3474   -999.2500   -999.2500   -999.2500
  2139.5000     44.9241   -999.2500   -999.2500   -999.2500
  2139.7500     26.2386   -999.2500   -999.2500   -999.2500
  2140.0000     12.4224   -999.2500   -999.2500   -999.2500
  2140.2500      4.7157   -999.2500   -999.2500   -999.2500
  2140.5000      1.4246   -999.2500   -999.2500   -999.2500
  2140.7500      0.3401   -999.2500   -999.2500   -999.2500
  2141.0000      0.0637   -999.2500   -999.2500   -999.2500
