~Version Information
VERS.                      2.0: CWLS Log ASCII Standard - VERSION 2.0
WRAP.                       NO: One line per depth step
~Well Information Block
STRT.FT                 0.0000: 
STOP.FT              1390.5000: 
STEP.FT                 0.2500: 
NULL.                -999.2500: 
COMP.          Petrogulf Corporation: COMPANY
WELL.             Leier 17-42R: WELL
FLD.           Purgatorie River: FIELD
LOC.           2398' FNL & 1109' FEL: LOCATION
PROV.                 Colorado: PROVINCE
CNTY.               Las Animas: COUNTRY
SRVC.                Patterson: SERVICE COMPANY
DATE.          Thu Nov 10 14:34:29 2005: LOG DATE
UWI.                          : UNIQUE WELL ID
~Curve Information Block
DEPT.FT            0 000 00 00: Depth
CCL.                          : Casing Collar Locator
TT3.usec                      : CBL 3' Travel Time
AMP3.mV                       : CBL 3' Amplitude
GR.GAPI                       : Gamma Ray
~Parameter Information Block
~A  Depth       CCL         TT3         AMP3         GR     
# ...
   536.0000      0.0000    675.1265      7.8534    100.7015
   536.2500      0.0000    669.7906      7.9659     95.5471
   536.5000      0.0000    658.7414      8.2278     89.1508
   536.7500      0.0000    645.0152      8.6036     83.9451
   537.0000      0.0000    634.1441      9.0053     81.3043
   537.2500      0.0000    628.5316      9.3846     81.0237
   537.5000      0.0000    626.6553      9.7384     82.3316
   537.7500      0.0000    626.8249     10.0724     84.9779
   538.0000      0.0000    628.7278     10.4090     89.1836
   538.2500      0.0000    631.5788     10.7642     94.8670
   538.5000      0.0000    632.7490     11.0868    101.1528
   538.7500      0.0000    630.0159     11.2925    106.6184
   539.0000      0.0000    624.5031     11.3845    110.1405
   539.2500      0.0000    621.5174     11.4700    111.7332
   539.5000      0.0000    629.8485     11.6237    112.7526
   539.7500      0.0000    654.0206     11.8018    115.2824
   540.0000      0.0000    684.4050     11.9369    120.8351
   540.2500      0.0000    705.2391     12.0390    128.9252
   540.5000      0.0000    712.1677     12.1399    136.7658
   540.7500      0.0000    709.7369     12.2051    140.7757
   541.0000      0.0000    699.5616     12.1758    138.9153
   541.2500      0.0000    684.4534     12.0508    131.9257
   541.5000      0.0000    670.8362     11.8680    122.4231
   541.7500      0.0000    660.4003     11.6719    112.9554
   542.0000      0.0000    652.2084     11.5244    105.0680
   542.2500      0.0000    647.4318     11.4602     99.7167
   542.5000      0.0000    644.3990     11.4525     97.5531
   542.7500      0.0000    639.5543     11.4687     98.2094
   543.0000      0.0000    633.8822     11.4930     99.6319
   543.2500      0.0000    630.4177     11.4958     99.0215
   543.5000      0.0000    629.3450     11.4524     94.9758
   543.7500      0.0000    629.1211     11.3732     88.6070
   544.0000      0.0000    628.8637     11.2847     82.5192
   544.2500      0.0000    628.4977     11.1885     78.7524
   544.5000      0.0000    628.0893     11.0582     77.4514
   544.7500      0.0000    627.8632     10.8757     77.0835
   545.0000      0.0000    628.9624     10.6375     75.8904
   545.2500      0.0000    633.5458     10.3248     73.4485
   545.5000      0.0000    642.0891      9.9083     71.1106
   545.7500      0.0000    649.6976      9.3949     70.9917
   546.0000      0.0000    649.4036      8.8512     74.3580
   546.2500      0.0000    641.1254      8.3392     80.7452
   546.5000      0.0000    631.6990      7.8390     88.4202
   546.7500      0.0000    625.9634      7.2976     95.6579
   547.0000      0.0000    623.5156      6.7188    101.7318
   547.2500      0.0000    622.6118      6.1578    106.8091
   547.5000      0.0000    623.3901      5.6538    110.8960
   547.7500      0.0000    627.8900      5.1780    113.0233
   548.0000      0.0000    637.0616      4.6674    111.6998
   548.2500      0.0000    647.8265      4.1236    106.2485
   548.5000      0.0000    657.0398      3.6393     97.6135
   548.7500      0.0000    666.9589      3.2946     87.9627
   549.0000      0.0000    679.8107      3.0762     79.7392
   549.2500      0.0000    691.7079      2.9372     74.7995
   549.5000      0.0000    697.7424      2.8773     73.8659
   549.7500      0.0000    697.7837      2.9363     76.5483
   550.0000      0.0000    695.2830      3.1230     81.9317
   550.2500      0.0000    693.3716      3.3885     89.1976
   550.5000      0.0000    693.3178      3.7107     97.7979
   550.7500      0.0000    695.1248      4.1492    107.2458
   551.0000      0.0000    700.3024      4.7963    116.7875
   551.2500      0.0000    712.4190      5.7276    125.1890
   551.5000      0.0000    730.8943      6.8860    131.0050
   551.7500      0.0000    748.6985      7.9891    133.4645
   552.0000      0.0000    759.4554      8.7328    133.1955
   552.2500      0.0000    760.6285      9.0523    131.8056
   552.5000      0.0000    751.3533      9.1116    130.5473
   552.7500      0.0000    733.1759      9.1422    129.4178
   553.0000      0.0000    710.2750      9.2897    127.4474
   553.2500      0.0000    686.3605      9.5490    123.7637
   553.5000      0.0000    660.9338      9.7985    118.5985
   553.7500      0.0000    629.5388      9.8605    113.2755
   554.0000      0.0000    593.5856      9.6354    108.9954
   554.2500      0.0000    569.0995      9.2826    105.6099
   554.5000      0.0000    568.3013      9.0916    101.7068
   554.7500      0.0000    579.5366      9.0950     95.8846
   555.0000      0.0000    589.0897      9.1508     88.0914
   555.2500      0.0000    599.4832      9.2853     80.1095
   555.5000      0.0000    612.7387      9.5577     74.8696
   555.7500      2.0000    618.6926      9.8708     74.8316
   556.0000      0.0000    605.6805     10.0700     80.3548
   556.2500      0.0000    583.3929     10.0634     89.3668
   556.5000      0.0000    581.2222      9.9162     98.7237
   556.7500      0.0000    608.5590      9.8759    105.9665
   557.0000      0.0000    641.8069     10.2498    110.0104
   557.2500      0.0000    657.6508     11.0434    110.9937
   557.5000      0.0000    653.6196     11.7033    110.1673
   557.7500      0.0000    641.3797     11.7698    109.4924
   558.0000      0.0000    632.1671     11.5416    110.4770
   558.2500      0.0000    628.8055     11.4153    113.1222
   558.5000      0.0000    630.3205     11.2373    116.1609
   558.7500      0.0000    637.9252     10.7485    118.3159
   559.0000      0.0000    652.8758     10.0542    119.3137
   559.2500      0.0000    669.3029      9.4204    119.8342
   559.5000      0.0000    676.2155      8.9281    120.6544
   559.7500      0.0000    673.1011      8.4788    121.9336
   560.0000      0.0000    671.7740      7.9809    123.4068
   560.2500      0.0000    676.5392      7.4251    124.9499
   560.5000      0.0000    680.1472      6.8596    126.3925
   560.7500      0.0000    679.2031      6.3468    126.8186
   561.0000      0.0000    676.9824      5.9257    124.7568
   561.2500      0.0000    675.8065      5.5998    119.4398
   561.5000      0.0000    675.6931      5.3334    111.7112
   561.7500      0.0000    676.8857      5.0857    103.6879
   562.0000      0.0000    680.1923      4.8728     97.7887
   562.2500      0.0000    684.5482      4.7431     95.8015
   562.5000      0.0000    685.9473      4.6929     97.9822
   562.7500      0.0000    682.7283      4.6795    102.5890
   563.0000      0.0000    678.8176      4.7135    106.8342
   563.2500      0.0000    676.1236      4.8747    108.9336
   563.5000      0.0000    670.3975      5.2106    109.2965
   563.7500      0.0000    658.9799      5.6548    109.5367
   564.0000      0.0000    646.2205      6.0747    110.5406
   564.2500      0.0000    639.1907      6.3813    111.7684
   564.5000      0.0000    640.2048      6.5689    112.1761
   564.7500      0.0000    645.1017      6.6766    111.4734
   565.0000      0.0000    649.1380      6.7623    110.6089
   565.2500      0.0000    651.6612      6.9080    111.0475
   565.5000      0.0000    654.5464      7.1624    113.4077
   565.7500      0.0000    659.0289      7.4622    116.9101
   566.0000      0.0000    664.2519      7.7002    120.1975
   566.2500      0.0000    667.7141      7.8584    122.2229
   566.5000      0.0000    666.0948      7.9869    122.1816
   566.7500      0.0000    658.1616      8.1218    119.3216
   567.0000      0.0000    649.2747      8.3034    113.5144
   567.2500      0.0000    649.1181      8.5962    105.9697
   567.5000      0.0000    659.9667      9.0286     99.0102
   567.7500      0.0000    669.8009      9.5451     94.8750
   568.0000      0.0000    665.4617     10.0335     94.5001
   568.2500      0.0000    649.7148     10.3854     97.1239
   568.5000      0.0000    635.0037     10.5594    100.9414
   568.7500      0.0000    627.3150     10.6271    104.3187
   569.0000      0.0000    624.7052     10.7345    106.5428
   569.2500      0.0000    624.1699     10.9680    107.6147
