~Version Information
VERS.                      2.0: CWLS Log ASCII Standard - VERSION 2.0
WRAP.                       NO: One line per depth step
~Well Information Block
STRT.FT                12.0000: 
STOP.FT              1671.7500: 
STEP.FT                 0.2500: 
NULL.                -999.2500: 
COMP.          Pioneer Natural Resources: COMPANY
WELL.          Scott Canyon 11-18 Tr: WELL
FLD.           Purgatoire River: FIELD
LOC.           411' FNL & 580' FWL: LOCATION
PROV.                 Colorado: PROVINCE
CNTY.               Las Animas: COUNTRY
SRVC.                Patterson: SERVICE COMPANY
DATE.          Tue Feb 22 09:52:18 2005: LOG DATE
UWI.           05 071 08286 00: UNIQUE WELL ID
~Curve Information Block
DEPT.FT            0 000 00 00: Depth
GR.GAPI                       : Gamma Ray
CCL.                          : Casing Collar Locator
TT3.usec                      : CBL 3' Travel Time
AMP3.mV                       : CBL 3' Amplitude
~Parameter Information Block
~A  Depth        GR         CCL         TT3         AMP3    
# ...
   447.5000     79.2745      0.0000   1458.0000     26.2822
   447.7500     82.3917      0.0000   1458.0000     25.7017
   448.0000     85.4467      0.0000   1458.0000     25.2963
   448.2500     88.0927      0.0000   1458.0000     25.1380
   448.5000     90.7032      0.0000   1458.0000     25.2199
   448.7500     93.8119      0.0000   1458.0000     25.4644
   449.0000     97.4919      0.0000   1458.0000     25.7535
   449.2500    101.4860      0.0000   1458.0000     25.9685
   449.5000    105.4006      0.0000   1458.0000     26.0319
   449.7500    108.3792      0.0000   1458.0000     25.9416
   450.0000    109.1617      0.0000   1458.0000     25.7749
   450.2500    107.1357      0.0000   1458.0000     25.6457
   450.5000    103.1301      0.0000   1458.0000     25.6339
   450.7500     98.7764      0.0000   1458.0000     25.7387
   451.0000     95.2451      0.0000   1458.0000     25.8915
   451.2500     92.6517      0.0000   1458.0000     26.0063
   451.5000     90.3146      0.0000   1458.0000     26.0172
   451.7500     87.4843      0.0000   1458.0000     25.8891
   452.0000     84.1737      0.0000   1458.0000     25.6215
   452.2500     81.4556      0.0000   1458.0000     25.2530
   452.5000     80.7875      0.0000   1458.0000     24.8502
   452.7500     82.8250      0.0000   1458.0000     24.4805
   453.0000     86.8791      0.0000   1458.0000     24.1870
   453.2500     91.4521      0.0000   1458.0000     23.9786
   453.5000     95.1177      0.0000   1458.0000     23.8328
   453.7500     97.0457      0.0000   1458.0000     23.7111
   454.0000     97.2315      0.0000   1458.0000     23.5837
   454.2500     96.4233      0.0000   1458.0000     23.4505
   454.5000     95.7548      0.0000   1458.0000     23.3441
   454.7500     96.3935      0.0000   1458.0000     23.3066
   455.0000     99.1623      0.0000   1458.0000     23.3591
   455.2500    104.0187      0.0000   1458.0000     23.4890
   455.5000    110.0455      0.0000   1458.0000     23.6612
   455.7500    116.2876      0.0000   1458.0000     23.8382
   456.0000    122.1926      0.0000   1458.0000     23.9915
   456.2500    126.9830      0.0000   1458.0000     24.1078
   456.5000    129.4247      0.0000   1458.0000     24.1922
   456.7500    128.7764      0.0000   1458.0000     24.2621
   457.0000    125.5015      0.0000   1458.0000     24.3349
   457.2500    120.8195      0.0000   1458.0000     24.4193
   457.5000    115.8898      0.0000   1458.0000     24.5148
   457.7500    111.3713      0.0000   1458.0000     24.6073
   458.0000    107.4781      0.0000   1458.0000     24.6669
   458.2500    104.3658      0.0000   1458.0000     24.6633
   458.5000    102.4027      0.0000   1458.0000     24.5954
   458.7500    101.9693      0.0000   1458.0000     24.4951
   459.0000    103.0447      0.0000   1458.0000     24.3937
   459.2500    105.1630      0.0000   1458.0000     24.2885
   459.5000    107.9580      0.0000   1458.0000     24.1464
   459.7500    111.6585      0.0000   1458.0000     23.9368
   460.0000    116.5223      0.0000   1458.0000     23.6579
   460.2500    121.6684      0.0000   1458.0000     23.3415
   460.5000    125.0206      0.0000   1458.0000     23.0427
   460.7500    124.8215      0.0000   1458.0000     22.8218
   461.0000    121.0489      0.0000   1458.0000     22.7207
   461.2500    115.2718      0.0000   1458.0000     22.7438
   461.5000    109.4692      0.0000   1458.0000     22.8633
   461.7500    105.0397      0.0000   1458.0000     23.0490
   462.0000    102.4018      0.0000   1458.0000     23.2911
   462.2500    101.0929      0.0000   1458.0000     23.5887
   462.5000    100.3133      0.0000   1458.0000     23.9216
   462.7500     99.5518      0.0000   1458.0000     24.2469
   463.0000     98.8177      0.0000   1458.0000     24.5247
   463.2500     98.3110      0.0000   1458.0000     24.7381
   463.5000     97.7839      0.0000   1458.0000     24.8917
   463.7500     96.2182      0.0000   1458.0000     24.9904
   464.0000     92.4773      0.0000   1458.0000     25.0012
   464.2500     86.5275      0.0000   1458.0000     24.7954
   464.5000     79.9094      0.0000   1458.0000     24.1242
   464.7500     74.9313      0.0000   1458.0000     22.7269
   465.0000     73.2898      0.0000   1458.0000     20.5857
   465.2500     74.9498      0.0000   1458.0000     18.1034
   465.5000     77.9035      0.0000   1458.0000     15.9208
   465.7500     79.3712      0.0000   1458.0000     14.4804
   466.0000     77.9834      0.0000   1458.0000     13.7832
   466.2500     74.9546      0.0000   1458.0000     13.5425
   466.5000     72.7867      3.0000   1458.0000     13.4762
   466.7500     72.8578      0.0000   1458.0000     13.4650
   467.0000     74.6062      0.0000   1458.0000     13.5603
   467.2500     76.7361      0.0000   1458.0000     13.9133
   467.5000     78.5923      0.0000   1458.0000     14.6482
   467.7500     80.4211      0.0000   1458.0000     15.7547
   468.0000     82.7875      0.0000   1458.0000     17.1115
   468.2500     85.9333      0.0000   1458.0000     18.5720
   468.5000     89.6876      0.0000   1458.0000     19.9732
   468.7500     93.8122      0.0000   1458.0000     21.1222
   469.0000     97.9873      0.0000   1458.0000     21.8801
   469.2500    101.2040      0.0000   1458.0000     22.2509
   469.5000    101.7926      0.0000   1458.0000     22.3472
   469.7500     98.9399      0.0000   1458.0000     22.2866
   470.0000     94.1475      0.0000   1458.0000     22.1385
   470.2500     90.4474      0.0000   1458.0000     21.9436
   470.5000     89.9677      0.0000   1458.0000     21.7485
   470.7500     92.5283      0.0000   1458.0000     21.6086
   471.0000     96.5110      0.0000   1458.0000     21.5567
   471.2500    100.6496      0.0000   1458.0000     21.5785
   471.5000    104.8830      0.0000   1458.0000     21.6355
   471.7500    109.7260      0.0000   1458.0000     21.7146
   472.0000    115.0889      0.0000   1458.0000     21.8415
   472.2500    119.7246      0.0000   1458.0000     22.0392
   472.5000    121.7233      0.0000   1458.0000     22.2846
   472.7500    119.7462      0.0000   1458.0000     22.5174
   473.0000    114.2804      0.0000   1458.0000     22.6911
   473.2500    107.7668      0.0000   1458.0000     22.8086
   473.5000    102.9760      0.0000   1458.0000     22.9098
   473.7500    100.7704      0.0000   1458.0000     23.0381
   474.0000     99.6280      0.0000   1458.0000     23.2141
   474.2500     97.6679      0.0000   1458.0000     23.4335
   474.5000     94.8990      0.0000   1458.0000     23.6810
   474.7500     93.0779      0.0000   1458.0000     23.9464
   475.0000     93.6933      0.0000   1458.0000     24.2258
   475.2500     96.8970      0.0000   1458.0000     24.5077
   475.5000    102.3882      0.0000   1458.0000     24.7615
   475.7500    109.9953      0.0000   1458.0000     24.9476
   476.0000    118.6087      0.0000   1458.0000     25.0413
   476.2500    125.6692      0.0000   1458.0000     25.0488
   476.5000    128.8438      0.0000   1458.0000     25.0030
   476.7500    127.7411      0.0000   1458.0000     24.9419
   477.0000    123.7194      0.0000   1458.0000     24.8835
   477.2500    118.8144      0.0000   1458.0000     24.8211
   477.5000    114.9016      0.0000   1458.0000     24.7430
   477.7500    112.9436      0.0000   1458.0000     24.6523
   478.0000    112.6877      0.0000   1458.0000     24.5640
   478.2500    113.3220      0.0000   1458.0000     24.4876
   478.5000    114.3065      0.0000   1458.0000     24.4182
   478.7500    115.4408      0.0000   1458.0000     24.3397
   479.0000    116.3449      0.0000   1458.0000     24.2392
   479.2500    116.1871      0.0000   1458.0000     24.1216
   479.5000    114.1343      0.0000   1458.0000     24.0045
   479.7500    110.1552      0.0000   1458.0000     23.8970
   480.0000    105.2825      0.0000   1458.0000     23.7843
   480.2500    100.8361      0.0000   1458.0000     23.6357
   480.5000     97.3747      0.0000   1458.0000     23.4247
   480.7500     94.8430      0.0000   1458.0000     23.1440
