~Version Information
VERS.                      2.0: CWLS Log ASCII Standard - VERSION 2.0
WRAP.                       NO: One line per depth step
~Well Information Block
STRT.FT               928.1000: 
STOP.FT              2417.7000: 
STEP.FT                 0.1000: 
NULL.                -999.2500: 
COMP.          Pioneer Natural Resources: COMPANY
WELL.            Chevron 13-13: WELL
FLD.           Purgatoire River: FIELD
LOC.           1560' FSL & 711' FWL--: LOCATION
CNTY.               Las Animas: COUNTY
SRVC.          Superior Well Services: SERVICE COMPANY
DATE.          Mon Feb 12 14:51:53 2007: LOG DATE
UWI.           05 071 08319 00: UNIQUE WELL ID
STAT.                 Colorado: STATE
~Curve Information Block
DEPT.FT            0 000 00 00: Depth
DIR.Ohm-m                     : IEL Induction Resistivity
GR.GAPI                       : Gamma Ray
SN.Ohm-m                      : IEL Short Normal
SP.mV                         : IEL Spontaneous Potential
~Parameter Information Block
~A  Depth       DIR          GR          SN          SP     
# ...
  1919.7000     16.1008     92.7696     16.3564     65.3031
  1919.8000     16.1456     89.2583     16.2239     65.3339
  1919.9000     16.1456     85.9407     16.2239     65.3339
  1920.0000     16.1961     82.9791     16.2906     65.3658
  1920.1000     16.1961     80.4962     16.2906     65.3658
  1920.2000     16.1961     78.5707     16.2906     65.3658
  1920.3000     16.2488     77.2335     16.5155     65.4006
  1920.4000     16.2488     76.4661     16.5155     65.4006
  1920.5000     16.3006     76.2084     16.8367     65.4397
  1920.6000     16.3006     76.3683     16.8367     65.4397
  1920.7000     16.3006     76.8321     16.8367     65.4397
  1920.8000     16.3513     77.4770     17.2019     65.4833
  1920.9000     16.3513     78.1867     17.2019     65.4833
  1921.0000     16.4010     78.8589     17.4941     65.5299
  1921.1000     16.4010     79.4220     17.4941     65.5299
  1921.2000     16.4010     79.8326     17.4941     65.5299
  1921.3000     16.4485     80.0834     17.5974     65.5759
  1921.4000     16.4485     80.2006     17.5974     65.5759
  1921.5000     16.4922     80.2305     17.5309     65.6161
  1921.6000     16.4922     80.2356     17.5309     65.6161
  1921.7000     16.4922     80.2822     17.5309     65.6161
  1921.8000     16.5344     80.4309     17.4717     65.6442
  1921.9000     16.5344     80.7273     17.4717     65.6442
  1922.0000     16.5843     81.2000     17.5670     65.6537
  1922.1000     16.5843     81.8589     17.5670     65.6537
  1922.2000     16.5843     82.6974     17.5670     65.6537
  1922.3000     16.6533     83.6927     17.7876     65.6387
  1922.4000     16.6533     84.8158     17.7876     65.6387
  1922.5000     16.7485     86.0305     18.0360     65.5945
  1922.6000     16.7485     87.2956     18.0360     65.5945
  1922.7000     16.7485     88.5710     18.0360     65.5945
  1922.8000     16.8697     89.8158     18.3239     65.5179
  1922.9000     16.8697     90.9885     18.3239     65.5179
  1923.0000     17.0127     92.0461     18.6534     65.4077
  1923.1000     17.0127     92.9443     18.6534     65.4077
  1923.2000     17.0127     93.6339     18.6534     65.4077
  1923.3000     17.1779     94.0626     18.9359     65.2645
  1923.4000     17.1779     94.1713     18.9359     65.2645
  1923.5000     17.3741     93.9012     19.1281     65.0907
  1923.6000     17.3741     93.1915     19.1281     65.0907
  1923.7000     17.3741     91.9919     19.1281     65.0907
  1923.8000     17.6151     90.2684     19.2321     64.8904
  1923.9000     17.6151     88.0113     19.2321     64.8904
  1924.0000     17.9129     85.2421     19.3315     64.6696
  1924.1000     17.9129     82.0122     19.3315     64.6696
  1924.2000     17.9129     78.4081     19.3315     64.6696
  1924.3000     18.2714     74.5355     19.5629     64.4357
  1924.4000     18.2714     70.5167     19.5629     64.4357
  1924.5000     18.6828     66.4788     20.0037     64.1980
  1924.6000     18.6828     62.5441     20.0037     64.1980
  1924.7000     18.6828     58.8217     20.0037     64.1980
  1924.8000     19.1273     55.4042     20.6431     63.9669
  1924.9000     19.1273     52.3635     20.6431     63.9669
  1925.0000     19.5737     49.7515     21.3033     63.7541
  1925.1000     19.5737     47.6001     21.3033     63.7541
  1925.2000     19.5737     45.9215     21.3033     63.7541
  1925.3000     19.9832     44.7127     21.8707     63.5716
  1925.4000     19.9832     43.9564     21.8707     63.5716
  1925.5000     20.3171     43.6269     22.2806     63.4313
  1925.6000     20.3171     43.6938     22.2806     63.4313
  1925.7000     20.3171     44.1270     22.2806     63.4313
  1925.8000     20.5461     44.8997     22.5455     63.3439
  1925.9000     20.5461     45.9923     22.5455     63.3439
  1926.0000     20.6561     47.3938     22.6514     63.3176
  1926.1000     20.6561     49.1013     22.6514     63.3176
  1926.2000     20.6561     51.1180     22.6514     63.3176
  1926.3000     20.6498     53.4567     22.5631     63.3573
  1926.4000     20.6498     56.1307     22.5631     63.3573
  1926.5000     20.5430     59.1541     22.3301     63.4640
  1926.6000     20.5430     62.5413     22.3301     63.4640
  1926.7000     20.5430     66.3026     22.3301     63.4640
  1926.8000     20.3598     70.4386     22.0570     63.6336
  1926.9000     20.3598     74.9385     22.0570     63.6336
  1927.0000     20.1293     79.7735     21.7213     63.8576
  1927.1000     20.1293     84.8942     21.7213     63.8576
  1927.2000     20.1293     90.2247     21.7213     63.8576
  1927.3000     19.8832     95.6633     21.3117     64.1235
  1927.4000     19.8832    101.0779     21.3117     64.1235
  1927.5000     19.6511    106.3114     20.9503     64.4159
  1927.6000     19.6511    111.1828     20.9503     64.4159
  1927.7000     19.6511    115.4954     20.9503     64.4159
  1927.8000     19.4552    119.0468     20.6225     64.7178
  1927.9000     19.4552    121.6404     20.6225     64.7178
  1928.0000     19.3055    123.1013     20.2724     65.0127
  1928.1000     19.3055    123.2956     20.2724     65.0127
  1928.2000     19.3055    122.1481     20.2724     65.0127
  1928.3000     19.1990    119.6583     19.8578     65.2863
  1928.4000     19.1990    115.9092     19.8578     65.2863
  1928.5000     19.1232    111.0676     19.3776     65.5273
  1928.6000     19.1232    105.3732     19.3776     65.5273
  1928.7000     19.1232     99.1151     19.3776     65.5273
  1928.8000     19.0617     92.6058     19.0408     65.7292
  1928.9000     19.0617     86.1499     19.0408     65.7292
  1929.0000     19.0029     80.0135     18.9119     65.8897
  1929.1000     19.0029     74.4065     18.9119     65.8897
  1929.2000     19.0029     69.4753     18.9119     65.8897
  1929.3000     18.9481     65.3035     18.9700     66.0112
  1929.4000     18.9481     61.9224     18.9700     66.0112
  1929.5000     18.9111     59.3247     19.2113     66.0994
  1929.6000     18.9111     57.4823     19.2113     66.0994
  1929.7000     18.9111     56.3558     19.2113     66.0994
  1929.8000     18.9072     55.9059     19.5223     66.1622
  1929.9000     18.9072     56.0910     19.5223     66.1622
  1930.0000     18.9378     56.8661     19.6658     66.2085
  1930.1000     18.9378     58.1812     19.6658     66.2085
  1930.2000     18.9378     59.9739     19.6658     66.2085
  1930.3000     18.9855     62.1665     19.6006     66.2466
  1930.4000     18.9855     64.6665     19.6006     66.2466
  1930.5000     19.0237     67.3752     19.4346     66.2835
  1930.6000     19.0237     70.1878     19.4346     66.2835
  1930.7000     19.0237     73.0061     19.4346     66.2835
  1930.8000     19.0334     75.7426     19.2341     66.3236
  1930.9000     19.0334     78.3271     19.2341     66.3236
  1931.0000     19.0133     80.7059     19.0621     66.3693
  1931.1000     19.0133     82.8378     19.0621     66.3693
  1931.2000     19.0133     84.6863     19.0621     66.3693
  1931.3000     18.9782     86.2193     19.0024     66.4203
  1931.4000     18.9782     87.3984     19.0024     66.4203
  1931.5000     18.9477     88.1859     19.0768     66.4744
  1931.6000     18.9477     88.5465     19.0768     66.4744
  1931.7000     18.9477     88.4598     19.0768     66.4744
  1931.8000     18.9367     87.9250     19.2222     66.5282
  1931.9000     18.9367     86.9695     19.2222     66.5282
  1932.0000     18.9493     85.6477     19.4076     66.5772
  1932.1000     18.9493     84.0378     19.4076     66.5772
  1932.2000     18.9493     82.2279     19.4076     66.5772
  1932.3000     18.9781     80.3084     19.6143     66.6169
  1932.4000     18.9781     78.3590     19.6143     66.6169
  1932.5000     19.0069     76.4427     19.7755     66.6427
  1932.6000     19.0069     74.6004     19.7755     66.6427
  1932.7000     19.0069     72.8552     19.7755     66.6427
  1932.8000     19.0195     71.2165     19.8233     66.6506
  1932.9000     19.0195     69.6833     19.8233     66.6506
  1933.0000     19.0102     68.2516     19.7734     66.6374
