~Version Information
VERS.                      2.0: CWLS Log ASCII Standard - VERSION 2.0
WRAP.                       NO: One line per depth step
~Well Information Block
STRT.FT               732.2500: 
STOP.FT              2476.0000: 
STEP.FT                 0.2500: 
NULL.                -999.2500: 
COMP.          Petrogulf Corporation: COMPANY
WELL.            Montoya 7-14V: WELL
FLD.           Purgatorie River: FIELD
LOC.           535' FSL & 491' FWL: LOCATION
CNTY.               Las Animas: COUNTY
SRVC.                         : SERVICE COMPANY
DATE.          Mon Aug 23 05:51:43 2004: LOG DATE
UWI.           05 071 08019 00: UNIQUE WELL ID
STAT.                 Colorado: STATE
~Curve Information Block
DEPT.FT            0 000 00 00: Depth
SP.mV                         : DIL Spontaneous Potential
RILD.Ohm-m                    : DIL Deep Resistivity
RILM.Ohm-m                    : DIL Medium Resistivity
RLL3.Ohm-m                    : DIL Shallow Resistivity
GR.GAPI                       : Gamma Ray
~Parameter Information Block
~A  Depth        SP         RILD        RILM        RLL3         GR     
# ...
  1096.2500    -67.9837     47.5673     70.3537     78.0375     57.6851
  1096.5000    -67.8169     45.8056     71.6944     79.8120     57.9929
  1096.7500    -67.9723     44.1514     73.3484     81.5674     59.1247
  1097.0000    -68.4565     42.8500     75.2733     83.2806     61.1766
  1097.2500    -69.2260     42.1470     77.4111     84.9112     62.2279
  1097.5000    -70.1920     42.2415     79.7226     86.3994     63.1867
  1097.7500    -71.2292     43.2440     82.2074     87.6995     63.7088
  1098.0000    -72.1920     45.1486     84.9006     88.8223     64.6029
  1098.2500    -72.9300     47.8228     87.8357     89.8430     65.0489
  1098.5000    -73.3156     51.0396     90.9975     90.8594     64.9560
  1098.7500    -73.2656     54.5716     94.2782     91.9404     64.3790
  1099.0000    -72.7688     58.2968     97.4583     93.1038     63.1363
  1099.2500    -71.8925     62.1992    100.2393     94.3281     62.1391
  1099.5000    -70.7848     66.2226    102.3372     95.5747     60.0792
  1099.7500    -69.6384     70.0697    103.5566     96.8142     58.2657
  1100.0000    -68.6499     73.1069    103.8208     98.0501     55.6640
  1100.2500    -67.9672     74.5408    103.1455     99.3118     54.7777
  1100.5000    -67.6548     73.8810    101.5895    100.5805     55.3238
  1100.7500    -67.6880     71.3377     99.2120    101.6892     56.4978
  1101.0000    -67.9756     67.7658     96.1121    102.3079     58.1099
  1101.2500    -68.3977     64.2054     92.4613    102.0807     58.6128
  1101.5000    -68.8449     61.4616     88.4955    100.8407     58.5841
  1101.7500    -69.2411     59.9787     84.4843     98.7340     58.2479
  1102.0000    -69.5473     59.8959     80.6750     96.1600     57.4130
  1102.2500    -69.7528     61.1216     77.2528     93.5834     56.7091
  1102.5000    -69.8615     63.3637     74.3415     91.3559     55.9462
  1102.7500    -69.8852     66.1392     72.0293     89.6375     56.1512
  1103.0000    -69.8421     68.8702     70.3978     88.4152     58.2508
  1103.2500    -69.7590     71.0894     69.5351     87.5649     60.7979
  1103.5000    -69.6774     72.6285     69.5423     86.9134     65.1301
  1103.7500    -69.6511     73.6095     70.5233     86.2911     67.2463
  1104.0000    -69.7447     74.2381     72.5583     85.5886     67.9397
  1104.2500    -70.0266     74.6366     75.6782     84.8103     66.9418
  1104.5000    -70.5516     74.8538     79.8132     84.0945     64.9689
  1104.7500    -71.3383     74.9935     84.7376     83.6751     64.2508
  1105.0000    -72.3388     75.2977     90.0366     83.7959     64.2789
  1105.2500    -73.4242     76.0639     95.1275     84.6386     64.5450
  1105.5000    -74.3915     77.4607     99.3886     86.3044     64.4570
  1105.7500    -75.0057     79.3651    102.3576     88.8483     63.8597
  1106.0000    -75.0611     81.3396    103.9126     92.3241     62.1728
  1106.2500    -74.4439     82.8293    104.2846     96.7910     60.5843
  1106.5000    -73.1700     83.5218    103.9275    102.2748     57.5826
  1106.7500    -71.3857     83.5836    103.3169    108.6971     55.3377
  1107.0000    -69.3362     83.5536    102.8231    115.7749     52.4289
  1107.2500    -67.3063     83.9518    102.6293    122.8824     51.5155
  1107.5000    -65.5642     84.8998    102.7132    128.9428     52.8334
  1107.7500    -64.3079     85.8995    102.8804    132.5332     55.8981
  1108.0000    -63.6327     85.9561    102.8202    132.3557     63.7433
  1108.2500    -63.5201     84.1505    102.2367    127.9274     70.6309
  1108.5000    -63.8570     80.4515    100.9526    120.0024     81.8207
  1108.7500    -64.4717     75.8712     98.9903    110.2963     88.7616
  1109.0000    -65.1857     71.7651     96.5648    100.6190     97.1709
  1109.2500    -65.8584     69.0583     93.9356     92.0638    101.4368
  1109.5000    -66.4071     67.9992     91.2832     84.8482    106.7430
  1109.7500    -66.8017     68.2232     88.6348     78.7957    110.0457
  1110.0000    -67.0396     68.9117     85.8564     73.9048    114.5065
  1110.2500    -67.1180     69.0955     82.7346     70.4988    116.5497
  1110.5000    -67.0200     68.1219     79.0959     68.9553    117.3206
  1110.7500    -66.7204     65.9523     74.9116     69.3972    116.3307
  1111.0000    -66.2060     62.9980     70.3273     71.6492    113.4502
  1111.2500    -65.4974     59.6913     65.5987     75.4193    111.1394
  1111.5000    -64.6623     56.2602     60.9913     80.4545    107.3695
  1111.7500    -63.8130     52.7726     56.6918     86.4868    104.3358
  1112.0000    -63.0791     49.2811     52.7822     93.0051     98.0926
  1112.2500    -62.5736     45.9106     49.2616     99.0346     92.6494
  1112.5000    -62.3577     42.8440     46.0852    103.1238     83.8505
  1112.7500    -62.4229     40.2530     43.2062    103.6554     79.0820
  1113.0000    -62.6960     38.2468     40.6054     99.4425     76.3219
  1113.2500    -63.0683     36.8591     38.2986     90.3596     78.3489
  1113.5000    -63.4314     36.0586     36.3296     77.6438     86.6670
  1113.7500    -63.7098     35.7710     34.7533     63.6154     94.1896
  1114.0000    -63.8732     35.9058     33.6220     50.9063    105.0652
  1114.2500    -63.9308     36.3826     32.9784     41.5960    110.5908
  1114.5000    -63.9100     37.1569     32.8566     36.7113    115.4432
  1114.7500    -63.8372     38.2243     33.2891     36.3313    116.7409
  1115.0000    -63.7303     39.6094     34.3124     40.2726    117.1449
  1115.2500    -63.6061     41.3431     35.9744     49.1345    116.9191
  1115.5000    -63.4922     43.4506     38.3391     65.3753    115.1540
  1115.7500    -63.4309     45.9545     41.4899     93.9482    111.9272
  1116.0000    -63.4653     48.8827     45.5288    141.9230    102.7543
  1116.2500    -63.6107     52.2615     50.5792    216.6371     94.0335
  1116.5000    -63.8246     56.0806     56.7710    322.4276     78.8300
  1116.7500    -63.9998     60.2372     64.2216    456.9213     68.4997
  1117.0000    -63.9921     64.4924     72.9834    608.7593     54.5172
  1117.2500    -63.6815     68.4652     82.9333    758.6702     46.9920
  1117.5000    -63.0316     71.6782     93.6076    884.8876     39.0071
  1117.7500    -62.1313     73.6356    103.9824    970.9080     35.6784
  1118.0000    -61.1784     73.9100    112.4248   1011.9935     32.5519
  1118.2500    -60.4226     72.2796    117.0816   1016.1472     30.9851
  1118.5000    -60.0781     68.8558    116.7947    997.7859     28.8077
  1118.7500    -60.2439     64.1208    111.8524    966.9570     27.6301
  1119.0000    -60.8723     58.7913    103.8438    921.3592     26.9603
  1119.2500    -61.7887     53.5794     94.7168    848.4196     27.5535
  1119.5000    -62.7493     49.0101     85.9714    737.6641     30.2293
  1119.7500    -63.5158     45.3605     78.4022    594.0577     33.2440
  1120.0000    -63.9158     42.6833     72.2412    440.8624     39.3575
  1120.2500    -63.8665     40.8599     67.3737    309.9601     43.8738
  1120.5000    -63.3769     39.6478     63.4996    228.1738     49.3289
  1120.7500    -62.5226     38.7390     60.2429    209.4915     50.8578
  1121.0000    -61.4187     37.8386     57.2266    254.2312     49.0937
  1121.2500    -60.1938     36.7635     54.1545    349.7264     45.7354
  1121.5000    -58.9698     35.4909     50.8791    469.6893     39.6725
  1121.7500    -57.8455     34.1154     47.4225    576.3983     36.5838
  1122.0000    -56.8838     32.7523     43.9299    631.2850     36.0342
  1122.2500    -56.1085     31.4671     40.5832    611.8279     39.4589
  1122.5000    -55.5034     30.2658     37.5288    523.5041     50.5361
  1122.7500    -55.0190     29.1284     34.8469    396.2644     60.9980
  1123.0000    -54.5852     28.0433     32.5549    267.5551     78.7182
  1123.2500    -54.1237     27.0160     30.6327    164.3354     90.3667
  1123.5000    -53.5599     26.0601     29.0420     95.7254    105.8264
  1123.7500    -52.8409     25.1854     27.7438     57.0838    114.3876
  1124.0000    -51.9526     24.3963     26.7031     38.4856    124.6142
