~Version Information
VERS.                      2.0: CWLS Log ASCII Standard - VERSION 2.0
WRAP.                       NO: One line per depth step
~Well Information Block
STRT.FT                12.0000: 
STOP.FT              1671.7500: 
STEP.FT                 0.2500: 
NULL.                -999.2500: 
COMP.          Pioneer Natural Resources: COMPANY
WELL.          Scott Canyon 11-18 Tr: WELL
FLD.           Purgatoire River: FIELD
LOC.           411' FNL & 580' FWL: LOCATION
PROV.                 Colorado: PROVINCE
CNTY.               Las Animas: COUNTRY
SRVC.                Patterson: SERVICE COMPANY
DATE.          Tue Feb 22 09:52:18 2005: LOG DATE
UWI.           05 071 08286 00: UNIQUE WELL ID
~Curve Information Block
DEPT.FT            0 000 00 00: Depth
GR.GAPI                       : Gamma Ray
CCL.                          : Casing Collar Locator
TT3.usec                      : CBL 3' Travel Time
AMP3.mV                       : CBL 3' Amplitude
~Parameter Information Block
~A  Depth        GR         CCL         TT3         AMP3    
# ...
  1419.0000    136.3498      0.0000    805.3825      6.3394
  1419.2500    127.5750      0.0000    808.6481      6.2808
  1419.5000    113.6960      0.0000    808.6902      6.2102
  1419.7500     98.7405      0.0000    807.0865      6.1338
  1420.0000     87.7402      0.0000    805.4708      6.0547
  1420.2500     83.6672      0.0000    805.0810      5.9862
  1420.5000     86.2470      0.0000    807.0762      5.9592
  1420.7500     93.1592      0.0000    811.9371      6.0029
  1421.0000    102.2455      0.0000    818.4844      6.1126
  1421.2500    112.7129      0.0000    824.2794      6.2444
  1421.5000    124.3401      0.0000    827.3058      6.3467
  1421.7500    135.9570      0.0000    827.2183      6.3967
  1422.0000    145.4051      0.0000    825.1860      6.4048
  1422.2500    151.1234      0.0000    822.7064      6.3932
  1422.5000    153.2844      0.0000    820.3908      6.3773
  1422.7500    153.2032      0.0000    817.7455      6.3646
  1423.0000    152.1306      0.0000    814.0151      6.3583
  1423.2500    150.8802      0.0000    809.0600      6.3527
  1423.5000    150.1085      0.0000    803.5516      6.3331
  1423.7500    150.3298      0.0000    798.6105      6.2895
  1424.0000    151.3650      0.0000    795.2613      6.2275
  1424.2500    151.7593      0.0000    794.1412      6.1598
  1424.5000    149.2407      0.0000    795.6536      6.0932
  1424.7500    142.6486      0.0000    800.0483      6.0297
  1425.0000    133.6360      0.0000    806.9661      5.9727
  1425.2500    125.7657      0.0000    815.0290      5.9253
  1425.5000    121.5911      0.0000    822.3821      5.8872
  1425.7500    120.9781      0.0000    828.0127      5.8579
  1426.0000    122.2380      0.0000    832.7694      5.8351
  1426.2500    124.1985      0.0000    839.6329      5.8092
  1426.5000    126.8343      0.0000    853.1748      5.7649
  1426.7500    130.3053      0.0000    877.3395      5.6922
  1427.0000    134.0382      0.0000    911.8633      5.5925
  1427.2500    136.9206      0.0000    950.7971      5.4705
  1427.5000    138.1876      0.0000    987.0533      5.3221
  1427.7500    138.0399      0.0000   1019.6895      5.1249
  1428.0000    137.4494      0.0000   1054.2810      4.8408
  1428.2500    137.2939      0.0000   1092.9232      4.4413
  1428.5000    137.6657      0.0000   1125.4385      3.9488
  1428.7500    138.0629      0.0000   1135.4150      3.4571
  1429.0000    137.9481      0.0000   1116.4797      3.0952
  1429.2500    136.9235      0.0000   1080.5631      2.9471
  1429.5000    134.8797      0.0000   1049.9406      2.9892
  1429.7500    132.3445      0.0000   1042.1165      3.1094
  1430.0000    130.2451      3.0000   1059.3890      3.1911
  1430.2500    128.8594      0.0000   1088.4534      3.1856
  1430.5000    127.4106      0.0000   1108.9983      3.1337
  1430.7500    125.3100      0.0000   1107.0206      3.1374
  1431.0000    123.4412      0.0000   1084.8812      3.2956
  1431.2500    123.2424      0.0000   1058.5432      3.6365
  1431.5000    124.2901      0.0000   1042.2808      4.1077
  1431.7500    123.5573      0.0000   1035.0587      4.6262
  1432.0000    117.8160      0.0000   1022.6318      5.1265
  1432.2500    106.8849      0.0000    993.0974      5.5664
  1432.5000     94.3241      0.0000    949.3347      5.9075
  1432.7500     84.9081      0.0000    905.5201      6.1154
  1433.0000     81.5184      0.0000    873.5985      6.1885
  1433.2500     84.1953      0.0000    855.4293      6.1763
  1433.5000     91.3085      0.0000    846.1252      6.1502
  1433.7500    100.9671      0.0000    840.8782      6.1530
  1434.0000    111.6507      0.0000    837.5490      6.1783
  1434.2500    122.3012      0.0000    835.5709      6.1933
  1434.5000    132.2801      0.0000    834.5781      6.1752
  1434.7500    141.3407      0.0000    834.1469      6.1249
  1435.0000    149.4791      0.0000    833.9593      6.0573
  1435.2500    156.4711      0.0000    833.8675      5.9839
  1435.5000    161.6047      0.0000    833.8077      5.9086
  1435.7500    164.1884      0.0000    833.7308      5.8346
  1436.0000    164.3270      0.0000    833.5520      5.7708
  1436.2500    163.0376      0.0000    833.1063      5.7304
  1436.5000    161.6025      0.0000    832.0987      5.7239
  1436.7500    160.7703      0.0000    830.1857      5.7570
  1437.0000    160.4022      0.0000    827.3218      5.8311
  1437.2500    159.8370      0.0000    824.0865      5.9451
  1437.5000    158.6063      0.0000    821.4442      6.0961
  1437.7500    156.6893      0.0000    820.0355      6.2765
  1438.0000    154.3016      0.0000    819.8849      6.4689
  1438.2500    151.8579      0.0000    820.6708      6.6456
  1438.5000    149.8973      0.0000    821.8135      6.7766
  1438.7500    148.5721      0.0000    822.4679      6.8441
  1439.0000    147.4209      0.0000    821.9901      6.8525
  1439.2500    146.0597      0.0000    820.2475      6.8310
  1439.5000    144.8654      0.0000    817.1594      6.8219
  1439.7500    144.4656      0.0000    812.5277      6.8569
  1440.0000    144.6383      0.0000    806.8687      6.9391
  1440.2500    144.2386      0.0000    801.9730      7.0417
  1440.5000    142.4861      0.0000    800.0856      7.1274
  1440.7500    140.0576      0.0000    802.4901      7.1729
  1441.0000    138.5449      0.0000    808.6607      7.1840
  1441.2500    138.8372      0.0000    816.3579      7.1861
  1441.5000    140.2811      0.0000    822.5950      7.1984
  1441.7500    141.5427      0.0000    824.9550      7.2213
  1442.0000    142.2474      0.0000    822.5133      7.2475
  1442.2500    143.5897      0.0000    816.0919      7.2741
  1442.5000    146.9828      0.0000    807.8986      7.2957
  1442.7500    151.8904      0.0000    800.4808      7.2925
  1443.0000    155.4502      0.0000    795.4221      7.2375
  1443.2500    155.0000      0.0000    792.8063      7.1207
  1443.5000    150.7814      0.0000    791.7767      6.9640
  1443.7500    145.5604      0.0000    791.4360      6.8104
  1444.0000    141.9380      0.0000    791.3344      6.6949
  1444.2500    140.7153      0.0000    791.5159      6.6224
  1444.5000    141.4350      0.0000    792.4219      6.5706
  1444.7500    143.4890      0.0000    794.7038      6.5124
  1445.0000    146.5795      0.0000    798.7075      6.4360
  1445.2500    150.6881      0.0000    803.7269      6.3484
  1445.5000    155.7015      0.0000    807.9952      6.2657
  1445.7500    160.7812      0.0000    810.0297      6.2006
  1446.0000    164.3010      0.0000    810.0190      6.1603
  1446.2500    164.9160      0.0000    809.3416      6.1524
  1446.5000    162.7719      0.0000    808.7666      6.1882
  1446.7500    159.3309      0.0000    807.7166      6.2718
  1447.0000    155.8156      0.0000    805.2880      6.3899
  1447.2500    151.9754      0.0000    801.5220      6.5149
  1447.5000    146.5542      0.0000    797.5660      6.6215
  1447.7500    138.8813      0.0000    794.8570      6.7007
  1448.0000    129.8046      0.0000    794.2419      6.7603
  1448.2500    121.2692      0.0000    795.5561      6.8121
  1448.5000    115.2358      0.0000    797.6794      6.8622
  1448.7500    112.7396      0.0000    799.2193      6.9107
  1449.0000    113.3924      0.0000    799.7559      6.9510
  1449.2500    115.5628      0.0000    800.5169      6.9648
  1449.5000    117.2617      0.0000    803.4180      6.9250
  1449.7500    117.0830      0.0000    809.2136      6.8167
  1450.0000    114.4671      0.0000    816.6749      6.6562
  1450.2500    109.4838      0.0000    823.5560      6.4850
  1450.5000    102.7779      0.0000    828.2396      6.3378
  1450.7500     95.7016      0.0000    830.4943      6.2201
  1451.0000     90.0194      0.0000    831.0431      6.1155
  1451.2500     86.9227      0.0000    830.7941      6.0131
  1451.5000     86.0349      0.0000    830.4073      5.9251
  1451.7500     85.5795      0.0000    830.2123      5.8781
  1452.0000     83.9040      0.0000    830.2589      5.8921
  1452.2500     81.0988      0.0000    830.4351      5.9682
