~Version Information
VERS.                      2.0: CWLS Log ASCII Standard - VERSION 2.0
WRAP.                       NO: One line per depth step
~Well Information Block
STRT.FT               360.0000: 
STOP.FT              1622.7000: 
STEP.FT                 0.1000: 
NULL.                -999.2500: 
COMP.          Pioneer Natural Resources: COMPANY
WELL.                Eric 42-9: WELL
FLD.           Purgatoire River: FIELD
LOC.           2050' FNL & 850' FEL: LOCATION
PROV.                 Colorado: PROVINCE
CNTY.               Las Animas: COUNTRY
SRVC.                Patterson: SERVICE COMPANY
DATE.          Mon Nov 01 08:19:51 2004: LOG DATE
UWI.           05 071 07999 00: UNIQUE WELL ID
~Curve Information Block
DEPT.FT            0 000 00 00: Depth
DCAL.in                       : CDL Caliper
RHOB.g/cc                     : CDL Bulk Density
RHOC.g/cc                     : CDL Density Correction
DPOR.pu                       : CDL Density Porosity
NPOR.pu                       : Neutron Porosity
GR.GAPI                       : Gamma Ray
~Parameter Information Block
~A  Depth       DCAL        RHOB        RHOC        DPOR        NPOR         GR     
# ...
   849.6000      8.3215      2.5409      0.0436      6.6140     26.1029    138.8460
   849.7000      8.3215      2.5397      0.0583      6.6878     25.3047    143.6517
   849.8000      8.3363      2.5424      0.0520      6.5234     24.7233    142.8581
   849.9000      8.3363      2.5515      0.0235      5.9717     24.7599    140.9852
   850.0000      8.3390      2.5610      0.0852      5.3954     25.1613    139.6863
   850.1000      8.3390      2.5559      0.0851      5.7030     25.6321    138.3272
   850.2000      8.3390      2.5316      0.0441      7.1733     25.9717    137.2192
   850.3000      8.3395      2.4986      0.0500      9.1749     25.9922    133.4578
   850.4000      8.3395      2.4723     -0.0103     10.7721     25.8278    128.6637
   850.5000      8.3393      2.4730     -0.0234     10.7296     25.6830    128.4644
   850.6000      8.3393      2.5056      0.0294      8.7519     25.5850    132.5105
   850.7000      8.3393      2.5524      0.0640      5.9163     25.6865    138.8811
   850.8000      8.3386      2.5947      0.1177      3.3524     25.9414    142.9111
   850.9000      8.3386      2.6177      0.1214      1.9591     26.1124    140.4306
   851.0000      8.3382      2.6175      0.0896      1.9715     26.3705    136.7656
   851.1000      8.3382      2.6044      0.0923      2.7613     26.9468    137.2858
   851.2000      8.3382      2.5903      0.0775      3.6196     27.7136    141.3210
   851.3000      8.3390      2.5840      0.0876      4.0016     28.4107    144.7584
   851.4000      8.3390      2.5959      0.0416      3.2781     28.7933    142.4063
   851.5000      8.3418      2.6268      0.0450      1.4070     28.8560    135.0514
   851.6000      8.3418      2.6552      0.0830     -0.3152     28.8591    128.5106
   851.7000      8.3418      2.6586      0.0858     -0.5219     28.8004    125.6330
   851.8000      8.3498      2.6365      0.0776      0.8181     28.6177    126.8518
   851.9000      8.3498      2.6028      0.0049      2.8598     28.5088    132.1007
   852.0000      8.3625      2.5795     -0.0593      4.2732     28.5343    136.9378
   852.1000      8.3625      2.5798     -0.0328      4.2541     28.4539    137.0028
   852.2000      8.3625      2.5838      0.0372      4.0150     28.2884    134.7215
   852.3000      8.3743      2.5682     -0.0139      4.9550     28.3127    130.9497
   852.4000      8.3743      2.5401     -0.0674      6.6611     28.3805    126.8240
   852.5000      8.3934      2.5086     -0.0662      8.5707     28.0574    127.9846
   852.6000      8.3934      2.4817     -0.1373     10.2028     27.3163    136.1126
   852.7000      8.3934      2.4755     -0.0322     10.5729     26.4574    146.8141
   852.8000      8.4255      2.4880      0.0181      9.8183     25.7190    153.8610
   852.9000      8.4255      2.5007      0.0507      9.0515     25.1870    155.3908
   853.0000      8.4565      2.5010      0.0707      9.0320     24.7674    154.3588
   853.1000      8.4565      2.4916      0.0396      9.5999     24.4114    153.3042
   853.2000      8.4565      2.4910      0.0017      9.6377     24.2026    152.3603
   853.3000      8.4715      2.5056      0.0735      8.7518     24.2366    150.1744
   853.4000      8.4715      2.5068      0.0638      8.6792     24.3695    146.1545
   853.5000      8.4738      2.4726      0.0429     10.7517     24.2965    143.9133
   853.6000      8.4738      2.4233      0.0027     13.7418     23.9876    146.0301
   853.7000      8.4738      2.3900     -0.0313     15.7590     23.4504    148.4267
   853.8000      8.4735      2.3705      0.0404     16.9411     22.6330    149.2245
   853.9000      8.4735      2.3402     -0.0063     18.7772     21.7046    150.8357
   854.0000      8.4770      2.3042     -0.0456     20.9554     21.0541    150.4110
   854.1000      8.4770      2.2905     -0.0709     21.7899     20.7425    144.6705
   854.2000      8.4770      2.3026      0.0120     21.0539     20.4923    136.6257
   854.3000      8.4853      2.3208      0.0090     19.9506     20.0917    133.4058
   854.4000      8.4853      2.3406      0.0178     18.7487     19.3897    138.2725
   854.5000      8.4858      2.3778      0.0416     16.4941     18.6484    143.2608
   854.6000      8.4858      2.4338      0.1007     13.1035     18.3657    140.9902
   854.7000      8.4858      2.4798      0.1609     10.3143     18.7907    136.2498
   854.8000      8.4504      2.4904      0.1569      9.6753     19.7812    136.5991
   854.9000      8.4504      2.4812      0.0166     10.2306     20.8979    140.6021
   855.0000      8.3869      2.4946      0.0413      9.4207     22.0099    142.3673
   855.1000      8.3869      2.5338      0.1389      7.0436     23.1160    142.6561
   855.2000      8.3869      2.5600      0.1106      5.4521     24.0319    143.5403
   855.3000      8.3471      2.5594      0.0556      5.4916     24.6443    142.5752
   855.4000      8.3471      2.5511      0.0132      5.9941     24.9832    139.0581
   855.5000      8.3327      2.5523      0.0231      5.9213     25.2394    133.6765
   855.6000      8.3327      2.5684      0.0108      4.9432     25.6789    126.9901
   855.7000      8.3327      2.5880      0.0590      3.7606     26.2152    120.8012
   855.8000      8.3224      2.5882      0.0546      3.7461     26.5479    119.1248
   855.9000      8.3224      2.5674      0.0012      5.0047     26.7405    126.0245
   856.0000      8.3169      2.5462     -0.0010      6.2894     26.9997    135.9081
   856.1000      8.3169      2.5347     -0.0085      6.9895     27.0508    138.4008
   856.2000      8.3169      2.5266     -0.0228      7.4789     26.5589    132.4388
   856.3000      8.3157      2.5177      0.0024      8.0190     26.0089    126.5760
   856.4000      8.3157      2.5096      0.0134      8.5087     25.9151    129.1033
   856.5000      8.3154      2.5025      0.0362      8.9422     26.0013    136.4193
   856.6000      8.3154      2.4975      0.0176      9.2443     25.8622    138.0866
   856.7000      8.3154      2.4987     -0.0087      9.1724     25.5009    133.2125
   856.8000      8.3139      2.5027      0.0222      8.9260     25.1781    128.7365
   856.9000      8.3139      2.5046     -0.0027      8.8127     25.0139    129.4421
   857.0000      8.3081      2.5062      0.0275      8.7154     25.0322    133.7625
   857.1000      8.3081      2.5099      0.0142      8.4925     25.2079    135.1187
   857.2000      8.3081      2.5167      0.0378      8.0778     25.4381    132.5605
   857.3000      8.2993      2.5181      0.0515      7.9914     25.6644    132.0980
   857.4000      8.2993      2.5031      0.0160      8.9035     25.6903    135.1917
   857.5000      8.2928      2.4794      0.0003     10.3365     25.4756    139.0131
   857.6000      8.2928      2.4614      0.0102     11.4277     25.2245    143.3153
   857.7000      8.2928      2.4488      0.0252     12.1948     24.8986    146.7822
   857.8000      8.2869      2.4375     -0.0262     12.8766     24.4263    146.2882
   857.9000      8.2869      2.4433     -0.0036     12.5261     24.0316    143.7006
   858.0000      8.2789      2.4841      0.0303     10.0549     24.1304    141.4922
   858.1000      8.2789      2.5431      0.1102      6.4762     24.6344    137.8267
   858.2000      8.2789      2.5825      0.1384      4.0886     25.0966    134.7155
   858.3000      8.2739      2.5928      0.1280      3.4676     25.1777    138.8685
   858.4000      8.2739      2.5908      0.1428      3.5895     24.8480    148.2678
   858.5000      8.2781      2.5845      0.1465      3.9721     24.4435    152.2902
   858.6000      8.2781      2.5739      0.1169      4.6136     24.2941    148.3991
   858.7000      8.2781      2.5680      0.1069      4.9724     24.4356    142.2238
   858.8000      8.2818      2.5731      0.0988      4.6618     24.6305    138.7346
   858.9000      8.2818      2.5736      0.0991      4.6285     24.7033    140.4491
   859.0000      8.2803      2.5542      0.0260      5.8046     24.6828    144.7064
   859.1000      8.2803      2.5253     -0.0078      7.5606     24.5992    146.6923
