~Version Information
VERS.                      2.0: CWLS Log ASCII Standard - VERSION 2.0
WRAP.                       NO: One line per depth step
~Well Information Block
STRT.FT               482.2000: 
STOP.FT              2349.0000: 
STEP.FT                 0.1000: 
NULL.                -999.2500: 
COMP.          Pioneer Natural Resources: COMPANY
WELL.          Hill Climb 22-2: WELL
FLD.           Purgatoire River: FIELD
LOC.           1820' FNL & 2193' FWL: LOCATION
PROV.                 Colorado: PROVINCE
CNTY.               Las Animas: COUNTRY
SRVC.                Patterson: SERVICE COMPANY
DATE.          Wed Oct 20 09:25:25 2004: LOG DATE
UWI.           05 071 08175 00: UNIQUE WELL ID
~Curve Information Block
DEPT.FT            0 000 00 00: Depth
DCAL.in                       : CDL Caliper
DPOR.pu                       : CDL Density Porosity
NPOR.pu                       : Neutron Porosity
RHOB.g/cc                     : CDL Bulk Density
RHOC.g/cc                     : CDL Density Correction
GR.GAPI                       : Gamma Ray
~Parameter Information Block
~A  Depth       DCAL        DPOR        NPOR        RHOB        RHOC         GR     
# ...
  1096.6000      8.0119     -2.0338     12.0226      2.6836     -0.0058     48.0135
  1096.7000      8.0119     -0.1080     12.4728      2.6518     -0.0368     52.6289
  1096.8000      8.0092      1.2561     12.3659      2.6293     -0.0668     57.3375
  1096.9000      8.0092      2.5312     11.9412      2.6082     -0.0370     59.6874
  1097.0000      8.0068      4.0766     11.6954      2.5827     -0.0848     56.9480
  1097.1000      8.0068      4.9284     11.4652      2.5687     -0.1042     56.0120
  1097.2000      8.0068      4.4347     10.8070      2.5768     -0.0246     55.8655
  1097.3000      8.0032      3.7927     10.0669      2.5874      0.0700     49.0527
  1097.4000      8.0032      4.6531      9.6814      2.5732      0.0802     41.9175
  1097.5000      7.9949      6.6739      9.5925      2.5399      0.0358     43.7976
  1097.6000      7.9949      8.1051      9.6823      2.5163      0.0479     49.7495
  1097.7000      7.9949      8.0126      9.8628      2.5178      0.0360     50.0211
  1097.8000      7.9901      7.2471      9.9730      2.5304      0.0976     48.2617
  1097.9000      7.9901      7.2593      9.8839      2.5302      0.0466     51.1422
  1098.0000      7.9942      7.7112      9.7971      2.5228      0.0314     51.7864
  1098.1000      7.9942      7.2343     10.0447      2.5306     -0.0177     46.8737
  1098.2000      7.9942      6.2391     10.3590      2.5471      0.0502     46.2890
  1098.3000      8.0054      6.5570     10.5051      2.5418      0.0191     54.0099
  1098.4000      8.0054      8.0219     10.9713      2.5176     -0.0118     64.1476
  1098.5000      8.0157      8.9726     11.6466      2.5020     -0.0011     68.3818
  1098.6000      8.0157      9.0833     11.8582      2.5001      0.0032     63.1591
  1098.7000      8.0157      8.8573     11.5686      2.5039     -0.0235     56.0312
  1098.8000      8.0238      8.4641     11.0086      2.5103     -0.0136     51.5092
  1098.9000      8.0238      8.3690     10.4682      2.5119      0.0159     48.3825
  1099.0000      8.0307      9.2812     10.2888      2.4969     -0.0167     48.5732
  1099.1000      8.0307     11.1484     10.4282      2.4661     -0.0527     55.7070
  1099.2000      8.0307     13.0697     10.5628      2.4344     -0.0405     64.7749
  1099.3000      8.0299     13.9804     10.5332      2.4193     -0.0476     65.6738
  1099.4000      8.0299     13.9849     10.7037      2.4193     -0.0155     59.1590
  1099.5000      8.0213     14.2331     11.5487      2.4152     -0.0477     55.0312
  1099.6000      8.0213     14.9315     13.1729      2.4036     -0.0633     54.7143
  1099.7000      8.0213     15.3673     15.5184      2.3964     -0.0385     52.2193
  1099.8000      8.0130     15.6416     18.0526      2.3919      0.0054     51.1375
  1099.9000      8.0130     16.6609     20.1443      2.3751      0.0094     57.3997
  1100.0000      8.0116     19.2644     21.6186      2.3321      0.0323     65.5503
  1100.1000      8.0116     24.0449     22.7617      2.2533     -0.0159     71.9350
  1100.2000      8.0116     31.0024     24.2169      2.1385     -0.0353     79.9652
  1100.3000      8.0190     39.3584     25.9404      2.0006     -0.0682     85.9125
  1100.4000      8.0190     47.9854     27.5184      1.8582     -0.1297     84.5855
  1100.5000      8.0533     55.9780     29.2091      1.7264     -0.1489     81.6688
  1100.6000      8.0533     63.0633     30.8013      1.6095     -0.1628     77.4352
  1100.7000      8.0533     69.6220     31.4062      1.5012     -0.1247     67.3585
  1100.8000      8.1597     75.5133     31.1073      1.4040     -0.1565     57.8337
  1100.9000      8.1597     78.8716     30.8846      1.3486     -0.1229     58.4502
  1101.0000      8.3338     77.7820     31.1047      1.3666      0.0207     67.5605
  1101.1000      8.3338     72.3046     31.2627      1.4570      0.1105     71.6971
  1101.2000      8.3338     64.1116     30.9346      1.5922      0.1882     65.8387
  1101.3000      8.5594     55.2736     30.0918      1.7380      0.2588     61.1904
  1101.4000      8.5594     47.0363     28.7982      1.8739      0.3095     66.1181
  1101.5000      8.8383     39.4609     27.4692      1.9989      0.2799     82.0824
  1101.6000      8.8383     32.0925     26.5884      2.1205      0.3101    102.6286
  1101.7000      8.8383     24.6627     26.0109      2.2431      0.2451    111.5709
  1101.8000      8.8875     17.7270     25.1634      2.3575      0.2839    103.7740
  1101.9000      8.8875     12.4876     23.7788      2.4440      0.2425     90.1508
  1102.0000      8.5588      9.0923     22.0806      2.5000      0.1281     80.9199
  1102.1000      8.5588      7.3038     20.4917      2.5295      0.1286     80.6109
  1102.2000      8.5588      8.1403     19.4458      2.5157      0.0626     85.0668
  1102.3000      8.2329     12.1615     19.3440      2.4493      0.0055     90.7448
  1102.4000      8.2329     17.8847     20.2724      2.3549     -0.0599    102.8736
  1102.5000      8.1155     23.5327     21.8553      2.2617     -0.0765    117.3720
  1102.6000      8.1155     29.0199     23.3812      2.1712     -0.0753    116.2683
  1102.7000      8.1155     34.1110     24.5402      2.0872     -0.1424    101.6444
  1102.8000      8.1099     37.3002     25.9072      2.0345     -0.1352     93.6305
  1102.9000      8.1099     38.4490     27.7444      2.0156     -0.0272     93.8889
  1103.0000      8.1657     38.6843     29.2361      2.0117     -0.0372     93.4573
  1103.1000      8.1657     38.4297     29.6403      2.0159      0.0118     90.6907
  1103.2000      8.1657     39.2924     29.2436      2.0017      0.2515     87.9704
  1103.3000      8.3152     43.5744     28.9276      1.9310      0.2764     87.3207
  1103.4000      8.3152     50.1096     28.9222      1.8232      0.2213     91.5636
  1103.5000      8.5453     55.3136     28.8572      1.7373      0.1167    100.6210
  1103.6000      8.5453     56.8482     28.4774      1.7120      0.0961    104.0795
  1103.7000      8.5453     54.4620     27.7650      1.7514      0.0876     95.1669
  1103.8000      8.6676     49.1763     27.0455      1.8386      0.1158     79.2161
  1103.9000      8.6676     42.5351     26.5366      1.9482      0.1804     68.1242
  1104.0000      8.5592     35.9376     25.8447      2.0570      0.2450     69.2170
  1104.1000      8.5592     30.2977     24.3531      2.1501      0.3079     77.9180
  1104.2000      8.5592     26.0061     22.1262      2.2209      0.2867     88.1339
  1104.3000      8.4301     22.4975     20.1417      2.2788      0.2354     94.7349
  1104.4000      8.4301     18.6141     18.9963      2.3429      0.1811     93.2665
  1104.5000      8.3435     14.1676     18.2152      2.4162      0.1664     88.4034
  1104.6000      8.3435     10.0645     17.2534      2.4839      0.1226     86.0710
  1104.7000      8.3435      6.5397     16.2888      2.5421      0.0667     87.0494
  1104.8000      8.2223      3.3201     15.6235      2.5952      0.0882     90.6453
  1104.9000      8.2223      0.7588     15.1733      2.6375      0.0755     94.0752
  1105.0000      8.1193     -0.9409     14.8451      2.6655      0.0575     92.6737
  1105.1000      8.1193     -2.2824     14.8551      2.6877      0.0492     86.3683
  1105.2000      8.1193     -3.4500     15.3606      2.7069      0.0739     81.9081
  1105.3000      8.0786     -3.8961     16.0844      2.7143      0.0279     83.6276
  1105.4000      8.0786     -3.2031     16.6917      2.7029      0.0818     87.1566
  1105.5000      8.0724     -1.8602     16.9579      2.6807      0.0225     91.6695
  1105.6000      8.0724     -1.2936     16.9344      2.6713     -0.0245     97.6080
  1105.7000      8.0724     -1.3444     16.9621      2.6722      0.0429     99.9199
  1105.8000      8.0750     -0.5424     17.2486      2.6589      0.0182    100.2663
  1105.9000      8.0750      0.3808     17.7237      2.6437     -0.0694    103.9958
  1106.0000      8.0761      0.2333     18.2743      2.6462     -0.0217    108.4087
  1106.1000      8.0761      0.5182     18.8869      2.6415      0.0265    110.0410
