~Version Information
VERS.                      2.0: CWLS Log ASCII Standard - VERSION 2.0
WRAP.                       NO: One line per depth step
~Well Information Block
STRT.FT               870.0000: 
STOP.FT              2517.5000: 
STEP.FT                 0.1000: 
NULL.                -999.2500: 
COMP.          Pioneer Natural Resources: COMPANY
WELL.              Tiaga 23-14: WELL
FLD.           Purgatoire River: FIELD
LOC.           2168' FSL & 2030' FWL: LOCATION
PROV.                 Colorado: PROVINCE
CNTY.               Las Animas: COUNTRY
SRVC.                         : SERVICE COMPANY
DATE.          Sat May 07 09:09:05 2005: LOG DATE
UWI.           05 071 08329 00: UNIQUE WELL ID
~Curve Information Block
DEPT.FT            0 000 00 00: Depth
LTEN.lb                       : Surface Line Tension
DCAL.in                       : CDL Caliper
RHOC.g/cc                     : CDL Density Correction
DPOR.pu                       : CDL Density Porosity
GR.GAPI                       : Gamma Ray
NPOR.pu                       : Neutron Porosity
~Parameter Information Block
~A  Depth       LTEN        DCAL        RHOC        DPOR         GR         NPOR    
# ...
   975.6000    915.1349      8.2123      0.0603     10.5226    139.2157     26.4948
   975.7000    915.1349      8.2123      0.0791     11.4330    140.2328     26.3720
   975.8000    913.0432      8.2231      0.0160     11.5665    136.1423     26.3959
   975.9000    913.0432      8.2231      0.0866     10.2749    130.7741     26.7220
   976.0000    880.6564      8.2096      0.1185      8.1835    126.7915     27.3732
   976.1000    880.6564      8.2096      0.0888      6.0215    126.3812     28.0449
   976.2000    880.6564      8.2096      0.1478      4.4023    130.9865     28.3914
   976.3000    832.3363      8.2081      0.1488      4.3594    138.4365     28.4736
   976.4000    832.3363      8.2081      0.1177      6.1983    146.4946     28.5178
   976.5000    869.6494      8.2049      0.0288      8.5453    153.2394     28.3818
   976.6000    869.6494      8.2049      0.0569      9.7296    152.8000     27.9241
   976.7000    869.6494      8.2049      0.0642      9.8477    145.0527     27.4913
   976.8000    910.9467      8.1961      0.0290      9.7574    138.8522     27.6323
   976.9000    910.9467      8.1961      0.0246      9.4091    138.6325     28.2253
   977.0000    885.6836      8.2158      0.0373      8.5726    142.2413     28.4520
   977.1000    885.6836      8.2158      0.0867      7.6383    146.5182     28.2294
   977.2000    885.6836      8.2158      0.0560      6.9100    148.3983     28.1153
   977.3000    862.9681      8.2186      0.0745      6.2742    147.7261     28.1854
   977.4000    862.9681      8.2186      0.0841      5.9880    147.8381     28.3087
   977.5000    873.0222      8.1885      0.0163      6.2532    148.0211     28.2921
   977.6000    873.0222      8.1885      0.1272      6.7793    143.4650     27.8973
   977.7000    873.0222      8.1885      0.0314      7.2958    133.3141     27.3844
   977.8000    879.5908      8.1873      0.0607      7.4594    124.5736     27.0528
   977.9000    879.5908      8.1873      0.0844      7.6818    124.0142     26.8522
   978.0000    836.5104      8.1689      0.0720      8.7765    129.2767     26.8563
   978.1000    836.5104      8.1689      0.0090     10.1595    134.9409     26.9663
   978.2000    836.5104      8.1689      0.0456     10.4548    140.5536     27.0698
   978.3000    819.0079      8.1621      0.1031      9.8160    147.2386     27.1984
   978.4000    819.0079      8.1621      0.1336      9.6383    152.9886     26.9598
   978.5000    836.2333      8.1548      0.1001     10.4705    153.0618     26.5694
   978.6000    836.2333      8.1548      0.0910     11.7111    148.2865     26.6580
   978.7000    836.2333      8.1548      0.1150     12.9256    145.5928     26.8125
   978.8000    873.9328      8.1544      0.0745     13.8422    147.0178     26.5934
   978.9000    873.9328      8.1544      0.0589     13.5576    149.4655     26.3026
   979.0000    871.5882      8.1484      0.1149     11.9463    151.3874     26.3232
   979.1000    871.5882      8.1484      0.1244     10.3949    150.8431     26.7483
   979.2000    871.5882      8.1484      0.1567      9.3446    143.8546     27.2112
   979.3000    819.4978      8.1497      0.1047      7.2494    134.5141     27.3770
   979.4000    819.4978      8.1497      0.1797      3.4005    131.0224     27.3168
   979.5000    799.7376      8.1430      0.2275     -0.2433    131.7570     27.1932
   979.6000    799.7376      8.1430      0.2282     -2.0643    132.9969     27.1426
   979.7000    799.7376      8.1430      0.2313     -2.4349    136.6770     27.3337
   979.8000    871.8859      8.1482      0.2372     -1.8799    141.7867     27.6168
   979.9000    871.8859      8.1482      0.0953     -0.7675    141.7542     27.7483
   980.0000    907.6611      8.1539      0.1265      0.7922    136.2995     27.8794
   980.1000    907.6611      8.1539      0.0332      3.6069    134.2464     27.9936
   980.2000    907.6611      8.1539      0.0036      7.4312    138.5348     27.8306
   980.3000    874.2290      8.1489     -0.0578     10.2920    140.3298     27.4670
   980.4000    874.2290      8.1489      0.0139     10.5973    133.7550     27.0404
   980.5000    813.5334      8.1218      0.0250      8.9540    124.7610     26.6755
   980.6000    813.5334      8.1218      0.1294      7.1305    121.0024     26.4567
   980.7000    813.5334      8.1218      0.1177      6.4895    122.9930     26.1657
   980.8000    828.4671      8.1281      0.1488      7.4965    126.4322     25.6811
   980.9000    828.4671      8.1281      0.0796      9.3291    129.4464     25.2660
   981.0000    900.3660      8.1314      0.0662     10.0819    132.3292     25.2088
   981.1000    900.3660      8.1314      0.0911      9.1795    134.7958     25.3749
   981.2000    900.3660      8.1314      0.1659      8.5556    135.7889     25.4490
   981.3000    946.8674      8.1322      0.0932      9.9490    136.2188     25.5353
   981.4000    946.8674      8.1322      0.0625     12.4853    136.3593     25.6794
   981.5000    888.6610      8.1286      0.0908     14.9299    135.6205     25.5778
   981.6000    888.6610      8.1286      0.0567     17.0835    135.9751     25.2856
   981.7000    888.6610      8.1286      0.0776     18.3141    137.6659     25.0102
   981.8000    853.9383      8.0879      0.1345     18.2587    138.0538     24.8014
   981.9000    853.9383      8.0879      0.1126     17.1757    137.6793     24.7371
   982.0000    850.8696      8.0325      0.1562     15.5626    139.7170     24.7583
   982.1000    850.8696      8.0325      0.1206     13.9551    142.9276     24.7168
   982.2000    850.8696      8.0325      0.1358     11.9665    144.8734     24.7777
   982.3000    870.9778      8.0382      0.2707      9.4386    146.8795     25.2207
   982.4000    870.9778      8.0382      0.2757      7.9474    146.1887     25.9111
   982.5000    875.0205      8.0416      0.2743      8.7743    139.2845     26.5202
   982.6000    875.0205      8.0416      0.1661     10.6668    134.5221     26.9901
   982.7000    875.0205      8.0416      0.1567     11.5304    139.7969     27.3997
   982.8000    884.2980      8.0770      0.1622     11.3624    145.9340     27.8107
   982.9000    884.2980      8.0770      0.0983     11.0384    142.8549     28.1306
   983.0000    853.3553      8.1043      0.0886     10.3736    135.4245     28.1890
   983.1000    853.3553      8.1043      0.1210      9.5960    133.3723     28.1529
   983.2000    853.3553      8.1043      0.0833      9.7432    137.3633     28.1361
   983.3000    849.6161      8.1118      0.0978     11.3806    140.4611     28.0102
   983.4000    849.6161      8.1118      0.0478     13.9357    137.3578     27.6055
   983.5000    905.9413      8.0972      0.0086     16.0026    129.6266     26.7839
   983.6000    905.9413      8.0972      0.0309     17.3545    125.4915     25.9011
   983.7000    905.9413      8.0972      0.0522     19.2051    129.3300     25.4565
   983.8000    924.5114      8.0597      0.0285     21.4924    135.7677     25.5270
   983.9000    924.5114      8.0597      0.0619     22.4607    140.2282     25.8309
   984.0000    860.3413      7.9836      0.1146     21.4937    142.8580     25.8781
   984.1000    860.3413      7.9836      0.1501     19.6859    143.9673     25.5223
   984.2000    860.3413      7.9836      0.1379     17.4386    143.5113     25.2439
   984.3000    812.0651      8.1179      0.2216     14.4747    142.9557     25.4774
   984.4000    812.0651      8.1179      0.2358     11.8789    144.2642     25.8872
   984.5000    865.6859      8.1889      0.2765     11.3282    146.1673     26.0182
   984.6000    865.6859      8.1889      0.2180     12.6026    146.6868     25.9623
   984.7000    865.6859      8.1889      0.1170     13.7519    145.3582     25.9306
   984.8000    903.2563      8.2230      0.1296     14.1806    143.4072     26.0096
   984.9000    903.2563      8.2230      0.1218     15.0545    143.6902     26.2139
   985.0000    949.1909      8.2309      0.0568     16.8304    145.9539     26.3630
   985.1000    949.1909      8.2309      0.0357     19.0010    147.6909     26.1321
