~Version Information
VERS.                      2.0: CWLS Log ASCII Standard - VERSION 2.0
WRAP.                       NO: One line per depth step
~Well Information Block
STRT.FT               742.5000: 
STOP.FT              2463.5000: 
STEP.FT                 0.2500: 
NULL.                -999.2500: 
COMP.          Petrogulf Corporation: COMPANY
WELL.           Montoya 12-44V: WELL
FLD.           Purgatorie River: FIELD
LOC.           698' FSL & 599' FEL: LOCATION
CNTY.               Las Animas: COUNTY
SRVC.                         : SERVICE COMPANY
DATE.          Sun Aug 08 06:43:17 2004: LOG DATE
UWI.           05 071 08094 00: UNIQUE WELL ID
STAT.                 Colorado: STATE
~Curve Information Block
DEPT.FT            0 000 00 00: Depth
SN.Ohm-m                      : IEL Short Normal
SP.mV                         : IEL Spontaneous Potential
DIR.Ohm-m                     : IEL Induction Resistivity
GR.GAPI                       : Gamma Ray
~Parameter Information Block
~A  Depth        SN          SP         DIR          GR     
# ...
   977.0000    138.4747    -88.3731    118.4831     61.5410
   977.2500    140.6173    -89.3301    115.4249     61.2491
   977.5000    142.7630    -90.3001    114.8157     59.0641
   977.7500    144.8882    -91.3344    115.4550     56.9953
   978.0000    146.9286    -92.4756    117.0978     54.2939
   978.2500    148.7618    -93.7181    120.1473     53.1474
   978.5000    150.2091    -94.9814    124.2691     52.1798
   978.7500    151.0588    -96.1246    127.7780     51.7047
   979.0000    151.1009    -96.9729    129.1628     51.0050
   979.2500    150.1642    -97.3779    129.1852     50.6948
   979.5000    148.1483    -97.2596    130.2670     50.8673
   979.7500    145.0479    -96.6293    133.7657     51.5266
   980.0000    140.9599    -95.5808    138.0681     53.3168
   980.2500    136.0639    -94.2548    139.1012     54.9634
   980.5000    130.5804    -92.7956    133.8048     57.6408
   980.7500    124.7150    -91.3144    123.3132     59.0339
   981.0000    118.6089    -89.8774    111.0072     59.8922
   981.2500    112.3090    -88.5146     98.8747     59.9264
   981.5000    105.7695    -87.2408     87.0356     60.4374
   981.7500     98.8846    -86.0835     75.2264     61.4681
   982.0000     91.5525    -85.0943     63.9417     63.4390
   982.2500     83.7536    -84.3430     54.1352     64.5205
   982.5000     75.6159    -83.9070     46.3606     65.9756
   982.7500     67.4275    -83.8430     40.5256     67.5976
   983.0000     59.5756    -84.1706     36.1457     72.3543
   983.2500     52.4311    -84.8615     32.6468     77.2839
   983.5000     46.2389    -85.8426     29.5553     86.4202
   983.7500     41.0672    -87.0078     26.6156     92.7407
   984.0000     36.8315    -88.2353     23.8196    101.1287
   984.2500     33.3612    -89.4026     21.3067    105.5268
   984.5000     30.4662    -90.4035     19.2002    110.3018
   984.7500     27.9760    -91.1551     17.5109    112.5898
   985.0000     25.7518    -91.6104     16.1555    115.3263
   985.2500     23.6868    -91.7609     15.0330    116.9129
   985.5000     21.7147    -91.6370     14.0884    119.0902
   985.7500     19.8240    -91.3074     13.3235    120.5030
   986.0000     18.0643    -90.8634     12.7560    122.9230
   986.2500     16.5319    -90.3970     12.3711    125.0383
   986.5000     15.3346    -89.9808     12.1065    129.3047
   986.7500     14.5491    -89.6530     11.8757    132.6937
   987.0000     14.1856    -89.4019     11.6192    137.5698
   987.2500     14.1738    -89.1795     11.3428    140.0268
   987.5000     14.3795    -88.9006     11.1064    141.9763
   987.7500     14.6485    -88.4727     10.9758    142.1659
   988.0000     14.8625    -87.8130     10.9800    141.1379
   988.2500     14.9788    -86.8739     11.1012    139.8145
   988.5000     15.0342    -85.6643     11.2926    137.2634
   988.7500     15.1114    -84.2562     11.5055    135.3933
   989.0000     15.2857    -82.7725     11.7052    132.7181
   989.2500     15.5842    -81.3589     11.8675    131.2999
   989.5000     15.9760    -80.1396     11.9757    130.0919
   989.7500     16.3941    -79.1838     12.0298    129.7866
   990.0000     16.7688    -78.4894     12.0537    129.2863
   990.2500     17.0536    -78.0011     12.0820    128.5213
   990.5000     17.2280    -77.6389     12.1337    126.8339
   990.7500     17.2857    -77.3340     12.1966    125.8124
   991.0000     17.2212    -77.0506     12.2341    125.3158
   991.2500     17.0269    -76.7826     12.2092    125.9045
   991.5000     16.7014    -76.5372     12.1097    127.7315
   991.7500     16.2612    -76.3148     11.9576    129.0957
   992.0000     15.7472    -76.1006     11.7943    131.2110
   992.2500     15.2208    -75.8753     11.6537    133.0331
   992.5000     14.7481    -75.6291     11.5478    136.5780
   992.7500     14.3803    -75.3762     11.4707    138.9456
   993.0000     14.1374    -75.1595     11.4109    141.1490
   993.2500     14.0055    -75.0361     11.3560    141.1748
   993.5000     13.9454    -75.0609     11.2883    138.8566
   993.7500     13.9086    -75.2660     11.1857    136.1542
   994.0000     13.8543    -75.6505     11.0347    131.9804
   994.2500     13.7599    -76.1809     10.8469    130.2105
   994.5000     13.6249    -76.8006     10.6608    130.1068
   994.7500     13.4723    -77.4423     10.5254    131.5279
   995.0000     13.3423    -78.0467     10.4775    134.4975
   995.2500     13.2781    -78.5763     10.5257    136.1958
   995.5000     13.3066    -79.0249     10.6465    137.8180
   995.7500     13.4275    -79.4215     10.7929    138.5831
   996.0000     13.6199    -79.8213     10.9111    140.0311
   996.2500     13.8547    -80.2934     10.9639    141.3658
   996.5000     14.0997    -80.8960     10.9477    143.3989
   996.7500     14.3163    -81.6542     10.8951    144.1364
   997.0000     14.4641    -82.5420     10.8588    143.3908
   997.2500     14.5196    -83.4852     10.8861    141.6181
   997.5000     14.4944    -84.3655     10.9959    138.0002
   997.7500     14.4312    -85.0516     11.1737    135.9101
   998.0000     14.3775    -85.4269     11.3869    134.7614
   998.2500     14.3595    -85.4224     11.6081    135.4784
   998.5000     14.3786    -85.0348     11.8284    137.3112
   998.7500     14.4282    -84.3370     12.0505    137.7515
   999.0000     14.5134    -83.4654     12.2754    136.1956
   999.2500     14.6538    -82.5927     12.4997    134.2715
   999.5000     14.8677    -81.8904     12.7240    132.1302
   999.7500     15.1535    -81.4897     12.9572    131.8630
  1000.0000     15.4838    -81.4588     13.2093    132.2900
  1000.2500     15.8180    -81.7932     13.4787    132.0619
  1000.5000     16.1215    -82.4353     13.7494    130.2283
  1000.7500     16.3794    -83.3006     14.0021    128.4110
  1001.0000     16.5994    -84.3102     14.2325    125.5641
  1001.2500     16.8043    -85.4070     14.4587    123.6144
  1001.5000     17.0159    -86.5645     14.7087    120.3732
  1001.7500     17.2393    -87.7691     14.9986    118.0692
  1002.0000     17.4553    -89.0040     15.3188    114.9057
  1002.2500     17.6308    -90.2304     15.6358    113.3648
  1002.5000     17.7411    -91.3814     15.9026    112.4868
  1002.7500     17.7879    -92.3765     16.0736    113.0133
  1003.0000     17.7983    -93.1391     16.1180    115.0060
  1003.2500     17.8062    -93.6253     16.0381    116.4808
  1003.5000     17.8331    -93.8405     15.8831    117.9752
  1003.7500     17.8833    -93.8410     15.7460    118.4471
  1004.0000     17.9544    -93.7175     15.7386    118.7772
  1004.2500     18.0493    -93.5611     15.9522    118.7835
  1004.5000     18.1818    -93.4353     16.4225    118.1507
  1004.7500     18.3766    -93.3630     17.1083    117.3056
  1005.0000     18.6632    -93.3256     17.8971    116.1583
  1005.2500     19.0635    -93.2891     18.6546    116.0932
  1005.5000     19.5815    -93.2269     19.3050    117.7054
  1005.7500     20.2057    -93.1480     19.8813    119.8616
  1006.0000     20.9267    -93.0926     20.4893    123.8776
  1006.2500     21.7532    -93.1176     21.2159    126.2827
  1006.5000     22.7122    -93.2708     22.0580    128.0643
  1006.7500     23.8320    -93.5665     22.9205    127.5691
  1007.0000     25.1213    -93.9718     23.6920    124.7285
  1007.2500     26.5592    -94.4100     24.3378    122.1627
  1007.5000     28.1030    -94.7742     24.9142    118.0671
  1007.7500     29.7053    -94.9502     25.4791    114.9814
  1008.0000     31.3208    -94.8373     26.0017    109.2856
  1008.2500     32.8905    -94.3707     26.3812    104.9497
  1008.5000     34.3149    -93.5306     26.5788     98.7958
  1008.7500     35.4439    -92.3451     26.7188     95.6898
  1009.0000     36.1050    -90.8916     27.0177     93.2382
  1009.2500     36.1614    -89.2755     27.6013     92.9210
  1009.5000     35.5719    -87.6182     28.3659     93.4583
  1009.7500     34.4216    -86.0349     28.9895     94.1015
  1010.0000     32.9070    -84.6299     29.1271     96.0482
  1010.2500     31.2803    -83.4869     28.6640     98.7676
