~Version Information
VERS.                      2.0: CWLS Log ASCII Standard - VERSION 2.0
WRAP.                       NO: One line per depth step
~Well Information Block
STRT.FT               550.0000: 
STOP.FT              2042.5000: 
STEP.FT                 0.2500: 
NULL.                -999.2500: 
COMP.          Petrogulf Corporation: COMPANY
WELL.          Robinson 15-12V: WELL
FLD.           Purgatorie River: FIELD
LOC.           1788' FNL & 466' FWL: LOCATION
PROV.                 Colorado: PROVINCE
CNTY.               Las Animas: COUNTRY
SRVC.                Patterson: SERVICE COMPANY
DATE.          Mon Sep 12 10:04:59 2005: LOG DATE
UWI.                          : UNIQUE WELL ID
~Curve Information Block
DEPT.FT            0 000 00 00: Depth
SP.mV                         : DIL Spontaneous Potential
RILD.Ohm-m                    : DIL Deep Resistivity
RILM.Ohm-m                    : DIL Medium Resistivity
RLL3.Ohm-m                    : DIL Shallow Resistivity
GR.GAPI                       : Gamma Ray
~Parameter Information Block
~A  Depth        SP         RILD        RILM        RLL3         GR     
   550.0000   2000.0000     11.1347   -999.2500   2000.0000     82.6537
   550.2500   2000.0000     11.0518   -999.2500   2000.0000     82.9431
   550.5000   2000.0000     11.1825 100000.0000   2000.0000     86.2848
   550.7500   2000.0000     10.9181 100000.0000   2000.0000     87.2066
   551.0000   2000.0000     10.7456 100000.0000   2000.0000     87.8360
   551.2500   2000.0000     10.7896 100000.0000   2000.0000     89.0342
   551.5000   2000.0000     11.0154 100000.0000   2000.0000     92.5498
   551.7500   2000.0000     10.9349 100000.0000   2000.0000     89.4926
   552.0000   2000.0000     11.0878 100000.0000   2000.0000     99.1269
   552.2500   2000.0000     10.8099 100000.0000   2000.0000    108.4193
   552.5000   2000.0000     10.4740 100000.0000   2000.0000     99.5955
   552.7500   2000.0000     10.7775 100000.0000   2000.0000     97.1954
   553.0000   2000.0000     10.9111 100000.0000   2000.0000    104.2821
   553.2500   2000.0000     10.3378 100000.0000   2000.0000     96.0177
   553.5000   2000.0000     10.3252 100000.0000   2000.0000     99.1940
   553.7500   2000.0000     10.7494 100000.0000   2000.0000    101.9773
   554.0000   2000.0000     10.3434 100000.0000   2000.0000    102.7534
   554.2500   2000.0000     10.1015 100000.0000   2000.0000     98.2734
   554.5000   2000.0000      9.9658 100000.0000   2000.0000     93.1430
   554.7500   2000.0000      9.5693 100000.0000   2000.0000     92.6307
   555.0000   2000.0000      8.2484 100000.0000   2000.0000     95.7754
   555.2500   2000.0000      7.4594 100000.0000   2000.0000     98.0933
   555.5000   2000.0000      7.6961 100000.0000   2000.0000    105.0124
   555.7500   2000.0000     10.8763 100000.0000   2000.0000    103.8465
   556.0000   2000.0000     10.9183 100000.0000   2000.0000     99.0362
   556.2500   2000.0000     10.7782 100000.0000   2000.0000     95.0699
   556.5000   2000.0000     10.3927 100000.0000   2000.0000     93.7001
   556.7500   2000.0000      9.9751 100000.0000   2000.0000     97.2175
   557.0000   2000.0000     10.6353 100000.0000   2000.0000     95.3755
   557.2500   2000.0000     10.7128 100000.0000   2000.0000     97.1879
   557.5000   2000.0000     10.3262 100000.0000   2000.0000    102.6375
   557.7500   2000.0000      9.6474 100000.0000   2000.0000    101.3788
   558.0000   2000.0000      9.9552 100000.0000   2000.0000    109.7749
   558.2500   2000.0000     13.6647 100000.0000   2000.0000    110.7694
   558.5000   2000.0000     22.9487 100000.0000   2000.0000    107.3358
   558.7500   2000.0000     33.4379 100000.0000   2000.0000    102.0328
   559.0000   2000.0000     20.3214 100000.0000   2000.0000    106.4479
   559.2500   2000.0000     12.1476 100000.0000   2000.0000    105.7133
   559.5000   2000.0000     10.3443 100000.0000   2000.0000     98.0070
   559.7500   2000.0000      9.5287 100000.0000   2000.0000     98.9481
   560.0000   2000.0000      9.4088 100000.0000   2000.0000     97.9163
   560.2500   2000.0000      9.5160 100000.0000   2000.0000     99.7494
   560.5000   2000.0000      9.3514 100000.0000   2000.0000     95.2380
   560.7500   2000.0000      9.2369 100000.0000   2000.0000     96.9901
   561.0000   2000.0000      8.6389 100000.0000   2000.0000    100.9370
   561.2500   2000.0000     11.3007 100000.0000   2000.0000     97.5261
   561.5000   2000.0000    242.2069 100000.0000   2000.0000     97.6772
   561.7500   2000.0000 100000.0000 100000.0000   2000.0000     94.0156
   562.0000   2000.0000 100000.0000 100000.0000   2000.0000     96.1961
   562.2500   2000.0000     15.3166 100000.0000   2000.0000     99.3872
   562.5000   2000.0000      5.2935 100000.0000   2000.0000    107.2699
   562.7500   2000.0000      4.4298 100000.0000   2000.0000     99.8474
   563.0000   2000.0000      5.0000 100000.0000   2000.0000    105.2698
   563.2500   2000.0000      5.8122 100000.0000   2000.0000    104.7684
   563.5000   2000.0000      6.2220 100000.0000   2000.0000    103.2070
   563.7500   2000.0000      6.5794 100000.0000   2000.0000    115.8060
   564.0000   2000.0000      7.0241 100000.0000   2000.0000    119.4590
   564.2500   2000.0000     17.3941 100000.0000   2000.0000    123.1413
   564.5000   2000.0000 100000.0000 100000.0000   2000.0000    124.0971
   564.7500   2000.0000      8.5863 100000.0000   2000.0000    121.8084
   565.0000   2000.0000      2.2910 100000.0000   2000.0000    118.8991
   565.2500   2000.0000      1.2888 100000.0000   2000.0000    121.7959
   565.5000   2000.0000      1.6008 100000.0000   2000.0000    108.9727
   565.7500   2000.0000      3.3826      2.5828   2000.0000    100.6417
   566.0000   2000.0000      7.6656      2.4922   2000.0000     95.7119
   566.2500   2000.0000     15.2348      4.4881   2000.0000     99.6173
   566.5000   2000.0000     23.6733     14.6768   2000.0000    116.0437
   566.7500   2000.0000     36.9860     16.4401   2000.0000    122.0820
   567.0000   2000.0000     67.2010     12.2605   2000.0000    122.8339
   567.2500   2000.0000 100000.0000     11.5819   2000.0000    127.7549
   567.5000   2000.0000 100000.0000     11.6954   2000.0000    123.9405
   567.7500   2000.0000 100000.0000     12.4563   2000.0000    123.5808
   568.0000   2000.0000 100000.0000     13.5776   2000.0000    123.2917
   568.2500   2000.0000     23.9177     23.6299   2000.0000    122.0833
   568.5000   2000.0000     14.9726 100000.0000   2000.0000    116.9829
   568.7500   2000.0000     16.6754 100000.0000   2000.0000    115.3792
   569.0000   2000.0000     18.5316     59.2220   2000.0000    118.1847
   569.2500   2000.0000     19.6975     28.9776   2000.0000    118.6939
   569.5000   2000.0000     19.6631     22.3450   2000.0000    121.6997
   569.7500   2000.0000     20.2927     20.2706   2000.0000    123.6548
   570.0000   2000.0000     20.0374     19.7285   2000.0000    119.9549
   570.2500   2000.0000     21.3192     20.6121   2000.0000    136.0459
   570.5000   2000.0000     23.8288     18.6609   2000.0000    138.4763
   570.7500   2000.0000     28.9670     16.0506   2000.0000    127.4772
   571.0000   2000.0000     22.6615     15.4833   2000.0000    129.8038
   571.2500   2000.0000     19.6877     14.1765   2000.0000    132.9258
   571.5000   2000.0000     18.1726     13.5537   2000.0000    134.7086
   571.7500   2000.0000     17.9139     14.6995   2000.0000    136.2714
   572.0000   2000.0000     16.6837     15.4535   2000.0000    145.6050
   572.2500   2000.0000     16.4781     15.6517   2000.0000    154.2191
   572.5000   2000.0000     16.6070     15.1879   2000.0000    167.8201
   572.7500   2000.0000     16.2167     14.5655   2000.0000    171.0748
   573.0000   2000.0000     15.5273     14.2589   2000.0000    171.6564
   573.2500   2000.0000     15.0602     14.4197   2000.0000    168.4354
   573.5000   2000.0000     13.9839     14.6605   2000.0000    162.5210
   573.7500   2000.0000     14.1795     14.3095   2000.0000    159.5052
   574.0000   2000.0000     13.7017     13.4199   2000.0000    154.0112
   574.2500   2000.0000     13.2558     12.6869   2000.0000    159.7082
   574.5000   2000.0000     12.8184     11.8174   2000.0000    157.4951
   574.7500   2000.0000     12.8662     11.4189   2000.0000    154.5986
   575.0000   2000.0000     12.4287     11.3603   2000.0000    157.7559
   575.2500   2000.0000     12.0756     11.2270   2000.0000    151.7015
   575.5000   2000.0000     12.2864     10.8861   2000.0000    149.9139
   575.7500   2000.0000     12.0382     11.1367   2000.0000    155.2347
   576.0000   2000.0000     11.6503     10.9374   2000.0000    157.1184
   576.2500   2000.0000     11.4049     10.5646   2000.0000    151.3450
   576.5000   2000.0000     11.1073     10.2848   2000.0000    159.5936
   576.7500   2000.0000     11.0950     10.0635   2000.0000    157.6732
   577.0000   2000.0000     10.8609      9.8713   2000.0000    151.4530
   577.2500   2000.0000     11.0230      9.8190   2000.0000    144.7441
   577.5000   2000.0000     11.2737      9.5758   2000.0000    146.8272
   577.7500   2000.0000     11.3936      9.5839   2000.0000    150.0031
