~Version Information
 VERS.                      2.0: CWLS Log ASCII Standard - VERSION 2.0
 WRAP.                       NO: One line per depth step
 ~Well Information Block
 STRT.FT                -8.0000: 
 STOP.FT              2581.0000: 
 STEP.FT                 0.2500: 
 NULL.                -999.2500: 
 COMP.          Petrogulf Corporation: COMPANY
 WELL.               YWAM 7-23V: WELL
 FLD.           Purgatorie River: FIELD
 LOC.           230' FSL & 225' FWL: LOCATION
 CNTY.               Las Animas: COUNTY
 SRVC.                         : SERVICE COMPANY
 DATE.          Mon Nov 22 10:51:24 2004: LOG DATE
 UWI.           05-071-08227-00: UNIQUE WELL ID
 STAT.                 Colorado: STATE
 PROV.                         :Province
 ~Curve Information Block
 DEPT.FT            0 000 00 00: Depth
 TT3.usec                      : CBL 3' Travel Time
 AMP3.mV                       : CBL 3' Amplitude
 GR.GAPI                       : Gamma Ray
 CCL.                          : Casing Collar Locator
 ~Parameter Information Block
 ~A  Depth       TT3         AMP3         GR         CCL     
# ...
   494.5000    296.1932     44.8533    104.6198      0.0000
   494.7500    297.3087     44.9249    104.7238      0.0000
   495.0000    299.2773     45.2917    104.8521      0.0000
   495.2500    301.0708     46.6509    104.1252      0.0000
   495.5000    301.3004     49.6320    101.3879      0.0000
   495.7500    299.2544     54.1764     96.4360      0.0000
   496.0000    295.5588     59.3544     90.5143      0.0000
   496.2500    291.6066     63.9527     85.3422      0.0000
   496.5000    288.4756     67.2530     81.8623      0.0000
   496.7500    286.4797     69.2480     80.1133      0.0000
   497.0000    285.4150     70.3132     79.8952      0.0000
   497.2500    284.9354     70.8358     81.0279      0.0000
   497.5000    284.7545     71.0835     83.0402      0.0000
   497.7500    284.6975     71.2302     85.1385      0.0000
   498.0000    284.6814     71.3890     86.6912      0.0000
   498.2500    284.6729     71.6186     87.4139      0.0000
   498.5000    284.6612     71.9305     86.9661      0.0000
   498.7500    284.6431     72.3030     84.7868      0.0000
   499.0000    284.6195     72.6911     80.5824      0.0000
   499.2500    284.5952     73.0363     74.8092      0.0000
   499.5000    284.5765     73.2880     68.6386      0.0000
   499.7500    284.5671     73.4225     63.4491      0.0000
   500.0000    284.5674     73.4502     60.1139      0.0000
   500.2500    284.5745     73.4130     58.5758      0.0000
   500.5000    284.5843     73.3723     58.0779      0.0000
   500.7500    284.5927     73.3837     57.7437      0.0000
   501.0000    284.5969     73.4712     56.9291      0.0000
   501.2500    284.5958     73.6204     55.4453      0.0000
   501.5000    284.5891     73.8000     53.7983      0.0000
   501.7500    284.5774     73.9887     52.9614      0.0000
   502.0000    284.5622     74.1804     53.5779      0.0000
   502.2500    284.5474     74.3729     55.4671      0.0000
   502.5000    284.5372     74.5593     57.9212      0.0000
   502.7500    284.5334     74.7319     60.2657      0.0000
   503.0000    284.5356     74.8918     62.0406      0.0000
   503.2500    284.5423     75.0536     62.8700      0.0000
   503.5000    284.5520     75.2378     62.4670      0.0000
   503.7500    284.5620     75.4484     60.9025      0.0000
   504.0000    284.5687     75.6516     58.8955      0.0000
   504.2500    284.5697     75.7877     57.7441      0.0000
   504.5000    284.5657     75.8176     58.7006      0.0000
   504.7500    284.5592     75.7614     62.0257      0.0000
   505.0000    284.5522     75.6848     66.4739      0.0000
   505.2500    284.5459     75.6499     69.9085      0.0000
   505.5000    284.5414     75.6754     70.7427      0.0000
   505.7500    284.5403     75.7358     68.9564      0.0000
   506.0000    284.5436     75.7937     65.8830      0.0000
   506.2500    284.5502     75.8363     63.2512      0.0000
   506.5000    284.5576     75.8810     62.4009      0.0000
   506.7500    284.5636     75.9444     63.9978      0.0000
   507.0000    284.5677     76.0168     67.9894      0.0000
   507.2500    284.5693     76.0750     73.5125      0.0000
   507.5000    284.5683     76.1118     78.8989      0.0000
   507.7500    284.5656     76.1408     82.2495      0.0000
   508.0000    284.5636     76.1779     82.5445      0.0000
   508.2500    284.5645     76.2253     80.2434      0.0000
   508.5000    284.5683     76.2720     76.6977      0.0000
   508.7500    284.5732     76.3039     73.2333      0.0000
   509.0000    284.5775     76.3142     70.8406      0.0000
   509.2500    284.5802     76.3119     70.0441      0.0000
   509.5000    284.5804     76.3168     70.5423      0.0000
   509.7500    284.5781     76.3432     71.1377      0.0000
   510.0000    284.5741     76.3862     70.2667      0.0000
   510.2500    284.5707     76.4260     66.8805      0.0000
   510.5000    284.5703     76.4463     61.2897      0.0000
   510.7500    284.5736     76.4458     55.2184      0.0000
   511.0000    284.5797     76.4283     50.5934      0.0000
   511.2500    284.5876     76.3867     48.1308      0.0000
   511.5000    284.5966     76.3048     47.2265      0.0000
   511.7500    284.6066     76.1758     46.9266      0.0000
   512.0000    284.6177     76.0113     46.5493      0.0000
   512.2500    284.6293     75.8358     45.5038      0.0000
   512.5000    284.6391     75.6845     43.1918      0.0000
   512.7500    284.6421     75.6025     39.5048      0.0000
   513.0000    284.6347     75.6248     35.3137      0.0000
   513.2500    284.6181     75.7422     32.1613      0.0000
   513.5000    284.5999     75.8897     31.1510      0.0000
   513.7500    284.5902     75.9805     31.9359      0.0000
   514.0000    284.5954     75.9620     32.9281      0.0000
   514.2500    284.6145     75.8409     32.7215      0.0000
   514.5000    284.6407     75.6567     31.2925      0.0000
   514.7500    284.6674     75.4306     29.8097      0.0000
   515.0000    284.6915     75.1485     29.5968      0.0000
   515.2500    284.7122     74.7953     31.5518      0.0000
   515.5000    284.7280     74.4013     36.3202      0.0000
   515.7500    284.7366     74.0462     44.3515      0.0000
   516.0000    284.7371     73.8137     55.3144      0.0000
   516.2500    284.7316     73.7315     67.5681      0.0000
   516.5000    284.7241     73.7473     78.5743      0.0000
   516.7500    284.7198     73.7624     86.1154      0.0000
   517.0000    284.7234     73.6983     89.3732      0.0000
   517.2500    284.7371     73.5377     89.1271      0.0000
   517.5000    284.7594     73.3123     86.9755      0.0000
   517.7500    284.7864     73.0598     84.2805      0.0000
   518.0000    284.8141     72.7950     81.7873      0.0000
   518.2500    284.8402     72.5049     79.8935      0.0000
   518.5000    284.8654     72.1567     78.7664      0.0000
   518.7500    284.8920     71.7196     78.2800      0.0000
   519.0000    284.9211     71.2032     78.2916      0.0000
   519.2500    284.9508     70.6779     78.9594      0.0000
   519.5000    284.9774     70.2430     80.5488      0.0000
   519.7500    284.9996     69.9656     83.0753      0.0000
   520.0000    285.0189     69.8504     86.2882      0.0000
   520.2500    285.0374     69.8620     89.7685      0.0000
   520.5000    285.0548     69.9582     92.9204      0.0000
   520.7500    285.0707     70.0945     95.0443      0.0000
   521.0000    285.0869     70.2085     95.5682      0.0000
   521.2500    285.1075     70.2226     94.3459      0.0000
   521.5000    285.1362     70.0698     91.8283      0.0000
   521.7500    285.1746     69.7282     88.9640      0.0000
   522.0000    285.2214     69.2465     86.9074      0.0000
   522.2500    285.2723     68.7363     86.5561      0.0000
   522.5000    285.3221     68.3137     87.9074      0.0000
   522.7500    285.3672     68.0336     89.7050      0.0000
   523.0000    285.4062     67.8877     90.0443      0.0000
   523.2500    285.4377     67.8554     87.7166      0.0000
   523.5000    285.4603     67.9289     83.0639      0.0000
   523.7500    285.4750     68.0829     77.5430      0.0000
   524.0000    285.4868     68.2521     72.6218      0.0000
   524.2500    285.5025     68.3613     69.0537      0.0000
   524.5000    285.5277     68.3606     66.7508      0.0000
   524.7500    285.5657     68.2294     64.9813      0.0000
   525.0000    285.6159     67.9759     62.9525      0.0000
   525.2500    285.6729     67.6514     60.6994      0.0000
   525.5000    285.7278     67.3459     59.3027      0.0000
   525.7500    285.7732     67.1503     59.7845      0.0000
   526.0000    285.8052     67.1156     61.8804      0.0000
   526.2500    285.8225     67.2410     64.3562      0.0000
   526.5000    285.8251     67.4817     66.5623      0.0000
   526.7500    285.8140     67.7622     69.2231      0.0000
   527.0000    285.7899     67.9973     73.4447      0.0000
   527.2500    285.7523     68.1164     79.2651      0.0000
   527.5000    285.7039     68.0824     85.5067      0.0000
   527.7500    285.6557     67.9003     90.7225      0.0000
