~Version Information
VERS.                      2.0: CWLS Log ASCII Standard - VERSION 2.0
WRAP.                       NO: One line per depth step
~Well Information Block
STRT.FT               260.0000: 
STOP.FT              2611.5000: 
STEP.FT                 0.2500: 
NULL.                -999.2500: 
COMP.          Pioneer Natural Resources: COMPANY
WELL.           Costello 44-24: WELL
FLD.           Purgatoire River: FIELD
LOC.           327' FSL & 378' FEL: LOCATION
PROV.                 Colorado: PROVINCE
CNTY.               Las Animas: COUNTRY
SRVC.                Patterson: SERVICE COMPANY
DATE.          Mon Jul 11 00:49:32 2005: LOG DATE
UWI.           05 071 08413 00: UNIQUE WELL ID
~Curve Information Block
DEPT.FT            0 000 00 00: Depth
SN.Ohm-m                      : IEL Short Normal
SP.mV                         : IEL Spontaneous Potential
DIR.Ohm-m                     : IEL Induction Resistivity
GR.GAPI                       : Gamma Ray
~Parameter Information Block
~A  Depth        SN          SP         DIR          GR     
# ...
  1968.5000   2000.0000    200.0000     23.4184    113.6485
  1968.7500   2000.0000    200.0000     23.5605    113.4841
  1969.0000   2000.0000    200.0000     23.7860    111.2604
  1969.2500   2000.0000    200.0000     24.1096    109.1521
  1969.5000   2000.0000    200.0000     24.5308    106.1003
  1969.7500   2000.0000    200.0000     25.0299    104.2973
  1970.0000   2000.0000    200.0000     25.5778    101.3285
  1970.2500   2000.0000    200.0000     26.1489     98.5475
  1970.5000   2000.0000    200.0000     26.7280     92.4179
  1970.7500   2000.0000    200.0000     27.3115     87.1724
  1971.0000   2000.0000    200.0000     27.9095     79.1065
  1971.2500   2000.0000    200.0000     28.5438     74.8975
  1971.5000   2000.0000    200.0000     29.2333     71.6788
  1971.7500   2000.0000    200.0000     29.9672     71.1573
  1972.0000   2000.0000    200.0000     30.6899     70.3364
  1972.2500   2000.0000    200.0000     31.3091     68.3749
  1972.5000   2000.0000    200.0000     31.7160     62.8434
  1972.7500   2000.0000    200.0000     31.8043     58.3845
  1973.0000   2000.0000    200.0000     31.4982     53.0093
  1973.2500   2000.0000    200.0000     30.7955     51.3966
  1973.5000   2000.0000    200.0000     29.7812     52.4931
  1973.7500   2000.0000    200.0000     28.5803     55.2827
  1974.0000   2000.0000    200.0000     27.2932     61.8258
  1974.2500   2000.0000    200.0000     25.9750     67.5345
  1974.5000   2000.0000    200.0000     24.6607     77.9583
  1974.7500   2000.0000    200.0000     23.3922     85.8311
  1975.0000   2000.0000    200.0000     22.2134     97.7624
  1975.2500   2000.0000    200.0000     21.1500    104.8874
  1975.5000   2000.0000    200.0000     20.1996    113.2118
  1975.7500   2000.0000    200.0000     19.3454    116.9551
  1976.0000   2000.0000    200.0000     18.5780    120.0137
  1976.2500   2000.0000    200.0000     17.9054    120.6562
  1976.5000   2000.0000    200.0000     17.3457    120.4473
  1976.7500   2000.0000    200.0000     16.9130    120.2125
  1977.0000   2000.0000    200.0000     16.6123    120.4730
  1977.2500   2000.0000    200.0000     16.4443    120.8641
  1977.5000   2000.0000    200.0000     16.4134    120.4325
  1977.7500   2000.0000    200.0000     16.5284    118.5842
  1978.0000   2000.0000    200.0000     16.7947    112.7791
  1978.2500   2000.0000    200.0000     17.2035    107.1463
  1978.5000   2000.0000    200.0000     17.7268     97.1956
  1978.7500   2000.0000    200.0000     18.3270     90.2799
  1979.0000   2000.0000    200.0000     18.9766     80.5701
  1979.2500   2000.0000    200.0000     19.6737     75.1554
  1979.5000   2000.0000    200.0000     20.4400     69.5880
  1979.7500   2000.0000    200.0000     21.2994     67.9083
  1980.0000   2000.0000    200.0000     22.2559     68.2784
  1980.2500   2000.0000    200.0000     23.2873     69.9203
  1980.5000   2000.0000    200.0000     24.3586     73.1484
  1980.7500   2000.0000    200.0000     25.4482     75.0803
  1981.0000   2000.0000    200.0000     26.5662     76.6740
  1981.2500   2000.0000    200.0000     27.7480     76.3240
  1981.5000   2000.0000    200.0000     29.0240     72.8855
  1981.7500   2000.0000    200.0000     30.3808     68.6774
  1982.0000   2000.0000    200.0000     31.7414     60.8407
  1982.2500   2000.0000    200.0000     32.9762     55.7834
  1982.5000   2000.0000    200.0000     33.9566     49.9368
  1982.7500   2000.0000    200.0000     34.6240     47.3967
  1983.0000   2000.0000    200.0000     35.0339     45.0621
  1983.2500   2000.0000    200.0000     35.3332     44.0036
  1983.5000   2000.0000    200.0000     35.6881     42.5834
  1983.7500   2000.0000    200.0000     36.2089     41.5955
  1984.0000   2000.0000    200.0000     36.9062     39.8310
  1984.2500   2000.0000    200.0000     37.6920     38.2805
  1984.5000   2000.0000    200.0000     38.4182     35.2686
  1984.7500   2000.0000    200.0000     38.9458     33.0359
  1985.0000   2000.0000    200.0000     39.2056     30.0788
  1985.2500   2000.0000    200.0000     39.2139     28.6637
  1985.5000   2000.0000    200.0000     39.0353     27.3706
  1985.7500   2000.0000    200.0000     38.7245     26.9387
  1986.0000   2000.0000    200.0000     38.3000     27.0211
  1986.2500   2000.0000    200.0000     37.7630     27.8532
  1986.5000   2000.0000    200.0000     37.1360     30.9201
  1986.7500   2000.0000    200.0000     36.4755     34.5273
  1987.0000   2000.0000    200.0000     35.8537     42.6830
  1987.2500   2000.0000    200.0000     35.3353     49.8364
  1987.5000   2000.0000    200.0000     34.9598     61.8135
  1987.7500   2000.0000    200.0000     34.7226     69.3021
  1988.0000   2000.0000    200.0000     34.5564     77.5688
  1988.2500   2000.0000    200.0000     34.3460     80.2919
  1988.5000   2000.0000    200.0000     33.9856     79.8493
  1988.7500   2000.0000    200.0000     33.4355     76.9322
  1989.0000   2000.0000    200.0000     32.7194     70.1905
  1989.2500   2000.0000    200.0000     31.8666     65.2320
  1989.5000   2000.0000    200.0000     30.8689     58.5000
  1989.7500   2000.0000    200.0000     29.6962     54.7765
  1990.0000   2000.0000    200.0000     28.3507     50.3462
  1990.2500   2000.0000    200.0000     26.8946     48.3410
  1990.5000   2000.0000    200.0000     25.4261     47.8188
  1990.7500   2000.0000    200.0000     24.0305     49.9867
  1991.0000   2000.0000    200.0000     22.7549     58.1513
  1991.2500   2000.0000    200.0000     21.6134     67.0676
  1991.5000   2000.0000    200.0000     20.6055     84.8379
  1991.7500   2000.0000    200.0000     19.7251     98.2725
  1992.0000   2000.0000    200.0000     18.9567    117.3719
  1992.2500   2000.0000    200.0000     18.2726    127.4958
  1992.5000   2000.0000    200.0000     17.6428    137.0705
  1992.7500   2000.0000    200.0000     17.0524    139.8289
  1993.0000   2000.0000    200.0000     16.5070    140.0888
  1993.2500   2000.0000    200.0000     16.0238    138.9853
  1993.5000   2000.0000    200.0000     15.6163    137.4976
  1993.7500   2000.0000    200.0000     15.2889    137.2769
  1994.0000   2000.0000    200.0000     15.0404    137.9997
  1994.2500   2000.0000    200.0000     14.8704    138.6793
  1994.5000   2000.0000    200.0000     14.7824    138.9360
  1994.7500   2000.0000    200.0000     14.7825    138.0432
  1995.0000   2000.0000    200.0000     14.8751    134.7022
  1995.2500   2000.0000    200.0000     15.0586    131.4355
  1995.5000   2000.0000    200.0000     15.3245    125.9672
  1995.7500   2000.0000    200.0000     15.6594    122.3097
  1996.0000   2000.0000    200.0000     16.0486    116.9566
  1996.2500   2000.0000    200.0000     16.4747    113.6854
  1996.5000   2000.0000    200.0000     16.9128    110.0467
  1996.7500   2000.0000    200.0000     17.3251    108.8309
  1997.0000   2000.0000    200.0000     17.6607    108.5565
  1997.2500   2000.0000    200.0000     17.8660    108.8655
  1997.5000   2000.0000    200.0000     17.9033    109.4908
  1997.7500   2000.0000    200.0000     17.7676    110.2801
  1998.0000   2000.0000    200.0000     17.4918    113.1500
  1998.2500   2000.0000    200.0000     17.1364    116.6424
  1998.5000   2000.0000    200.0000     16.7695    123.9744
  1998.7500   2000.0000    200.0000     16.4458    129.5563
  1999.0000   2000.0000    200.0000     16.1934    137.3752
  1999.2500   2000.0000    200.0000     16.0119    141.4185
  1999.5000   2000.0000    200.0000     15.8812    145.2665
  1999.7500   2000.0000    200.0000     15.7756    146.7435
  2000.0000   2000.0000    200.0000     15.6772    148.4478
  2000.2500   2000.0000    200.0000     15.5831    149.5604
  2000.5000   2000.0000    200.0000     15.5046    150.6193
  2000.7500   2000.0000    200.0000     15.4591    150.1494
  2001.0000   2000.0000    200.0000     15.4604    146.5554
  2001.2500   2000.0000    200.0000     15.5142    142.1597
  2001.5000   2000.0000    200.0000     15.6208    133.7629
  2001.7500   2000.0000    200.0000     15.7830    128.1376
