~Version Information
VERS.                      2.0: CWLS Log ASCII Standard - VERSION 2.0
WRAP.                       NO: One line per depth step
~Well Information Block
STRT.FT               523.0000: 
STOP.FT              1709.0000: 
STEP.FT                 0.1000: 
NULL.                -999.2500: 
COMP.          Evergreen Operating Corporation: COMPANY
WELL.            Rimrock 14-29: WELL
FLD.           Purgatorie River: FIELD
LOC.           945' FSL & 604' FWL: LOCATION
PROV.                 Colorado: PROVINCE
CNTY.               Las Animas: COUNTRY
SRVC.                         : SERVICE COMPANY
DATE.          Tue Sep 21 04:15:40 2004: LOG DATE
UWI.           05 071 08136 00: UNIQUE WELL ID
~Curve Information Block
DEPT.FT            0 000 00 00: Depth
DCAL.in                       : CDL Caliper
RHOB.g/cc                     : CDL Bulk Density
RHOC.g/cc                     : CDL Density Correction
DPOR.pu                       : CDL Density Porosity
GR.GAPI                       : Gamma Ray
NPOR.pu                       : Neutron Porosity
~Parameter Information Block
~A  Depth       DCAL        RHOB        RHOC        DPOR         GR         NPOR    
# ...
   916.6000      7.8715      2.5290     -0.0123      7.3353    160.0012     22.1047
   916.7000      7.8715      2.5356      0.0459      6.9345    164.8504     22.9934
   916.8000      7.9010      2.5371      0.0319      6.8426    161.0216     23.8260
   916.9000      7.9010      2.5352      0.0290      6.9592    148.1428     24.4688
   917.0000      7.9144      2.5428      0.0112      6.4999    139.3503     25.1975
   917.1000      7.9144      2.5586      0.0489      5.5390    144.5101     26.0012
   917.2000      7.9144      2.5658      0.0753      5.1014    156.0188     26.5652
   917.3000      7.9111      2.5536      0.0469      5.8443    164.6237     26.8239
   917.4000      7.9111      2.5329      0.0295      7.1000    167.8721     27.0988
   917.5000      7.9043      2.5248      0.0028      7.5908    163.8880     27.6604
   917.6000      7.9043      2.5338      0.0443      7.0408    151.9288     28.1633
   917.7000      7.9043      2.5485      0.0274      6.1489    135.5403     28.0010
   917.8000      7.9057      2.5651      0.0206      5.1470    121.3209     27.4867
   917.9000      7.9057      2.5828      0.0351      4.0712    111.6479     27.1802
   918.0000      7.8816      2.5885      0.0540      3.7292    105.7199     26.9910
   918.1000      7.8816      2.5739      0.0231      4.6107    106.4657     26.7412
   918.2000      7.8816      2.5538     -0.0154      5.8297    113.3907     26.2017
   918.3000      7.8884      2.5401      0.0032      6.6582    119.2618     25.2742
   918.4000      7.8884      2.5252     -0.0239      7.5635    118.4342     24.3907
   918.5000      7.8477      2.5103     -0.0231      8.4683    110.4491     23.8325
   918.6000      7.8477      2.5108     -0.0376      8.4372    101.0027     23.3596
   918.7000      7.8477      2.5230      0.0438      7.6986     95.5175     22.8612
   918.8000      7.8545      2.5260      0.0490      7.5146     95.2380     22.3164
   918.9000      7.8545      2.5161      0.0714      8.1165     99.2055     21.5870
   919.0000      7.8496      2.5069      0.0521      8.6753    103.9989     20.9364
   919.1000      7.8496      2.5048      0.1002      8.8021    107.1102     20.8494
   919.2000      7.8496      2.5074      0.0926      8.6420    109.8421     21.2962
   919.3000      7.8366      2.5286      0.0532      7.3559    113.6791     21.6022
   919.4000      7.8366      2.5820      0.1423      4.1211    115.4037     21.5932
   919.5000      7.8216      2.6426      0.2162      0.4492    110.9065     21.8334
   919.6000      7.8216      2.6726      0.2143     -1.3679    106.4263     22.3406
   919.7000      7.8216      2.6656      0.2115     -0.9459    108.9247     22.5864
   919.8000      7.8349      2.6394      0.1834      0.6412    113.2661     22.5434
   919.9000      7.8349      2.6053      0.1811      2.7116    114.1007     22.4807
   920.0000      7.8143      2.5636      0.0931      5.2378    111.8116     22.4075
   920.1000      7.8143      2.5242      0.0410      7.6255    107.8786     22.3532
   920.2000      7.8143      2.5004      0.0235      9.0662    104.9908     22.2799
   920.3000      7.8612      2.4874      0.0364      9.8523    104.1702     22.1087
   920.4000      7.8612      2.4683      0.0479     11.0105    103.8990     22.0550
   920.5000      7.8441      2.4389      0.0439     12.7967    106.2961     22.2937
   920.6000      7.8441      2.4175      0.0644     14.0921    113.8281     22.6747
   920.7000      7.8441      2.4279      0.1020     13.4631    121.7748     23.1469
   920.8000      7.8207      2.4746      0.1476     10.6305    124.4966     23.8092
   920.9000      7.8207      2.5463      0.1373      6.2863    122.5063     24.6881
   921.0000      7.8415      2.6289      0.2199      1.2779    119.8829     25.5731
   921.1000      7.8415      2.7032      0.2798     -3.2262    119.1753     26.1780
   921.2000      7.8415      2.7500      0.3430     -6.0586    119.0072     26.4234
   921.3000      7.8150      2.7606      0.3221     -6.7049    116.1138     26.3466
   921.4000      7.8150      2.7431      0.2658     -5.6416    112.9243     25.9607
   921.5000      7.8471      2.7177      0.2036     -4.1023    116.0790     25.6252
   921.6000      7.8471      2.6953      0.1503     -2.7437    124.2177     25.7012
   921.7000      7.8471      2.6690      0.0968     -1.1533    126.8504     25.9921
   921.8000      7.8336      2.6379      0.0043      0.7361    122.5861     26.0565
   921.9000      7.8336      2.6166      0.0187      2.0256    122.1801     25.4534
   922.0000      7.8385      2.6099      0.0121      2.4321    128.9238     24.0260
   922.1000      7.8385      2.6079      0.0175      2.5498    133.7233     22.2455
   922.2000      7.8385      2.6065      0.0101      2.6357    130.6957     20.8731
   922.3000      7.8526      2.6059      0.0536      2.6706    124.1948     20.3037
   922.4000      7.8526      2.6006      0.0460      2.9963    119.1544     20.4018
   922.5000      7.8462      2.5842      0.0926      3.9874    119.3549     20.7725
   922.6000      7.8462      2.5643      0.0076      5.1947    124.4615     21.0279
   922.7000      7.8462      2.5636      0.0095      5.2350    128.1087     21.1448
   922.8000      7.8202      2.5847      0.0953      3.9578    126.7082     21.1515
   922.9000      7.8202      2.6003      0.0837      3.0139    125.3922     20.8953
   923.0000      7.8338      2.5938      0.0847      3.4049    128.0934     20.6785
   923.1000      7.8338      2.5713      0.1007      4.7675    129.2968     20.8471
   923.2000      7.8338      2.5451      0.0487      6.3567    124.7535     21.1820
   923.3000      7.8504      2.5239      0.0685      7.6451    120.7727     21.5044
   923.4000      7.8504      2.5063      0.0630      8.7095    121.1223     21.7645
   923.5000      7.8557      2.4926      0.0208      9.5420    123.7340     21.8291
   923.6000      7.8557      2.4881      0.0280      9.8106    132.9444     22.0631
   923.7000      7.8557      2.4938      0.0475      9.4654    147.8741     22.7769
   923.8000      7.8506      2.5090      0.0053      8.5463    157.2831     23.7141
   923.9000      7.8506      2.5271      0.0945      7.4485    155.9270     24.7272
   924.0000      7.8483      2.5334      0.1188      7.0695    148.6012     25.5791
   924.1000      7.8483      2.5304      0.0682      7.2467    144.3359     25.9999
   924.2000      7.8483      2.5282      0.1344      7.3848    146.8927     26.0581
   924.3000      7.8566      2.5208      0.1305      7.8332    150.2646     26.1958
   924.4000      7.8566      2.5136      0.0959      8.2697    147.1982     26.5963
   924.5000      7.8480      2.5227      0.0989      7.7151    140.5965     26.9015
   924.6000      7.8480      2.5495      0.1185      6.0919    140.3036     26.9826
   924.7000      7.8480      2.5879      0.1167      3.7622    148.8123     27.0317
   924.8000      7.8493      2.6318      0.1559      1.1061    155.7811     27.0724
   924.9000      7.8493      2.6689      0.1771     -1.1441    151.7084     26.9528
   925.0000      7.8353      2.6860      0.1956     -2.1812    141.7583     26.7011
   925.1000      7.8353      2.6826      0.1650     -1.9777    134.9596     26.5108
   925.2000      7.8353      2.6691      0.1159     -1.1557    133.9685     26.3720
   925.3000      7.8266      2.6491      0.1453      0.0522    136.8909     26.1326
   925.4000      7.8266      2.6254      0.0626      1.4888    141.2124     25.8208
   925.5000      7.8342      2.6064      0.0648      2.6443    149.6695     25.6644
   925.6000      7.8342      2.5921      0.0529      3.5113    161.5832     25.8475
   925.7000      7.8342      2.5802      0.0203      4.2325    166.3161     26.0548
   925.8000      7.8419      2.5681      0.0431      4.9643    158.3898     25.8418
   925.9000      7.8419      2.5516      0.0452      5.9626    146.5924     25.5102
   926.0000      7.8264      2.5380      0.0327      6.7891    142.6881     25.5409
   926.1000      7.8264      2.5387      0.0636      6.7443    147.2232     25.7086
