~Version Information
VERS.                      2.0: CWLS Log ASCII Standard - VERSION 2.0
WRAP.                       NO: One line per depth step
~Well Information Block
STRT.FT               750.6000: 
STOP.FT              2495.5000: 
STEP.FT                 0.1000: 
NULL.                -999.2500: 
COMP.                         : COMPANY
WELL.                         : WELL
FLD.                          : FIELD
LOC.                          : LOCATION
CNTY.                         : COUNTY
SRVC.                         : SERVICE COMPANY
DATE.          Sat Feb 28 14:05:57 2004: LOG DATE
UWI.                          : UNIQUE WELL ID
STAT.                         : STATE
~Curve Information Block
DEPT.FT            0 000 00 00: Depth
DCAL.in                       : CDL Caliper
RHOB.g/cc                     : CDL Bulk Density
RHOC.g/cc                     : CDL Density Correction
DPOR.pu                       : CDL Density Porosity
GR.GAPI                       : Gamma Ray
NPOR.pu                       : Neutron Porosity
~Parameter Information Block
~A  Depth       DCAL        RHOB        RHOC        DPOR         GR         NPOR    
# ...
  1240.2000      8.1211      2.5773      0.1734      4.4033    156.3510     26.0938
  1240.3000      8.1523      2.6038      0.2325      2.8003    155.6684     26.0225
  1240.4000      8.1523      2.6116      0.2309      2.3272    148.2004     25.4618
  1240.5000      8.1785      2.5831      0.2289      4.0555    139.8529     24.5908
  1240.6000      8.1785      2.5200      0.1791      7.8768    138.8922     24.0846
  1240.7000      8.1785      2.4483      0.1238     12.2259    144.5475     23.7105
  1240.8000      8.1917      2.3918      0.0943     15.6487    145.6614     23.0425
  1240.9000      8.1917      2.3603      0.0822     17.5551    139.9338     22.5367
  1241.0000      8.1956      2.3533      0.1007     17.9800    136.4880     22.4448
  1241.1000      8.1956      2.3566      0.1606     17.7820    139.2279     22.3885
  1241.2000      8.1956      2.3548      0.1306     17.8910    144.1772     22.1056
  1241.3000      8.2007      2.3522      0.1838     18.0510    143.8284     21.6853
  1241.4000      8.2007      2.3571      0.2261     17.7537    136.6227     21.5043
  1241.5000      8.2094      2.3573      0.2506     17.7413    130.0814     21.7721
  1241.6000      8.2094      2.3292      0.2882     19.4418    128.0373     22.4459
  1241.7000      8.2094      2.2725      0.1985     22.8801    130.4355     23.3076
  1241.8000      8.2575      2.2295      0.1472     25.4836    137.1139     23.8472
  1241.9000      8.2575      2.2310      0.2215     25.3942    137.2059     23.9930
  1242.0000      8.2753      2.2492      0.2478     24.2897    123.5052     24.2057
  1242.1000      8.2753      2.2591      0.1849     23.6895    108.3026     24.6402
  1242.2000      8.2753      2.2746      0.1996     22.7499    106.5676     25.0694
  1242.3000      8.2560      2.2998      0.2949     21.2272    118.9296     25.2684
  1242.4000      8.2560      2.3141      0.2279     20.3551    130.5288     25.1507
  1242.5000      8.2627      2.3119      0.2132     20.4888    129.0277     25.0460
  1242.6000      8.2627      2.3164      0.1955     20.2170    118.4012     25.4450
  1242.7000      8.2627      2.3503      0.2342     18.1629    110.4267     25.9542
  1242.8000      8.2446      2.3998      0.2602     15.1645    109.5554     25.7464
  1242.9000      8.2446      2.4258      0.2852     13.5904    110.5644     24.9128
  1243.0000      8.2163      2.4072      0.2324     14.7154    112.2515     24.1730
  1243.1000      8.2163      2.3503      0.2524     18.1652    117.3428     23.7567
  1243.2000      8.2163      2.2649      0.2024     23.3381    122.6583     23.0525
  1243.3000      8.2450      2.1698      0.1906     29.1017    126.2297     21.3964
  1243.4000      8.2450      2.0867      0.2164     34.1393    132.4406     19.0263
  1243.5000      8.2874      2.0128      0.1898     38.6189    137.5833     16.5479
  1243.6000      8.2874      1.9495      0.1079     42.4518    133.3805     14.2733
  1243.7000      8.2874      1.9361      0.0550     43.2649    123.0494     12.4182
  1243.8000      8.4477      1.9972      0.1733     39.5650    115.0550     10.9378
  1243.9000      8.4477      2.0897      0.5211     33.9603    115.1908      9.4932
  1244.0000      8.5427      2.1503      0.6772     30.2824    122.3798      8.0015
  1244.1000      8.5427      2.1633      0.6972     29.4976    128.1751      6.7408
  1244.2000      8.5427      2.1554      0.6387     29.9756    129.5346      5.8900
  1244.3000      8.5272      2.1656      0.5931     29.3562    131.1710      5.5041
  1244.4000      8.5272      2.2116      0.6049     26.5697    132.4052      5.5626
  1244.5000      8.5937      2.2826      0.5526     22.2642    131.7493      6.0392
  1244.6000      8.5937      2.3690      0.5935     17.0277    132.3728      7.0396
  1244.7000      8.5937      2.4575      0.7195     11.6682    129.9736      8.8086
  1244.8000      8.6439      2.5050      0.7730      8.7884    117.8515     11.1421
  1244.9000      8.6439      2.4702      0.7159     10.8969    105.7355     13.2641
  1245.0000      8.8664      2.3770      0.5825     16.5481    106.3547     15.0588
  1245.1000      8.8664      2.2840      0.5163     22.1823    115.0854     17.1978
  1245.2000      8.8664      2.2010      0.4354     27.2140    120.6500     19.5650
  1245.3000      8.9187      2.1060      0.4289     32.9673    120.2880     21.4905
  1245.4000      8.9187      2.0018      0.2370     39.2819    115.8183     23.0240
  1245.5000      8.9358      1.9148      0.1266     44.5547    110.8035     24.6964
  1245.6000      8.9358      1.8722     -0.0030     47.1372    110.0700     26.4774
  1245.7000      8.9358      1.8871      0.0796     46.2343    113.5166     27.8834
  1245.8000      8.3590      1.9509      0.0898     42.3695    114.3910     28.8065
  1245.9000      8.3590      2.0501      0.1804     36.3606    110.5811     29.2289
  1246.0000      8.1712      2.1791      0.3084     28.5390    109.8407     29.1991
  1246.1000      8.1712      2.3317      0.3428     19.2926    115.4157     29.1330
  1246.2000      8.1712      2.4718      0.4076     10.7981    122.8198     29.2172
  1246.3000      8.0847      2.5430      0.3646      6.4825    128.8921     29.5414
  1246.4000      8.0847      2.5409      0.1826      6.6107    131.5520     30.1328
  1246.5000      8.0628      2.5225      0.0936      7.7243    130.0340     30.5921
  1246.6000      8.0628      2.5341      0.0940      7.0239    131.2595     30.6190
  1246.7000      8.0628      2.5714      0.1272      4.7622    140.5437     30.3558
  1246.8000      8.0332      2.6098      0.1560      2.4357    149.7732     30.0427
  1246.9000      8.0332      2.6335      0.2038      0.9990    153.2950     29.7081
  1247.0000      8.0294      2.6316      0.1874      1.1128    159.3087     29.0974
  1247.1000      8.0294      2.6059      0.1518      2.6754    166.3530     28.1437
  1247.2000      8.0294      2.5774      0.1028      4.4005    163.8028     27.2490
  1247.3000      8.0294      2.5654      0.1043      5.1253    159.2863     26.7227
  1247.4000      8.0294      2.5688      0.1077      4.9232    162.5209     26.5795
  1247.5000      8.0305      2.5734      0.1210      4.6422    168.1907     26.7667
  1247.6000      8.0305      2.5734      0.0970      4.6400    173.7804     27.0594
  1247.7000      8.0305      2.5705      0.1598      4.8179    176.2802     27.2792
  1247.8000      8.0381      2.5633      0.0598      5.2518    167.6877     27.5956
  1247.9000      8.0381      2.5541      0.1125      5.8098    152.7813     28.0787
  1248.0000      8.0353      2.5431      0.0700      6.4803    146.2793     28.3622
  1248.1000      8.0353      2.5304      0.1152      7.2513    152.3877     28.0870
  1248.2000      8.0353      2.5198      0.0765      7.8919    158.9496     27.4128
  1248.3000      8.0385      2.5176      0.0965      8.0240    159.4733     27.0114
  1248.4000      8.0385      2.5245      0.1501      7.6041    161.4685     27.2987
  1248.5000      8.0337      2.5359      0.1107      6.9168    165.9546     27.8977
  1248.6000      8.0337      2.5537      0.0909      5.8383    165.7012     28.2861
  1248.7000      8.0337      2.5824      0.1792      4.0985    162.3069     28.6707
  1248.8000      8.0332      2.6159      0.2261      2.0694    160.1944     29.3769
  1248.9000      8.0332      2.6368      0.2560      0.7979    157.1217     30.1173
  1249.0000      8.0271      2.6421      0.1694      0.4805    153.0754     30.5826
  1249.1000      8.0271      2.6513      0.1550     -0.0803    151.9186     30.7853
  1249.2000      8.0271      2.6610      0.2196     -0.6649    152.1637     30.8325
  1249.3000      8.0209      2.6539      0.1408     -0.2338    151.2036     30.7038
  1249.4000      8.0209      2.6466      0.1141      0.2081    150.1504     30.2364
  1249.5000      8.0139      2.6560      0.1377     -0.3617    146.4444     29.3670
  1249.6000      8.0139      2.6686      0.1601     -1.1251    138.4836     28.0773
  1249.7000      8.0139      2.6738      0.1331     -1.4430    128.8303     26.6721
