~Version Information
VERS.                      2.0: CWLS Log ASCII Standard - VERSION 2.0
WRAP.                       NO: One line per depth step
~Well Information Block
STRT.FT               260.0000: 
STOP.FT              2269.5000: 
STEP.FT                 0.1000: 
NULL.                -999.2500: 
COMP.          Pioneer Natural Resources: COMPANY
WELL.            Moo Moo 31-36: WELL
FLD.           Purgatoire River: FIELD
LOC.           612' FNL & 2326' FEL: LOCATION
PROV.                 Colorado: PROVINCE
CNTY.               Las Animas: COUNTRY
SRVC.                Patterson: SERVICE COMPANY
DATE.          Fri Jun 17 07:04:43 2005: LOG DATE
UWI.           05 071 08395 00: UNIQUE WELL ID
~Curve Information Block
DEPT.FT            0 000 00 00: Depth
DCAL.in                       : CDL Caliper
RHOB.g/cc                     : CDL Bulk Density
RHOC.g/cc                     : CDL Density Correction
DPOR.pu                       : CDL Density Porosity
GR.GAPI                       : Gamma Ray
NPOR.pu                       : Neutron Porosity
~Parameter Information Block
~A  Depth       DCAL        RHOB        RHOC        DPOR         GR         NPOR    
# ...
  2256.8000      7.8645      2.4402      0.0555     12.7150   -999.2500   -999.2500
  2256.9000      7.8645      2.4302      0.0122     13.3242   -999.2500   -999.2500
  2257.0000      7.8769      2.4464      0.0308     12.3421   -999.2500   -999.2500
  2257.1000      7.8769      2.4693      0.1244     10.9505   -999.2500   -999.2500
  2257.2000      7.8769      2.4667      0.0412     11.1098   -999.2500   -999.2500
  2257.3000      7.8770      2.4516      0.0229     12.0269   -999.2500   -999.2500
  2257.4000      7.8770      2.4559      0.0431     11.7661   -999.2500   -999.2500
  2257.5000      7.8765      2.4803      0.1188     10.2874   -999.2500   -999.2500
  2257.6000      7.8765      2.5023      0.0840      8.9527   -999.2500   -999.2500
  2257.7000      7.8765      2.5035      0.1124      8.8813   -999.2500   -999.2500
  2257.8000      7.8772      2.4797      0.1101     10.3234   -999.2500   -999.2500
  2257.9000      7.8772      2.4539      0.0265     11.8869   -999.2500   -999.2500
  2258.0000      7.8775      2.4592      0.0231     11.5630   -999.2500   -999.2500
  2258.1000      7.8775      2.4903      0.1000      9.6789   -999.2500   -999.2500
  2258.2000      7.8775      2.5110      0.0531      8.4259   -999.2500   -999.2500
  2258.3000      7.8840      2.5044      0.0687      8.8273   -999.2500   -999.2500
  2258.4000      7.8840      2.4873      0.0351      9.8619   -999.2500   -999.2500
  2258.5000      7.8770      2.4779      0.0507     10.4285   -999.2500   -999.2500
  2258.6000      7.8770      2.4659      0.0755     11.1596   -999.2500   -999.2500
  2258.7000      7.8770      2.4528     -0.0030     11.9505   -999.2500   -999.2500
  2258.8000      7.8891      2.4614      0.0357     11.4276   -999.2500   -999.2500
  2258.9000      7.8891      2.4823      0.0889     10.1642   -999.2500   -999.2500
  2259.0000      7.8915      2.4890      0.0794      9.7561   -999.2500   -999.2500
  2259.1000      7.8915      2.4749      0.0712     10.6132   -999.2500   -999.2500
  2259.2000      7.8915      2.4503      0.0251     12.1015   -999.2500   -999.2500
  2259.3000      7.8830      2.4310      0.0181     13.2724   -999.2500   -999.2500
  2259.4000      7.8830      2.4238      0.0341     13.7104   -999.2500   -999.2500
  2259.5000      7.8823      2.4270      0.0268     13.5164   -999.2500   -999.2500
  2259.6000      7.8823      2.4404      0.0106     12.7014   -999.2500   -999.2500
  2259.7000      7.8823      2.4585      0.0509     11.6064   -999.2500   -999.2500
  2259.8000      7.8773      2.4670      0.0521     11.0881   -999.2500   -999.2500
  2259.9000      7.8773      2.4637      0.0503     11.2938   -999.2500   -999.2500
  2260.0000      7.8603      2.4607      0.0406     11.4728   -999.2500   -999.2500
  2260.1000      7.8603      2.4625      0.0319     11.3612   -999.2500   -999.2500
  2260.2000      7.8603      2.4641      0.0533     11.2679   -999.2500   -999.2500
  2260.3000      7.8638      2.4662      0.0921     11.1414   -999.2500   -999.2500
  2260.4000      7.8638      2.4709      0.0354     10.8560   -999.2500   -999.2500
  2260.5000      7.8661      2.4799      0.0659     10.3112   -999.2500   -999.2500
  2260.6000      7.8661      2.4872      0.0718      9.8655   -999.2500   -999.2500
  2260.7000      7.8661      2.4833      0.0829     10.1015   -999.2500   -999.2500
  2260.8000      7.8679      2.4745      0.0525     10.6372   -999.2500   -999.2500
  2260.9000      7.8679      2.4732      0.0612     10.7148   -999.2500   -999.2500
  2261.0000      7.8688      2.4773      0.0467     10.4656   -999.2500   -999.2500
  2261.1000      7.8688      2.4784      0.0788     10.4028   -999.2500   -999.2500
  2261.2000      7.8688      2.4771      0.0518     10.4815   -999.2500   -999.2500
  2261.3000      7.8672      2.4872      0.0195      9.8651   -999.2500   -999.2500
  2261.4000      7.8672      2.5105      0.1025      8.4531   -999.2500   -999.2500
  2261.5000      7.8648      2.5226      0.1202      7.7194   -999.2500   -999.2500
  2261.6000      7.8648      2.5127      0.0781      8.3194   -999.2500   -999.2500
  2261.7000      7.8648      2.4960      0.0656      9.3317   -999.2500   -999.2500
  2261.8000      7.8658      2.4880      0.0354      9.8210   -999.2500   -999.2500
  2261.9000      7.8658      2.4952      0.0423      9.3792   -999.2500   -999.2500
  2262.0000      7.8691      2.5083      0.0758      8.5909   -999.2500   -999.2500
  2262.1000      7.8691      2.5036      0.0791      8.8711   -999.2500   -999.2500
  2262.2000      7.8691      2.4809      0.0233     10.2463   -999.2500   -999.2500
  2262.3000      7.8694      2.4666      0.0234     11.1139   -999.2500   -999.2500
  2262.4000      7.8694      2.4696      0.0168     10.9329   -999.2500   -999.2500
  2262.5000      7.8748      2.4782      0.0436     10.4134   -999.2500   -999.2500
  2262.6000      7.8748      2.4799      0.0431     10.3114   -999.2500   -999.2500
  2262.7000      7.8748      2.4725      0.0546     10.7598   -999.2500   -999.2500
  2262.8000      7.8748      2.4665      0.0390     11.1216   -999.2500   -999.2500
  2262.9000      7.8748      2.4732      0.0395     10.7173   -999.2500   -999.2500
  2263.0000      7.8729      2.4857      0.1264      9.9605   -999.2500   -999.2500
  2263.1000      7.8729      2.4881      0.0650      9.8095   -999.2500   -999.2500
  2263.2000      7.8729      2.4846      0.0241     10.0224   -999.2500   -999.2500
  2263.3000      7.8762      2.4845      0.0384     10.0310   -999.2500   -999.2500
  2263.4000      7.8762      2.4871      0.0146      9.8746   -999.2500   -999.2500
  2263.5000      7.8764      2.4912      0.0326      9.6240   -999.2500   -999.2500
  2263.6000      7.8764      2.4907      0.0366      9.6533   -999.2500   -999.2500
  2263.7000      7.8764      2.4800      0.0164     10.3005   -999.2500   -999.2500
  2263.8000      7.8812      2.4680      0.0269     11.0333   -999.2500   -999.2500
  2263.9000      7.8812      2.4626      0.0758     11.3564   -999.2500   -999.2500
  2264.0000      7.8824      2.4573      0.0407     11.6793   -999.2500   -999.2500
  2264.1000      7.8824      2.4469      0.0598     12.3099   -999.2500   -999.2500
  2264.2000      7.8824      2.4415      0.0301     12.6372   -999.2500   -999.2500
  2264.3000      7.8736      2.4529      0.0537     11.9458   -999.2500   -999.2500
  2264.4000      7.8736      2.4789      0.0025     10.3698   -999.2500   -999.2500
  2264.5000      7.8526      2.5031      0.0862      8.9003   -999.2500   -999.2500
  2264.6000      7.8526      2.5100      0.0882      8.4844   -999.2500   -999.2500
  2264.7000      7.8526      2.5055      0.0701      8.7585   -999.2500   -999.2500
  2264.8000      7.8564      2.5031      0.0797      8.9009   -999.2500   -999.2500
  2264.9000      7.8564      2.5045      0.0707      8.8170   -999.2500   -999.2500
  2265.0000      7.8542      2.5048      0.0813      8.7992   -999.2500   -999.2500
  2265.1000      7.8542      2.4990      0.1027      9.1508   -999.2500   -999.2500
  2265.2000      7.8542      2.4916      0.0573      9.5995   -999.2500   -999.2500
  2265.3000      7.8514      2.4909      0.0530      9.6436   -999.2500   -999.2500
  2265.4000      7.8514      2.4902      0.0738      9.6861   -999.2500   -999.2500
  2265.5000      7.8533      2.4777      0.0823     10.4418   -999.2500   -999.2500
  2265.6000      7.8533      2.4556      0.0723     11.7788   -999.2500   -999.2500
  2265.7000      7.8533      2.4367      0.0599     12.9296   -999.2500   -999.2500
  2265.8000      7.8410      2.4429      0.0116     12.5534   -999.2500   -999.2500
  2265.9000      7.8410      2.5060      0.0566      8.7295   -999.2500   -999.2500
  2266.0000      7.7995      2.5201      0.0545      7.8713   -999.2500   -999.2500
  2266.1000      7.7995      2.1036      0.4412     33.1157   -999.2500   -999.2500
  2266.2000      7.7995      1.1948      0.0200     88.1954   -999.2500   -999.2500
  2266.3000      7.6597      0.4055      0.0200    136.0305   -999.2500   -999.2500
