~Version Information
VERS.                      2.0: CWLS Log ASCII Standard - VERSION 2.0
WRAP.                       NO: One line per depth step
~Well Information Block
STRT.FT               802.1000: 
STOP.FT              1915.0000: 
STEP.FT                 0.1000: 
NULL.                -999.2500: 
COMP.          Petrogulf Corporation: COMPANY
WELL.             State 16-32R: WELL
FLD.           Purgatorie River: FIELD
LOC.           1849' FNL & 1677' FEL: LOCATION
CNTY.               Las Animas: COUNTY
SRVC.                         : SERVICE COMPANY
DATE.          Thu May 13 18:17:16 2004: LOG DATE
UWI.           05 071 08033 00: UNIQUE WELL ID
STAT.                 Colorado: STATE
~Curve Information Block
DEPT.FT            0 000 00 00: Depth
DCAL.in                       : CDL Caliper
RHOB.g/cc                     : CDL Bulk Density
RHOC.g/cc                     : CDL Density Correction
DPOR.pu                       : CDL Density Porosity
GR.GAPI                       : Gamma Ray
NPOR.pu                       : Neutron Porosity
~Parameter Information Block
~A  Depth       DCAL        RHOB        RHOC        DPOR         GR         NPOR    
# ...
  1272.5000      8.2647      2.3725     -0.0286     16.8156    110.7101     24.2325
  1272.6000      8.2647      2.3322     -0.0061     19.2605    109.8712     24.2866
  1272.7000      8.2647      2.3111     -0.0353     20.5414    109.0099     24.2722
  1272.8000      8.2364      2.3116     -0.0679     20.5102    109.1592     24.2335
  1272.9000      8.2364      2.3328      0.0276     19.2256    108.6741     24.3754
  1273.0000      8.2034      2.3506      0.0148     18.1474    106.5375     24.6599
  1273.1000      8.2034      2.3440      0.0321     18.5471    104.6851     24.6363
  1273.2000      8.2034      2.3263     -0.0448     19.6195    107.4503     24.3456
  1273.3000      8.2095      2.3397     -0.1193     18.8035    114.7172     24.2559
  1273.4000      8.2095      2.3981      0.0163     15.2651    117.7291     24.5489
  1273.5000      8.1760      2.4560      0.1660     11.7578    112.5542     24.9275
  1273.6000      8.1760      2.4798      0.0551     10.3163    106.6624     25.0424
  1273.7000      8.1760      2.4792      0.1386     10.3529    102.1340     24.7325
  1273.8000      8.1877      2.4610      0.1248     11.4537     94.5808     24.1322
  1273.9000      8.1877      2.4306      0.1550     13.2951     82.7473     23.7702
  1274.0000      8.1082      2.3973      0.1991     15.3149     73.8931     23.5601
  1274.1000      8.1082      2.3688      0.0725     17.0400     77.3263     22.9271
  1274.2000      8.1082      2.3578      0.0375     17.7082     89.4067     22.0310
  1274.3000      8.1230      2.3546      0.1201     17.9008     97.7560     21.4498
  1274.4000      8.1230      2.3448      0.0734     18.4948     91.9731     21.2269
  1274.5000      8.1860      2.3442      0.1295     18.5304     79.1151     21.1535
  1274.6000      8.1860      2.3590      0.1314     17.6355     74.9882     21.2459
  1274.7000      8.1860      2.3716      0.1668     16.8719     80.9825     21.5188
  1274.8000      8.1676      2.3868      0.0584     15.9494     88.8351     21.8684
  1274.9000      8.1676      2.4306      0.1304     13.2987     89.2061     22.1188
  1275.0000      8.1593      2.4927      0.2543      9.5330     80.3150     22.0622
  1275.1000      8.1593      2.5298      0.2959      7.2877     72.8463     21.9893
  1275.2000      8.1593      2.5134      0.2744      8.2806     71.1683     22.2530
  1275.3000      8.2036      2.4646      0.2186     11.2365     68.8548     22.4725
  1275.4000      8.2036      2.4307      0.1160     13.2935     65.5184     22.3438
  1275.5000      8.2217      2.4166      0.0806     14.1477     67.1873     22.2327
  1275.6000      8.2217      2.3898      0.1031     15.7713     74.6313     22.0235
  1275.7000      8.2217      2.3480      0.0381     18.3036     82.9898     21.1263
  1275.8000      8.2446      2.3279      0.0010     19.5234     87.3255     19.8900
  1275.9000      8.2446      2.3415      0.0346     18.6953     87.1717     19.1921
  1276.0000      8.2843      2.3581      0.0969     17.6936     90.5144     18.9613
  1276.1000      8.2843      2.3490      0.0951     18.2405     96.7462     18.3977
  1276.2000      8.2843      2.3212      0.0724     19.9268     96.1071     17.5704
  1276.3000      8.3141      2.2966      0.0874     21.4174     89.1693     17.3618
  1276.4000      8.3141      2.2666      0.1934     23.2337     85.6111     17.7070
  1276.5000      8.3956      2.2040      0.1354     27.0320     89.0181     17.7783
  1276.6000      8.3956      2.1142      0.0785     32.4702     93.5306     17.5820
  1276.7000      8.3956      2.0137      0.0873     38.5629     92.3031     17.6097
  1276.8000      8.3739      1.9000      0.0459     45.4529     87.5116     17.9791
  1276.9000      8.3739      1.7866     -0.0305     52.3282     87.8332     18.7144
  1277.0000      8.3115      1.7030     -0.0455     57.3946     95.8775     19.8390
  1277.1000      8.3115      1.6620     -0.0270     59.8760    106.9610     21.3132
  1277.2000      8.3115      1.6741     -0.1423     59.1436    112.7065     23.0506
  1277.3000      8.3754      1.7457     -0.0165     54.8057    107.8927     24.6746
  1277.4000      8.3754      1.8452      0.0798     48.7735     98.4135     25.7791
  1277.5000      8.3719      1.9421      0.0719     42.9032     95.0062     26.5084
  1277.6000      8.3719      2.0483      0.1770     36.4646     96.8868     27.1540
  1277.7000      8.3719      2.1797      0.1968     28.5056     98.8133     27.6257
  1277.8000      8.2582      2.3143      0.2599     20.3445    105.3981     27.9299
  1277.9000      8.2582      2.4069      0.2757     14.7320    116.0334     28.2657
  1278.0000      8.2313      2.4405      0.1424     12.6959    124.1006     28.7516
  1278.1000      8.2313      2.4398      0.1439     12.7413    124.6660     29.1535
  1278.2000      8.2313      2.4309      0.0320     13.2799    118.7289     29.2581
  1278.3000      8.1726      2.4124      0.1117     14.4021    110.2862     29.1833
  1278.4000      8.1726      2.3779     -0.0586     16.4920    102.4064     29.0466
  1278.5000      8.1510      2.3534     -0.0198     17.9775    100.5893     29.0791
  1278.6000      8.1510      2.3504      0.0735     18.1576    101.5587     29.3713
  1278.7000      8.1510      2.3502      0.0510     18.1721     94.9461     29.4235
  1278.8000      8.1377      2.3527      0.0093     18.0170     80.8697     29.1575
  1278.9000      8.1377      2.3719      0.0420     16.8574     65.6526     28.9925
  1279.0000      8.0606      2.4132     -0.0514     14.3544     57.8660     28.8243
  1279.1000      8.0606      2.4708      0.0382     10.8635     58.9119     28.2227
  1279.2000      8.0606      2.5281      0.0668      7.3851     59.3503     27.1750
  1279.3000      8.0318      2.5767      0.1329      4.4447     52.5481     26.4102
  1279.4000      8.0318      2.6083      0.1430      2.5262     42.1378     26.1349
  1279.5000      7.8905      2.6134      0.1540      2.2181     34.7858     25.7666
  1279.6000      7.8905      2.6159      0.0448      2.0668     32.8584     25.0482
  1279.7000      7.8905      2.6474      0.1630      0.1566     36.8317     24.1720
  1279.8000      7.8350      2.6904      0.2056     -2.4494     40.3909     23.5158
  1279.9000      7.8350      2.7103      0.1240     -3.6530     37.1780     23.1362
  1280.0000      7.8350      2.6963      0.1438     -2.8033     34.3489     22.6878
  1280.1000      7.8350      2.6594      0.0970     -0.5713     37.2570     22.0243
  1280.2000      7.8350      2.6295      0.0649      1.2439     40.3440     21.3036
  1280.3000      7.8527      2.6279      0.1024      1.3366     39.0659     20.8488
  1280.4000      7.8527      2.6345      0.1615      0.9388     35.3464     20.7384
  1280.5000      7.8674      2.6174      0.0678      1.9755     34.4269     20.7061
  1280.6000      7.8674      2.5825      0.0598      4.0917     37.9229     20.6549
  1280.7000      7.8674      2.5605      0.0525      5.4214     41.8087     20.5586
  1280.8000      7.8810      2.5678      0.0597      4.9831     43.1884     20.4326
  1280.9000      7.8810      2.5961      0.0515      3.2667     41.9627     20.3737
  1281.0000      7.8769      2.6257      0.0622      1.4748     38.5049     20.4231
  1281.1000      7.8769      2.6310      0.1332      1.1510     35.0252     20.4436
  1281.2000      7.8769      2.6063      0.0903      2.6494     33.7842     20.3532
  1281.3000      7.8719      2.5824      0.0015      4.0948     34.8736     20.3034
  1281.4000      7.8719      2.5736      0.0645      4.6283     37.9637     20.3548
  1281.5000      7.8906      2.5593      0.0220      5.4940     41.7399     20.5003
  1281.6000      7.8906      2.5381     -0.0174      6.7805     46.5512     20.8276
  1281.7000      7.8906      2.5278      0.0024      7.4078     50.5806     21.0030
  1281.8000      7.9006      2.5377      0.0088      6.8073     47.3199     20.4107
  1281.9000      7.9006      2.5545      0.0453      5.7859     39.5857     19.3828
  1282.0000      7.9044      2.5543      0.1191      5.8002     37.5194     19.1382
