~Version Information
VERS.                      2.0: CWLS Log ASCII Standard - VERSION 2.0
WRAP.                       NO: One line per depth step
~Well Information Block
STRT.FT               340.0000: 
STOP.FT              1731.0000: 
STEP.FT                 0.1000: 
NULL.                -999.2500: 
COMP.          Pioneer Natural Resources: COMPANY
WELL.          Rancher 12-35 Tr: WELL
FLD.           Purgatoire River: FIELD
LOC.           2242' FNL & 308' FWL SWNW 35 32S 67W: LOCATION
PROV.                 Colorado: PROVINCE
CNTY.               Las Animas: COUNTRY
SRVC.                Patterson: SERVICE COMPANY
DATE.          Tue Jul 05 07:18:22 2005: LOG DATE
UWI.              05 071 08430 00: UNIQUE WELL ID
~Curve Information Block
DEPT.FT            0 000 00 00: Depth
DCAL.in                       : CDL Caliper
RHOB.g/cc                     : CDL Bulk Density
RHOC.g/cc                     : CDL Density Correction
DPOR.pu                       : CDL Density Porosity
GR.GAPI                       : Gamma Ray
NPOR.pu                       : Neutron Porosity
~Parameter Information Block
~A  Depth       DCAL        RHOB        RHOC        DPOR         GR         NPOR    
# ...
  1434.4000      7.9692      2.4918      0.0419      9.5889    107.6535     21.3011
  1434.5000      7.9749      2.4806     -0.0176     10.2695    119.6045     22.6183
  1434.6000      7.9749      2.4735     -0.0010     10.6978    134.4247     23.6721
  1434.7000      7.9749      2.4709      0.0268     10.8525    144.6815     24.3282
  1434.8000      7.9887      2.4709      0.0136     10.8568    149.1909     24.9847
  1434.9000      7.9887      2.4785      0.0699     10.3931    153.5047     26.2736
  1435.0000      8.0100      2.4972      0.0562      9.2625    157.8792     27.4512
  1435.1000      8.0100      2.5197      0.0733      7.8953    158.9802     27.6889
  1435.2000      8.0100      2.5311      0.1025      7.2034    158.2952     27.4422
  1435.3000      8.0287      2.5326      0.0492      7.1167    160.1359     27.2367
  1435.4000      8.0287      2.5388      0.1144      6.7391    163.3053     27.2468
  1435.5000      7.9900      2.5406      0.1001      6.6301    162.3401     27.6548
  1435.6000      7.9900      2.5276      0.0773      7.4185    157.0254     28.1233
  1435.7000      7.9900      2.5140      0.0738      8.2435    151.3705     27.9286
  1435.8000      7.9856      2.5101      0.0558      8.4787    144.4507     27.3352
  1435.9000      7.9856      2.5113      0.0670      8.4035    135.6876     26.9651
  1436.0000      7.9872      2.5179      0.0407      8.0039    129.4004     26.6259
  1436.1000      7.9872      2.5399      0.0122      6.6729    129.6645     25.6824
  1436.2000      7.9872      2.5728      0.0911      4.6766    133.7295     24.4214
  1436.3000      7.9833      2.5950      0.1095      3.3325    134.8797     23.6434
  1436.4000      7.9833      2.5979      0.1050      3.1572    133.3180     23.7433
  1436.5000      7.9687      2.5861      0.1148      3.8706    133.1293     24.6402
  1436.6000      7.9687      2.5593      0.1064      5.4978    137.2667     25.6426
  1436.7000      7.9687      2.5176      0.0907      8.0217    145.7681     26.3212
  1436.8000      7.9683      2.4747      0.0261     10.6228    153.4009     26.8254
  1436.9000      7.9683      2.4559     -0.0258     11.7647    155.2259     27.4100
  1437.0000      8.0102      2.4756     -0.0009     10.5700    153.0272     28.1019
  1437.1000      8.0102      2.5059      0.1154      8.7334    155.0370     28.2553
  1437.2000      8.0102      2.5038      0.0710      8.8620    163.2101     27.1280
  1437.3000      7.9763      2.4728      0.0592     10.7390    168.4967     25.3980
  1437.4000      7.9763      2.4503      0.0358     12.1034    167.2176     24.7297
  1437.5000      8.0048      2.4569      0.0408     11.7016    163.7301     25.4388
  1437.6000      8.0048      2.4832      0.0482     10.1111    162.6520     26.6183
  1437.7000      8.0048      2.5114      0.1091      8.3985    166.5270     27.4202
  1437.8000      8.0053      2.5296      0.1044      7.2953    170.8145     27.5906
  1437.9000      8.0053      2.5315      0.1309      7.1822    172.6249     27.7852
  1438.0000      8.0741      2.5226      0.1027      7.7192    175.1166     28.7543
  1438.1000      8.0741      2.5173      0.1219      8.0439    175.5810     29.8345
  1438.2000      8.0741      2.5138      0.1289      8.2545    170.8693     29.8038
  1438.3000      8.0384      2.5021      0.1180      8.9647    166.3056     28.7947
  1438.4000      8.0384      2.4919      0.0916      9.5825    165.9150     27.7746
  1438.5000      7.9279      2.4933      0.1324      9.4958    166.7525     27.1288
  1438.6000      7.9279      2.4887      0.1656      9.7759    165.0094     26.8270
  1438.7000      7.9279      2.4663      0.1525     11.1337    160.2742     26.8247
  1438.8000      7.8922      2.4507      0.1285     12.0796    157.3211     27.1144
  1438.9000      7.8922      2.4631      0.1414     11.3277    161.0050     27.0110
  1439.0000      7.9184      2.4886      0.1806      9.7842    170.1184     26.2323
  1439.1000      7.9184      2.5063      0.1828      8.7083    180.0542     25.7543
  1439.2000      7.9184      2.5172      0.1737      8.0512    185.2859     25.9033
  1439.3000      7.9309      2.5325      0.1608      7.1225    181.0886     26.2098
  1439.4000      7.9309      2.5550      0.2090      5.7600    171.0998     26.5959
  1439.5000      8.0337      2.5707      0.2492      4.8054    165.6943     27.0452
  1439.6000      8.0337      2.5688      0.2229      4.9232    170.4829     27.3358
  1439.7000      8.0337      2.5617      0.0979      5.3498    180.7585     27.4862
  1439.8000      8.2205      2.5644      0.0966      5.1862    187.7577     27.8103
  1439.9000      8.2205      2.5678      0.0788      4.9794    189.3056     27.8998
  1440.0000      8.2370      2.5660      0.0862      5.0888    184.9044     27.3172
  1440.1000      8.2370      2.5664      0.1338      5.0692    175.2292     26.9027
  1440.2000      8.2370      2.5664      0.0960      5.0678    166.4051     27.3812
  1440.3000      8.1487      2.5628      0.0642      5.2826    162.2618     28.2025
  1440.4000      8.1487      2.5604      0.0293      5.4310    162.7571     28.6074
  1440.5000      8.1310      2.5611      0.0348      5.3903    164.6464     28.3541
  1440.6000      8.1310      2.5608      0.0198      5.4078    162.3945     27.5012
  1440.7000      8.1310      2.5507      0.0537      6.0192    155.2428     26.6034
  1440.8000      8.1214      2.5318      0.0245      7.1619    148.7662     25.8282
  1440.9000      8.1214      2.5139      0.0393      8.2476    144.8847     25.2064
  1441.0000      8.0579      2.4918      0.0114      9.5868    143.8308     25.2327
  1441.1000      8.0579      2.4547      0.0036     11.8372    151.0719     26.0278
  1441.2000      8.0579      2.4105     -0.0266     14.5172    165.1682     26.6155
  1441.3000      8.0070      2.3781     -0.0098     16.4808    173.6078     26.1070
  1441.4000      8.0070      2.3660     -0.0198     17.2122    168.3055     25.0810
  1441.5000      7.9706      2.3734     -0.0150     16.7658    157.5913     24.6016
  1441.6000      7.9706      2.3961      0.0457     15.3850    154.5711     25.2462
  1441.7000      7.9706      2.4249      0.1002     13.6429    158.6698     26.1917
  1441.8000      7.9987      2.4437      0.1013     12.5013    162.4148     26.1770
  1441.9000      7.9987      2.4471      0.0551     12.2956    162.7853     25.5879
  1442.0000      8.1260      2.4489      0.0910     12.1907    157.4123     25.2609
  1442.1000      8.1260      2.4555      0.0811     11.7867    146.7627     25.4215
  1442.2000      8.1260      2.4619      0.0420     11.3991    136.9742     25.7166
  1442.3000      8.0940      2.4678      0.0859     11.0396    131.4526     25.5141
  1442.4000      8.0940      2.4741      0.0393     10.6601    130.6139     24.9286
  1442.5000      7.9931      2.4864      0.0449      9.9178    131.6857     24.5674
  1442.6000      7.9931      2.5121      0.0254      8.3564    127.6740     24.2739
  1442.7000      7.9931      2.5457      0.0491      6.3184    118.9394     23.4744
  1442.8000      7.9412      2.5636      0.0648      5.2364    113.4790     22.7470
  1442.9000      7.9412      2.5508      0.0471      6.0103    114.4416     23.1100
  1443.0000      7.9820      2.5241      0.0338      7.6332    118.2407     24.2141
  1443.1000      7.9820      2.5094      0.0138      8.5210    120.9308     24.8246
  1443.2000      7.9820      2.5101      0.0493      8.4815    122.4933     24.6469
  1443.3000      7.9728      2.5123      0.0261      8.3481    121.7232     24.5260
  1443.4000      7.9728      2.5094      0.0307      8.5200    117.7665     24.7935
  1443.5000      7.9691      2.5063      0.0567      8.7081    116.6638     25.0350
  1443.6000      7.9691      2.5130      0.0191      8.3018    121.4265     25.1238
  1443.7000      7.9691      2.5311      0.0304      7.2052    129.8723     25.3276
  1443.8000      7.9546      2.5543      0.0448      5.8028    139.3551     25.6264
  1443.9000      7.9546      2.5831      0.0518      4.0516    148.2206     26.0917
