~Version Information
VERS.                      2.0: CWLS Log ASCII Standard - VERSION 2.0
WRAP.                       NO: One line per depth step
~Well Information Block
STRT.FT               425.0000: 
STOP.FT              2461.0000: 
STEP.FT                 0.1000: 
NULL.                -999.2500: 
COMP.          Evergreen Operating Corporation: COMPANY
WELL.              Nomad 32-10: WELL
FLD.           Purgatorie River: FIELD
LOC.           2281' FNL & 1585' FEL: LOCATION
PROV.                 Colorado: PROVINCE
CNTY.               Las Animas: COUNTRY
SRVC.                Patterson: SERVICE COMPANY
DATE.          Thu Aug 12 11:13:52 2004: LOG DATE
UWI.           05 071 08127 00: UNIQUE WELL ID
~Curve Information Block
DEPT.FT            0 000 00 00: Depth
DCAL.in                       : CDL Caliper
RHOB.g/cc                     : CDL Bulk Density
RHOC.g/cc                     : CDL Density Correction
DPOR.pu                       : CDL Density Porosity
NPOR.pu                       : Neutron Porosity
GR.GAPI                       : Gamma Ray
~Parameter Information Block
~A  Depth       DCAL        RHOB        RHOC        DPOR        NPOR         GR     
# ...
  2153.0000      8.0514      2.5310      0.0456      7.2125     18.6690     83.9107
  2153.1000      8.0514      2.5385      0.0671      6.7567     18.5145     82.8914
  2153.2000      8.0514      2.5405      0.0615      6.6364     18.3099     83.6416
  2153.3000      8.0508      2.5436      0.0760      6.4466     17.9550     81.2919
  2153.4000      8.0508      2.5433      0.0808      6.4645     17.9888     79.8960
  2153.5000      8.0497      2.5227      0.0230      7.7174     18.3845     82.0260
  2153.6000      8.0497      2.4888     -0.0015      9.7698     18.4831     83.8102
  2153.7000      8.0497      2.4667      0.0283     11.1083     18.2099     86.4488
  2153.8000      8.0433      2.4677     -0.0317     11.0492     18.1836     90.2930
  2153.9000      8.0433      2.4925     -0.0064      9.5459     18.6212     91.7072
  2154.0000      8.0565      2.5285      0.0442      7.3632     18.9025     90.3156
  2154.1000      8.0565      2.5532      0.0658      5.8687     18.6697     88.1532
  2154.2000      8.0565      2.5556      0.0721      5.7204     18.4437     87.6559
  2154.3000      8.0513      2.5404      0.0447      6.6404     18.6450     85.8309
  2154.4000      8.0513      2.5217     -0.0003      7.7756     18.9184     80.6656
  2154.5000      8.0320      2.5140      0.0463      8.2436     18.8749     74.2203
  2154.6000      8.0320      2.5219      0.0501      7.7631     18.8093     67.0074
  2154.7000      8.0320      2.5394      0.0575      6.7033     19.1644     63.0141
  2154.8000      8.0302      2.5502      0.0850      6.0460     19.5655     64.7817
  2154.9000      8.0302      2.5449      0.0245      6.3709     19.4586     70.7432
  2155.0000      8.0290      2.5315      0.0438      7.1795     19.3647     81.5751
  2155.1000      8.0290      2.5216      0.0024      7.7844     19.4811     91.3590
  2155.2000      8.0290      2.5236      0.0259      7.6578     19.2229     92.3174
  2155.3000      8.0332      2.5342      0.0609      7.0171     18.5484     89.4320
  2155.4000      8.0332      2.5391      0.0663      6.7229     17.7564     88.5076
  2155.5000      8.0324      2.5365      0.0231      6.8803     17.3867     86.7013
  2155.6000      8.0324      2.5307      0.0868      7.2314     17.9594     84.2794
  2155.7000      8.0324      2.5213      0.0607      7.7992     18.9041     85.0359
  2155.8000      8.0331      2.5167      0.0554      8.0801     19.1751     84.9448
  2155.9000      8.0331      2.5234      0.0919      7.6755     18.7893     77.5219
  2156.0000      8.0209      2.5380      0.0758      6.7891     18.5284     67.2359
  2156.1000      8.0209      2.5541      0.0767      5.8128     18.7202     63.8160
  2156.2000      8.0209      2.5607      0.0962      5.4121     18.9568     68.9960
  2156.3000      8.0229      2.5569      0.0666      5.6445     18.5943     76.1070
  2156.4000      8.0229      2.5568      0.0505      5.6492     17.9194     80.8001
  2156.5000      8.0237      2.5688      0.0558      4.9193     17.8218     83.8022
  2156.6000      8.0237      2.5872      0.0710      3.8066     18.4426     84.5688
  2156.7000      8.0237      2.5998      0.0924      3.0424     19.1448     83.1719
  2156.8000      8.0269      2.6018      0.0809      2.9223     19.4517     82.0684
  2156.9000      8.0269      2.6023      0.0843      2.8939     19.4191     80.7743
  2157.0000      8.0253      2.6048      0.0997      2.7379     18.9971     78.3994
  2157.1000      8.0253      2.5945      0.0988      3.3641     18.1879     78.0801
  2157.2000      8.0253      2.5654      0.0310      5.1281     17.2006     82.8309
  2157.3000      7.9972      2.5353      0.0586      6.9488     16.2023     87.6435
  2157.4000      7.9972      2.5187      0.0443      7.9547     15.7978     85.4773
  2157.5000      8.0466      2.5190      0.0136      7.9397     16.2604     81.5984
  2157.6000      8.0466      2.5341      0.0441      7.0242     16.7618     82.6906
  2157.7000      8.0466      2.5542      0.0603      5.8034     16.9481     84.2474
  2157.8000      8.0592      2.5707      0.0466      4.8061     17.3994     82.2790
  2157.9000      8.0592      2.5798      0.0553      4.2542     18.0044     77.0649
  2158.0000      8.0658      2.5825      0.0544      4.0907     17.8650     70.7758
  2158.1000      8.0658      2.5867      0.0544      3.8373     17.1695     68.7055
  2158.2000      8.0658      2.5908      0.0946      3.5853     17.0264     70.7298
  2158.3000      8.0751      2.5838      0.1012      4.0112     17.3290     72.0080
  2158.4000      8.0751      2.5722      0.0398      4.7162     17.0762     73.4315
  2158.5000      8.0691      2.5708      0.0834      4.8016     16.3767     75.4349
  2158.6000      8.0691      2.5731      0.0680      4.6581     16.0983     74.9365
  2158.7000      8.0691      2.5680      0.0660      4.9712     16.5687     75.3715
  2158.8000      8.0554      2.5620      0.0233      5.3330     17.4588     78.3816
  2158.9000      8.0554      2.5639      0.0715      5.2194     18.1918     80.6684
  2159.0000      8.0458      2.5635      0.0740      5.2402     18.3865     84.3510
  2159.1000      8.0458      2.5535      0.0187      5.8481     18.1480     87.9222
  2159.2000      8.0458      2.5478      0.0024      6.1966     17.6724     85.2408
  2159.3000      8.0204      2.5474      0.0617      6.2187     16.8567     81.3148
  2159.4000      8.0204      2.5373      0.0372      6.8302     16.2891     80.1883
  2159.5000      8.0074      2.5279      0.0151      7.4021     16.8365     76.1393
  2159.6000      8.0074      2.5326      0.0647      7.1139     17.9805     70.3853
  2159.7000      8.0074      2.5391      0.0505      6.7227     18.4300     68.7152
  2159.8000      7.9549      2.5426      0.0375      6.5086     18.1898     68.7056
  2159.9000      7.9549      2.5544      0.0691      5.7913     17.9452     67.6455
  2160.0000      7.9920      2.5745      0.0691      4.5762     17.7822     67.7790
  2160.1000      7.9920      2.5911      0.0832      3.5716     17.6953     69.8312
  2160.2000      7.9920      2.5890      0.1092      3.6983     17.3391     71.6698
  2160.3000      7.9971      2.5670      0.0473      5.0320     16.6519     71.6771
  2160.4000      7.9971      2.5479      0.0450      6.1864     16.5847     68.9602
  2160.5000      7.9963      2.5423      0.0414      6.5293     17.2850     63.8861
  2160.6000      7.9963      2.5353      0.0609      6.9525     17.7446     61.1887
  2160.7000      7.9963      2.5170      0.0858      8.0588     17.6927     63.9296
  2160.8000      7.9967      2.4981      0.0318      9.2060     17.5931     66.8775
  2160.9000      7.9967      2.4985      0.0338      9.1805     17.5963     68.0976
  2161.0000      7.9858      2.5202      0.0645      7.8693     17.6197     71.8545
  2161.1000      7.9858      2.5481      0.0912      6.1779     17.5015     77.0439
  2161.2000      7.9858      2.5692      0.1189      4.8983     17.3481     78.4479
  2161.3000      7.9760      2.5763      0.1371      4.4660     17.4907     74.3763
  2161.4000      7.9760      2.5697      0.1129      4.8689     17.8478     70.5044
  2161.5000      8.0094      2.5568      0.1107      5.6501     17.8542     71.1371
  2161.6000      8.0094      2.5454      0.0833      6.3408     17.4617     73.2226
  2161.7000      8.0094      2.5412      0.0431      6.5961     17.3075     73.8201
  2161.8000      8.0241      2.5465      0.0726      6.2729     17.5913     73.3392
  2161.9000      8.0241      2.5615      0.0525      5.3627     17.9405     73.4750
  2162.0000      8.0267      2.5821      0.0698      4.1145     18.1328     74.7039
  2162.1000      8.0267      2.5931      0.0885      3.4493     18.1911     72.0035
  2162.2000      8.0267      2.5852      0.0478      3.9255     18.2327     62.8795
  2162.3000      8.0495      2.5662      0.0529      5.0778     18.2541     55.0162
  2162.4000      8.0495      2.5497      0.0251      6.0809     18.0718     55.8700
  2162.5000      8.0553      2.5444      0.0493      6.3990     17.7845     63.6668
