~Version Information
VERS.                      2.0: CWLS Log ASCII Standard - VERSION 2.0
WRAP.                       NO: One line per depth step
~Well Information Block
STRT.FT                -7.5000: 
STOP.FT              1129.7500: 
STEP.FT                 0.2500: 
NULL.                -999.2500: 
COMP.          Pioneer Natural Resources: COMPANY
WELL.          Drewmeister 34-34: WELL
FLD.           Purgatorie River: FIELD
LOC.           958' FSL & 1857' FEL: LOCATION
STAT.                       CO: State
CNTY.               Las Animas: COUNTRY
CTRY. USA : Country
SECT. 34 : Section
TOWN. 32S : Township
RANG. 65W : Range
SRVC.          Patterson Wireline: SERVICE COMPANY
DATE.          Fri Oct 14 14:02:00 2005: LOG DATE
API.           05 071 08131 00: UNIQUE WELL ID
~Curve Information Block
DEPT.FT            0 000 00 00: Depth
CCL.                          : Casing Collar Locator
TT3.usec                      : CBL 3' Travel Time
AMP3.mV                       : CBL 3' Amplitude
GR.GAPI                       : Gamma Ray
~Parameter Information Block
~A  Depth       CCL         TT3         AMP3         GR     
# ...
   495.0000      0.0000    784.8973      4.1861     83.5305
   495.2500      0.0000    784.5895      4.0339     83.5174
   495.5000      0.0000    784.4857      3.9486     83.8849
   495.7500      0.0000    784.6282      3.9054     84.9659
   496.0000      0.0000    784.9908      3.8935     86.4706
   496.2500      0.0000    785.4539      3.9202     87.8416
   496.5000      0.0000    785.8891      3.9889     88.6781
   496.7500      0.0000    786.2923      4.0791     88.9812
   497.0000      0.0000    786.8528      4.1536     89.2319
   497.2500      0.0000    787.9005      4.1777     90.0314
   497.5000      0.0000    789.6777      4.1285     91.3355
   497.7500      0.0000    791.8505      3.9996     92.1721
   498.0000      0.0000    793.1370      3.8102     91.4269
   498.2500      0.0000    792.0302      3.6051     88.8299
   498.5000      0.0000    788.6214      3.4314     85.1244
   498.7500      0.0000    785.3579      3.3058     81.5731
   499.0000      0.0000    784.9638      3.2003     79.3773
   499.2500      0.0000    787.6276      3.0651     79.1187
   499.5000      0.0000    791.0957      2.8768     80.3777
   499.7500      0.0000    793.3715      2.6720     82.0259
   500.0000      0.0000    794.1923      2.5283     83.1352
   500.2500      0.0000    793.9578      2.4979     83.6203
   500.5000      0.0000    792.7012      2.5524     83.9473
   500.7500      0.0000    790.5505      2.5991     84.2666
   501.0000      0.0000    788.1274      2.5551     83.9698
   501.2500      0.0000    785.9350      2.4068     82.2795
   501.5000      0.0000    783.6849      2.2067     79.4226
   501.7500      0.0000    780.4369      2.0266     77.1738
   502.0000      0.0000    775.4974      1.9199     77.9220
   502.2500      0.0000    769.5906      1.9167     82.7917
   502.5000      0.0000    765.1313      2.0335     90.5575
   502.7500      0.0000    764.4460      2.2730     98.5784
   503.0000      0.0000    767.1022      2.6049    104.8762
   503.2500      0.0000    769.7562      2.9560    109.1246
   503.5000      0.0000    769.5823      3.2287    111.6871
   503.7500      0.0000    767.2819      3.3447    112.4757
   504.0000      0.0000    765.6863      3.2825    111.2690
   504.2500      0.0000    766.0053      3.0872    108.3722
   504.5000      0.0000    766.6845      2.8467    104.1366
   504.7500      0.0000    765.6919      2.6496     98.4876
   505.0000      0.0000    762.8175      2.5477     91.8848
   505.2500      0.0000    759.6470      2.5393     86.4059
   505.5000      0.0000    757.8573      2.5777     85.0172
   505.7500      0.0000    757.7814      2.6065     89.4071
   506.0000      0.0000    758.4116      2.6025     98.4690
   506.2500      0.0000    758.3954      2.5829    108.8539
   506.5000      0.0000    756.8310      2.5703    117.1651
   506.7500      0.0000    753.5838      2.5651    122.0833
   507.0000      0.0000    749.4791      2.5555    124.8155
   507.2500      0.0000    746.2379      2.5379    127.6134
   507.5000      0.0000    745.8004      2.5162    131.6960
   507.7500      0.0000    749.2510      2.4948    136.3041
   508.0000      0.0000    755.9604      2.4810    139.5202
   508.2500      0.0000    763.4720      2.4796    140.1320
   508.5000      0.0000    768.4965      2.4752    138.8627
   508.7500      0.0000    768.6819      2.4339    137.6510
   509.0000      0.0000    763.9761      2.3328    137.7372
   509.2500      0.0000    756.5522      2.1790    138.6478
   509.5000      0.0000    749.3144      1.9945    138.7843
   509.7500      0.0000    744.1743      1.7985    136.7183
   510.0000      0.0000    741.4039      1.6096    132.2514
   510.2500      0.0000    740.2245      1.4517    126.6221
   510.5000      0.0000    739.7026      1.3479    121.4757
   510.7500      0.0000    739.0806      1.3114    117.4817
   511.0000      0.0000    737.5063      1.3394    114.2594
   511.2500      0.0000    733.6336      1.4076    111.4816
   511.5000      0.0000    725.8372      1.4785    109.4506
   511.7500      0.0000    713.6233      1.5251    108.5947
   512.0000      0.0000    699.0117      1.5487    108.7645
   512.2500      0.0000    685.6030      1.5732    109.1258
   512.5000      0.0000    675.9678      1.6254    108.7880
   512.7500      0.0000    671.1102      1.7218    107.6287
   513.0000      0.0000    671.9662      1.8620    106.3132
   513.2500      0.0000    679.0090      2.0246    105.4227
   513.5000      0.0000    690.3035      2.1657    105.0521
   513.7500      0.0000    702.4126      2.2422    105.4087
   514.0000      0.0000    713.9011      2.2670    106.9652
   514.2500      0.0000    726.4633      2.3307    109.5751
   514.5000      0.0000    741.1354      2.5368    112.1159
   514.7500      0.0000    755.2761      2.9128    113.5626
   515.0000      2.0000    767.5335      3.3976    114.0133
   515.2500      0.0000    784.3334      3.9030    114.2151
   515.5000      0.0000    812.5540      4.3672    114.3752
   515.7500      0.0000    843.7687      4.7446    113.7731
   516.0000      0.0000    855.2524      4.9514    111.3424
   516.2500      0.0000    831.5466      4.8632    106.6989
   516.5000      0.0000    778.9928      4.4269    100.9849
   516.7500      0.0000    716.2882      3.7750     96.4261
   517.0000      0.0000    657.4964      3.1546     94.4368
   517.2500      0.0000    607.8490      2.7207     94.3796
   517.5000      0.0000    569.3676      2.4556     94.7054
   517.7500      0.0000    544.1799      2.2796     95.0098
   518.0000      0.0000    534.1269      2.1605     96.3652
   518.2500      0.0000    540.7664      2.0942     99.6134
   518.5000      0.0000    564.9116      2.0466    103.9362
   518.7500      0.0000    603.7916      1.9720    107.6731
   519.0000      0.0000    648.8062      1.8753    110.2980
   519.2500      0.0000    688.5414      1.8142    112.7867
   519.5000      0.0000    714.9767      1.8292    116.1084
   519.7500      0.0000    726.2817      1.8939    120.1105
   520.0000      0.0000    724.2119      1.9415    123.9042
   520.2500      0.0000    710.8403      1.9236    126.5403
   520.5000      0.0000    689.0934      1.8397    127.0699
   520.7500      0.0000    665.7620      1.7289    124.6618
   521.0000      0.0000    651.4641      1.6427    119.4644
   521.2500      0.0000    654.4588      1.6165    113.4683
   521.5000      0.0000    673.5657      1.6620    109.7810
   521.7500      0.0000    698.8400      1.7800    110.0708
   522.0000      0.0000    719.8694      1.9552    112.6388
   522.2500      0.0000    732.2990      2.1361    113.6406
   522.5000      0.0000    737.1423      2.2489    110.2327
   522.7500      0.0000    736.5646      2.2592    102.1750
   523.0000      0.0000    731.7034      2.2093     91.0501
   523.2500      0.0000    723.8363      2.1846     79.1281
   523.5000      0.0000    716.2968      2.2479     68.9394
   523.7500      0.0000    713.5902      2.4047     62.7513
   524.0000      0.0000    717.4727      2.6174     61.7114
   524.2500      0.0000    724.4048      2.8405     65.4127
   524.5000      0.0000    728.1143      3.0403     72.2601
   524.7500      0.0000    725.0920      3.1868     80.1319
   525.0000      0.0000    717.8014      3.2410     86.8901
   525.2500      0.0000    712.6865      3.1704     90.9268
   525.5000      0.0000    714.6141      2.9876     91.9655
   525.7500      0.0000    723.0258      2.7677     91.3415
   526.0000      0.0000    733.3453      2.6101     90.9676
   526.2500      0.0000    741.1459      2.5761     91.9499
   526.5000      0.0000    744.5552      2.6613     94.3346
   526.7500      0.0000    744.0735      2.8182     97.6912
   527.0000      0.0000    741.4777      2.9958    101.2330
   527.2500      0.0000    738.5352      3.1663    103.5772
   527.5000      0.0000    736.2267      3.3325    103.4009
   527.7500      0.0000    735.2722      3.5188    100.8605
   528.0000      0.0000    736.7430      3.7528     97.8525
   528.2500      0.0000    740.8193      4.0486     96.3522
