~Version Information
VERS.                      2.0: CWLS Log ASCII Standard - VERSION 2.0
WRAP.                       NO: One line per depth step
~Well Information Block
STRT.FT               553.0000: 
STOP.FT              1576.5000: 
STEP.FT                 0.2500: 
NULL.                -999.2500: 
COMP.          Pioneer Natural Resources: COMPANY
WELL.           Telna 24-22 Tr: WELL
FLD.           Purgatoire River: FIELD
LOC.           748' FSL & 1931' FWL: LOCATION
PROV.                 Colorado: PROVINCE
CNTY.               Las Animas: COUNTRY
SRVC.                Patterson: SERVICE COMPANY
DATE.          Mon May 02 07:15:29 2005: LOG DATE
UWI.           05 071 08304 00: UNIQUE WELL ID
~Curve Information Block
DEPT.FT            0 000 00 00: Depth
DCAL.in                       : CDL Caliper
RHOB.g/cc                     : CDL Bulk Density
RHOC.g/cc                     : CDL Density Correction
DPOR.pu                       : CDL Density Porosity
GR.GAPI                       : Gamma Ray
NPOR.pu                       : Neutron Porosity
~Parameter Information Block
~A  Depth       DCAL        RHOB        RHOC        DPOR         GR         NPOR    
   553.0000      6.7679      2.5566      0.2309      5.6618    110.6031     30.1830
   553.2500      8.0511      2.5120      0.2834      8.3649     91.3662     26.1596
   553.5000      8.3447      2.4505      0.3517     12.0935    107.9111     22.7163
   553.7500      8.3212      2.4047      0.3172     14.8682    102.1730     23.1906
   554.0000      8.2290      2.3556      0.2171     17.8413    106.0397     25.3620
   554.2500      8.1603      2.3469      0.2000     18.3715    112.2913     25.8870
   554.5000      8.1286      2.3284      0.1917     19.4905    104.0850     27.3390
   554.7500      8.1300      2.2713      0.2070     22.9496    104.8595     27.8799
   555.0000      8.1576      2.1786      0.1641     28.5690     99.9283     26.4015
   555.2500      8.2213      2.1878      0.1863     28.0113     94.8771     26.0546
   555.5000      8.3991      2.4306      0.5219     13.2957     99.7737     24.7702
   555.7500      8.7265      2.5956      0.6872      3.2941     91.3242     21.8096
   556.0000      9.1158      2.5910      0.4842      3.5762     85.9017     18.1664
   556.2500      9.4913      2.6154      0.4617      2.0992     87.4685     18.3461
   556.5000      9.8187      2.6359      0.3684      0.8525     93.6560     17.1513
   556.7500     10.0515      2.6852      0.4096     -2.1305    109.7612     16.4956
   557.0000     10.1856      2.6473      0.2297      0.1629    128.4037     17.1291
   557.2500     10.2388      2.6499      0.2619      0.0050    145.5216     19.8567
   557.5000     10.2495      2.6219      0.1649      1.7004    145.3306     21.3116
   557.7500     10.2498      2.6216      0.1792      1.7239    137.4131     21.1568
   558.0000     10.2471      2.5351      0.0853      6.9632    121.7098     24.0383
   558.2500     10.2446      2.5133      0.0494      8.2869    117.4085     23.0237
   558.5000     10.2471      2.5559      0.0750      5.7006    115.3706     22.7830
   558.7500     10.2498      2.5986      0.1850      3.1150    116.4985     23.5798
   559.0000     10.2505      2.5576      0.1032      5.6022    105.8552     23.9591
   559.2500     10.2505      2.5448      0.1220      6.3763    110.9942     21.9738
   559.5000     10.2505      2.5458      0.1217      6.3153    123.6341     23.7391
   559.7500     10.2509      2.5918      0.1230      3.5263    128.0220     24.3285
   560.0000     10.2514      2.6859      0.2017     -2.1757    126.7040     23.8015
   560.2500     10.2513      2.6808      0.1574     -1.8659    125.3206     22.6582
   560.5000     10.2504      2.6604      0.1805     -0.6273    117.6218     21.3252
   560.7500     10.2488      2.5933      0.0795      3.4364    130.1572     21.3950
   561.0000     10.2474      2.5182      0.0500      7.9885    154.3852     20.6581
   561.2500     10.2470      2.4848      0.0684     10.0119    158.6345     20.8254
   561.5000     10.2478      2.4553      0.0310     11.7992    159.5936     20.8761
   561.7500     10.2492      2.4884      0.0767      9.7954    152.7128     21.9694
   562.0000     10.2517      2.4911      0.0370      9.6326    155.6471     21.6841
   562.2500     10.2539      2.4987      0.1103      9.1716    151.0981     23.3626
   562.5000     10.2517      2.4342      0.0827     13.0816    157.2091     25.8536
   562.7500     10.2488      2.4414      0.0191     12.6426    151.1119     26.2108
   563.0000     10.2474      2.5707      0.1835      4.8050    132.2540     22.0381
   563.2500     10.2447      2.6084      0.2113      2.5209    125.3491     20.9153
   563.5000     10.2139      2.4077      0.0776     14.6835    129.5244     19.6032
   563.7500     10.0676      1.8731     -0.1249     47.0851    122.2624     18.4069
   564.0000      9.7829      1.3408     -0.1723     79.3446    124.3221     17.4991
   564.2500      9.4803      1.5363     -0.0865     67.4943    131.8301     18.2780
   564.5000      9.1791      2.4588      0.8135     11.5901    121.6185     19.3908
   564.7500      8.8460      2.6471      0.7862      0.1755    117.1786     19.5386
   565.0000      8.4638      2.5128      0.5291      8.3139    133.8983     20.8830
   565.2500      8.1146      2.0693     -0.0044     35.1932    137.6436     22.0785
   565.5000      7.9741      1.7320     -0.1284     55.6388    137.6527     24.3190
   565.7500      7.9908      1.7775     -0.0231     52.8803    127.9523     25.9140
   566.0000      8.0035      2.2012      0.3810     27.2017    137.0494     29.7945
   566.2500      7.9698      2.4654      0.3966     11.1869    134.7208     30.7014
   566.5000      7.9191      2.5137      0.1668      8.2584    145.1238     32.2008
   566.7500      7.8887      2.5078      0.1136      8.6212    151.8852     31.3978
   567.0000      7.8955      2.5176      0.0958      8.0240    164.5829     30.7617
   567.2500      7.9170      2.5535      0.1072      5.8505    176.0321     29.3253
   567.5000      7.9279      2.5715      0.1901      4.7592    163.5286     29.5441
   567.7500      7.9299      2.4653      0.0341     11.1938    171.8764     29.3642
   568.0000      7.9299      2.4410      0.0289     12.6645    184.2244     28.0197
   568.2500      7.9296      2.4172      0.0580     14.1084    180.4669     28.1120
   568.5000      7.9300      2.4410      0.1259     12.6652    174.3257     29.3796
   568.7500      7.9305      2.4848      0.1195     10.0135    173.2756     30.2463
   569.0000      7.9303      2.5555      0.1953      5.7287    161.7502     32.8240
   569.2500      7.9299      2.5434      0.1300      6.4585    167.6754     32.1830
   569.5000      7.9297      2.4555      0.0734     11.7883    143.2765     32.8506
   569.7500      7.9296      2.4174      0.0707     14.0941    132.9359     33.0101
   570.0000      7.9299      2.4250      0.0607     13.6387    130.7966     32.1978
   570.2500      7.9302      2.5662      0.1272      5.0793    138.9501     31.6239
   570.5000      7.9294      2.7751      0.4066     -7.5817    148.1117     30.8489
   570.7500      7.9291      2.6938      0.2665     -2.6548    142.1780     30.8778
   571.0000      7.9299      2.5663      0.0409      5.0701    144.2419     30.0715
   571.2500      7.9300      2.5031     -0.0034      8.9042    151.4053     30.5366
   571.5000      7.9299      2.5265      0.0633      7.4829    153.0808     30.1465
   571.7500      7.9304      2.6038      0.2300      2.7999    147.1092     31.0004
   572.0000      7.9308      2.6083      0.1807      2.5270    143.1514     28.2050
   572.2500      7.9308      2.5499      0.1280      6.0661    145.2642     28.6554
   572.5000      7.9307      2.4818      0.0780     10.1930    150.9829     29.5980
   572.7500      7.9305      2.5081      0.0763      8.5974    157.1234     28.9497
   573.0000      7.9301      2.5037      0.1213      8.8661    158.9071     25.0705
   573.2500      7.9293      2.4689      0.0967     10.9732    164.5474     22.8963
   573.5000      7.9261      2.2607     -0.0209     23.5951    146.2082     21.6543
   573.7500      7.9233      2.0047     -0.0566     39.1101    145.2099     21.1208
   574.0000      7.9275      1.7550     -0.1462     54.2424    146.9777     22.3603
   574.2500      7.9333      1.8014     -0.0414     51.4330    138.5593     22.8979
   574.5000      7.9353      2.0944      0.2351     33.6736    151.1392     24.6079
   574.7500      7.9347      2.2779      0.2639     22.5512    157.6911     25.3275
   575.0000      7.9328      2.4301      0.1805     13.3247    163.5896     25.2016
   575.2500      7.9313      2.4553      0.1626     11.7978    153.6276     26.6496
   575.5000      7.9308      2.4317      0.1139     13.2283    149.4344     25.9115
   575.7500      7.9300      2.3862      0.0825     15.9856    157.8581     26.5213
   576.0000      7.9262      2.3185      0.0607     20.0901    173.1524     25.8315
   576.2500      7.9203      2.3127      0.0124     20.4428    165.3681     27.3808
   576.5000      7.9166      2.3846      0.0662     16.0878    153.9843     30.8725
   576.7500      7.9152      2.3900      0.0873     15.7584    173.3364     31.1494
