~Version Information
VERS.                      2.0: CWLS Log ASCII Standard - VERSION 2.0
WRAP.                       NO: One line per depth step
~Well Information Block
STRT.FT               450.0000: 
STOP.FT              2753.5000: 
STEP.FT                 0.1000: 
NULL.                -999.2500: 
COMP.          Pioneer Natural Resources: COMPANY
WELL.             Squeal 11-26: WELL
FLD.           Purgatoire River: FIELD
LOC.           1186' FNL & 152' FWL: LOCATION
PROV.                 Colorado: PROVINCE
CNTY.               Las Animas: COUNTRY
SRVC.                Patterson: SERVICE COMPANY
DATE.          Wed Jun 15 09:11:52 2005: LOG DATE
UWI.           05 071 08404 00: UNIQUE WELL ID
~Curve Information Block
DEPT.FT            0 000 00 00: Depth
DCAL.in                       : CDL Caliper
RHOB.g/cc                     : CDL Bulk Density
RHOC.g/cc                     : CDL Density Correction
DPOR.pu                       : CDL Density Porosity
GR.GAPI                       : Gamma Ray
NPOR.pu                       : Neutron Porosity
~Parameter Information Block
~A  Depth       DCAL        RHOB        RHOC        DPOR         GR         NPOR    
# ...
  1054.8000      7.9456      2.3502      0.0701     18.1724     63.9294     23.6711
  1054.9000      7.9456      2.3429      0.0472     18.6119     61.5113     24.6805
  1055.0000      7.9498      2.3303      0.0699     19.3777     55.2485     24.6915
  1055.1000      7.9498      2.3225      0.0418     19.8462     48.0290     23.9370
  1055.2000      7.9498      2.3423      0.0253     18.6515     43.2990     23.0750
  1055.3000      7.9602      2.3817      0.1112     16.2611     40.7568     22.1506
  1055.4000      7.9602      2.4133      0.0946     14.3444     39.9695     21.1476
  1055.5000      7.9616      2.4317      0.1170     13.2304     39.5670     20.4585
  1055.6000      7.9616      2.4374      0.1129     12.8875     38.4931     20.1898
  1055.7000      7.9616      2.4259      0.1375     13.5815     37.9230     19.9805
  1055.8000      7.9615      2.4021      0.0941     15.0266     35.8942     20.1456
  1055.9000      7.9615      2.3768      0.0899     16.5578     32.3801     21.0627
  1056.0000      7.9610      2.3568      0.0641     17.7683     31.6976     21.8851
  1056.1000      7.9610      2.3481      0.0576     18.2962     33.5963     21.5876
  1056.2000      7.9610      2.3541      0.0268     17.9355     34.8233     20.3486
  1056.3000      7.9598      2.3684      0.0680     17.0685     35.1316     19.4853
  1056.4000      7.9598      2.3746      0.0944     16.6931     35.6071     20.0050
  1056.5000      7.9547      2.3614      0.0709     17.4897     35.2590     21.0952
  1056.6000      7.9547      2.3434     -0.0029     18.5844     33.0429     21.3453
  1056.7000      7.9547      2.3430      0.0212     18.6048     30.4196     20.3399
  1056.8000      7.9496      2.3639      0.0397     17.3405     28.7778     18.7876
  1056.9000      7.9496      2.3958      0.0544     15.4089     28.0497     17.8308
  1057.0000      7.9368      2.4162      0.0996     14.1710     27.4327     17.5939
  1057.1000      7.9368      2.4058      0.1113     14.7986     27.4737     17.5558
  1057.2000      7.9368      2.3769      0.0312     16.5494     29.1148     17.8803
  1057.3000      7.9332      2.3522      0.0874     18.0489     29.9801     18.4690
  1057.4000      7.9332      2.3359      0.0616     19.0358     28.5374     18.6557
  1057.5000      7.9251      2.3317      0.0183     19.2884     26.8935     18.2050
  1057.6000      7.9251      2.3463      0.0309     18.4088     26.2499     17.6808
  1057.7000      7.9251      2.3726      0.0439     16.8130     25.5465     17.5667
  1057.8000      7.9241      2.3926      0.0910     15.6020     23.6879     17.4407
  1057.9000      7.9241      2.3943      0.0555     15.4982     20.8517     16.9370
  1058.0000      7.9256      2.3881      0.0296     15.8756     18.6061     16.3498
  1058.1000      7.9256      2.3917      0.0284     15.6559     18.3652     16.0416
  1058.2000      7.9256      2.4032      0.1083     14.9593     20.6862     16.2907
  1058.3000      7.9284      2.4052      0.1147     14.8335     24.3915     16.8107
  1058.4000      7.9284      2.3969      0.0691     15.3368     26.6663     17.4605
  1058.5000      7.9194      2.3900      0.0869     15.7581     26.9014     18.6139
  1058.6000      7.9194      2.3855      0.0585     16.0321     27.0698     20.0920
  1058.7000      7.9194      2.3832      0.0336     16.1669     26.5054     21.4901
  1058.8000      7.9087      2.3889      0.0767     15.8237     23.7705     22.3855
  1058.9000      7.9087      2.3965      0.1149     15.3609     21.3483     22.2119
  1059.0000      7.9197      2.3903      0.0971     15.7393     21.9619     20.8193
  1059.1000      7.9197      2.3724      0.0377     16.8256     24.2416     18.6162
  1059.2000      7.9197      2.3570      0.0378     17.7599     25.4824     16.7125
  1059.3000      7.9203      2.3420      0.0679     18.6692     24.3519     16.0851
  1059.4000      7.9203      2.3267      0.0003     19.5961     21.4688     16.6771
  1059.5000      7.9232      2.3279     -0.0047     19.5225     19.0522     17.7998
  1059.6000      7.9232      2.3537      0.0311     17.9595     18.5281     18.7369
  1059.7000      7.9232      2.4000      0.0381     15.1536     19.3224     19.4586
  1059.8000      7.9350      2.4646      0.1027     11.2343     20.8559     19.8510
  1059.9000      7.9350      2.5318      0.1426      7.1655     22.7391     19.3434
  1060.0000      7.9476      2.5765      0.1451      4.4546     23.7104     18.4719
  1060.1000      7.9476      2.5917      0.1763      3.5313     24.5770     18.1892
  1060.2000      7.9476      2.5866      0.1638      3.8399     27.9400     18.6070
  1060.3000      7.8873      2.5722      0.1452      4.7136     32.1130     19.4041
  1060.4000      7.8873      2.5540      0.1095      5.8188     33.8010     19.8368
  1060.5000      7.8669      2.5352      0.1166      6.9596     33.3170     19.8788
  1060.6000      7.8669      2.5204      0.0851      7.8552     31.6481     19.9427
  1060.7000      7.8669      2.5115      0.0845      8.3963     29.7271     19.9103
  1060.8000      7.8842      2.5016      0.0980      8.9939     29.1691     19.8820
  1060.9000      7.8842      2.4902      0.0667      9.6840     29.5929     19.7874
  1061.0000      7.9036      2.4833      0.0816     10.1001     29.6483     19.1581
  1061.1000      7.9036      2.4774      0.0505     10.4624     29.0206     18.3826
  1061.2000      7.9036      2.4723      0.0635     10.7690     27.7183     18.0345
  1061.3000      7.9258      2.4768      0.0860     10.4949     27.7307     17.8483
  1061.4000      7.9258      2.4917      0.1009      9.5921     31.2259     17.4483
  1061.5000      7.9403      2.5059      0.0945      8.7336     34.6434     16.9602
  1061.6000      7.9403      2.5055      0.1059      8.7560     33.1379     16.9522
  1061.7000      7.9403      2.4924      0.0299      9.5508     28.7431     17.4959
  1061.8000      7.9271      2.4853      0.0318      9.9795     26.3808     17.8833
  1061.9000      7.9271      2.4922      0.0253      9.5630     26.3529     17.6440
  1062.0000      7.9265      2.5072      0.0355      8.6545     27.5329     17.1778
  1062.1000      7.9265      2.5258      0.0847      7.5273     29.6605     16.8026
  1062.2000      7.9265      2.5391      0.1083      6.7237     32.1941     16.3912
  1062.3000      7.9173      2.5367      0.0685      6.8685     34.6475     15.7248
  1062.4000      7.9173      2.5180      0.0987      8.0011     35.7185     15.1494
  1062.5000      7.9154      2.4861      0.0927      9.9317     34.9806     15.6829
  1062.6000      7.9154      2.4468      0.0361     12.3152     34.7918     17.6228
  1062.7000      7.9154      2.4179      0.0100     14.0672     36.2105     19.6171
  1062.8000      7.8964      2.4173     -0.0656     14.1007     37.0700     20.3853
  1062.9000      7.8964      2.4397      0.0083     12.7442     35.3301     19.8694
  1063.0000      7.9143      2.4608      0.0049     11.4679     32.6045     18.9713
  1063.1000      7.9143      2.4725      0.0617     10.7584     33.4401     18.8052
  1063.2000      7.9143      2.4802      0.0793     10.2936     37.8509     19.0512
  1063.3000      7.9443      2.4817      0.0732     10.2012     39.5408     18.8802
  1063.4000      7.9443      2.4701      0.0879     10.9059     35.7282     18.0893
  1063.5000      7.9366      2.4519     -0.0108     12.0043     31.4580     17.0367
  1063.6000      7.9366      2.4536      0.0156     11.9046     31.8467     16.6798
  1063.7000      7.9366      2.4826      0.0917     10.1451     36.5093     17.5217
  1063.8000      7.8977      2.5121      0.1438      8.3555     41.2150     18.8411
  1063.9000      7.8977      2.5221      0.0759      7.7496     42.8745     19.4003
  1064.0000      7.9113      2.5244      0.0219      7.6113     42.7505     18.8035
  1064.1000      7.9113      2.5325      0.0415      7.1188     42.0707     17.8299
  1064.2000      7.9113      2.5367      0.0838      6.8650     40.8756     17.6303
  1064.3000      7.9350      2.5281      0.0345      7.3886     40.8685     18.4029
