~Version Information
VERS.                      2.0: CWLS Log ASCII Standard - VERSION 2.0
WRAP.                       NO: One line per depth step
~Well Information Block
STRT.FT               528.0000: 
STOP.FT              2251.5000: 
STEP.FT                 0.2500: 
NULL.                -999.2500: 
COMP.          Pioneer Natural Resources: COMPANY
WELL.           Parklane 43-34: WELL
FLD.           Purgatorie River: FIELD
LOC.           1704' FSL & 1119' FEL: LOCATION
PROV.                 Colorado: PROVINCE
CNTY.               Las Animas: COUNTRY
SRVC.                         : SERVICE COMPANY
DATE.          Thu Oct 07 01:37:17 2004: LOG DATE
UWI.           05 071 08162 00: UNIQUE WELL ID
~Curve Information Block
DEPT.FT            0 000 00 00: Depth
LTEN.lb                       : Surface Line Tension
SN.Ohm-m                      : IEL Short Normal
SP.mV                         : IEL Spontaneous Potential
DIR.Ohm-m                     : IEL Induction Resistivity
GR.GAPI                       : Gamma Ray
~Parameter Information Block
~A  Depth       LTEN         SN          SP         DIR          GR     
# ...
  1312.0000    835.4361     19.3850   -213.1045     14.5169    111.3442
  1312.2500    837.2222     18.5505   -212.4056     14.5506    115.5170
  1312.5000    837.0948     17.8599   -211.7987     14.6293    122.0713
  1312.7500    835.9373     17.3553   -211.3172     14.6977    126.2393
  1313.0000    834.5386     17.0612   -210.9832     14.7277    131.2460
  1313.2500    833.3253     16.9829   -210.7895     14.7233    132.8959
  1313.5000    832.5508     17.1112   -210.6974     14.7122    131.5762
  1313.7500    832.3386     17.4297   -210.6443     14.7336    128.2061
  1314.0000    832.7908     17.9203   -210.5696     14.8226    120.9041
  1314.2500    834.0403     18.5616   -210.4440     14.9960    115.6388
  1314.5000    835.7911     19.3228   -210.2876     15.2474    108.6638
  1314.7500    837.0073     20.1588   -210.1692     15.5564    105.2557
  1315.0000    836.6228     21.0166   -210.1807     15.9056    102.2068
  1315.2500    834.5228     21.8486   -210.3987     16.2921    100.8134
  1315.5000    831.5389     22.6216   -210.8512     16.7264     97.7000
  1315.7500    828.5887     23.3084   -211.4943     17.2196     94.5141
  1316.0000    825.9875     23.8733   -212.2261     17.7733     89.5712
  1316.2500    823.5511     24.2688   -212.9139     18.3796     87.4721
  1316.5000    821.1862     24.4545   -213.4359     19.0219     86.8849
  1316.7500    819.2226     24.4235   -213.7190     19.6579     87.7103
  1317.0000    818.2081     24.2166   -213.7621     20.1871     89.8777
  1317.2500    818.4507     23.9146   -213.6308     20.4534     91.8455
  1317.5000    819.5646     23.6113   -213.4398     20.3253     95.5028
  1317.7500    820.4870     23.3761   -213.3193     19.8012     98.0004
  1318.0000    820.3398     23.2236   -213.3760     19.0215    100.6341
  1318.2500    819.3492     23.1093   -213.6647     18.1717    100.9873
  1318.5000    818.7129     22.9602   -214.1769     17.3909     98.8876
  1318.7500    819.5345     22.7203   -214.8408     16.7534     96.0185
  1319.0000    821.8212     22.3772   -215.5460     16.2933     91.1082
  1319.2500    824.2355     21.9538   -216.1677     16.0312     88.6563
  1319.5000    824.8027     21.4848   -216.6036     15.9796     87.7269
  1319.7500    822.2174     21.0063   -216.7913     16.1318     89.1979
  1320.0000    816.8783     20.5652   -216.7170     16.4481     94.2141
  1320.2500    810.8820     20.2253   -216.4066     16.8548     99.0341
  1320.5000    806.8395     20.0534   -215.9091     17.2690    107.6570
  1320.7500    806.0842     20.0935   -215.2770     17.6403    113.8424
  1321.0000    807.6449     20.3580   -214.5529     17.9782    122.5679
  1321.2500    809.1115     20.8459   -213.7617     18.3347    126.6613
  1321.5000    808.7351     21.5709   -212.9114     18.7548    127.1087
  1321.7500    806.7174     22.5660   -211.9987     19.2284    122.5969
  1322.0000    804.4126     23.8562   -211.0191     19.6801    110.2870
  1322.2500    802.5799     25.4211   -209.9728     20.0108    100.9173
  1322.5000    800.7914     27.1765   -208.8721     20.1657     89.1378
  1322.7500    798.3742     28.9819   -207.7511     20.1744     83.6930
  1323.0000    795.4510     30.6600   -206.6653     20.1318     78.2062
  1323.2500    792.8898     32.0161   -205.6825     20.1495     75.2978
  1323.5000    791.4399     32.8639   -204.8732     20.3143     71.0488
  1323.7500    791.1531     33.0669   -204.2913     20.6604     68.4165
  1324.0000    791.5494     32.5865   -203.9603     21.1525     65.8456
  1324.2500    791.9904     31.5066   -203.8631     21.6863     65.8802
  1324.5000    791.8167     30.0120   -203.9501     22.1241     69.8300
  1324.7500    790.5333     28.3327   -204.1522     22.3482     75.4077
  1325.0000    788.3077     26.6825   -204.3982     22.2935     87.4183
  1325.2500    786.2728     25.2220   -204.6283     21.9457     96.3942
  1325.5000    786.0243     24.0501   -204.8047     21.3380    107.8427
  1325.7500    788.5726     23.2126   -204.9133     20.5511    112.5450
  1326.0000    793.4929     22.7137   -204.9621     19.6993    114.5657
  1326.2500    798.8784     22.5204   -204.9797     18.8930    113.1440
  1326.5000    802.2628     22.5627   -205.0090     18.2045    108.1518
  1326.7500    802.0206     22.7384   -205.0938     17.6598    103.6161
  1327.0000    798.2705     22.9313   -205.2728     17.2522     96.5067
  1327.2500    792.7380     23.0412   -205.5664     16.9579     92.5339
  1327.5000    787.7093     23.0081   -205.9759     16.7413     88.8055
  1327.7500    784.7377     22.8175   -206.4879     16.5490     87.9905
  1328.0000    783.9019     22.4813   -207.0882     16.3122     89.2976
  1328.2500    784.0964     22.0123   -207.7742     15.9713     91.8408
  1328.5000    784.1780     21.4140   -208.5588     15.5099     97.7106
  1328.7500    784.0336     20.6899   -209.4640     14.9631    102.3069
  1329.0000    784.5235     19.8623   -210.5033     14.3909    108.8096
  1329.2500    786.3574     18.9813   -211.6710     13.8462    112.4919
  1329.5000    789.1373     18.1129   -212.9277     13.3643    117.6288
  1329.7500    791.5922     17.3135   -214.2063     12.9665    121.4592
  1330.0000    792.7699     16.6084   -215.4203     12.6630    128.1508
  1330.2500    793.0085     15.9911   -216.4784     12.4517    132.7351
  1330.5000    793.5671     15.4431   -217.2991     12.3174    138.5720
  1330.7500    795.1881     14.9571   -217.8181     12.2355    141.3127
  1331.0000    797.3076     14.5492   -217.9927     12.1775    143.2265
  1331.2500    798.7887     14.2559   -217.8063     12.1165    142.7577
  1331.5000    799.1421     14.1230   -217.2710     12.0308    139.2906
  1331.7500    798.9433     14.1928   -216.4245     11.9066    135.4459
  1332.0000    799.1514     14.4937   -215.3354     11.7402    128.1753
  1332.2500    800.1056     15.0306   -214.0995     11.5407    122.5748
  1332.5000    801.4562     15.7701   -212.8334     11.3303    113.0707
  1332.7500    803.0415     16.6222   -211.6671     11.1351    106.0635
  1333.0000    805.0867     17.4345   -210.7276     10.9686     95.1916
  1333.2500    807.2559     18.0193   -210.1214     10.8215     88.4714
  1333.5000    808.5151     18.2176   -209.9187     10.6698     80.9106
  1333.7500    808.4631     17.9642   -210.1372     10.4933     78.4528
  1334.0000    807.8543     17.3147   -210.7347     10.2876     79.2689
  1334.2500    807.2483     16.4171   -211.6211     10.0586     82.4300
  1334.5000    806.1414     15.4476   -212.6756      9.8104     89.3761
  1334.7500    804.1298     14.5474   -213.7732      9.5420     94.3105
  1335.0000    802.0760     13.7876   -214.8067      9.2541    100.8514
  1335.2500    801.2075     13.1687   -215.7012      8.9561    104.5548
  1335.5000    801.5482     12.6479   -216.4126      8.6633    110.0555
  1335.7500    802.0298     12.1776   -216.9229      8.3896    114.4176
  1336.0000    801.8398     11.7366   -217.2277      8.1431    122.4071
  1336.2500    801.1259     11.3385   -217.3290      7.9278    128.1074
  1336.5000    800.6282     11.0145   -217.2379      7.7475    135.3980
  1336.7500    800.9875     10.7857   -216.9763      7.6079    138.5296
  1337.0000    802.2698     10.6458   -216.5804      7.5171    140.1166
  1337.2500    803.9664     10.5657   -216.0978      7.4846    139.3597
  1337.5000    805.4006     10.5116   -215.5774      7.5205    136.4673
  1337.7500    806.1105     10.4642   -215.0596      7.6321    134.0339
  1338.0000    806.0330     10.4292   -214.5668      7.8186    130.8658
  1338.2500    805.4404     10.4405   -214.1044      8.0678    129.6841
  1338.5000    804.4567     10.5531   -213.6640      8.3561    129.2227
  1338.7500    802.6445     10.8249   -213.2394      8.6550    128.7927
  1339.0000    799.5726     11.2914   -212.8324      8.9436    125.6544
  1339.2500    795.7758     11.9447   -212.4591      9.2202    121.1865
  1339.5000    792.7005     12.7343   -212.1460      9.5065    111.8015
  1339.7500    791.6780     13.5893   -211.9204      9.8387    105.3857
