~Version Information
 VERS.                                  2.0 : CWLS LAS VERSION
 WRAP.                                   NO : WRAPING MODE
 SWARE .                 MController 2.5.0E : SOFTWARE VERSION
~Well Information
 WELL.                      Robinson 15-11v : WELL
 COMP.                       Petrogulf Corp : COMPANY
 FLD.                      Purgatoire River : FIELD
 LOC.                NW/NW Sec 15 T33S R67W : LOCATION
 DATE.                               8/3/04 : DATE(S) LOGGED
 SRVC.       Blanco Geological Services LLC : SERVICE COMPANY
 STAT.                                   CO : STATE
 CNTY.                           Las Animas : COUNTY
 CTRY.                                  USA : COUNTRY
 API.                       05-071-08027-00 : API NUMBER
 STRT.FT                             588.00 : START DEPTH
 STOP.FT                            2101.00 : STOP DEPTH
 STEP.FT                               1.00 : DEPTH INCREMENT
 NULL.                                -9999 : NULL VALUE
~Curve information
 DEPTH.FT                                   :
 ROP.MIN/FT                                 :
 GAS.UNITS                                  :
~ASCII Log data
# ...
     1788.00        0.300         17.4 
     1789.00        0.233         17.0 
     1790.00        0.300         16.5 
     1791.00        0.350         16.5 
     1792.00        0.333         17.0 
     1793.00        0.300         17.1 
     1794.00        0.233         17.1 
     1795.00        0.167         20.5 
     1796.00        0.167         21.0 
     1797.00        0.200         22.1 
     1798.00        0.233         19.9 
     1799.00        0.233         15.3 
     1800.00        0.233         10.6 
     1801.00        0.200          8.9 
     1802.00        4.967         93.7 
     1803.00        0.367         51.1 
     1804.00        0.300         47.4 
     1805.00        0.233         44.1 
     1806.00        0.267         42.6 
     1807.00        0.333         41.7 
     1808.00        0.300         39.3 
     1809.00        0.300         36.4 
     1810.00        0.400         32.0 
     1811.00        0.317         28.2 
     1812.00        0.300         25.5 
     1813.00        0.267         24.4 
     1814.00        0.267         21.8 
     1815.00        0.267         20.3 
     1816.00        0.233         19.2 
     1817.00        0.267         19.0 
     1818.00        0.233         17.5 
     1819.00        0.267         17.4 
     1820.00        0.300         16.5 
     1821.00        0.233         15.5 
     1822.00        0.267         13.7 
     1823.00        0.167         14.1 
     1824.00        0.250         14.4 
     1825.00        0.233         13.8 
     1826.00        0.267         14.7 
     1827.00        0.233         16.8 
     1828.00        0.267         17.2 
     1829.00        0.233         17.0 
     1830.00        0.233         15.1 
     1831.00        0.233         12.0 
     1832.00        4.283         73.1 
     1833.00        0.367         34.9 
     1834.00        0.317         31.1 
     1835.00        0.367         29.0 
     1836.00        0.400         27.7 
     1837.00        0.300         25.2 
     1838.00        0.367         23.0 
     1839.00        0.267         20.4 
     1840.00        0.333         19.1 
     1841.00        0.233         17.6 
     1842.00        0.233         17.0 
     1843.00        0.267         16.1 
     1844.00        0.300         15.0 
     1845.00        0.250         14.0 
     1846.00        0.200         13.6 
     1847.00        0.267         13.1 
     1848.00        0.267         12.7 
     1849.00        0.233         11.4 
     1850.00        0.267         11.6 
     1851.00        0.233         12.0 
     1852.00        0.200         11.3 
     1853.00        0.167         11.7 
     1854.00        0.200         12.0 
     1855.00        0.233         13.2 
     1856.00        0.267         13.8 
     1857.00        0.267         14.8 
     1858.00        0.233         15.4 
     1859.00        0.233         16.0 
     1860.00        0.250         15.8 
     1861.00        0.233         14.4 
     1862.00        3.683         38.5 
     1863.00        0.433         35.2 
     1864.00        0.233         28.9 
     1865.00        0.167         27.5 
     1866.00        0.167         26.3 
     1867.00        0.167         26.1 
     1868.00        0.100         28.1 
     1869.00        0.200         29.4 
     1870.00        0.333         33.9 
     1871.00        0.267         34.3 
     1872.00        0.267         33.4 
     1873.00        0.317         32.1 
     1874.00        0.267         29.4 
     1875.00        0.267         26.1 
     1876.00        0.267         24.9 
     1877.00        0.233         23.3 
     1878.00        0.233         21.0 
     1879.00        0.267         20.8 
     1880.00        0.200         18.8 
     1881.00        0.233         17.3 
     1882.00        0.233         16.7 
     1883.00        0.267         16.5 
     1884.00        0.233         15.3 
     1885.00        0.233         14.8 
     1886.00        0.267         15.5 
     1887.00        0.283         17.6 
     1888.00        0.233         18.1 
     1889.00        0.200         19.2 
     1890.00        0.267         19.2 
     1891.00        0.267         14.3 
     1892.00        4.350         37.8 
     1893.00        0.233         32.7 
     1894.00        0.200         34.2 
     1895.00        0.267         34.1 
     1896.00        0.233         34.1 
     1897.00        0.350         34.6 
     1898.00        0.333         34.1 
     1899.00        0.367         31.0 
     1900.00        0.200         28.8 
     1901.00        0.133         28.5 
     1902.00        0.100         28.4 
     1903.00        0.200         28.1 
     1904.00        0.200         28.1 
     1905.00        0.300         27.4 
     1906.00        0.233         24.9 
     1907.00        0.233         24.0 
     1908.00        0.200         23.1 
     1909.00        0.133         22.3 
     1910.00        0.200         22.0 
     1911.00        0.267         21.4 
     1912.00        0.317         20.0 
     1913.00        0.267         18.9 
     1914.00        0.233         19.0 
     1915.00        0.200         17.6 
     1916.00        0.167         18.1 
     1917.00        0.233         17.8 
     1918.00        0.233         14.9 
     1919.00        0.233         14.0 
     1920.00        0.133         12.6 
     1921.00        0.133         10.3 
     1922.00        3.350         38.1 
     1923.00        0.500         40.1 
     1924.00        0.300         38.2 
     1925.00        0.267         34.3 
     1926.00        0.283         31.1 
     1927.00        0.233         26.9 
     1928.00        0.167         24.6 
     1929.00        0.233         24.0 
     1930.00        0.267         24.7 
     1931.00        0.267         24.3 
     1932.00        0.233         23.6 
     1933.00        0.200         25.4 
     1934.00        0.133         26.1 
     1935.00        0.133         29.0 
     1936.00        0.133         30.4 
     1937.00        0.133         32.2 
     1938.00        0.267         34.8 
     1939.00        0.300         34.9 
     1940.00        0.300         34.8 
     1941.00        0.317         34.3 
     1942.00        0.233         33.7 
     1943.00        0.233         33.4 
     1944.00        0.267         32.5 
     1945.00        0.233         31.0 
     1946.00        0.233         30.8 
     1947.00        0.267         30.2 
     1948.00        0.233         27.8 
     1949.00        0.167         25.6 
     1950.00        0.200         21.4 
     1951.00        0.300         15.1 
     1952.00        3.017         45.4 
     1953.00        0.567         40.7 
     1954.00        0.133         35.9 
     1955.00        0.167         34.3 
     1956.00        0.250         32.3 
     1957.00        0.267         29.8 
     1958.00        0.233         27.0 
     1959.00        0.267         27.6 
     1960.00        0.300         28.4 
     1961.00        0.300         28.2 
     1962.00        0.267         26.8 
     1963.00        0.233         25.6 
     1964.00        0.267         24.8 
     1965.00        0.267         22.2 
     1966.00        0.267         21.1 
     1967.00        0.233         19.5 
     1968.00        0.233         17.7 
     1969.00        0.217         17.2 
     1970.00        0.233         17.0 
     1971.00        0.200         17.3 
     1972.00        0.167         17.8 
     1973.00        0.233         18.1 
     1974.00        0.233         17.5 
     1975.00        0.200         17.7 
     1976.00        0.200         18.6 
     1977.00        0.300         18.6 
     1978.00        0.300         17.4 
     1979.00        0.233         15.2 
     1980.00        0.233         11.5 
     1981.00        0.200          8.3 
     1982.00        3.417         44.6 
     1983.00        0.300         42.6 
     1984.00        0.283         41.0 
     1985.00        0.300         35.3 
     1986.00        0.267         30.5 
     1987.00        0.333         27.3 
