~Version Information
VERS.                      2.0: CWLS Log ASCII Standard - VERSION 2.0
WRAP.                       NO: One line per depth step
~Well Information Block
STRT.FT               700.0000: 
STOP.FT              1869.5000: 
STEP.FT                 0.1000: 
NULL.                -999.2500: 
COMP.          Petrogulf Corporation: COMPANY
WELL.             State 16-24R: WELL
FLD.           Purgatorie River: FIELD
LOC.           541' FSL & 2371' FWL: LOCATION
PROV.                 Colorado: PROVINCE
CNTY.               Las Animas: COUNTRY
SRVC.                Patterson: SERVICE COMPANY
DATE.          Fri Aug 12 09:07:22 2005: LOG DATE
UWI.                071-08312 : UNIQUE WELL ID
~Curve Information Block
DEPT.FT            0 000 00 00: Depth
DCAL.in                       : CDL Caliper
RHOB.g/cc                     : CDL Bulk Density
RHOC.g/cc                     : CDL Density Correction
DPOR.pu                       : CDL Density Porosity
GR.GAPI                       : Gamma Ray
NPOR.pu                       : Neutron Porosity
~Parameter Information Block
~A  Depth       DCAL        RHOB        RHOC        DPOR         GR         NPOR    
# ...
   997.6000     11.5947      2.6762      0.0835     -1.5859     90.2001     24.8637
   997.7000     11.5947      2.6816      0.1060     -1.9130     92.2638     25.9980
   997.8000     11.5795      2.6913      0.0954     -2.5058     89.5874     27.1003
   997.9000     11.5795      2.7053      0.1063     -3.3502     85.6970     26.5457
   998.0000     11.5760      2.7154      0.1153     -3.9610     86.0827     25.4139
   998.1000     11.5760      2.7211      0.0532     -4.3094     90.7763     25.1090
   998.2000     11.5760      2.7329      0.1030     -5.0268     95.6288     25.3933
   998.3000     11.6156      2.7461      0.1244     -5.8242     96.4147     25.6445
   998.4000     11.6156      2.7434      0.1594     -5.6622     92.5365     25.5836
   998.5000     11.6153      2.7167      0.1212     -4.0410     86.6362     25.0671
   998.6000     11.6153      2.6770      0.0543     -1.6345     81.3094     23.9931
   998.7000     11.6153      2.6459      0.0723      0.2474     78.9679     23.2059
   998.8000     11.5824      2.6317      0.0754      1.1079     79.5538     23.4491
   998.9000     11.5824      2.6247      0.0598      1.5306     81.6226     24.1156
   999.0000     11.5787      2.6160      0.0498      2.0588     85.3217     24.5902
   999.1000     11.5787      2.6102      0.0333      2.4152     87.8643     24.3772
   999.2000     11.5787      2.6155      0.0121      2.0884     85.7738     23.3994
   999.3000     11.5842      2.6225      0.0862      1.6695     80.7302     22.9818
   999.4000     11.5842      2.6091      0.0728      2.4801     75.1168     23.5040
   999.5000     11.5831      2.5779      0.0426      4.3683     69.4516     23.7109
   999.6000     11.5831      2.5543      0.0375      5.8014     64.8481     22.9593
   999.7000     11.5831      2.5471      0.0701      6.2375     62.6969     21.6209
   999.8000     11.5528      2.5399      0.0579      6.6745     61.9578     20.6025
   999.9000     11.5528      2.5209      0.0650      7.8233     60.7998     20.0972
  1000.0000     11.5650      2.4997      0.0123      9.1096     58.8091     19.4664
  1000.1000     11.5650      2.4936      0.0004      9.4790     55.7849     18.7718
  1000.2000     11.5650      2.5084      0.0328      8.5793     53.0456     18.2193
  1000.3000     11.5733      2.5309      0.0866      7.2208     52.1511     18.1614
  1000.4000     11.5733      2.5426      0.0921      6.5093     51.4347     18.6936
  1000.5000     11.5656      2.5400      0.1011      6.6641     49.0619     18.7046
  1000.6000     11.5656      2.5297      0.0817      7.2887     45.5953     17.8375
  1000.7000     11.5656      2.5219      0.0654      7.7663     43.1305     17.1520
  1000.8000     11.5197      2.5218      0.0884      7.7682     43.4812     17.5465
  1000.9000     11.5197      2.5216      0.0780      7.7841     46.1924     18.7331
  1001.0000     11.5082      2.5172      0.0599      8.0515     48.4613     19.1788
  1001.1000     11.5082      2.5180      0.0799      8.0006     47.6746     18.1091
  1001.2000     11.5082      2.5297      0.0740      7.2901     44.4632     16.5677
  1001.3000     11.5180      2.5419      0.1105      6.5523     41.3832     15.7618
  1001.4000     11.5180      2.5385      0.0958      6.7579     40.9714     16.0244
  1001.5000     11.5433      2.5244      0.0431      7.6104     44.9956     17.1374
  1001.6000     11.5433      2.5160      0.0597      8.1217     50.7605     18.4614
  1001.7000     11.5433      2.5139      0.0585      8.2476     53.9449     19.3498
  1001.8000     11.5697      2.5139      0.0365      8.2488     54.2143     19.4888
  1001.9000     11.5697      2.5213      0.0461      7.8007     53.1605     18.9269
  1002.0000     11.5724      2.5418      0.0583      6.5547     51.5554     18.6226
  1002.1000     11.5724      2.5711      0.0770      4.7839     50.2689     18.9335
  1002.2000     11.5724      2.5964      0.1070      3.2513     49.7924     19.3773
  1002.3000     11.5647      2.6104      0.0894      2.4009     49.1723     19.7760
  1002.4000     11.5647      2.6144      0.0849      2.1606     48.3827     19.8099
  1002.5000     11.5368      2.6056      0.1137      2.6926     50.0438     19.6905
  1002.6000     11.5368      2.5868      0.0527      3.8302     53.9914     20.0007
  1002.7000     11.5368      2.5756      0.0126      4.5103     56.5005     20.5100
  1002.8000     11.5371      2.5733      0.0630      4.6464     56.3306     20.6736
  1002.9000     11.5371      2.5633      0.0538      5.2557     55.6997     20.5898
  1003.0000     11.5564      2.5453      0.0289      6.3426     56.7495     20.7043
  1003.1000     11.5564      2.5327      0.0039      7.1095     57.8124     20.6735
  1003.2000     11.5564      2.5286      0.0302      7.3560     55.9078     19.7691
  1003.3000     11.5535      2.5286      0.0199      7.3577     51.8697     18.2083
  1003.4000     11.5535      2.5286      0.0758      7.3600     49.3579     17.2171
  1003.5000     11.5417      2.5205      0.0598      7.8511     50.1807     17.5036
  1003.6000     11.5417      2.4942      0.0941      9.4416     52.1413     18.6489
  1003.7000     11.5417      2.4557      0.0017     11.7745     52.2650     19.8117
  1003.8000     11.5462      2.4270      0.0255     13.5147     50.3792     19.9646
  1003.9000     11.5462      2.4127      0.0494     14.3845     48.0665     18.6777
  1004.0000     11.5603      2.4050      0.0373     14.8501     47.0804     17.2251
  1004.1000     11.5603      2.4059      0.0462     14.7943     47.5526     17.2611
  1004.2000     11.5603      2.4113      0.0654     14.4689     47.2537     18.7277
  1004.3000     11.5492      2.4096      0.0592     14.5706     45.1026     19.6417
  1004.4000     11.5492      2.4058      0.0309     14.8011     42.7654     18.6287
  1004.5000     11.5640      2.4136      0.0433     14.3275     41.7607     16.8830
  1004.6000     11.5640      2.4306      0.0888     13.2980     41.0705     16.0056
  1004.7000     11.5640      2.4394      0.1084     12.7613     39.6645     16.5415
  1004.8000     11.5617      2.4300      0.0979     13.3318     38.3970     17.6980
  1004.9000     11.5617      2.4130      0.0775     14.3656     37.7955     17.8180
  1005.0000     11.5978      2.4049      0.0707     14.8546     36.9334     16.8332
  1005.1000     11.5978      2.4066      0.0869     14.7515     36.1212     16.3722
  1005.2000     11.5978      2.4104      0.0577     14.5201     36.3790     17.0278
  1005.3000     11.5815      2.4195      0.0486     13.9716     38.0438     17.6491
  1005.4000     11.5815      2.4347      0.1185     13.0488     40.1913     17.7351
  1005.5000     11.6318      2.4462      0.1214     12.3485     40.9467     18.1290
  1005.6000     11.6318      2.4517      0.1367     12.0195     40.6731     19.2845
  1005.7000     11.6318      2.4544      0.1250     11.8571     40.3649     20.5216
  1005.8000     11.4470      2.4545      0.1475     11.8502     39.0293     20.9584
  1005.9000     11.4470      2.4558      0.1207     11.7719     36.4508     20.3594
  1006.0000     11.3568      2.4656      0.1250     11.1773     34.5721     19.0888
  1006.1000     11.3568      2.4816      0.1482     10.2089     34.6584     18.3530
  1006.2000     11.3568      2.4939      0.1314      9.4600     36.3226     18.6618
  1006.3000     11.3906      2.4995      0.1292      9.1231     37.6310     19.0301
  1006.4000     11.3906      2.5001      0.1241      9.0854     36.8631     18.9051
  1006.5000     11.4770      2.4967      0.1197      9.2904     35.0294     18.3016
  1006.6000     11.4770      2.4933      0.0831      9.4952     33.6084     17.4626
  1006.7000     11.4770      2.4923      0.1196      9.5582     33.7237     16.9152
  1006.8000     11.5262      2.4902      0.0935      9.6842     35.9699     16.8804
  1006.9000     11.5262      2.4905      0.0842      9.6639     38.7228     17.3124
  1007.0000     11.5621      2.4983      0.0805      9.1923     40.1390     17.8184
  1007.1000     11.5621      2.5079      0.1072      8.6111     39.4219     18.1276
