~Version Information
VERS.                      2.0: CWLS Log ASCII Standard - VERSION 2.0
WRAP.                       NO: One line per depth step
~Well Information Block
STRT.FT               -12.3000: 
STOP.FT              1768.7000: 
STEP.FT                 0.1000: 
NULL.                -999.2500: 
COMP.          Petrogulf Corporation: COMPANY
WELL.          Alexander 9-43R: WELL
FLD.           Purgatorie River: FIELD
LOC.           1652' FSL & 1049' FEL--: LOCATION
CNTY.               Las Animas: COUNTY
SRVC.                         : SERVICE COMPANY
DATE.          Tue Sep 28 14:27:54 2004: LOG DATE
UWI.                          : UNIQUE WELL ID
STAT.                       CO: STATE
~Curve Information Block
DEPT.FT            0 000 00 00: Depth
GR.GAPI                       : Gamma Ray
CCL.                          : Casing Collar Locator
TT3.usec                      : CBL 3' Travel Time
AMP3.mV                       : CBL 3' Amplitude
~Parameter Information Block
~A  Depth        GR         CCL         TT3         AMP3    
# ...
  1743.1000    115.2717      0.0000    670.6779      4.0875
  1743.2000    115.2717      0.0000    670.6779      4.0875
  1743.3000    113.9402      0.0000    688.5807      4.1209
  1743.4000    113.9402      0.0000    688.5807      4.1209
  1743.5000    112.6606      0.0000    707.8421      4.1587
  1743.6000    112.6606      0.0000    707.8421      4.1587
  1743.7000    112.6606      0.0000    707.8421      4.1587
  1743.8000    112.1331      0.0000    718.3182      4.1987
  1743.9000    112.1331      0.0000    718.3182      4.1987
  1744.0000    111.8939      0.0000    717.1263      4.2422
  1744.1000    111.8939      0.0000    717.1263      4.2422
  1744.2000    111.8939      0.0000    717.1263      4.2422
  1744.3000    110.5926      0.0000    709.4333      4.2956
  1744.4000    110.5926      0.0000    709.4333      4.2956
  1744.5000    107.3383      0.0000    702.5221      4.3676
  1744.6000    107.3383      0.0000    702.5221      4.3676
  1744.7000    107.3383      0.0000    702.5221      4.3676
  1744.8000    102.6277      0.0000    700.1014      4.4642
  1744.9000    102.6277      0.0000    700.1014      4.4642
  1745.0000     98.0705      0.0000    702.0044      4.5738
  1745.1000     98.0705      0.0000    702.0044      4.5738
  1745.2000     98.0705      0.0000    702.0044      4.5738
  1745.3000     95.5249      0.0000    706.8006      4.6587
  1745.4000     95.5249      0.0000    706.8006      4.6587
  1745.5000     96.2002      0.0000    713.2433      4.6781
  1745.6000     96.2002      0.0000    713.2433      4.6781
  1745.7000     96.2002      0.0000    713.2433      4.6781
  1745.8000     99.8042      0.0000    720.4764      4.6460
  1745.9000     99.8042      0.0000    720.4764      4.6460
  1746.0000    104.3358      0.0000    728.3839      4.6610
  1746.1000    104.3358      0.0000    728.3839      4.6610
  1746.2000    104.3358      0.0000    728.3839      4.6610
  1746.3000    107.2827      0.0000    736.5929      4.8635
  1746.4000    107.2827      0.0000    736.5929      4.8635
  1746.5000    107.7112      0.0000    741.4644      5.3423
  1746.6000    107.7112      0.0000    741.4644      5.3423
  1746.7000    107.7112      0.0000    741.4644      5.3423
  1746.8000    107.2185      0.0000    736.5291      6.0619
  1746.9000    107.2185      0.0000    736.5291      6.0619
  1747.0000    108.4644      0.0000    720.2444      6.8599
  1747.1000    108.4644      0.0000    720.2444      6.8599
  1747.2000    108.4644      0.0000    720.2444      6.8599
  1747.3000    112.8075      0.0000    701.6727      7.5198
  1747.4000    112.8075      2.0000    701.6727      7.5198
  1747.5000    119.4988     -2.0000    692.7891      7.8678
  1747.6000    119.4988      0.0000    692.7891      7.8678
  1747.7000    119.4988      0.0000    692.7891      7.8678
  1747.8000    126.6758      0.0000    695.7969      7.8337
  1747.9000    126.6758      0.0000    695.7969      7.8337
  1748.0000    132.6001      0.0000    702.5216      7.4699
  1748.1000    132.6001      0.0000    702.5216      7.4699
  1748.2000    132.6001      0.0000    702.5216      7.4699
  1748.3000    136.3610      0.0000    704.4457      6.9456
  1748.4000    136.3610      0.0000    704.4457      6.9456
  1748.5000    138.1761      0.0000    698.1841      6.4874
  1748.6000    138.1761      0.0000    698.1841      6.4874
  1748.7000    138.1761      0.0000    698.1841      6.4874
  1748.8000    139.1235      0.0000    682.7523      6.2546
  1748.9000    139.1235      0.0000    682.7523      6.2546
  1749.0000    140.3021      0.0000    657.0862      6.2507
  1749.1000    140.3021      0.0000    657.0862      6.2507
  1749.2000    140.3021      0.0000    657.0862      6.2507
  1749.3000    142.0340      0.0000    621.6912      6.3718
  1749.4000    142.0340      0.0000    621.6912      6.3718
  1749.5000    143.7690      0.0000    580.2968      6.5233
  1749.6000    143.7690      0.0000    580.2968      6.5233
  1749.7000    143.7690      0.0000    580.2968      6.5233
  1749.8000    144.7800      0.0000    538.5822      6.6713
  1749.9000    144.7800      0.0000    538.5822      6.6713
  1750.0000    144.9323      0.0000    501.8451      6.8096
  1750.1000    144.9323      0.0000    501.8451      6.8096
  1750.2000    144.9323      0.0000    501.8451      6.8096
  1750.3000    144.6669      0.0000    473.6616      6.9255
  1750.4000    144.6669      0.0000    473.6616      6.9255
  1750.5000    144.3208      0.0000    455.2312      7.0084
  1750.6000    144.3208      0.0000    455.2312      7.0084
  1750.7000    144.3208      0.0000    455.2312      7.0084
  1750.8000    143.8740      0.0000    445.2086      7.0656
  1750.9000    143.8740      0.0000    445.2086      7.0656
  1751.0000    143.3938      0.0000    440.7242      7.1128
  1751.1000    143.3938      0.0000    440.7242      7.1128
  1751.2000    143.3938      0.0000    440.7242      7.1128
  1751.3000    143.0301      0.0000    439.0294      7.1502
  1751.4000    143.0301      0.0000    439.0294      7.1502
  1751.5000    142.3106      0.0000    438.4146      7.1570
  1751.6000    142.3106      0.0000    438.4146      7.1570
  1751.7000    142.3106      0.0000    438.4146      7.1570
  1751.8000    140.1883      0.0000    438.3422      7.1122
  1751.9000    140.1883      0.0000    438.3422      7.1122
  1752.0000    136.0834      0.0000    439.5668      7.0204
  1752.1000    136.0834      0.0000    439.5668      7.0204
  1752.2000    136.0834      0.0000    439.5668      7.0204
  1752.3000    130.2217      0.0000    444.5399      6.9233
  1752.4000    130.2217      0.0000    444.5399      6.9233
  1752.5000    122.8420      0.0000    457.0572      6.8862
  1752.6000    122.8420      0.0000    457.0572      6.8862
  1752.7000    122.8420      0.0000    457.0572      6.8862
  1752.8000    114.0432      0.0000    479.6879      6.9712
  1752.9000    114.0432      0.0000    479.6879      6.9712
  1753.0000    104.6634      0.0000    509.9069      7.2088
  1753.1000    104.6634      0.0000    509.9069      7.2088
  1753.2000    104.6634      0.0000    509.9069      7.2088
  1753.3000     96.4811      0.0000    539.7950      7.5822
  1753.4000     96.4811      0.0000    539.7950      7.5822
  1753.5000     91.2401      0.0000    562.0979      8.0305
  1753.6000     91.2401      0.0000    562.0979      8.0305
  1753.7000     91.2401      0.0000    562.0979      8.0305
  1753.8000     89.7310      0.0000    576.3969      8.4717
  1753.9000     89.7310      0.0000    576.3969      8.4717
  1754.0000     91.5375      0.0000    587.3674      8.8377
  1754.1000     91.5375      0.0000    587.3674      8.8377
  1754.2000     91.5375      0.0000    587.3674      8.8377
  1754.3000     95.2584      0.0000    598.1387      9.0993
  1754.4000     95.2584      0.0000    598.1387      9.0993
  1754.5000     99.2821      0.0000    607.8439      9.2646
  1754.6000     99.2821      0.0000    607.8439      9.2646
  1754.7000     99.2821      0.0000    607.8439      9.2646
  1754.8000    102.9757      0.0000    614.4188      9.3468
  1754.9000    102.9757      0.0000    614.4188      9.3468
  1755.0000    107.1211      0.0000    616.7188      9.3304
  1755.1000    107.1211      0.0000    616.7188      9.3304
  1755.2000    107.1211      0.0000    616.7188      9.3304
  1755.3000    112.7940      0.0000    613.8762      9.1596
  1755.4000    112.7940      0.0000    613.8762      9.1596
  1755.5000    119.8177      0.0000    604.4696      8.7513
  1755.6000    119.8177      0.0000    604.4696      8.7513
  1755.7000    119.8177      0.0000    604.4696      8.7513
  1755.8000    126.7052      0.0000    585.3585      8.0066
  1755.9000    126.7052      0.0000    585.3585      8.0066
  1756.0000    132.1407      0.0000    548.7241      6.8216
  1756.1000    132.1407      0.0000    548.7241      6.8216
  1756.2000    132.1407      0.0000    548.7241      6.8216
  1756.3000    135.9097      0.0000    482.6433      5.1433
  1756.4000    135.9097      0.0000    482.6433      5.1433
