~Version Information
VERS.                      2.0: CWLS Log ASCII Standard - VERSION 2.0
WRAP.                       NO: One line per depth step
~Well Information Block
STRT.FT                -7.6500: 
STOP.FT              3097.2500: 
STEP.FT                 0.0500: 
NULL.                -999.2500: 
COMP.          Pioneer Natural Resources: COMPANY
WELL.            Paradise 13-8: WELL
FLD.           Purgatoire River: FIELD
LOC.           1896' FSL & 1120' FWL--: LOCATION
PROV.                 Colorado: PROVINCE
CNTY.               Las Animas: COUNTRY
SRVC.                Patterson: SERVICE COMPANY
DATE.          Fri Feb 04 16:52:25 2005: LOG DATE
UWI.           05 071 07946 00: UNIQUE WELL ID
~Curve Information Block
DEPT.FT            0 000 00 00: Depth
CCL.                          : Casing Collar Locator
TT3.usec                      : CBL 3' Travel Time
AMP3.mV                       : CBL 3' Amplitude
GR.GAPI                       : Gamma Ray
~Parameter Information Block
~A  Depth       CCL         TT3         AMP3         GR     
# ...
  2873.3500      0.0000    695.2468      2.7083     52.2568
  2873.4000      0.0000    695.2468      2.7083     52.2568
  2873.4500      0.0000    695.2468      2.7083     52.2568
  2873.5000      0.0000    687.2538      3.0560     52.6311
  2873.5500      0.0000    687.2538      3.0560     52.6311
  2873.6000      0.0000    687.2538      3.0560     52.6311
  2873.6500      0.0000    687.2538      3.0560     52.6311
  2873.7000      0.0000    687.2538      3.0560     52.6311
  2873.7500      0.0000    674.5830      3.4007     54.4610
  2873.8000      0.0000    674.5830      3.4007     54.4610
  2873.8500      0.0000    674.5830      3.4007     54.4610
  2873.9000      0.0000    674.5830      3.4007     54.4610
  2873.9500      0.0000    674.5830      3.4007     54.4610
  2874.0000      0.0000    653.3804      3.6850     56.2663
  2874.0500      0.0000    653.3804      3.6850     56.2663
  2874.1000      0.0000    653.3804      3.6850     56.2663
  2874.1500      0.0000    653.3804      3.6850     56.2663
  2874.2000      0.0000    653.3804      3.6850     56.2663
  2874.2500      0.0000    621.2899      3.8620     57.3937
  2874.3000      0.0000    621.2899      3.8620     57.3937
  2874.3500      0.0000    621.2899      3.8620     57.3937
  2874.4000      0.0000    621.2899      3.8620     57.3937
  2874.4500      0.0000    621.2899      3.8620     57.3937
  2874.5000      0.0000    580.1755      3.9038     57.8768
  2874.5500      0.0000    580.1755      3.9038     57.8768
  2874.6000      0.0000    580.1755      3.9038     57.8768
  2874.6500      0.0000    580.1755      3.9038     57.8768
  2874.7000      0.0000    580.1755      3.9038     57.8768
  2874.7500      0.0000    539.3537      3.8131     57.6559
  2874.8000      0.0000    539.3537      3.8131     57.6559
  2874.8500      0.0000    539.3537      3.8131     57.6559
  2874.9000      0.0000    539.3537      3.8131     57.6559
  2874.9500      0.0000    539.3537      3.8131     57.6559
  2875.0000      0.0000    514.6005      3.6282     56.4381
  2875.0500      0.0000    514.6005      3.6282     56.4381
  2875.1000      0.0000    514.6005      3.6282     56.4381
  2875.1500      0.0000    514.6005      3.6282     56.4381
  2875.2000      0.0000    514.6005      3.6282     56.4381
  2875.2500      0.0000    520.0280      3.4082     54.3784
  2875.3000      0.0000    520.0280      3.4082     54.3784
  2875.3500      0.0000    520.0280      3.4082     54.3784
  2875.4000      0.0000    520.0280      3.4082     54.3784
  2875.4500      0.0000    520.0280      3.4082     54.3784
  2875.5000      0.0000    557.4798      3.2011     52.5185
  2875.5500      0.0000    557.4798      3.2011     52.5185
  2875.6000      0.0000    557.4798      3.2011     52.5185
  2875.6500      0.0000    557.4798      3.2011     52.5185
  2875.7000      0.0000    557.4798      3.2011     52.5185
  2875.7500      0.0000    613.9633      3.0252     52.1999
  2875.8000      0.0000    613.9633      3.0252     52.1999
  2875.8500      0.0000    613.9633      3.0252     52.1999
  2875.9000      0.0000    613.9633      3.0252     52.1999
  2875.9500      0.0000    613.9633      3.0252     52.1999
  2876.0000      0.0000    671.3130      2.8862     54.1262
  2876.0500      0.0000    671.3130      2.8862     54.1262
  2876.1000      0.0000    671.3130      2.8862     54.1262
  2876.1500      0.0000    671.3130      2.8862     54.1262
  2876.2000      0.0000    671.3130      2.8862     54.1262
  2876.2500      0.0000    718.4413      2.8023     58.1251
  2876.3000      0.0000    718.4413      2.8023     58.1251
  2876.3500      0.0000    718.4413      2.8023     58.1251
  2876.4000      0.0000    718.4413      2.8023     58.1251
  2876.4500      0.0000    718.4413      2.8023     58.1251
  2876.5000      0.0000    754.2179      2.8000     63.4405
  2876.5500      0.0000    754.2179      2.8000     63.4405
  2876.6000      0.0000    754.2179      2.8000     63.4405
  2876.6500      0.0000    754.2179      2.8000     63.4405
  2876.7000      0.0000    754.2179      2.8000     63.4405
  2876.7500      0.0000    781.8984      2.8864     68.7592
  2876.8000      0.0000    781.8984      2.8864     68.7592
  2876.8500      0.0000    781.8984      2.8864     68.7592
  2876.9000      0.0000    781.8984      2.8864     68.7592
  2876.9500      0.0000    781.8984      2.8864     68.7592
  2877.0000      0.0000    803.8381      3.0406     72.3252
  2877.0500      0.0000    803.8381      3.0406     72.3252
  2877.1000      0.0000    803.8381      3.0406     72.3252
  2877.1500      0.0000    803.8381      3.0406     72.3252
  2877.2000      0.0000    803.8381      3.0406     72.3252
  2877.2500      0.0000    819.9762      3.2296     72.8435
  2877.3000      0.0000    819.9762      3.2296     72.8435
  2877.3500      0.0000    819.9762      3.2296     72.8435
  2877.4000      0.0000    819.9762      3.2296     72.8435
  2877.4500      0.0000    819.9762      3.2296     72.8435
  2877.5000      0.0000    828.6597      3.4232     70.4664
  2877.5500      0.0000    828.6597      3.4232     70.4664
  2877.6000      0.0000    828.6597      3.4232     70.4664
  2877.6500      0.0000    828.6597      3.4232     70.4664
  2877.7000      0.0000    828.6597      3.4232     70.4664
  2877.7500      0.0000    829.0198      3.5947     66.5567
  2877.8000      0.0000    829.0198      3.5947     66.5567
  2877.8500      0.0000    829.0198      3.5947     66.5567
  2877.9000      0.0000    829.0198      3.5947     66.5567
  2877.9500      0.0000    829.0198      3.5947     66.5567
  2878.0000      0.0000    823.1208      3.7188     62.6139
  2878.0500      0.0000    823.1208      3.7188     62.6139
  2878.1000      0.0000    823.1208      3.7188     62.6139
  2878.1500      0.0000    823.1208      3.7188     62.6139
  2878.2000      0.0000    823.1208      3.7188     62.6139
  2878.2500      0.0000    815.2354      3.7774     59.9234
  2878.3000      0.0000    815.2354      3.7774     59.9234
  2878.3500      0.0000    815.2354      3.7774     59.9234
  2878.4000      0.0000    815.2354      3.7774     59.9234
  2878.4500      0.0000    815.2354      3.7774     59.9234
  2878.5000      0.0000    808.8848      3.7675     59.9202
  2878.5500      0.0000    808.8848      3.7675     59.9202
  2878.6000      0.0000    808.8848      3.7675     59.9202
  2878.6500      0.0000    808.8848      3.7675     59.9202
  2878.7000      0.0000    808.8848      3.7675     59.9202
  2878.7500      0.0000    805.1191      3.7033     63.8705
  2878.8000      0.0000    805.1191      3.7033     63.8705
  2878.8500      0.0000    805.1191      3.7033     63.8705
  2878.9000      0.0000    805.1191      3.7033     63.8705
  2878.9500      0.0000    805.1191      3.7033     63.8705
  2879.0000      0.0000    803.1857      3.6127     71.8061
  2879.0500      0.0000    803.1857      3.6127     71.8061
  2879.1000      0.0000    803.1857      3.6127     71.8061
  2879.1500      0.0000    803.1857      3.6127     71.8061
  2879.2000      0.0000    803.1857      3.6127     71.8061
  2879.2500      0.0000    801.8202      3.5250     82.0755
  2879.3000      0.0000    801.8202      3.5250     82.0755
  2879.3500      0.0000    801.8202      3.5250     82.0755
  2879.4000      0.0000    801.8202      3.5250     82.0755
  2879.4500      0.0000    801.8202      3.5250     82.0755
  2879.5000      0.0000    799.5801      3.4596     92.0753
  2879.5500      0.0000    799.5801      3.4596     92.0753
  2879.6000      0.0000    799.5801      3.4596     92.0753
  2879.6500      0.0000    799.5801      3.4596     92.0753
  2879.7000      0.0000    799.5801      3.4596     92.0753
  2879.7500      0.0000    794.3558      3.4242     99.4317
  2879.8000      0.0000    794.3558      3.4242     99.4317
  2879.8500      0.0000    794.3558      3.4242     99.4317
  2879.9000      0.0000    794.3558      3.4242     99.4317
  2879.9500      0.0000    794.3558      3.4242     99.4317
  2880.0000      0.0000    783.2009      3.4175    102.9003
