~Version Information
VERS.                      2.0: CWLS Log ASCII Standard - VERSION 2.0
WRAP.                       NO: One line per depth step
~Well Information Block
STRT.FT               185.2500: 
STOP.FT              2109.7500: 
STEP.FT                 0.2500: 
NULL.                -999.2500: 
COMP.    Petrogulf Corporation: COMPANY
WELL.             State 16-44V: WELL
FLD.          Purgatorie River: FIELD
LOC.       320' FSL & 320' FEL: LOCATION
PROV.                 Colorado: PROVINCE
CNTY.               Las Animas: COUNTRY
SRVC.                Patterson: SERVICE COMPANY
DATE. Thu Aug 11 12:58:04 2005: LOG DATE
UWI.               071-08263  : UNIQUE WELL ID
~Curve Information Block
DEPT.FT            0 000 00 00: Depth
GR.GAPI                       : Gamma Ray
CCL.                          : Casing Collar Locator
TT3.usec                      : CBL 3' Travel Time
AMP3.mV                       : CBL 3' Amplitude
~Parameter Information Block
~A  Depth        GR         CCL         TT3         AMP3    
# ...
   553.7500     57.7775      0.0000    368.9934      4.8043
   554.0000     58.3099      0.0000    373.4612      4.8265
   554.2500     57.6868      2.0000    381.3470      4.8555
   554.5000     56.8004      0.0000    388.6109      4.9240
   554.7500     56.5839      0.0000    389.6532      5.1840
   555.0000     57.2107      0.0000    384.1645      5.8722
   555.2500     58.0233      0.0000    376.8842      6.9988
   555.5000     58.2240      0.0000    370.6273      8.0705
   555.7500     57.7198      0.0000    363.9203      8.5654
   556.0000     57.2129      0.0000    354.9742      8.5404
   556.2500     57.4244      0.0000    345.6524      8.3401
   556.5000     58.4230      0.0000    340.1905      8.1467
   556.7500     59.7356      0.0000    339.5682      8.0059
   557.0000     60.7528      0.0000    339.7685      7.9159
   557.2500     60.9085      0.0000    337.3445      7.8449
   557.5000     59.8491      0.0000    333.4974      7.7806
   557.7500     57.7594      0.0000    330.8268      7.7442
   558.0000     55.4029      0.0000    329.9935      7.7327
   558.2500     53.6576      0.0000    330.9500      7.6979
   558.5000     53.0432      0.0000    334.6312      7.5949
   558.7500     53.6441      0.0000    341.8115      7.4235
   559.0000     55.1627      0.0000    350.5446      7.2349
   559.2500     57.0748      0.0000    356.5728      7.1015
   559.5000     59.0627      0.0000    356.7487      7.0557
   559.7500     61.2133      0.0000    351.0415      7.0662
   560.0000     63.5642      0.0000    342.5033      7.0825
   560.2500     65.6874      0.0000    335.3531      7.0726
   560.5000     66.9201      0.0000    331.7665      7.0176
   560.7500     66.9225      0.0000    331.6104      6.9057
   561.0000     66.0516      0.0000    334.8961      6.7350
   561.2500     65.3827      0.0000    341.9061      6.5181
   561.5000     66.2346      0.0000    350.7925      6.2814
   561.7500     69.3232      0.0000    357.9531      6.0544
   562.0000     74.2321      0.0000    361.6006      5.8507
   562.2500     79.7422      0.0000    362.7328      5.6625
   562.5000     84.6037      0.0000    362.9494      5.4838
   562.7500     88.0026      0.0000    363.0653      5.3288
   563.0000     89.5158      0.0000    363.2733      5.2174
   563.2500     88.9337      0.0000    363.5896      5.1552
   563.5000     86.2933      0.0000    364.0787      5.1398
   563.7500     82.0794      0.0000    364.8995      5.1840
   564.0000     77.2710      0.0000    366.2071      5.3006
   564.2500     73.0082      0.0000    367.8752      5.4573
   564.5000     70.1390      0.0000    369.3579      5.5952
   564.7500     68.9977      0.0000    370.1255      5.6860
   565.0000     69.4011      0.0000    370.1686      5.7346
   565.2500     70.7723      0.0000    369.8725      5.7589
   565.5000     72.3117      0.0000    369.6378      5.7803
   565.7500     73.1944      0.0000    369.6939      5.8138
   566.0000     72.8677      0.0000    370.0043      5.8639
   566.2500     71.3084      0.0000    370.2821      5.9186
   566.5000     68.8930      0.0000    370.1932      5.9394
   566.7500     66.0744      0.0000    369.5509      5.8767
   567.0000     63.4192      0.0000    368.3095      5.7214
   567.2500     61.8156      0.0000    366.6241      5.5343
   567.5000     62.1395      0.0000    364.9584      5.3817
   567.7500     64.5375      0.0000    363.8067      5.2615
   568.0000     68.1005      0.0000    363.3065      5.1440
   568.2500     71.1729      0.0000    363.2304      5.0388
   568.5000     72.1475      0.0000    363.2766      4.9808
   568.7500     70.4415      0.0000    363.2953      4.9809
   569.0000     67.0097      0.0000    363.2571      5.0095
   569.2500     63.7430      0.0000    363.1661      5.0216
   569.5000     62.0710      0.0000    363.0698      4.9971
   569.7500     62.0691      0.0000    363.0468      4.9552
   570.0000     62.9010      0.0000    363.1260      4.9245
   570.2500     63.9353      0.0000    363.2478      4.8986
   570.5000     65.3387      0.0000    363.3229      4.8427
   570.7500     67.7843      0.0000    363.3240      4.7539
   571.0000     71.7795      0.0000    363.3235      4.6787
   571.2500     77.0988      0.0000    363.4356      4.6522
   571.5000     82.6161      0.0000    363.7138      4.6714
   571.7500     86.7564      0.0000    364.1264      4.7331
   572.0000     88.4695      0.0000    364.6032      4.8341
   572.2500     87.9970      0.0000    365.0827      4.9450
   572.5000     86.4484      0.0000    365.5528      5.0307
   572.7500     84.4604      0.0000    366.0181      5.0787
   573.0000     81.7036      0.0000    366.3820      5.0907
   573.2500     78.0152      0.0000    366.4524      5.0685
   573.5000     74.5075      0.0000    366.1293      5.0183
   573.7500     72.8760      0.0000    365.5088      4.9483
   574.0000     73.5807      0.0000    364.7891      4.8560
   574.2500     75.1228      0.0000    364.1475      4.7282
   574.5000     75.2868      0.0000    363.7038      4.5562
   574.7500     72.9256      0.0000    363.5415      4.3532
   575.0000     68.6677      0.0000    363.7115      4.1617
   575.2500     64.3693      0.0000    364.1989      4.0385
   575.5000     62.0346      0.0000    364.8969      4.0136
   575.7500     62.7867      0.0000    365.5724      4.0553
   576.0000     66.4070      0.0000    365.9014      4.0958
   576.2500     71.8187      0.0000    365.7239      4.0884
   576.5000     78.0837      0.0000    365.2414      4.0378
   576.7500     84.8430      0.0000    364.7925      3.9867
   577.0000     91.8781      0.0000    364.5119      3.9613
   577.2500     98.6720      0.0000    364.3094      3.9353
   577.5000    104.7122      0.0000    364.0803      3.8801
   577.7500    110.0609      0.0000    363.8406      3.8134
   578.0000    115.2252      0.0000    363.7025      3.7648
   578.2500    120.2796      0.0000    363.7897      3.7371
   578.5000    124.2615      0.0000    364.1414      3.7199
   578.7500    125.6640      0.0000    364.6665      3.7103
   579.0000    123.6201      0.0000    365.1925      3.7127
   579.2500    118.5078      0.0000    365.5118      3.7177
   579.5000    111.4507      0.0000    365.4245      3.6909
   579.7500    103.5531      0.0000    364.8650      3.6142
   580.0000     95.8075      0.0000    364.0003      3.5223
   580.2500     89.3185      0.0000    363.1400      3.4618
   580.5000     84.8773      0.0000    362.5345      3.4361
   580.7500     82.1037      0.0000    362.2437      3.4071
   581.0000     79.5291      0.0000    362.1850      3.3463
   581.2500     75.9128      0.0000    362.2781      3.2667
   581.5000     71.4345      0.0000    362.4904      3.1973
   581.7500     67.6045      0.0000    362.7532      3.1502
   582.0000     66.0041      0.0000    362.9305      3.1233
   582.2500     66.8539      0.0000    362.9237      3.1115
   582.5000     68.7392      0.0000    362.7593      3.1052
   582.7500     69.8706      0.0000    362.5609      3.0935
   583.0000     69.4447      0.0000    362.4602      3.0665
   583.2500     67.6206      0.0000    362.5055      3.0279
   583.5000     64.6525      0.0000    362.6637      3.0142
   583.7500     60.5897      0.0000    362.9148      3.0711
   584.0000     55.7149      0.0000    363.2817      3.2022
   584.2500     50.7893      0.0000    363.7628      3.3646
   584.5000     46.6895      0.0000    364.2598      3.5157
   584.7500     43.9188      0.0000    364.6156      3.6433
   585.0000     42.4965      0.0000    364.7564      3.7353
   585.2500     42.1841      0.0000    364.7612      3.7651
   585.5000     42.6453      0.0000    364.7795      3.7453
   585.7500     43.3905      0.0000    364.8933      3.7379
   586.0000     43.9523      0.0000    365.0549      3.7737
   586.2500     44.4190      0.0000    365.1563      3.8132
   586.5000     45.5212      0.0000    365.1454      3.8114
   586.7500     48.0145      0.0000    365.0644      3.7766
   587.0000     52.2814      0.0000    364.9784      3.7434
