~Version Information
VERS.                      2.0: CWLS Log ASCII Standard - VERSION 2.0
WRAP.                       NO: One line per depth step
~Well Information Block
STRT.FT               930.0000: 
STOP.FT              2783.2500: 
STEP.FT                 0.2500: 
NULL.                -999.2500: 
COMP.          Pioneer Natural Resources: COMPANY
WELL.           Desoto 13-7TR: WELL
FLD.           Purgatoire River: FIELD
LOC.           1404' FSL & 1115' FWL: LOCATION
PROV.                 Colorado: PROVINCE
CNTY.               Las Animas: COUNTRY
SRVC.                Patterson: SERVICE COMPANY
DATE.          Fri Jan 14 11:02:13 2005: LOG DATE
UWI.           05 071 08216 00: UNIQUE WELL ID
~Curve Information Block
DEPT.FT            0 000 00 00: Depth
SN.Ohm-m                      : IEL Short Normal
SP.mV                         : IEL Spontaneous Potential
DIR.Ohm-m                     : IEL Induction Resistivity
GR.GAPI                       : Gamma Ray
~Parameter Information Block
~A  Depth        SN          SP         DIR          GR     
# ...
  2270.0000      6.8597    -94.7998      7.1027    151.7064
  2270.2500      6.7029    -94.9208      6.9793    152.6900
  2270.5000      6.7278    -95.1408      6.8832    151.2597
  2270.7500      6.9538    -95.4687      6.8207    148.6384
  2271.0000      7.3480    -95.9043      6.7926    143.7285
  2271.2500      7.8283    -96.4403      6.7948    140.8440
  2271.5000      8.2908    -97.0621      6.8204    137.8013
  2271.7500      8.6499    -97.7483      6.8629    136.2182
  2272.0000      8.8692    -98.4717      6.9172    133.6794
  2272.2500      8.9649    -99.2016      6.9799    132.0648
  2272.5000      8.9824    -99.9077      7.0482    130.8613
  2272.7500      8.9670   -100.5639      7.1190    131.1035
  2273.0000      8.9415   -101.1522      7.1884    132.0224
  2273.2500      8.8987   -101.6630      7.2511    132.1672
  2273.5000      8.8152   -102.0953      7.3018    131.2357
  2273.7500      8.6803   -102.4548      7.3380    130.2513
  2274.0000      8.5135   -102.7535      7.3636    129.1252
  2274.2500      8.3530   -103.0086      7.3897    128.8925
  2274.5000      8.2302   -103.2438      7.4323    129.3892
  2274.7500      8.1549   -103.4886      7.5058    130.1393
  2275.0000      8.1249   -103.7772      7.6191    131.4273
  2275.2500      8.1459   -104.1457      7.7753    132.2110
  2275.5000      8.2459   -104.6289      7.9761    133.3477
  2275.7500      8.4721   -105.2573      8.2265    134.1219
  2276.0000      8.8835   -106.0573      8.5371    135.0316
  2276.2500      9.5446   -107.0528      8.9222    135.3157
  2276.5000     10.5153   -108.2693      9.3957    135.3601
  2276.7500     11.8243   -109.7378      9.9672    135.1105
  2277.0000     13.4448   -111.4973     10.6410    133.5158
  2277.2500     15.3002   -113.5932     11.4168    130.9252
  2277.5000     17.3063   -116.0709     12.2931    123.9941
  2277.7500     19.4319   -118.9622     13.2707    117.3925
  2278.0000     21.7412   -122.2676     14.3563    105.4152
  2278.2500     24.3814   -125.9378     15.5632     97.0055
  2278.5000     27.5046   -129.8584     16.9054     85.6687
  2278.7500     31.1518   -133.8453     18.3865     79.6508
  2279.0000     35.1655   -137.6524     19.9855     72.6288
  2279.2500     39.1876   -140.9952     21.6476     68.5749
  2279.5000     42.7547   -143.5869     23.2815     62.7567
  2279.7500     45.4387   -145.1812     24.7667     59.3757
  2280.0000     46.9631   -145.6153     25.9701     56.2805
  2280.2500     47.2528   -144.8394     26.7722     56.0623
  2280.5000     46.4222   -142.9266     27.0937     58.4505
  2280.7500     44.7283   -140.0573     26.9146     61.3608
  2281.0000     42.5001   -136.4818     26.2820     66.8301
  2281.2500     40.0431   -132.4725     25.3006     71.0714
  2281.5000     37.5431   -128.2796     24.1075     78.7082
  2281.7500     35.0363   -124.1027     22.8355     84.8067
  2282.0000     32.4730   -120.0817     21.5833     94.7049
  2282.2500     29.8214   -116.3029     20.4049    100.7370
  2282.5000     27.1278   -112.8129     19.3172    107.3304
  2282.7500     24.5099   -109.6310     18.3180    109.9962
  2283.0000     22.1134   -106.7561     17.4015    112.2792
  2283.2500     20.0600   -104.1689     16.5671    112.9677
  2283.5000     18.4085   -101.8339     15.8203    112.6659
  2283.7500     17.1482    -99.7049     15.1684    111.7495
  2284.0000     16.2263    -97.7345     14.6153    110.3225
  2284.2500     15.5777    -95.8854     14.1551    109.8435
  2284.5000     15.1340    -94.1385     13.7686    109.9677
  2284.7500     14.8234    -92.4943     13.4281    110.5365
  2285.0000     14.5815    -90.9675     13.1114    112.2264
  2285.2500     14.3690    -89.5772     12.8131    113.9712
  2285.5000     14.1783    -88.3371     12.5441    117.3398
  2285.7500     14.0247    -87.2513     12.3174    119.9002
  2286.0000     13.9317    -86.3161     12.1364    123.8794
  2286.2500     13.9153    -85.5275     11.9945    126.3429
  2286.5000     13.9747    -84.8898     11.8834    129.0798
  2286.7500     14.0942    -84.4221     11.8030    129.9409
  2287.0000     14.2573    -84.1589     11.7642    129.7912
  2287.2500     14.4597    -84.1442     11.7859    129.1127
  2287.5000     14.7117    -84.4199     11.8875    127.9261
  2287.7500     15.0290    -85.0105     12.0837    127.0215
  2288.0000     15.4246    -85.9068     12.3815    124.7727
  2288.2500     15.9041    -87.0505     12.7809    122.2900
  2288.5000     16.4592    -88.3262     13.2746    116.9870
  2288.7500     17.0539    -89.5636     13.8458    112.5334
  2289.0000     17.6149    -90.5554     14.4618    104.8291
  2289.2500     18.0353    -91.0893     15.0647     99.4413
  2289.5000     18.1979    -90.9892     15.5663     92.1299
  2289.7500     18.0161    -90.1521     15.8581     88.3367
  2290.0000     17.4779    -88.5709     15.8442     84.5715
  2290.2500     16.6621    -86.3326     15.4846     83.3251
  2290.5000     15.7039    -83.5951     14.8201     83.7568
  2290.7500     14.7305    -80.5503     13.9538     86.1054
  2291.0000     13.8186    -77.3878     13.0043     93.1469
  2291.2500     12.9970    -74.2685     12.0643     99.5763
  2291.5000     12.2720    -71.3139     11.1862    109.4471
  2291.7500     11.6385    -68.6080     10.3913    114.8072
  2292.0000     11.0760    -66.2056      9.6865    120.1824
  2292.2500     10.5507    -64.1398      9.0757    122.5166
  2292.5000     10.0313    -62.4274      8.5610    125.6439
  2292.7500      9.5093    -61.0699      8.1416    127.8216
  2293.0000      9.0070    -60.0547      7.8124    130.0405
  2293.2500      8.5666    -59.3559      7.5651    129.5406
  2293.5000      8.2299    -58.9387      7.3882    124.6723
  2293.7500      8.0207    -58.7646      7.2660    119.3910
  2294.0000      7.9385    -58.7969      7.1785    111.2356
  2294.2500      7.9615    -59.0050      7.1044    107.0037
  2294.5000      8.0556    -59.3654      7.0271    102.7946
  2294.7500      8.1864    -59.8589      6.9387    100.6934
  2295.0000      8.3278    -60.4645      6.8423     97.3577
  2295.2500      8.4646    -61.1516      6.7480     94.8247
  2295.5000      8.5871    -61.8736      6.6675     91.0443
  2295.7500      8.6843    -62.5674      6.6097     88.9956
  2296.0000      8.7426    -63.1583      6.5794     87.3934
  2296.2500      8.7449    -63.5732      6.5771     87.6296
  2296.5000      8.6689    -63.7547      6.6004     89.9570
  2296.7500      8.4873    -63.6750      6.6447     92.3912
  2297.0000      8.1775    -63.3410      6.7050     96.2083
  2297.2500      7.7398    -62.7917      6.7783     98.3498
  2297.5000      7.2117    -62.0874      6.8637    100.6667
  2297.7500      6.6700    -61.2972      6.9619    101.5199
  2298.0000      6.2189    -60.4881      7.0727    101.2584
  2298.2500      5.9684    -59.7198      7.1952     99.8026
  2298.5000      6.0023    -59.0442      7.3277     96.2022
  2298.7500      6.3413    -58.5078      7.4679     93.8190
  2299.0000      6.9225    -58.1527      7.6104     92.2967
  2299.2500      7.6143    -58.0155      7.7457     93.4566
  2299.5000      8.2686    -58.1221      7.8617     98.3870
  2299.7500      8.7817    -58.4829      7.9503    102.8791
  2300.0000      9.1266    -59.0893      8.0138    109.1864
  2300.2500      9.3355    -59.9145      8.0661    112.1136
  2300.5000      9.4560    -60.9178      8.1264    114.2572
  2300.7500      9.5225    -62.0517      8.2095    114.7142
  2301.0000      9.5565    -63.2684      8.3189    115.1355
  2301.2500      9.5754    -64.5255      8.4494    115.5141
  2301.5000      9.5941    -65.7875      8.5929    115.7034
  2301.7500      9.6218    -67.0270      8.7436    115.2528
  2302.0000      9.6590    -68.2222      8.8973    114.2148
  2302.2500      9.6996    -69.3571      9.0468    113.9069
  2302.5000      9.7357    -70.4195      9.1803    114.2065
  2302.7500      9.7614    -71.4018      9.2855    114.3255
  2303.0000      9.7726    -72.3006      9.3562    113.4109
  2303.2500      9.7667    -73.1165      9.3960    112.1354
