~Version Information
VERS.                      2.0: CWLS Log ASCII Standard - VERSION 2.0
WRAP.                       NO: One line per depth step
~Well Information Block
STRT.FT                -6.0000: 
STOP.FT              2490.5000: 
STEP.FT                 0.2500: 
NULL.                -999.2500: 
COMP.          Pioneer Natural Resources: COMPANY
WELL.          Aztec Federal 41-15: WELL
FLD.           Purgatorie River: FIELD
LOC.           706' FNL & 1253' FEL--: LOCATION
CNTY.               Las Animas: COUNTY
SRVC.          Superior Well Services: SERVICE COMPANY
DATE.          Wed May 28 14-18-16 2008: LOG DATE
UWI.           05 071 08342 00: UNIQUE WELL ID
STAT.                       CO: STATE
~Curve Information Block
DEPT.FT            0 000 00 00: Depth
GR.GAPI                       : Gamma Ray
CCL.                          : Casing Collar Locator
AMP3FT.mV                     : AMP3FT Amplitude
TT3FT.usec                    : 3FT Travel Time
AMP5FT.mV                     : AMP5FT Amplitude
~Parameter Information Block
~A  Depth        GR         CCL        AMP3FT      TT3FT       AMP5FT   
# ...
   162.0000     72.7631      0.0000     68.3161    287.2214     64.5712
   162.2500     72.8459      0.0000     68.4067    287.1537     64.7008
   162.5000     71.0369      0.0000     68.4861    287.0909     64.7704
   162.7500     68.1891      0.0000     68.5372    287.0565     64.7847
   163.0000     65.3588      0.0000     68.5565    287.0733     64.7576
   163.2500     63.6501      0.0000     68.5513    287.1426     64.6978
   163.5000     63.7024      0.0000     68.5348    287.2338     64.6065
   163.7500     65.4034      0.0000     68.5228    287.3017     64.4917
   164.0000     68.2628      0.0000     68.5278    287.3175     64.3836
   164.2500     71.8346      0.0000     68.5546    287.2820     64.3284
   164.5000     75.7326      0.0000     68.5965    287.2171     64.3607
   164.7500     79.6441      0.0000     68.6367    287.1538     64.4831
   165.0000     83.3521      0.0000     68.6556    287.1259     64.6714
   165.2500     86.3440      0.0000     68.6397    287.1579     64.8922
   165.5000     87.5914      0.0000     68.5873    287.2482     65.1116
   165.7500     86.2588      0.0000     68.5083    287.3618     65.2985
   166.0000     82.5428      0.0000     68.4210    287.4495     65.4330
   166.2500     77.4665      0.0000     68.3468    287.4800     65.5145
   166.5000     72.1100      0.0000     68.3028    287.4547     65.5582
   166.7500     67.3400      0.0000     68.2958    287.3984     65.5837
   167.0000     63.8460      0.0000     68.3205    287.3438     65.6046
   167.2500     61.8784      0.0000     68.3651    287.3224     65.6244
   167.5000     61.0255      0.0000     68.4176    287.3564     65.6384
   167.7500     60.4578      0.0000     68.4667    287.4438     65.6407
   168.0000     59.3916      0.0000     68.4995    287.5496     65.6351
   168.2500     57.5070      0.0000     68.5039    287.6232     65.6366
   168.5000     55.2496      0.0000     68.4768    287.6328     65.6639
   168.7500     53.6505      0.0000     68.4308    287.5817     65.7254
   169.0000     53.5117      0.0000     68.3887    287.4951     65.8143
   169.2500     54.6457      0.0000     68.3661    287.4001     65.9166
   169.5000     56.0662      0.0000     68.3598    287.3208     66.0213
   169.7500     56.9655      0.0000     68.3534    287.2805     66.1160
   170.0000     57.3096      0.0000     68.3342    287.2961     66.1798
   170.2500     57.3784      0.0000     68.3003    287.3645     66.1899
   170.5000     57.0322      0.0000     68.2530    287.4557     66.1388
   170.7500     55.7836      0.0000     68.1921    287.5257     66.0435
   171.0000     53.4880      0.0000     68.1281    287.5431     65.9380
   171.2500     50.5454      0.0000     68.0893    287.5043     65.8559
   171.5000     47.3389      0.0000     68.1061    287.4298     65.8129
   171.7500     43.9077      0.0000     68.1826    287.3531     65.8016
   172.0000     40.4753      0.0000     68.2914    287.3109     65.8042
   172.2500     37.9066      0.0000     68.3974    287.3290     65.8105
   172.5000     37.1308      0.0000     68.4790    287.4059     65.8219
   172.7500     38.1889      0.0000     68.5249    287.5065     65.8412
   173.0000     40.1579      0.0000     68.5245    287.5813     65.8674
   173.2500     41.9465      0.0000     68.4723    287.5985     65.9031
   173.5000     43.0727      0.0000     68.3784    287.5590     65.9577
   173.7500     43.8542      0.0000     68.2666    287.4864     66.0363
   174.0000     44.9353      0.0000     68.1605    287.4120     66.1258
   174.2500     46.4867      0.0000     68.0745    287.3662     66.1964
   174.5000     47.9793      0.0000     68.0130    287.3720     66.2146
   174.7500     48.9526      0.0000     67.9701    287.4321     66.1584
   175.0000     49.6746      0.0000     67.9287    287.5196     66.0254
   175.2500     50.5887      0.0000     67.8679    287.5900     65.8358
   175.5000     51.4139      0.0000     67.7789    287.6096     65.6271
   175.7500     51.3493      0.0000     67.6747    287.5742     65.4390
   176.0000     50.0033      0.0000     67.5839    287.5021     65.2940
   176.2500     47.7179      0.0000     67.5314    287.4185     65.1906
   176.5000     45.1741      0.0000     67.5205    287.3469     65.1154
   176.7500     42.9342      0.0000     67.5280    287.3105     65.0554
   177.0000     41.2403      0.0000     67.5175    287.3280     65.0031
   177.2500     40.1366      0.0000     67.4643    287.3986     64.9578
   177.5000     39.7386      0.0000     67.3713    287.4919     64.9239
   177.7500     40.1953      0.0000     67.2629    287.5615     64.9029
   178.0000     41.4154      0.0000     67.1641    287.5746     64.8849
   178.2500     43.1425      0.0000     67.0878    287.5287     64.8555
   178.5000     45.3073      0.0000     67.0355    287.4461     64.8097
   178.7500     47.9826      0.0000     67.0006    287.3606     64.7546
   179.0000     50.9382      0.0000     66.9702    287.3080     64.6951
   179.2500     53.4940      0.0000     66.9303    287.3144     64.6233
   179.5000     54.9100      0.0000     66.8755    287.3802     64.5210
   179.7500     54.9007      0.0000     66.8062    287.4720     64.3742
   180.0000     53.9199      0.0000     66.7189    287.5403     64.1863
   180.2500     52.9727      0.0000     66.6095    287.5537     63.9848
   180.5000     52.8818      0.0000     66.4878    287.5143     63.8130
   180.7500     53.5913      0.0000     66.3736    287.4488     63.6962
   181.0000     54.3153      0.0000     66.2738    287.3907     63.6110
   181.2500     54.3382      0.0000     66.1720    287.3672     63.5030
   181.5000     53.4910      0.0000     66.0472    287.3868     63.3460
   181.7500     52.0065      0.0000     65.8936    287.4360     63.1695
   182.0000     50.2244      0.0000     65.7170    287.4930     63.0211
   182.2500     48.4888      0.0000     65.5255    287.5438     62.9127
   182.5000     47.1682      0.0000     65.3400    287.5784     62.8093
   182.7500     46.6477      0.0000     65.2029    287.5823     62.6535
   183.0000     47.1802      0.0000     65.1559    287.5413     62.3937
   183.2500     48.7161      0.0000     65.2078    287.4528     62.0102
   183.5000     50.9651      0.0000     65.3318    287.3267     61.5369
   183.7500     53.5697      0.0000     65.4861    287.1805     61.0525
   184.0000     56.0815      0.0000     65.6273    287.0383     60.6315
   184.2500     57.8411      0.0000     65.7170    286.9305     60.2991
   184.5000     58.1733      0.0000     65.7347    286.8830     60.0341
   184.7500     56.9483      0.0000     65.6889    286.9000     59.8091
   185.0000     54.8512      0.0000     65.6113    286.9538     59.6158
   185.2500     52.7260      0.0000     65.5343    287.0000     59.4576
   185.5000     50.7720      0.0000     65.4763    287.0034     59.3343
   185.7500     48.8998      0.0000     65.4382    286.9538     59.2388
   186.0000     47.6109      0.0000     65.4072    286.8626     59.1590
   186.2500     47.7464      0.0000     65.3671    286.7521     59.0787
   186.5000     49.4613      0.0000     65.3068    286.6458     58.9812
   186.7500     52.1466      0.0000     65.2214    286.5661     58.8483
   187.0000     55.3031      0.0000     65.1081    286.5343     58.6451
   187.2500     58.9643      0.0000     64.9669    286.5656     58.3033
   187.5000     63.1767      0.0000     64.8001    286.6565     57.7288
   187.7500     67.3450      0.0000     64.5969    286.7816     56.8372
   188.0000     70.4614      0.0000     64.2894    286.9198     55.5413
   188.2500     72.1599      0.0000     63.7084    287.1045     53.6715
   188.5000     73.1600      0.0000     62.5951    287.4781     51.0166
   188.7500     74.2216      0.0000     60.7380    288.3189     47.6408
   189.0000     74.9694      0.0000     58.1598    290.0236     44.1466
   189.2500     74.2806      0.0000     55.1395    292.9306     41.3853
   189.5000     71.6759      0.0000     52.0190    296.8655     39.8237
   189.7500     67.9357      0.0000     49.0826    300.7295     39.3002
