~Version Information
 VERS.                                  2.0 : CWLS LAS VERSION
 WRAP.                                   NO : WRAPING MODE
 SWARE .                 MController 2.5.0I : SOFTWARE VERSION
~Well Information
 WELL.                        Montoya 1-44v : WELL
 COMP.                       Petrogulf Corp : COMPANY
 FLD.                      Purgatorie River : FIELD
 LOC.                 SE/SE Sec 1 T33S R68W : LOCATION
 DATE.                           8/24-25/04 : DATE(S) LOGGED
 SRVC.       Blanco Geological services LLC : SERVICE COMPANY
 STAT.                                   CO : STATE
 CNTY.                           Las Animas : COUNTY
 CTRY.                                  USA : COUNTRY
 API.                       05-071-08142-00 : API NUMBER
 STRT.FT                             556.00 : START DEPTH
 STOP.FT                            2600.00 : STOP DEPTH
 STEP.FT                               1.00 : DEPTH INCREMENT
 NULL.                                -9999 : NULL VALUE
~Curve information
 DEPTH.FT                                   :
 ROP.MIN/FT                                 :
 GAS.UNITS                                  :
~ASCII Log data
# ...
      1156.0          0.2          3.3 
      1157.0          0.2          3.3 
      1158.0          0.2          3.5 
      1159.0          0.2          3.2 
      1160.0          0.3          3.4 
      1161.0          0.3          3.6 
      1162.0          0.4          3.4 
      1163.0          0.4          3.6 
      1164.0          0.3          3.3 
      1165.0          0.3          3.3 
      1166.0          0.3          3.5 
      1167.0          0.2          3.7 
      1168.0          2.7         52.1 
      1169.0          0.7          7.4 
      1170.0          0.9          4.6 
      1171.0          1.0          2.7 
      1172.0          0.7          2.8 
      1173.0          0.6          2.7 
      1174.0          0.8          6.3 
      1175.0          0.8          5.6 
      1176.0          0.7          2.8 
      1177.0          0.5          2.9 
      1178.0          0.6          3.2 
      1179.0          0.4          3.4 
      1180.0          0.5          5.1 
      1181.0          0.7          8.1 
      1182.0          0.4          7.3 
      1183.0          0.6          4.8 
      1184.0          0.6          3.0 
      1185.0          0.6          3.2 
      1186.0          0.6          3.5 
      1187.0          0.4          3.6 
      1188.0          0.6          4.0 
      1189.0          0.3          6.7 
      1190.0          0.6         15.6 
      1191.0          0.6         14.3 
      1192.0          0.6          4.3 
      1193.0          0.7          2.9 
      1194.0          0.5          3.0 
      1195.0          0.6          3.1 
      1196.0          0.5          3.3 
      1197.0          0.6          3.3 
      1198.0         10.1         78.7 
      1199.0        202.6       9051.4 
      1200.0          0.3          0.1 
      1201.0          0.5         -0.1 
      1202.0          0.5         -0.4 
      1203.0          0.4         -0.1 
      1204.0          0.4          0.0 
      1205.0          0.4         -0.1 
      1206.0          0.3          0.1 
      1207.0          0.3          0.2 
      1208.0          0.3          0.2 
      1209.0          0.3          0.1 
      1210.0          0.5          0.4 
      1211.0          0.5          0.5 
      1212.0          0.5          0.2 
      1213.0          0.9          0.7 
      1214.0          0.4          0.6 
      1215.0          0.3          0.2 
      1216.0          0.6          0.1 
      1217.0          0.5         -0.3 
      1218.0          0.4         -0.1 
      1219.0          0.4          0.0 
      1220.0          0.3         -0.2 
      1221.0          0.3         -0.2 
      1222.0          0.3         -0.2 
      1223.0          0.3         -0.2 
      1224.0          0.4          0.0 
      1225.0          0.4         -0.1 
      1226.0          0.4         -0.1 
      1227.0          0.3          0.5 
      1228.0          0.3          1.5 
      1229.0          0.1          1.8 
      1230.0          0.5          3.5 
      1231.0          0.4         10.6 
      1232.0          0.7         31.3 
      1233.0          1.7         89.8 
      1234.0          0.3          2.8 
      1235.0          0.4          0.2 
      1236.0          0.5         -0.6 
      1237.0          0.5         -0.9 
      1238.0          0.5         -0.4 
      1239.0          0.6         -0.3 
      1240.0          0.9         -0.1 
      1241.0          0.6         -0.5 
      1242.0          0.5         -0.7 
      1243.0          0.3          2.5 
      1244.0          0.2          2.5 
      1245.0          0.4          3.7 
      1246.0          0.6          1.5 
      1247.0          0.3          1.1 
      1248.0          0.3          1.2 
      1249.0          0.4          1.6 
      1250.0          0.4          1.7 
      1251.0          0.3          1.8 
      1252.0          0.4          1.9 
      1253.0          0.5          2.1 
      1254.0          0.6          2.5 
      1255.0          0.4          3.3 
      1256.0          0.4          3.4 
      1257.0          0.3          2.3 
      1258.0          0.3          2.0 
      1259.0          0.4          2.0 
      1260.0          0.4          2.3 
      1261.0          0.3          2.4 
      1262.0          0.3          2.2 
      1263.0          0.3          2.0 
      1264.0          0.3          2.1 
      1265.0          2.4         14.9 
      1266.0          0.4          4.1 
      1267.0          0.2          2.5 
      1268.0          0.2          2.7 
      1269.0          0.2          3.9 
      1270.0          0.4          4.0 
      1271.0          0.3          3.4 
      1272.0          0.3          2.9 
      1273.0          0.3          2.4 
      1274.0          0.3          2.2 
      1275.0          0.3          2.3 
      1276.0          0.3          2.1 
      1277.0          0.3          2.6 
      1278.0          0.4          2.7 
      1279.0          0.4          2.3 
      1280.0          0.3          1.9 
      1281.0          0.2          2.1 
      1282.0          0.3          2.2 
      1283.0          0.2          2.3 
      1284.0          0.2          2.3 
      1285.0          0.3          2.5 
      1286.0          0.3          2.5 
      1287.0          0.5          2.4 
      1288.0          0.4          2.2 
      1289.0          0.4          2.1 
      1290.0          0.4          2.1 
      1291.0          0.4          2.4 
      1292.0          0.7          2.5 
      1293.0          0.3          2.2 
      1294.0          0.4          2.5 
      1295.0          3.5         23.7 
      1296.0          0.4          2.7 
      1297.0          0.4          2.5 
      1298.0          0.4          2.5 
      1299.0          0.4          2.6 
      1300.0          0.5          2.4 
      1301.0          0.5          2.4 
      1302.0          0.5          2.3 
      1303.0          0.6          2.3 
      1304.0          0.5          2.6 
      1305.0          0.5          2.6 
      1306.0          0.4          2.6 
      1307.0          0.5          2.7 
      1308.0          0.5          2.7 
      1309.0          0.5          2.7 
      1310.0          0.4          2.7 
      1311.0          0.4          2.6 
      1312.0          0.4          2.6 
      1313.0          0.5          2.6 
      1314.0          0.5          2.7 
      1315.0          0.7          2.6 
      1316.0          0.7          2.8 
      1317.0          0.6          2.6 
      1318.0          0.2          2.8 
      1319.0          0.5          3.0 
      1320.0          0.4          3.1 
      1321.0          0.5          2.9 
      1322.0          0.4          2.8 
      1323.0          0.4          3.0 
      1324.0          0.3          2.6 
      1325.0          2.4         44.8 
      1326.0          0.3         22.0 
      1327.0          0.4          7.4 
      1328.0          0.5          3.1 
      1329.0          0.6          2.5 
      1330.0          0.7          2.6 
      1331.0          0.8          2.8 
      1332.0          0.5          2.9 
      1333.0          0.4          3.0 
      1334.0          0.5          3.0 
      1335.0          0.2          2.9 
      1336.0          0.5          2.7 
      1337.0          0.5          2.8 
      1338.0          0.4          2.9 
      1339.0          0.3          2.7 
      1340.0          0.5          3.0 
      1341.0          0.6          3.1 
      1342.0          0.4          2.8 
      1343.0          0.4          2.7 
      1344.0          0.4          2.9 
      1345.0          0.3          3.1 
      1346.0          0.5          3.0 
      1347.0          0.2          3.0 
      1348.0          0.1          3.3 
      1349.0          0.1          4.2 
      1350.0          0.1          5.2 
      1351.0          0.1          6.6 
      1352.0          0.2          8.2 
      1353.0          0.1          8.6 
      1354.0          0.1          9.5 
      1355.0          2.7         67.1 
