~Version Information
VERS.                      2.0: CWLS Log ASCII Standard - VERSION 2.0
WRAP.                       NO: One line per depth step
~Well Information Block
STRT.FT                 0.5000: 
STOP.FT              2891.5000: 
STEP.FT                 0.2500: 
NULL.                -999.2500: 
COMP.          Petrogulf Corporation: COMPANY
WELL.            Montoya 1-41V: WELL
FLD.           Purgatoire River: FIELD
LOC.           610' FNL & 1205' FEL--: LOCATION
PROV.                 Colorado: PROVINCE
CNTY.               Las Animas: COUNTRY
SRVC.                Patterson: SERVICE COMPANY
DATE.          Mon Sep 12 11:42:30 2005: LOG DATE
UWI.           05 071 08144 00: UNIQUE WELL ID
~Curve Information Block
DEPT.FT            0 000 00 00: Depth
CCL.                          : Casing Collar Locator
TT3.usec                      : CBL 3' Travel Time
AMP3.mV                       : CBL 3' Amplitude
GR.GAPI                       : Gamma Ray
~Parameter Information Block
~A  Depth       CCL         TT3         AMP3         GR     
# ...
  2278.5000      0.0000    642.0958      1.7750    130.1584
  2278.7500      0.0000    642.5023      1.7918    124.3923
  2279.0000      0.0000    642.9749      1.7950    118.5349
  2279.2500      0.0000    643.4510      1.7881    114.2781
  2279.5000      0.0000    643.9142      1.7767    112.1093
  2279.7500      0.0000    644.3878      1.7662    111.4492
  2280.0000      0.0000    644.8854      1.7594    111.5052
  2280.2500      0.0000    645.3699      1.7552    111.6327
  2280.5000      0.0000    645.7725      1.7492    111.4150
  2280.7500      0.0000    646.0923      1.7356    111.0247
  2281.0000      0.0000    646.4982      1.7124    111.2330
  2281.2500      0.0000    647.3292      1.6830    112.5937
  2281.5000      0.0000    648.8438      1.6574    114.6522
  2281.7500      0.0000    650.7587      1.6479    116.1144
  2282.0000      0.0000    652.1340      1.6626    115.6641
  2282.2500      0.0000    652.2245      1.6992    112.6348
  2282.5000      0.0000    651.7247      1.7458    107.2906
  2282.7500      0.0000    652.7575      1.7900    100.7078
  2283.0000      0.0000    657.1876      1.8273     94.2033
  2283.2500      0.0000    664.9009      1.8588     88.7439
  2283.5000      0.0000    673.6838      1.8814     84.8930
  2283.7500      0.0000    680.6724      1.8820     83.1849
  2284.0000      0.0000    684.2049      1.8499     84.3899
  2284.2500      0.0000    684.8340      1.7904     89.3031
  2284.5000      0.0000    684.8381      1.7221     98.1886
  2284.7500      0.0000    686.2195      1.6597    110.3065
  2285.0000      0.0000    688.3807      1.6079    123.7981
  2285.2500      0.0000    688.0105      1.5672    135.9525
  2285.5000      0.0000    682.2031      1.5389    144.1141
  2285.7500      0.0000    671.7147      1.5236    147.3205
  2286.0000      0.0000    660.4560      1.5214    147.3362
  2286.2500      0.0000    652.0173      1.5337    147.3118
  2286.5000      0.0000    647.3868      1.5603    148.9650
  2286.7500      0.0000    645.6028      1.5938    151.5415
  2287.0000      0.0000    645.5292      1.6214    153.5817
  2287.2500      0.0000    646.8763      1.6352    154.9386
  2287.5000      0.0000    650.1865      1.6383    156.7013
  2287.7500      0.0000    656.0753      1.6401    159.6676
  2288.0000      0.0000    664.0890      1.6481    163.4097
  2288.2500      0.0000    672.1656      1.6646    166.6781
  2288.5000      0.0000    677.6871      1.6889    168.3362
  2288.7500      0.0000    679.5348      1.7215    167.9512
  2289.0000      0.0000    679.2776      1.7637    166.0057
  2289.2500      0.0000    680.6189      1.8151    163.8626
  2289.5000      0.0000    687.5796      1.8713    163.0102
  2289.7500      0.0000    701.6989      1.9268    163.5303
  2290.0000      0.0000    719.3958      1.9759    163.4917
  2290.2500      0.0000    732.8989      2.0091    160.6843
  2290.5000      0.0000    735.9453      2.0159    154.7734
  2290.7500      0.0000    728.9420      1.9980    147.0434
  2291.0000      0.0000    717.7823      1.9775    138.4665
  2291.2500      0.0000    708.2159      1.9845    128.9407
  2291.5000      0.0000    702.1265      2.0314    118.3185
  2291.7500      0.0000    697.9999      2.1000    107.6945
  2292.0000      0.0000    693.1027      2.1557     99.5332
  2292.2500      0.0000    685.1915      2.1727     96.4408
  2292.5000      0.0000    673.6038      2.1431     99.6688
  2292.7500      0.0000    659.8143      2.0694    108.4559
  2293.0000      0.0000    646.9472      1.9598    120.2363
  2293.2500      0.0000    638.2153      1.8317    131.4503
  2293.5000      0.0000    635.2296      1.7083    139.0333
  2293.7500      0.0000    637.2406      1.6074    141.9351
  2294.0000      0.0000    641.6810      1.5338    141.4543
  2294.2500      0.0000    645.6034      1.4840    140.3563
  2294.5000      0.0000    647.2296      1.4532    141.5223
  2294.7500      0.0000    646.6653      1.4403    146.3593
  2295.0000      0.0000    645.1306      1.4477    153.6077
  2295.2500      0.0000    643.5049      1.4789    160.0182
  2295.5000      0.0000    641.9238      1.5337    162.7490
  2295.7500      0.0000    640.6061      1.6061    161.0090
  2296.0000      0.0000    640.3255      1.6860    155.5734
  2296.2500      0.0000    641.8083      1.7632    147.6253
  2296.5000      0.0000    645.2260      1.8305    138.5215
  2296.7500      0.0000    650.6069      1.8858    129.9878
  2297.0000      0.0000    658.2119      1.9341    123.6117
  2297.2500      0.0000    667.8887      1.9837    119.8854
  2297.5000      0.0000    678.2290      2.0386    118.0130
  2297.7500      0.0000    686.8549      2.0923    116.7885
  2298.0000      0.0000    691.5766      2.1317    115.4320
  2298.2500      0.0000    691.1283      2.1491    113.6460
  2298.5000      0.0000    685.4244      2.1501    111.3644
  2298.7500      0.0000    676.0045      2.1507    108.7934
  2299.0000      0.0000    665.9620      2.1659    106.7030
  2299.2500      0.0000    658.4055      2.1932    106.5113
  2299.5000      0.0000    654.8474      2.2067    109.6922
  2299.7500      0.0000    655.2383      2.1742    116.8131
  2300.0000      0.0000    658.5896      2.0831    127.1749
  2300.2500      0.0000    662.9491      1.9505    139.2766
  2300.5000      0.0000    666.0639      1.8117    151.3830
  2300.7500      0.0000    667.1216      1.7031    161.7741
  2301.0000      0.0000    667.3770      1.6480    169.0701
  2301.2500      0.0000    668.7599      1.6498    172.7453
  2301.5000      0.0000    672.1423      1.6947    173.3112
  2301.7500      0.0000    676.8259      1.7603    171.7898
  2302.0000      0.0000    681.3384      1.8243    168.9507
  2302.2500      0.0000    684.2815      1.8700    165.2395
  2302.5000      0.0000    684.1480      1.8916    161.2153
  2302.7500      0.0000    679.1660      1.8968    157.4154
  2303.0000      0.0000    668.7430      1.8993    153.7019
  2303.2500      0.0000    655.1262      1.9092    149.4483
  2303.5000      0.0000    642.6469      1.9258    144.7687
  2303.7500      0.0000    634.9158      1.9394    141.1216
  2304.0000      0.0000    632.8854      1.9409    140.0777
  2304.2500      0.0000    635.3223      1.9343    141.7445
  2304.5000      0.0000    640.7594      1.9392    144.8944
  2304.7500      0.0000    648.8223      1.9817    148.2567
  2305.0000      0.0000    659.4681      2.0829    151.0094
  2305.2500      0.0000    671.3893      2.2524    152.4871
  2305.5000      0.0000    682.6508      2.4895    152.4045
  2305.7500      0.0000    693.2716      2.7880    151.3198
  2306.0000      0.0000    705.2422      3.1381    150.1434
  2306.2500      0.0000    718.5107      3.5216    149.2596
  2306.5000      0.0000    728.4811      3.9077    148.5124
  2306.7500      0.0000    729.8047      4.2591    147.5128
  2307.0000      0.0000    722.3190      4.5470    145.3167
  2307.2500      0.0000    711.5028      4.7615    140.4446
  2307.5000      0.0000    703.5344      4.9093    132.3452
  2307.7500      0.0000    701.5427      4.9984    122.9290
  2308.0000      0.0000    705.7667      5.0211    115.8266
  2308.2500      0.0000    715.0290      4.9560    113.7094
  2308.5000      0.0000    727.4088      4.7981    116.4772
  2308.7500      0.0000    739.9897      4.5903    121.7995
  2309.0000      0.0000    748.4133      4.4167    126.7923
  2309.2500      0.0000    748.0602      4.3537    129.5882
  2309.5000      0.0000    737.3251      4.4294    130.3605
  2309.7500      0.0000    719.5090      4.6345    131.1798
  2310.0000      0.0000    700.5924      4.9617    134.2156
  2310.2500      0.0000    685.5457      5.4214    139.6861
  2310.5000      0.0000    676.8141      6.0254    145.7867
  2310.7500      0.0000    674.7235      6.7636    150.6755
  2311.0000      0.0000    677.9807      7.5873    153.9803
  2311.2500      0.0000    684.0621      8.4043    156.1669
  2311.5000      0.0000    690.2523      9.1096    157.1540
  2311.7500      0.0000    695.1308      9.6503    156.2078
