~Version Information
VERS.                      2.0: CWLS Log ASCII Standard - VERSION 2.0
WRAP.                       NO: One line per depth step
~Well Information Block
STRT.FT               -10.8000: 
STOP.FT              2238.7000: 
STEP.FT                 0.1000: 
NULL.                -999.2500: 
COMP.          Petrogulf Corporation: COMPANY
WELL.             McLeod 9-42V: WELL
FLD.           Purgatorie River: FIELD
LOC.           1658' FNL & 415' FEL----: LOCATION
CNTY.               Las Animas: COUNTY
SRVC.                         : SERVICE COMPANY
DATE.          Wed Nov 17 12:01:16 2004: LOG DATE
UWI.                          : UNIQUE WELL ID
STAT.                       CO: STATE
~Curve Information Block
DEPT.FT            0 000 00 00: Depth
GR.GAPI                       : Gamma Ray
CCL.                          : Casing Collar Locator
TT3.usec                      : CBL 3' Travel Time
AMP3.mV                       : CBL 3' Amplitude
~Parameter Information Block
~A  Depth        GR         CCL         TT3         AMP3    
# ...
  1181.8000    164.2053      0.0000    800.7446      8.7944
  1181.9000    164.2053      0.0000    800.7446      8.7944
  1182.0000    167.3982      0.0000    803.1848      8.8064
  1182.1000    167.3982      0.0000    803.1848      8.8064
  1182.2000    167.3982      0.0000    803.1848      8.8064
  1182.3000    169.0038      0.0000    806.4996      8.7560
  1182.4000    169.0038      0.0000    806.4996      8.7560
  1182.5000    169.0320      0.0000    807.5516      8.6375
  1182.6000    169.0320      0.0000    807.5516      8.6375
  1182.7000    169.0320      0.0000    807.5516      8.6375
  1182.8000    168.7687      0.0000    804.3450      8.4465
  1182.9000    168.7687      0.0000    804.3450      8.4465
  1183.0000    170.3103      0.0000    798.2325      8.1779
  1183.1000    170.3103      0.0000    798.2325      8.1779
  1183.2000    170.3103      0.0000    798.2325      8.1779
  1183.3000    175.6178      0.0000    791.9174      7.8188
  1183.4000    175.6178      0.0000    791.9174      7.8188
  1183.5000    184.4816      0.0000    785.9577      7.3512
  1183.6000    184.4816      0.0000    785.9577      7.3512
  1183.7000    184.4816      0.0000    785.9577      7.3512
  1183.8000    193.2674      0.0000    778.3657      6.7713
  1183.9000    193.2674      0.0000    778.3657      6.7713
  1184.0000    196.6348      0.0000    767.7527      6.1097
  1184.1000    196.6348      0.0000    767.7527      6.1097
  1184.2000    196.6348      0.0000    767.7527      6.1097
  1184.3000    191.0695      0.0000    756.3434      5.4263
  1184.4000    191.0695      0.0000    756.3434      5.4263
  1184.5000    177.1443      0.0000    748.9884      4.7810
  1184.6000    177.1443      0.0000    748.9884      4.7810
  1184.7000    177.1443      0.0000    748.9884      4.7810
  1184.8000    158.9025      0.0000    748.6501      4.2158
  1184.9000    158.9025      0.0000    748.6501      4.2158
  1185.0000    141.1734      0.0000    753.4726      3.7596
  1185.1000    141.1734      0.0000    753.4726      3.7596
  1185.2000    141.1734      0.0000    753.4726      3.7596
  1185.3000    127.0245      0.0000    758.7210      3.4369
  1185.4000    127.0245      0.0000    758.7210      3.4369
  1185.5000    117.2448      0.0000    760.6974      3.2639
  1185.6000    117.2448      0.0000    760.6974      3.2639
  1185.7000    117.2448      0.0000    760.6974      3.2639
  1185.8000    111.4700      0.0000    758.5504      3.2401
  1185.9000    111.4700      0.0000    758.5504      3.2401
  1186.0000    109.1493      0.0000    754.0605      3.3460
  1186.1000    109.1493      0.0000    754.0605      3.3460
  1186.2000    109.1493      0.0000    754.0605      3.3460
  1186.3000    109.6333      0.0000    751.4894      3.5589
  1186.4000    109.6333      0.0000    751.4894      3.5589
  1186.5000    112.0308      0.0000    756.9750      3.8955
  1186.6000    112.0308      0.0000    756.9750      3.8955
  1186.7000    112.0308      0.0000    756.9750      3.8955
  1186.8000    115.2114      0.0000    775.1606      4.4496
  1186.9000    115.2114      0.0000    775.1606      4.4496
  1187.0000    117.7874      0.0000    803.9911      5.3692
  1187.1000    117.7874      0.0000    803.9911      5.3692
  1187.2000    117.7874      0.0000    803.9911      5.3692
  1187.3000    118.2629      0.0000    833.1769      6.7647
  1187.4000    118.2629      0.0000    833.1769      6.7647
  1187.5000    115.7009      0.0000    850.0034      8.6143
  1187.6000    115.7009      0.0000    850.0034      8.6143
  1187.7000    115.7009      0.0000    850.0034      8.6143
  1187.8000    110.5366      0.0000    848.6257     10.7328
  1187.9000    110.5366     -2.0000    848.6257     10.7328
  1188.0000    104.7091      0.0000    834.4188     12.8161
  1188.1000    104.7091      2.0000    834.4188     12.8161
  1188.2000    104.7091     -2.0000    834.4188     12.8161
  1188.3000    100.8223      0.0000    819.0895     14.5306
  1188.4000    100.8223      0.0000    819.0895     14.5306
  1188.5000    100.6483      0.0000    811.1322     15.6062
  1188.6000    100.6483      0.0000    811.1322     15.6062
  1188.7000    100.6483      0.0000    811.1322     15.6062
  1188.8000    103.7125      0.0000    810.5416     15.9029
  1188.9000    103.7125      0.0000    810.5416     15.9029
  1189.0000    107.4775      0.0000    811.6890     15.4667
  1189.1000    107.4775      0.0000    811.6890     15.4667
  1189.2000    107.4775      0.0000    811.6890     15.4667
  1189.3000    109.5813      0.0000    809.7043     14.5601
  1189.4000    109.5813      0.0000    809.7043     14.5601
  1189.5000    109.6970      0.0000    803.5879     13.5818
  1189.6000    109.6970      0.0000    803.5879     13.5818
  1189.7000    109.6970      0.0000    803.5879     13.5818
  1189.8000    108.7033      0.0000    794.9273     12.8484
  1189.9000    108.7033      0.0000    794.9273     12.8484
  1190.0000    106.7955      0.0000    785.5622     12.4028
  1190.1000    106.7955      0.0000    785.5622     12.4028
  1190.2000    106.7955      0.0000    785.5622     12.4028
  1190.3000    103.5477      0.0000    776.6308     12.0498
  1190.4000    103.5477      0.0000    776.6308     12.0498
  1190.5000     99.6112      0.0000    768.7934     11.5915
  1190.6000     99.6112      0.0000    768.7934     11.5915
  1190.7000     99.6112      0.0000    768.7934     11.5915
  1190.8000     97.2405      0.0000    762.5867     11.0118
  1190.9000     97.2405      0.0000    762.5867     11.0118
  1191.0000     98.6701      0.0000    758.3589     10.4424
  1191.1000     98.6701      0.0000    758.3589     10.4424
  1191.2000     98.6701      0.0000    758.3589     10.4424
  1191.3000    104.1775      0.0000    756.1259     10.0058
  1191.4000    104.1775      0.0000    756.1259     10.0058
  1191.5000    111.8150      0.0000    755.8051      9.7226
  1191.6000    111.8150      0.0000    755.8051      9.7226
  1191.7000    111.8150      0.0000    755.8051      9.7226
  1191.8000    118.8108      0.0000    757.5254      9.5325
  1191.9000    118.8108      0.0000    757.5254      9.5325
  1192.0000    123.1883      0.0000    761.3302      9.3682
  1192.1000    123.1883      0.0000    761.3302      9.3682
  1192.2000    123.1883      0.0000    761.3302      9.3682
  1192.3000    124.5100      0.0000    766.4105      9.2034
  1192.4000    124.5100      0.0000    766.4105      9.2034
  1192.5000    123.6533      0.0000    771.0748      9.0532
  1192.6000    123.6533      0.0000    771.0748      9.0532
  1192.7000    123.6533      0.0000    771.0748      9.0532
  1192.8000    121.9438      0.0000    774.1501      8.9483
  1192.9000    121.9438      0.0000    774.1501      8.9483
  1193.0000    120.3176      0.0000    776.2850      8.9121
  1193.1000    120.3176      0.0000    776.2850      8.9121
  1193.2000    120.3176      0.0000    776.2850      8.9121
  1193.3000    119.2744      0.0000    779.0775      8.9502
  1193.4000    119.2744      0.0000    779.0775      8.9502
  1193.5000    119.4116      0.0000    782.7446      9.0545
  1193.6000    119.4116      0.0000    782.7446      9.0545
  1193.7000    119.4116      0.0000    782.7446      9.0545
  1193.8000    121.2098      0.0000    785.3204      9.2149
  1193.9000    121.2098      0.0000    785.3204      9.2149
  1194.0000    123.8838      0.0000    784.3989      9.4211
  1194.1000    123.8838      0.0000    784.3989      9.4211
  1194.2000    123.8838      0.0000    784.3989      9.4211
  1194.3000    125.2800      0.0000    779.3640      9.6464
  1194.4000    125.2800      0.0000    779.3640      9.6464
  1194.5000    123.7528      0.0000    771.9096      9.8385
  1194.6000    123.7528      0.0000    771.9096      9.8385
  1194.7000    123.7528      0.0000    771.9096      9.8385
  1194.8000    119.9213      0.0000    764.6876      9.9420
  1194.9000    119.9213      0.0000    764.6876      9.9420
  1195.0000    116.2617      0.0000    759.5289      9.9413
  1195.1000    116.2617      0.0000    759.5289      9.9413
