~Version Information
 VERS.                                  2.0 : CWLS LAS VERSION
 WRAP.                                   NO : WRAPING MODE
 SWARE .                 MController 2.5.0N : SOFTWARE VERSION
~Well Information
 WELL.                       Guajardo 24-18 : WELL
 COMP.    Pioneer Natural Resources USA Inc : COMPANY
 FLD.                      Purgatoire River : FIELD
 LOC.                SE/SW Sec 18 T32S R65W : LOCATION
 DATE.                           8/4-5/2005 : DATE(S) LOGGED
 SRVC.       BLANCO Geological Services LLC : SERVICE COMPANY
 STAT.                                   CO : STATE
 CNTY.                           Las Animas : COUNTY
 CTRY.                                  USA : COUNTRY
 API.                       05-071-08377-00 : API NUMBER
 STRT.FT                             541.00 : START DEPTH
 STOP.FT                            1855.00 : STOP DEPTH
 STEP.FT                               1.00 : DEPTH INCREMENT
 NULL.                                -9999 : NULL VALUE
~Curve information
 DEPTH.FT                                   :
 ROP.MIN/FT                                 :
 GAS.UNITS                                  :
~ASCII Log data
# ...
      1541.0         0.15         58.3 
      1542.0         0.40         57.1 
      1543.0         0.10         56.6 
      1544.0         0.30         55.4 
      1545.0         0.40         56.0 
      1546.0         0.30         57.5 
      1547.0         0.10         58.5 
      1548.0         0.37         70.7 
      1549.0         0.17         87.7 
      1550.0         0.27        125.2 
      1551.0         0.27        157.1 
      1552.0         0.20        171.4 
      1553.0         0.07        174.8 
      1554.0         0.30        187.2 
      1555.0         0.25        196.5 
      1556.0         0.20        204.2 
      1557.0         0.27        212.0 
      1558.0         0.10        213.8 
      1559.0         0.47        190.7 
      1560.0         0.10        182.4 
      1561.0         0.27        167.0 
      1562.0         0.30        175.6 
      1563.0         0.17        189.4 
      1564.0         0.20        207.1 
      1565.0         0.17        216.9 
      1566.0         0.20        219.5 
      1567.0         0.20        213.5 
      1568.0         0.20        203.7 
      1569.0         0.10        199.0 
      1570.0         0.35        186.1 
      1571.0         0.20        180.9 
      1572.0         0.20        178.8 
      1573.0         0.20        177.7 
      1574.0         0.20        174.9 
      1575.0         0.10        173.1 
      1576.0         0.10        171.7 
      1577.0         0.33        163.0 
      1578.0         0.30        148.6 
      1579.0         0.10        146.1 
      1580.0         0.20        145.9 
      1581.0         0.30        157.2 
      1582.0         0.30        166.7 
      1583.0         0.10        166.6 
      1584.0         0.30        168.3 
      1585.0         0.10        171.3 
      1586.0         0.12        175.1 
      1587.0         0.20        182.9 
      1588.0         0.30        188.9 
      1589.0         0.40        186.1 
      1590.0         0.10        183.2 
      1591.0         0.10        179.8 
      1592.0         0.40        168.0 
      1593.0         0.27        161.2 
      1594.0         0.20        157.9 
      1595.0         0.10        156.1 
      1596.0         0.40        153.3 
      1597.0         0.10        155.5 
      1598.0         0.10        157.3 
      1599.0         0.40        162.5 
      1600.0         0.22        165.1 
      1601.0         0.40        160.1 
      1602.0         0.20        154.8 
      1603.0         0.40        149.9 
      1604.0         0.10        150.2 
      1605.0         0.40        152.6 
      1606.0         0.50        152.0 
      1607.0         0.43        147.5 
      1608.0         0.10        145.4 
      1609.0         0.50        143.3 
      1610.0         0.62        152.6 
      1611.0         0.40        146.6 
      1612.0         0.50        160.3 
      1613.0         0.40        162.7 
      1614.0         0.60        160.5 
      1615.0         0.10        158.7 
      1616.0         0.40        152.0 
      1617.0         0.50        151.6 
      1618.0         0.12        151.6 
      1619.0         0.30        146.5 
      1620.0         0.10        145.5 
      1621.0         0.20        145.5 
      1622.0         0.30        146.7 
      1623.0         0.10        146.7 
      1624.0         0.10        146.6 
      1625.0         0.10        146.4 
      1626.0         0.30        145.1 
      1627.0         0.10        144.5 
      1628.0         0.10        143.8 
      1629.0         0.20        141.8 
      1630.0         0.30        140.3 
      1631.0         0.10        139.8 
      1632.0         0.10        138.8 
      1633.0         0.20        135.4 
      1634.0         0.27        128.5 
      1635.0         0.20        123.8 
      1636.0         0.20        121.1 
      1637.0         0.12        121.4 
      1638.0         0.20        127.1 
      1639.0         0.10        130.4 
      1640.0         0.30        132.8 
      1641.0         0.10        132.5 
      1642.0         0.10        133.2 
      1643.0         0.10        135.5 
      1644.0         0.30        144.9 
      1645.0         0.30        146.5 
      1646.0         0.17        148.2 
      1647.0         0.30        165.0 
      1648.0         0.20        180.9 
      1649.0         0.37        198.9 
      1650.0         0.10        200.4 
      1651.0         0.30        199.9 
      1652.0         0.30        193.9 
      1653.0         0.12        191.9 
      1654.0         0.20        192.3 
      1655.0         0.23        207.1 
      1656.0         0.30        223.8 
      1657.0         0.10        224.6 
      1658.0         0.20        221.1 
      1659.0         0.20        213.6 
      1660.0         0.30        199.4 
      1661.0         0.10        194.7 
      1662.0         0.10        191.0 
      1663.0         0.40        185.7 
      1664.0         0.30        181.0 
      1665.0         0.20        170.6 
      1666.0         0.07        166.5 
      1667.0         0.37        149.4 
      1668.0         0.32        146.1 
      1669.0         0.20        145.1 
      1670.0         0.10        144.2 
      1671.0         0.20        144.5 
      1672.0         0.30        152.6 
      1673.0         0.10        156.9 
      1674.0         0.17        164.9 
      1675.0         0.10        171.7 
      1676.0         0.17        185.4 
      1677.0         0.27        204.6 
      1678.0         0.20        210.0 
      1679.0         0.40        203.5 
      1680.0         0.30        190.1 
      1681.0         0.10        186.4 
      1682.0         0.40        178.0 
      1683.0         0.32        171.1 
      1684.0         0.10        169.4 
      1685.0         0.10        165.9 
      1686.0         0.03        164.6 
      1687.0         0.30        155.8 
      1688.0         0.30        158.1 
      1689.0         0.30        156.9 
      1690.0         0.40        154.9 
      1691.0         0.10        153.4 
      1692.0         0.20        147.0 
      1693.0         0.20        141.9 
      1694.0         0.30        148.4 
      1695.0         0.10        153.7 
      1696.0         0.47        171.1 
      1697.0         0.20        171.6 
      1698.0         0.12        170.5 
      1699.0         0.30        166.3 
      1700.0         0.20        164.2 
      1701.0         0.30        157.9 
      1702.0         0.30        146.8 
      1703.0         0.47        161.6 
      1704.0         0.27        184.1 
      1705.0         1.28        257.2 
      1706.0         1.00        251.1 
      1707.0         1.83        134.2 
      1708.0         1.95        141.5 
      1709.0         1.53        129.7 
      1710.0         1.55        155.3 
      1711.0         0.60        155.4 
      1712.0         0.10        155.4 
      1713.0         0.40        157.3 
      1714.0         0.57        163.6 
      1715.0         0.40        164.8 
      1716.0         0.62        170.6 
      1717.0         0.30        174.1 
      1718.0         0.50        175.6 
      1719.0         0.70        172.9 
      1720.0         0.90        148.7 
      1721.0         0.42        151.8 
      1722.0         0.50        151.4 
      1723.0         0.20        150.8 
      1724.0         0.40        166.4 
      1725.0         0.60        325.3 
      1726.0         0.47        289.6 
      1727.0         0.63        127.5 
      1728.0         0.37         98.0 
      1729.0         0.48         92.7 
      1730.0         0.70        109.3 
      1731.0         0.40        119.5 
      1732.0         0.67        131.5 
      1733.0         0.40        138.1 
      1734.0         0.67        147.7 
      1735.0         0.42        147.5 
      1736.0         0.70        141.3 
      1737.0         0.80        133.0 
      1738.0         0.40        134.6 
      1739.0         0.50        142.8 
      1740.0         0.10        144.0 
