~Version Information
VERS.                      2.0: CWLS Log ASCII Standard - VERSION 2.0
WRAP.                       NO: One line per depth step
~Well Information Block
STRT.FT               475.0000: 
STOP.FT              2336.7000: 
STEP.FT                 0.1000: 
NULL.                -999.2500: 
COMP.          Pioneer Natural Resources: COMPANY
WELL.              Bobsy 34-11: WELL
FLD.           Purgatoire River: FIELD
LOC.           1937' FEL & 451' FSL----: LOCATION
PROV.                 Colorado: PROVINCE
CNTY.               Las Animas: COUNTRY
SRVC.                Patterson: SERVICE COMPANY
DATE.          Fri Apr 08 11:07:54 2005: LOG DATE
UWI.           05 071 08330 00: UNIQUE WELL ID
~Curve Information Block
DEPT.FT            0 000 00 00: Depth
DCAL.in                       : CDL Caliper
RHOB.g/cc                     : CDL Bulk Density
RHOC.g/cc                     : CDL Density Correction
DPOR.pu                       : CDL Density Porosity
NPOR.pu                       : Neutron Porosity
GR.GAPI                       : Gamma Ray
~Parameter Information Block
~A  Depth       DCAL        RHOB        RHOC        DPOR        NPOR         GR     
# ...
  1943.8000      8.0589      2.3849      0.0222     16.0640     19.4371     44.6298
  1943.9000      8.0589      2.3929      0.0380     15.5831     19.8701     42.8824
  1944.0000      8.0629      2.4027      0.0474     14.9902     20.1367     38.6773
  1944.1000      8.0629      2.4066      0.0547     14.7488     20.2345     36.7511
  1944.2000      8.0629      2.4115      0.0308     14.4522     20.2572     37.8961
  1944.3000      8.0647      2.4243      0.0503     13.6812     19.7445     38.8447
  1944.4000      8.0647      2.4331      0.0735     13.1427     18.7082     37.6121
  1944.5000      8.0655      2.4273      0.0672     13.4956     17.8253     36.2333
  1944.6000      8.0655      2.4126      0.0544     14.3867     17.5756     36.6365
  1944.7000      8.0655      2.3987      0.0524     15.2280     17.9918     37.4500
  1944.8000      8.0635      2.3884      0.0615     15.8532     18.6878     35.6481
  1944.9000      8.0635      2.3836      0.0103     16.1471     18.9126     31.7751
  1945.0000      8.0599      2.3892      0.0377     15.8052     18.4282     29.0131
  1945.1000      8.0599      2.4006      0.0662     15.1167     17.8115     28.9265
  1945.2000      8.0599      2.4096      0.0814     14.5722     17.5253     32.5125
  1945.3000      8.0577      2.4175      0.0550     14.0898     17.3481     37.1835
  1945.4000      8.0577      2.4256      0.0773     13.6011     17.0452     38.3153
  1945.5000      8.0555      2.4274      0.0840     13.4932     16.7109     35.6922
  1945.6000      8.0555      2.4168      0.0967     14.1322     16.2985     33.2833
  1945.7000      8.0555      2.3999      0.0450     15.1586     15.8735     33.7310
  1945.8000      8.0535      2.3960     -0.0101     15.3928     15.8787     35.1942
  1945.9000      8.0535      2.4103      0.0671     14.5274     16.4548     36.7951
  1946.0000      8.0546      2.4232      0.0772     13.7447     17.1926     38.6859
  1946.1000      8.0546      2.4257      0.0768     13.5919     17.6149     38.6212
  1946.2000      8.0546      2.4246      0.0634     13.6593     17.7250     37.2307
  1946.3000      8.0557      2.4219      0.0562     13.8250     17.9128     37.1012
  1946.4000      8.0557      2.4210      0.0404     13.8783     18.2706     40.4367
  1946.5000      8.0532      2.4323      0.0564     13.1915     18.6586     47.7762
  1946.6000      8.0532      2.4524      0.0864     11.9753     19.1483     56.7388
  1946.7000      8.0532      2.4679      0.0835     11.0343     19.9300     65.1146
  1946.8000      8.0494      2.4850      0.0593     10.0023     20.8874     71.7571
  1946.9000      8.0494      2.5170      0.0931      8.0589     21.7784     77.7574
  1947.0000      8.0484      2.5537      0.1046      5.8353     22.3544     84.9952
  1947.1000      8.0484      2.5736      0.0868      4.6281     22.4289     92.1593
  1947.2000      8.0484      2.5753      0.0804      4.5260     22.4034     97.4662
  1947.3000      8.0500      2.5760      0.0847      4.4832     22.9449    101.5195
  1947.4000      8.0500      2.5897      0.0598      3.6539     24.0601    104.7419
  1947.5000      8.0533      2.6102      0.0762      2.4098     25.2042    106.7650
  1947.6000      8.0533      2.6157      0.0739      2.0773     25.9868    110.3551
  1947.7000      8.0533      2.5998      0.0495      3.0446     26.1329    118.4122
  1947.8000      8.0571      2.5810      0.0446      4.1790     25.6694    127.7336
  1947.9000      8.0571      2.5752      0.0484      4.5348     25.1697    130.0515
  1948.0000      8.0576      2.5770      0.0486      4.4239     24.9072    125.5876
  1948.1000      8.0576      2.5722      0.0505      4.7129     24.6350    122.6047
  1948.2000      8.0576      2.5611      0.0451      5.3876     24.0881    122.5169
  1948.3000      8.0546      2.5614     -0.0089      5.3708     23.2603    122.1276
  1948.4000      8.0546      2.5789      0.0709      4.3061     22.5887    119.4023
  1948.5000      8.0529      2.5955      0.0528      3.3002     22.1999    115.5330
  1948.6000      8.0529      2.5954      0.0660      3.3091     21.8741    114.1821
  1948.7000      8.0529      2.5736      0.0548      4.6311     21.5207    113.9888
  1948.8000      8.0530      2.5356      0.0205      6.9347     21.1177    110.7900
  1948.9000      8.0530      2.5029     -0.0201      8.9122     20.7494    106.5364
  1949.0000      8.0532      2.4928      0.0236      9.5243     20.2358    103.2993
  1949.1000      8.0532      2.5017      0.0005      8.9882     19.5793     98.7436
  1949.2000      8.0532      2.5170      0.0318      8.0582     19.0578     92.5065
  1949.3000      8.0523      2.5275      0.0584      7.4233     18.4904     87.8403
  1949.4000      8.0523      2.5368      0.0266      6.8590     17.6022     86.6546
  1949.5000      8.0518      2.5527      0.0553      5.8948     16.5791     88.0388
  1949.6000      8.0518      2.5599      0.0840      5.4625     15.9052     85.4790
  1949.7000      8.0518      2.5418      0.0562      6.5580     15.8202     73.4595
  1949.8000      8.0516      2.5136      0.0181      8.2669     15.8228     60.5709
  1949.9000      8.0516      2.4993      0.0339      9.1325     15.3477     56.1394
  1950.0000      8.0504      2.5013      0.0268      9.0121     14.7477     56.5875
  1950.1000      8.0504      2.5095     -0.0005      8.5154     14.4734     56.8433
  1950.2000      8.0504      2.5161      0.0395      8.1181     14.3070     57.0021
  1950.3000      8.0498      2.5215      0.0239      7.7877     14.0783     56.6985
  1950.4000      8.0498      2.5288      0.0603      7.3480     14.1951     55.3165
  1950.5000      8.0504      2.5297      0.0434      7.2905     14.8363     54.9803
  1950.6000      8.0504      2.5145      0.0689      8.2118     15.5206     58.7091
  1950.7000      8.0504      2.4869      0.0354      9.8821     16.0375     65.0595
  1950.8000      8.0517      2.4685      0.0065     10.9986     16.5929     70.0314
  1950.9000      8.0517      2.4766      0.0559     10.5097     17.4162     71.6474
  1951.0000      8.0522      2.5032      0.0814      8.8982     18.6313     71.1710
  1951.1000      8.0522      2.5256      0.1056      7.5365     19.5494     70.8065
  1951.2000      8.0522      2.5312      0.0895      7.2017     19.5661     71.7856
  1951.3000      8.0519      2.5270      0.0716      7.4551     19.4030     71.9277
  1951.4000      8.0519      2.5241      0.0734      7.6294     19.5985     67.7598
  1951.5000      8.0517      2.5249      0.0878      7.5837     19.7103     64.2196
  1951.6000      8.0517      2.5296      0.0605      7.2955     19.5528     67.8196
  1951.7000      8.0517      2.5356      0.0726      6.9353     19.0739     75.6429
  1951.8000      8.0511      2.5341      0.0996      7.0222     18.1978     80.4748
  1951.9000      8.0511      2.5300      0.0081      7.2756     17.3749     78.4660
  1952.0000      8.0500      2.5356      0.0536      6.9305     17.0043     73.5635
  1952.1000      8.0500      2.5454      0.0672      6.3385     17.1520     68.9680
  1952.2000      8.0500      2.5460      0.0721      6.3012     17.6074     62.6815
  1952.3000      8.0489      2.5323      0.0746      7.1351     17.8909     57.1562
  1952.4000      8.0489      2.5159      0.0298      8.1248     17.9963     57.6239
  1952.5000      8.0491      2.5122      0.0524      8.3495     18.2679     61.6949
  1952.6000      8.0491      2.5163      0.0528      8.1028     18.2927     63.9477
  1952.7000      8.0491      2.5197      0.0742      7.8973     17.6781     65.6327
  1952.8000      8.0492      2.5282      0.0159      7.3798     17.1918     72.4104
  1952.9000      8.0492      2.5450      0.0650      6.3666     17.5077     80.2213
  1953.0000      8.0493      2.5507      0.1197      6.0186     17.9552     81.6628
  1953.1000      8.0493      2.5322      0.0772      7.1401     17.6620     79.5642
  1953.2000      8.0493      2.5074      0.0479      8.6407     16.8977     77.0584
  1953.3000      8.0489      2.4930      0.0348      9.5170     16.5499     74.5923
