~Version Information
VERS.                      2.0: CWLS Log ASCII Standard - VERSION 2.0
WRAP.                       NO: One line per depth step
~Well Information Block
STRT.FT               240.0000: 
STOP.FT               966.2000: 
STEP.FT                 0.1000: 
NULL.                -999.2500: 
COMP.          Pioneer Natural Resources: COMPANY
WELL.          New Mexico 21-5: WELL
FLD.           Purgatoire River: FIELD
LOC.           175' FNL & 1700' FWL: LOCATION
PROV.                 Colorado: PROVINCE
CNTY.               Las Animas: COUNTRY
SRVC.                Patterson: SERVICE COMPANY
DATE.          Mon Dec 13 06:55:26 2004: LOG DATE
UWI.           05 071 08234 00: UNIQUE WELL ID
~Curve Information Block
DEPT.FT            0 000 00 00: Depth
DCAL.in                       : CDL Caliper
RHOB.g/cc                     : CDL Bulk Density
RHOC.g/cc                     : CDL Density Correction
DPOR.pu                       : CDL Density Porosity
NPOR.pu                       : Neutron Porosity
GR.GAPI                       : Gamma Ray
~Parameter Information Block
~A  Depth       DCAL        RHOB        RHOC        DPOR        NPOR         GR     
# ...
   566.4000      7.9926      2.3472      0.2662     18.3544     12.5396    131.3433
   566.5000      8.0026      2.4062      0.2530     14.7747     13.8199    135.7361
   566.6000      8.0026      2.4481      0.1802     12.2334     15.1024    139.0361
   566.7000      8.0026      2.4787      0.1916     10.3799     15.8573    139.5882
   566.8000      8.0055      2.4928      0.2003      9.5274     16.3213    137.9325
   566.9000      8.0055      2.4901      0.1852      9.6933     17.1555    134.9809
   567.0000      7.9948      2.4791      0.1863     10.3547     18.1915    131.8041
   567.1000      7.9948      2.4612      0.1831     11.4448     18.7464    128.3152
   567.2000      7.9948      2.4368      0.1283     12.9241     18.9156    123.6434
   567.3000      7.9684      2.4203      0.0935     13.9240     19.2676    118.8978
   567.4000      7.9684      2.4356      0.0609     12.9922     19.9100    116.9822
   567.5000      7.9386      2.4916      0.1121      9.5996     20.5139    116.8479
   567.6000      7.9386      2.5603      0.1571      5.4377     20.9896    113.5512
   567.7000      7.9386      2.6078      0.1904      2.5591     21.6501    107.9006
   567.8000      7.9223      2.6332      0.1629      1.0170     22.6658    105.8424
   567.9000      7.9223      2.6531      0.1680     -0.1883     23.6979    109.9456
   568.0000      7.9143      2.6674      0.1789     -1.0526     24.5593    115.2675
   568.1000      7.9143      2.6684      0.1296     -1.1132     25.3895    114.5089
   568.2000      7.9143      2.6602      0.1030     -0.6196     26.2138    107.8150
   568.3000      7.9102      2.6432      0.1215      0.4128     26.9749    102.3733
   568.4000      7.9102      2.6151      0.0485      2.1136     27.6763    103.9174
   568.5000      7.9146      2.5869      0.0157      3.8250     28.2157    111.5333
   568.6000      7.9146      2.5684      0.0135      4.9481     28.5509    122.1709
   568.7000      7.9146      2.5606      0.0089      5.4211     28.6943    131.1351
   568.8000      7.9196      2.5603      0.0253      5.4390     28.4714    133.0114
   568.9000      7.9196      2.5657      0.0073      5.1109     27.8870    129.9072
   569.0000      7.9204      2.5770      0.0142      4.4266     27.4147    128.9577
   569.1000      7.9204      2.5806      0.0516      4.2068     27.4797    129.7080
   569.2000      7.9204      2.5602      0.0469      5.4409     27.8921    128.9992
   569.3000      7.9198      2.5246      0.0346      7.5987     28.5106    129.1225
   569.4000      7.9198      2.4966      0.0507      9.2971     28.9394    132.2971
   569.5000      7.9196      2.4851      0.0375      9.9935     28.6725    135.4537
   569.6000      7.9196      2.4849      0.0372     10.0041     28.0042    133.6481
   569.7000      7.9196      2.4913     -0.0023      9.6172     27.3624    127.1291
   569.8000      7.9214      2.5017      0.0549      8.9889     26.9933    120.6864
   569.9000      7.9214      2.5143      0.0453      8.2230     26.8278    118.3781
   570.0000      7.9291      2.5267      0.0421      7.4714     26.6635    121.9511
   570.1000      7.9291      2.5228      0.0640      7.7105     26.4737    129.7416
   570.2000      7.9291      2.4895      0.0012      9.7281     26.0574    137.8932
   570.3000      7.9424      2.4415      0.0092     12.6357     25.1843    141.0876
   570.4000      7.9424      2.4033     -0.0040     14.9544     24.2440    138.4684
   570.5000      7.9555      2.3885     -0.0072     15.8503     23.7835    135.2839
   570.6000      7.9555      2.3906      0.0379     15.7182     23.7295    130.7228
   570.7000      7.9555      2.3967      0.0089     15.3498     23.4074    122.6101
   570.8000      7.9640      2.4098      0.0218     14.5568     22.3767    118.9541
   570.9000      7.9640      2.4280      0.0767     13.4518     21.4658    125.0270
   571.0000      7.9563      2.4357      0.0843     12.9896     21.4912    133.0517
   571.1000      7.9563      2.4331      0.0761     13.1463     21.9979    136.1782
   571.2000      7.9563      2.4484      0.0871     12.2167     22.4159    135.7352
   571.3000      7.9345      2.5142      0.1069      8.2313     22.8126    132.7049
   571.4000      7.9345      2.6320      0.1745      1.0893     23.5160    128.8116
   571.5000      7.9174      2.7716      0.2341     -7.3695     24.9208    127.3445
   571.6000      7.9174      2.9130      0.2465    -15.9417     26.6629    126.9831
   571.7000      7.9174      3.0631      0.3194    -25.0386     27.6839    125.5507
   571.8000      7.9098      3.2139      0.3601    -34.1777     27.9938    122.9824
   571.9000      7.9098      3.3195      0.4281    -40.5773     28.5632    116.3838
   572.0000      7.9088      3.3453      0.3080    -42.1384     30.0447    106.0964
   572.1000      7.9088      3.3124      0.2653    -40.1430     32.1265     97.1805
   572.2000      7.9088      3.2548      0.1621    -36.6544     33.9992     91.8882
   572.3000      7.9134      3.1805      0.0884    -32.1531     35.3106     90.8850
   572.4000      7.9134      3.0816     -0.1113    -26.1580     36.2090     93.0606
   572.5000      7.9217      2.9537     -0.1476    -18.4048     36.7220     94.7760
   572.6000      7.9217      2.8116     -0.2133     -9.7931     36.5193     94.7612
   572.7000      7.9217      2.6968     -0.2908     -2.8350     35.2256     96.0394
   572.8000      7.9305      2.6251     -0.1886      1.5100     33.0294    101.9436
   572.9000      7.9305      2.5702     -0.1693      4.8344     30.7745    109.0043
   573.0000      7.9397      2.5252     -0.0795      7.5630     29.0871    112.3418
   573.1000      7.9397      2.4996      0.0129      9.1161     27.6948    115.0789
   573.2000      7.9397      2.4844      0.0525     10.0346     26.2918    121.5148
   573.3000      7.9426      2.4635      0.0635     11.3050     25.0579    128.7106
   573.4000      7.9426      2.4351      0.0231     13.0240     24.1199    131.3779
   573.5000      7.9348      2.4151      0.0225     14.2371     23.4348    129.8060
   573.6000      7.9348      2.4158      0.0140     14.1909     23.0294    128.5403
   573.7000      7.9348      2.4366      0.0376     12.9318     22.8087    132.0798
   573.8000      7.9177      2.4692      0.0875     10.9579     22.4227    139.0132
   573.9000      7.9177      2.5043      0.0988      8.8285     21.5880    142.2640
   574.0000      7.9001      2.5381      0.1026      6.7838     20.4882    137.4361
   574.1000      7.9001      2.5660      0.1531      5.0925     19.6694    128.2371
   574.2000      7.9001      2.5831      0.1334      4.0550     19.5087    120.5239
   574.3000      7.8932      2.5898      0.1549      3.6457     19.9794    112.8501
   574.4000      7.8932      2.5906      0.1470      3.5993     20.7596    103.7843
   574.5000      7.8963      2.5953      0.0933      3.3148     21.4948     99.4611
   574.6000      7.8963      2.6077      0.1021      2.5610     22.0614    100.0201
   574.7000      7.8963      2.6220      0.0930      1.6987     22.3933     98.5212
   574.8000      7.9054      2.6284      0.1064      1.3109     22.5190     95.0008
   574.9000      7.9054      2.6121      0.0728      2.2958     22.7406     95.0101
   575.0000      7.9163      2.5799     -0.0028      4.2458     23.3369     99.0889
   575.1000      7.9163      2.5624      0.0221      5.3084     24.2429    101.6195
   575.2000      7.9163      2.5679      0.0449      4.9751     25.0689     99.4325
   575.3000      7.9212      2.5747      0.0847      4.5663     25.3798     96.5182
   575.4000      7.9212      2.5694      0.0306      4.8876     25.1532     95.0993
   575.5000      7.9213      2.5661      0.0270      5.0850     24.9957     92.4367
   575.6000      7.9213      2.5791      0.0226      4.3000     25.4335     89.8654
   575.7000      7.9213      2.5938      0.0880      3.4046     26.2413     88.6683
   575.8000      7.9227      2.5819      0.0693      4.1289     26.9675     86.4058
   575.9000      7.9227      2.5431      0.0522      6.4788     27.4451     87.2369
