~Version Information
 VERS.                                  2.0 : CWLS LAS VERSION
 WRAP.                                   NO : WRAPING MODE
 SWARE .                 MController 2.5.0E : SOFTWARE VERSION
~Well Information
 WELL.                       Parklane 43-34 : WELL
 COMP.             Evergreen Operating Corp : COMPANY
 FLD.                      Purgatorie River : FIELD
 LOC.                NE/SE Sec 34 T32S R66W : LOCATION
 DATE.                          10/04-06/04 : DATE(S) LOGGED
 SRVC.       Blanco Geological Services LLC : SERVICE COMPANY
 STAT.                                   CO : STATE
 CNTY.                           Las Animas : COUNTY
 CTRY.                                  USA : COUNTRY
 API.                       05-071-08162-00 : API NUMBER
 STRT.FT                             467.00 : START DEPTH
 STOP.FT                            2245.00 : STOP DEPTH
 STEP.FT                               1.00 : DEPTH INCREMENT
 NULL.                                -9999 : NULL VALUE
~Curve information
 DEPTH.FT                                   :
 ROP.MIN/FT                                 :
 GAS.UNITS                                  :
~ASCII Log data
# ...
     1267.00        0.233         69.2 
     1268.00        0.200         71.5 
     1269.00        0.233         75.5 
     1270.00        0.200         77.5 
     1271.00        0.267         78.3 
     1272.00        0.133         78.2 
     1273.00        0.100         78.1 
     1274.00        0.167         78.1 
     1275.00        0.233         81.2 
     1276.00        0.233         89.0 
     1277.00        0.233         88.7 
     1278.00        0.200         80.4 
     1279.00        0.233         73.2 
     1280.00        0.267         66.5 
     1281.00        0.233         54.8 
     1282.00        0.250         44.2 
     1283.00        0.267         36.3 
     1284.00        0.267         43.0 
     1285.00        0.233         59.2 
     1286.00        2.333        143.3 
     1287.00        0.217        112.6 
     1288.00        0.333        102.7 
     1289.00        0.300         93.2 
     1290.00        0.300         84.5 
     1291.00        0.300         76.3 
     1292.00        0.333         69.8 
     1293.00        0.233         63.6 
     1294.00        0.267         59.6 
     1295.00        0.300         56.8 
     1296.00        0.300         56.9 
     1297.00        0.267         55.4 
     1298.00        0.283         52.6 
     1299.00        0.267         50.0 
     1300.00        0.300         45.8 
     1301.00        0.333         45.9 
     1302.00        0.300         58.9 
     1303.00        0.233         69.7 
     1304.00        0.200         75.7 
     1305.00        0.167         80.6 
     1306.00        0.167         81.0 
     1307.00        0.200         77.5 
     1308.00        0.233         72.8 
     1309.00        0.233         70.2 
     1310.00        0.267         67.7 
     1311.00        0.200         63.8 
     1312.00        0.250         57.8 
     1313.00        0.267         47.3 
     1314.00        0.300         41.2 
     1315.00        0.233         46.3 
     1316.00        2.883        167.5 
     1317.00        0.367        104.8 
     1318.00        0.467         93.8 
     1319.00        0.233         83.1 
     1320.00        0.300         77.8 
     1321.00        0.300         72.6 
     1322.00        0.333         66.8 
     1323.00        0.333         61.2 
     1324.00        0.167         54.9 
     1325.00        0.233         51.5 
     1326.00        0.283         48.3 
     1327.00        0.233         52.9 
     1328.00        0.200         56.9 
     1329.00        0.167         60.9 
     1330.00        0.167         64.5 
     1331.00        0.133         66.4 
     1332.00        0.167         68.2 
     1333.00        0.167         72.7 
     1334.00        0.167         76.7 
     1335.00        0.133         76.1 
     1336.00        0.167         73.0 
     1337.00        0.133         69.9 
     1338.00        0.267         68.4 
     1339.00        0.167         64.5 
     1340.00        0.200         60.7 
     1341.00        0.300         54.2 
     1342.00        0.267         43.2 
     1343.00        0.317         35.7 
     1344.00        0.200         39.4 
     1345.00        0.133         44.7 
     1346.00        2.767        162.2 
     1347.00        0.317        107.4 
     1348.00        0.233        100.7 
     1349.00        0.300         97.2 
     1350.00        0.333         90.2 
     1351.00        0.333         81.5 
     1352.00        0.300         74.4 
     1353.00        0.267         69.2 
     1354.00        0.267         65.7 
     1355.00        0.200         61.9 
     1356.00        0.233         59.7 
     1357.00        0.200         56.9 
     1358.00        0.200         55.1 
     1359.00        0.200         53.6 
     1360.00        0.133         52.5 
     1361.00        0.150         52.0 
     1362.00        0.167         52.3 
     1363.00        0.133         53.0 
     1364.00        0.200         57.4 
     1365.00        0.300         57.9 
     1366.00        0.200         55.6 
     1367.00        0.300         55.6 
     1368.00        0.167         54.9 
     1369.00        0.200         53.0 
     1370.00        0.200         48.1 
     1371.00        0.167         41.5 
     1372.00        0.200         37.4 
     1373.00        0.200         33.5 
     1374.00        0.200         31.9 
     1375.00        0.167         32.7 
     1376.00        3.550        184.2 
     1377.00        0.383         93.0 
     1378.00        0.367         85.2 
     1379.00        0.333         78.1 
     1380.00        0.267         71.2 
     1381.00        0.300         65.0 
     1382.00        0.367         59.1 
     1383.00        0.267         55.5 
     1384.00        0.133         53.8 
     1385.00        0.133         52.7 
     1386.00        0.233         51.6 
     1387.00        0.167         49.8 
     1388.00        0.233         48.7 
     1389.00        0.167         47.0 
     1390.00        0.283         45.9 
     1391.00        0.267         45.3 
     1392.00        0.200         45.2 
     1393.00        0.200         45.7 
     1394.00        0.200         50.0 
     1395.00        0.267         50.2 
     1396.00        0.267         47.1 
     1397.00        0.200         45.6 
     1398.00        0.367         45.4 
     1399.00        0.100         38.2 
     1400.00        0.133         36.4 
     1401.00        0.167         31.7 
     1402.00        0.300         28.9 
     1403.00        0.300         31.4 
     1404.00        0.183         40.7 
     1405.00        0.200         54.8 
     1406.00        2.800        181.4 
     1407.00        0.383        101.4 
     1408.00        0.467         90.3 
     1409.00        0.267         79.7 
     1410.00        0.333         73.0 
     1411.00        0.267         63.3 
     1412.00        0.233         58.6 
     1413.00        0.233         55.3 
     1414.00        0.267         53.3 
     1415.00        0.233         51.9 
     1416.00        0.233         50.5 
     1417.00        0.167         48.9 
     1418.00        0.233         48.0 
     1419.00        0.233         47.8 
     1420.00        0.117         47.9 
     1421.00        0.233         48.4 
     1422.00        0.467         49.9 
     1423.00        0.200         50.9 
     1424.00        0.133         52.2 
     1425.00        0.133         52.2 
     1426.00        0.167         51.1 
     1427.00        0.167         49.8 
     1428.00        0.267         48.6 
     1429.00        0.167         46.7 
     1430.00        0.300         45.2 
     1431.00        0.200         39.6 
     1432.00        0.133         33.2 
     1433.00        0.133         31.1 
     1434.00        0.200         29.6 
     1435.00        0.367         40.9 
     1436.00        2.817        147.1 
     1437.00        0.233         96.2 
     1438.00        0.200         90.1 
     1439.00        0.250         85.0 
     1440.00        0.233         78.7 
     1441.00        0.233         74.0 
     1442.00        0.367         67.4 
     1443.00        0.333         58.3 
     1444.00        0.267         53.7 
     1445.00        0.267         51.1 
     1446.00        0.267         49.0 
     1447.00        0.233         47.9 
     1448.00        0.233         47.3 
     1449.00        0.200         46.7 
     1450.00        0.167         46.5 
     1451.00        0.200         46.2 
     1452.00        0.283         45.5 
     1453.00        0.233         47.2 
     1454.00        0.200         49.7 
     1455.00        0.200         49.7 
     1456.00        0.167         47.7 
     1457.00        0.133         46.1 
     1458.00        0.200         45.2 
     1459.00        0.267         44.3 
     1460.00        0.167         37.9 
     1461.00        0.233         33.8 
     1462.00        0.167         27.8 
     1463.00        0.167         25.1 
     1464.00        0.200         25.8 
     1465.00        0.300         36.4 
     1466.00        2.883        138.7 
