~Version Information
VERS.                      2.0: CWLS Log ASCII Standard - VERSION 2.0
WRAP.                       NO: One line per depth step
~Well Information Block
STRT.FT               -11.5000: 
STOP.FT              2395.2500: 
STEP.FT                 0.2500: 
NULL.                -999.2500: 
COMP.          Petrogulf Corporation: COMPANY
WELL.            Montoya 7-21V: WELL
FLD.           Purgatorie River: FIELD
LOC.           738' FSL & 2070' FWL--: LOCATION
CNTY.               Las Animas: COUNTY
SRVC.                         : SERVICE COMPANY
DATE.          Mon Aug 30 15:10:00 2004: LOG DATE
UWI.                          : UNIQUE WELL ID
STAT.                       CO: STATE
~Curve Information Block
DEPT.FT            0 000 00 00: Depth
CCL.                          : Casing Collar Locator
TT3.usec                      : CBL 3' Travel Time
AMP3.mV                       : CBL 3' Amplitude
GR.GAPI                       : Gamma Ray
~Parameter Information Block
~A  Depth       CCL         TT3         AMP3         GR     
# ...
  1898.0000      0.0000    743.0876      3.9378     53.8186
  1898.2500      0.0000    749.3328      4.0991     59.6378
  1898.5000      0.0000    750.5838      4.4112     66.4287
  1898.7500      0.0000    747.3235      4.7804     74.7499
  1899.0000      0.0000    742.2246      5.0730     85.3107
  1899.2500      0.0000    737.7933      5.2163     97.4331
  1899.5000      0.0000    734.4195      5.2598    108.7069
  1899.7500      0.0000    730.2778      5.3441    116.5158
  1900.0000      0.0000    722.5723      5.5848    119.9028
  1900.2500      2.0000    709.6116      5.9711    119.6257
  1900.5000      2.0000    693.0428      6.3785    116.6735
  1900.7500      0.0000    677.0067      6.6758    111.7132
  1901.0000      0.0000    662.4613      6.8349    106.0801
  1901.2500      0.0000    644.3060      6.9509    102.1188
  1901.5000      0.0000    619.8792      7.1599    101.8207
  1901.7500      0.0000    599.4960      7.5210    105.4171
  1902.0000      0.0000    600.5358      7.9693    111.3478
  1902.2500      0.0000    628.7381      8.3916    117.2091
  1902.5000      0.0000    670.8870      8.7291    120.8216
  1902.7500      0.0000    707.2490      8.9888    121.0618
  1903.0000      0.0000    726.8320      9.1926    118.2606
  1903.2500      0.0000    730.9188      9.3577    113.8979
  1903.5000      0.0000    727.3950      9.5076    109.6701
  1903.7500      0.0000    724.1213      9.6637    106.6959
  1904.0000      0.0000    725.3409      9.8343    105.4494
  1904.2500      0.0000    731.1312     10.0226    105.9740
  1904.5000      0.0000    738.8268     10.2333    107.7890
  1904.7500      0.0000    745.5276     10.4626    110.0601
  1905.0000      0.0000    750.2960     10.6710    112.4644
  1905.2500      0.0000    754.0577     10.7656    115.6520
  1905.5000      0.0000    757.3300     10.6377    120.2931
  1905.7500      0.0000    758.9664     10.2555    125.8174
  1906.0000      0.0000    757.8728      9.7298    130.4877
  1906.2500      0.0000    755.3093      9.2646    132.6289
  1906.5000      0.0000    754.1707      9.0165    131.5266
  1906.7500      0.0000    755.5353      8.9956    127.5662
  1907.0000      0.0000    756.7535      9.0863    122.1455
  1907.2500      0.0000    753.8559      9.1391    117.1152
  1907.5000      0.0000    745.6234      9.0470    113.4077
  1907.7500      0.0000    734.7720      8.7775    110.2497
  1908.0000      0.0000    725.5671      8.3751    106.5364
  1908.2500      0.0000    720.8068      7.9376    102.8778
  1908.5000      0.0000    720.4834      7.5620    101.3627
  1908.7500      0.0000    722.4434      7.2923    103.1118
  1909.0000      0.0000    724.2626      7.1207    106.9614
  1909.2500      0.0000    724.8112      7.0240    111.0947
  1909.5000      0.0000    724.2979      6.9661    115.1074
  1909.7500      0.0000    723.1053      6.8765    119.5435
  1910.0000      0.0000    720.7213      6.6798    124.0595
  1910.2500      0.0000    715.7198      6.3763    127.4260
  1910.5000      0.0000    706.8945      6.0684    129.3143
  1910.7500      0.0000    694.5172      5.8882    131.0895
  1911.0000      0.0000    680.0633      5.9016    134.6139
  1911.2500      0.0000    664.6338      6.0747    140.5373
  1911.5000      0.0000    648.6794      6.3085    147.4799
  1911.7500      0.0000    633.4725      6.5025    152.7227
  1912.0000      0.0000    621.2673      6.6055    154.1729
  1912.2500      0.0000    613.5881      6.6156    151.9304
  1912.5000      0.0000    610.7491      6.5447    147.8592
  1912.7500      0.0000    612.8768      6.4109    143.8662
  1913.0000      0.0000    619.8049      6.2741    140.8641
  1913.2500      0.0000    630.1298      6.2367    139.0319
  1913.5000      0.0000    641.5668      6.3717    138.4458
  1913.7500      0.0000    652.3161      6.6484    139.1009
  1914.0000      0.0000    661.6806      6.9423    140.3477
  1914.2500      0.0000    669.5926      7.1125    140.9151
  1914.5000      0.0000    676.0741      7.0734    140.1986
  1914.7500      0.0000    681.3968      6.8317    139.1809
  1915.0000      0.0000    686.4490      6.4888    139.2860
  1915.2500      0.0000    692.2986      6.1959    140.5243
  1915.5000      0.0000    698.9130      6.0702    141.4715
  1915.7500      0.0000    704.4086      6.1322    141.0366
  1916.0000      0.0000    706.0265      6.3025    139.6925
  1916.2500      0.0000    702.1008      6.4450    138.9159
  1916.5000      0.0000    692.8107      6.4319    139.8735
  1916.7500      0.0000    678.9551      6.2121    142.5852
  1917.0000      0.0000    660.7886      5.8487    145.8578
  1917.2500      0.0000    638.9099      5.4853    148.2400
  1917.5000      0.0000    615.7844      5.2489    149.4962
  1917.7500      0.0000    594.9771      5.1595    150.7699
  1918.0000      0.0000    578.4595      5.1360    152.9585
  1918.2500      0.0000    565.5911      5.0933    155.4968
  1918.5000      0.0000    555.2503      5.0308    157.1224
  1918.7500      0.0000    548.6507      5.0323    157.2200
  1919.0000      0.0000    549.5644      5.1909    155.8523
  1919.2500      0.0000    561.5034      5.5244    152.8357
  1919.5000      0.0000    584.4764      5.9428    147.4942
  1919.7500      0.0000    614.5162      6.2904    139.4590
  1920.0000      0.0000    646.1333      6.4328    129.5952
  1920.2500      0.0000    674.6960      6.3273    120.1722
  1920.5000      0.0000    697.0737      6.0438    113.8294
  1920.7500      0.0000    711.8634      5.7390    111.8768
  1921.0000      0.0000    719.7358      5.5890    113.5552
  1921.2500      0.0000    722.8136      5.6973    116.8373
  1921.5000      0.0000    723.2315      6.0305    119.5931
  1921.7500      0.0000    722.1898      6.4375    120.3157
  1922.0000      0.0000    720.0501      6.7526    118.8552
  1922.2500      0.0000    717.0869      6.9047    116.8207
  1922.5000      0.0000    714.1322      6.9409    116.4927
  1922.7500      0.0000    712.3991      6.9479    118.7043
  1923.0000      0.0000    712.4379      6.9596    122.0582
  1923.2500      0.0000    713.6240      6.9454    124.5959
  1923.5000      0.0000    715.1791      6.8731    125.8754
  1923.7500      0.0000    717.5529      6.7662    126.9495
  1924.0000      0.0000    722.0115      6.6995    128.6560
  1924.2500      0.0000    728.5055      6.7488    130.6261
  1924.5000      0.0000    734.6102      6.9382    132.0649
  1924.7500      0.0000    737.3781      7.2230    132.9499
  1925.0000      0.0000    736.0187      7.5124    133.9843
  1925.2500      0.0000    732.1400      7.7132    135.4621
  1925.5000      0.0000    727.5774      7.7707    136.6260
  1925.7500      0.0000    722.5958      7.6791    136.3011
  1926.0000      0.0000    716.0999      7.4634    133.9983
  1926.2500      0.0000    706.9438      7.1597    130.4432
  1926.5000      0.0000    694.5756      6.8138    127.2598
  1926.7500      0.0000    678.4851      6.4816    125.8674
  1927.0000      0.0000    657.9214      6.2097    126.3604
  1927.2500      0.0000    633.4237      6.0129    127.7243
  1927.5000      0.0000    608.6702      5.8779    129.1346
  1927.7500      0.0000    589.3954      5.7879    130.5003
  1928.0000      0.0000    579.6306      5.7406    131.9093
  1928.2500      0.0000    579.6340      5.7411    133.3687
  1928.5000      0.0000    587.5936      5.7835    135.1138
  1928.7500      0.0000    601.8268      5.8446    137.5357
  1929.0000      0.0000    620.1779      5.8913    140.6593
  1929.2500      0.0000    638.1681      5.9047    144.0250
  1929.5000      0.0000    649.5988      5.9143    147.2662
  1929.7500      0.0000    650.0867      5.9997    150.5948
  1930.0000      0.0000    640.1816      6.2399    154.2870
  1930.2500      0.0000    624.8228      6.6441    157.5272
  1930.5000      0.0000    609.3838      7.1300    158.2580
  1930.7500      0.0000    595.8976      7.5736    154.8760
  1931.0000      0.0000    582.7864      7.8925    148.1678
  1931.2500      0.0000    567.2230      8.0980    141.0396
