~Version Information
VERS.                      2.0: CWLS Log ASCII Standard - VERSION 2.0
WRAP.                       NO: One line per depth step
~Well Information Block
STRT.FT               898.0000: 
STOP.FT              2359.2000: 
STEP.FT                 0.1000: 
NULL.                -999.2500: 
COMP.          Pioneer Natural Resources: COMPANY
WELL.             Trimax 44-23: WELL
FLD.           Purgatoire River: FIELD
LOC.           527' FSL & 1064' FEL: LOCATION
PROV.                 Colorado: PROVINCE
CNTY.               Las Animas: COUNTRY
SRVC.                Patterson: SERVICE COMPANY
DATE.          Mon Mar 14 07:28:19 2005: LOG DATE
UWI.           05 071 08326 00: UNIQUE WELL ID
~Curve Information Block
DEPT.FT            0 000 00 00: Depth
DCAL.in                       : CDL Caliper
RHOB.g/cc                     : CDL Bulk Density
RHOC.g/cc                     : CDL Density Correction
DPOR.pu                       : CDL Density Porosity
GR.GAPI                       : Gamma Ray
NPOR.pu                       : Neutron Porosity
~Parameter Information Block
~A  Depth       DCAL        RHOB        RHOC        DPOR         GR         NPOR    
# ...
  2251.6000      7.8269      2.4602      0.0938     11.5056     63.1921     20.9902
  2251.7000      7.8269      2.4400      0.0181     12.7286     60.2998     20.8282
  2251.8000      7.8499      2.4207      0.0625     13.8969     60.6058     20.8423
  2251.9000      7.8499      2.4076      0.0256     14.6900     63.4261     20.8972
  2252.0000      7.8599      2.4070      0.0149     14.7283     66.2179     20.5808
  2252.1000      7.8599      2.4173      0.0421     14.1030     65.7991     20.1084
  2252.2000      7.8599      2.4266      0.0157     13.5402     62.6802     19.8403
  2252.3000      7.8639      2.4303      0.0261     13.3135     60.5843     19.6519
  2252.4000      7.8639      2.4327      0.0388     13.1711     61.3624     19.5717
  2252.5000      7.8665      2.4389      0.0183     12.7952     65.3069     19.5995
  2252.6000      7.8665      2.4481      0.0341     12.2369     70.6183     19.3567
  2252.7000      7.8665      2.4563      0.0133     11.7380     73.6775     18.7731
  2252.8000      7.8684      2.4630      0.0440     11.3314     74.1691     18.2378
  2252.9000      7.8684      2.4657      0.0610     11.1709     74.6376     18.0780
  2253.0000      7.8684      2.4610      0.0591     11.4521     74.2465     18.4511
  2253.1000      7.8684      2.4518      0.0278     12.0150     73.3212     18.7706
  2253.2000      7.8684      2.4458      0.0251     12.3736     77.1200     18.5903
  2253.3000      7.8653      2.4474      0.0332     12.2785     83.8800     18.7147
  2253.4000      7.8653      2.4528      0.0173     11.9518     86.0239     19.2855
  2253.5000      7.8619      2.4614      0.0375     11.4289     82.8313     19.5156
  2253.6000      7.8619      2.4762      0.0347     10.5347     77.7078     19.4513
  2253.7000      7.8619      2.4941      0.0417      9.4455     73.4984     19.2933
  2253.8000      7.8614      2.5080      0.0569      8.6062     73.1530     18.9126
  2253.9000      7.8614      2.5157      0.0473      8.1372     77.0570     18.4446
  2254.0000      7.8629      2.5207      0.0314      7.8348     81.9976     17.8731
  2254.1000      7.8629      2.5228      0.0511      7.7100     82.9911     17.0741
  2254.2000      7.8629      2.5262      0.0162      7.5035     78.6441     16.3328
  2254.3000      7.8638      2.5376      0.0677      6.8094     75.6919     15.6567
  2254.4000      7.8638      2.5482      0.0490      6.1708     79.0719     14.7634
  2254.5000      7.8570      2.5480      0.0589      6.1826     82.3951     14.0357
  2254.6000      7.8570      2.5402      0.0456      6.6533     80.3332     14.0106
  2254.7000      7.8570      2.5352      0.0236      6.9587     76.1424     14.7463
  2254.8000      7.8429      2.5371      0.0362      6.8442     73.2421     16.0475
  2254.9000      7.8429      2.5402      0.0333      6.6558     71.2753     17.0600
  2255.0000      7.8304      2.5402      0.0524      6.6518     68.4356     16.9243
  2255.1000      7.8304      2.5281      0.0744      7.3889     64.5334     15.9722
  2255.2000      7.8304      2.5052      0.0054      8.7785     61.2069     15.3173
  2255.3000      7.8229      2.4953     -0.0005      9.3744     60.2098     15.4106
  2255.4000      7.8229      2.5003      0.0547      9.0754     62.3482     15.6302
  2255.5000      7.8271      2.5028      0.0189      8.9229     66.8346     15.6621
  2255.6000      7.8271      2.5007      0.0349      9.0486     72.0528     15.5927
  2255.7000      7.8271      2.4895      0.0383      9.7244     74.3297     15.2763
  2255.8000      7.8402      2.4675     -0.0422     11.0615     71.5869     15.2087
  2255.9000      7.8402      2.4477     -0.0029     12.2577     65.8782     16.1608
  2256.0000      7.8501      2.4383     -0.0393     12.8281     60.2173     17.5493
  2256.1000      7.8501      2.4419     -0.0077     12.6132     56.0812     18.0676
  2256.2000      7.8501      2.4559      0.0226     11.7625     54.9629     17.5334
  2256.3000      7.8532      2.4661      0.0292     11.1441     60.3792     16.7972
  2256.4000      7.8532      2.4629      0.0362     11.3386     68.8759     16.3805
  2256.5000      7.8519      2.4583      0.0096     11.6191     71.5899     16.0762
  2256.6000      7.8519      2.4648      0.0353     11.2226     69.3428     15.7455
  2256.7000      7.8519      2.4743      0.0486     10.6506     69.9064     15.4964
  2256.8000      7.8494      2.4746      0.0289     10.6324     73.8546     15.5690
  2256.9000      7.8494      2.4686      0.0075     10.9944     75.5655     16.0922
  2257.0000      7.8474      2.4637      0.0324     11.2908     75.4811     16.8242
  2257.1000      7.8474      2.4616      0.0150     11.4159     76.1761     17.4445
  2257.2000      7.8474      2.4617      0.0457     11.4143     75.8392     17.7231
  2257.3000      7.8465      2.4646      0.0152     11.2353     75.4418     17.7422
  2257.4000      7.8465      2.4739      0.0363     10.6703     75.9493     17.7374
  2257.5000      7.8457      2.4808      0.0300     10.2569     74.5709     17.7017
  2257.6000      7.8457      2.4707      0.0085     10.8638     70.3460     17.7740
  2257.7000      7.8457      2.4517      0.0036     12.0211     65.7227     18.0886
  2257.8000      7.8450      2.4471     -0.0090     12.2961     64.7313     18.2964
  2257.9000      7.8450      2.4609      0.0243     11.4622     69.6735     18.0801
  2258.0000      7.8445      2.4724      0.0576     10.7666     77.4844     17.9899
  2258.1000      7.8445      2.4721      0.0334     10.7801     82.2960     18.4959
  2258.2000      7.8445      2.4772     -0.0103     10.4727     81.1019     19.3500
  2258.3000      7.8450      2.4956      0.0375      9.3554     76.4139     20.4961
  2258.4000      7.8450      2.5030      0.0495      8.9079     71.4683     21.2932
  2258.5000      7.8465      2.4850      0.0265      9.9978     66.8878     21.0453
  2258.6000      7.8465      2.4651     -0.0108     11.2059     63.7284     20.5061
  2258.7000      7.8465      2.4685      0.0125     10.9996     64.4149     20.2277
  2258.8000      7.8472      2.4946     -0.0003      9.4180     67.4616     19.8874
  2258.9000      7.8472      2.5247      0.0601      7.5964     69.0502     19.2553
  2259.0000      7.8449      2.5400      0.0443      6.6674     69.8476     18.6105
  2259.1000      7.8449      2.5408      0.0404      6.6196     70.5387     18.6643
  2259.2000      7.8449      2.5366      0.0890      6.8702     70.4383     19.5350
  2259.3000      7.8402      2.5328      0.0345      7.1027     71.2718     20.2886
  2259.4000      7.8402      2.5338      0.0519      7.0436     73.0694     20.6151
  2259.5000      7.8367      2.5384      0.0272      6.7625     73.4126     20.7467
  2259.6000      7.8367      2.5391      0.0755      6.7220     72.5362     20.4797
  2259.7000      7.8367      2.5315      0.0156      7.1820     72.3885     20.0029
  2259.8000      7.8369      2.5245      0.0251      7.6051     72.8998     19.6688
  2259.9000      7.8369      2.5240      0.0170      7.6384     73.0756     19.1437
  2260.0000      7.8398      2.5215      0.0515      7.7870     73.1327     18.5900
  2260.1000      7.8398      2.5146      0.0321      8.2054     73.1633     18.6683
  2260.2000      7.8398      2.5169     -0.0145      8.0672     72.7663     19.1189
  2260.3000      7.8399      2.5317      0.0471      7.1696     72.3878     19.2886
  2260.4000      7.8399      2.5429      0.0787      6.4923     73.0422     19.2213
  2260.5000      7.8378      2.5475      0.0030      6.2143     74.6428     19.3235
  2260.6000      7.8378      2.5564      0.0184      5.6714     75.2257     19.6713
  2260.7000      7.8378      2.5665      0.0448      5.0591     73.0690     19.9074
  2260.8000      7.8367      2.5759      0.0450      4.4887     70.9688     19.8430
  2260.9000      7.8367      2.5901      0.0335      3.6281     70.3738     19.9241
  2261.0000      7.8330      2.6027      0.0896      2.8678     68.8098     20.4957
  2261.1000      7.8330      2.6072      0.0515      2.5929     65.8355     21.2280
