~Version Information
VERS.                      2.0: CWLS Log ASCII Standard - VERSION 2.0
WRAP.                       NO: One line per depth step
~Well Information Block
STRT.FT               350.0000: 
STOP.FT              2531.5000: 
STEP.FT                 0.1000: 
NULL.                -999.2500: 
COMP.          Pioneer Natural Resources: COMPANY
WELL.          Cock-a-doodle-doo: WELL
FLD.           Purgatoire River: FIELD
LOC.           163' FSL & 54' FEL: LOCATION
PROV.                 Colorado: PROVINCE
CNTY.               Las Animas: COUNTRY
SRVC.                Patterson: SERVICE COMPANY
DATE.          Fri Jul 01 09:34:59 2005: LOG DATE
UWI.           05 071 08429 00: UNIQUE WELL ID
~Curve Information Block
DEPT.FT            0 000 00 00: Depth
DCAL.in                       : CDL Caliper
RHOB.g/cc                     : CDL Bulk Density
RHOC.g/cc                     : CDL Density Correction
DPOR.pu                       : CDL Density Porosity
GR.GAPI                       : Gamma Ray
NPOR.pu                       : Neutron Porosity
~Parameter Information Block
~A  Depth       DCAL        RHOB        RHOC        DPOR         GR         NPOR    
# ...
  1214.0000      8.1694      2.6763      0.1628     -1.5940     70.8544     26.9944
  1214.1000      8.1694      2.6798      0.1362     -1.8061     69.3943     27.3289
  1214.2000      8.1694      2.6452      0.1507      0.2936     69.4360     27.2753
  1214.3000      8.1338      2.5910      0.0544      3.5757     67.8528     26.7723
  1214.4000      8.1338      2.5549      0.0712      5.7658     66.1409     26.3521
  1214.5000      8.1056      2.5565      0.0318      5.6639     66.6387     26.5203
  1214.6000      8.1056      2.5886      0.0421      3.7223     68.3986     26.9426
  1214.7000      8.1056      2.6232      0.0763      1.6240     71.0832     26.8905
  1214.8000      8.0741      2.6348      0.1011      0.9212     74.9883     26.5239
  1214.9000      8.0741      2.6368      0.0291      0.7997     78.0690     26.2303
  1215.0000      8.0244      2.6562      0.0331     -0.3752     79.2364     25.8019
  1215.1000      8.0244      2.6792      0.1048     -1.7719     81.5926     25.2475
  1215.2000      8.0244      2.6841      0.0958     -2.0680     86.5533     24.8723
  1215.3000      8.0367      2.6863      0.0473     -2.1977     91.8603     24.6124
  1215.4000      8.0367      2.6996      0.0822     -3.0080     96.9170     24.0844
  1215.5000      8.0177      2.7060      0.1045     -3.3920    102.2756     23.1719
  1215.6000      8.0177      2.6904      0.0781     -2.4497    107.6343     22.3345
  1215.7000      8.0177      2.6690      0.0294     -1.1508    111.9705     22.1793
  1215.8000      8.0187      2.6673      0.0137     -1.0470    114.7357     22.3086
  1215.9000      8.0187      2.6806      0.0739     -1.8566    116.6417     22.0280
  1216.0000      8.0419      2.6735      0.0732     -1.4254    119.6778     21.5387
  1216.1000      8.0419      2.6335      0.0505      1.0028    125.6423     21.2963
  1216.2000      8.0419      2.5930     -0.0103      3.4560    132.6903     21.3504
  1216.3000      8.0261      2.5749      0.0438      4.5519    137.9715     21.2908
  1216.4000      8.0261      2.5661      0.0473      5.0821    140.7834     20.9582
  1216.5000      8.0246      2.5542      0.0476      5.8070    141.9703     20.6249
  1216.6000      8.0246      2.5424     -0.0124      6.5186    143.1804     20.3986
  1216.7000      8.0246      2.5449     -0.0060      6.3697    141.8055     20.3704
  1216.8000      8.0100      2.5677      0.0350      4.9862    133.8071     20.7839
  1216.9000      8.0100      2.5895      0.0921      3.6684    123.2800     21.2812
  1217.0000      7.9931      2.5872      0.0740      3.8060    117.0480     21.2266
  1217.1000      7.9931      2.5686      0.0547      4.9336    115.8809     20.7779
  1217.2000      7.9931      2.5396      0.0919      6.6928    118.1596     20.3994
  1217.3000      8.0273      2.4944      0.0652      9.4283    122.9030     20.3681
  1217.4000      8.0273      2.4448      0.0074     12.4377    124.2768     20.7504
  1217.5000      8.0395      2.4072     -0.0151     14.7161    119.7781     21.2728
  1217.6000      8.0395      2.3901      0.0133     15.7494    118.6950     21.7638
  1217.7000      8.0395      2.3972      0.0449     15.3235    125.2499     22.3946
  1217.8000      8.0487      2.4223      0.0755     13.7973    132.0810     23.3257
  1217.9000      8.0487      2.4526      0.1265     11.9612    132.3061     24.3111
  1218.0000      8.0425      2.4849      0.0997     10.0062    127.3359     25.0038
  1218.1000      8.0425      2.5222      0.2019      7.7458    122.7884     25.3656
  1218.2000      8.0425      2.5571      0.1967      5.6317    122.5985     25.6438
  1218.3000      8.0510      2.5817      0.2188      4.1367    127.1825     26.1049
  1218.4000      8.0510      2.5864      0.1934      3.8554    131.4183     26.6751
  1218.5000      8.1005      2.5695      0.1215      4.8800    129.0907     27.1234
  1218.6000      8.1005      2.5595      0.0884      5.4819    122.5521     27.4547
  1218.7000      8.1005      2.5886      0.0407      3.7227    118.2589     27.5851
  1218.8000      8.1481      2.6490      0.0796      0.0611    117.1592     27.5458
  1218.9000      8.1481      2.6952      0.1662     -2.7387    119.4908     27.7258
  1219.0000      8.1179      2.7012      0.0965     -3.1019    124.2353     27.9400
  1219.1000      8.1179      2.6892      0.1158     -2.3735    126.9550     27.6648
  1219.2000      8.1179      2.6793      0.1392     -1.7785    127.1167     27.1374
  1219.3000      8.1177      2.6654      0.0810     -0.9347    127.5942     26.8119
  1219.4000      8.1177      2.6421      0.1089      0.4804    127.3982     26.7562
  1219.5000      8.1094      2.6098      0.0688      2.4368    125.6889     26.8483
  1219.6000      8.1094      2.5794      0.0784      4.2808    125.2342     26.8529
  1219.7000      8.1094      2.5683      0.1158      4.9511    127.1858     26.7104
  1219.8000      8.1170      2.5780      0.0966      4.3626    131.0561     26.4325
  1219.9000      8.1170      2.5967      0.1177      3.2291    134.3351     26.4037
  1220.0000      7.9958      2.6130      0.1721      2.2421    135.0046     27.0593
  1220.1000      7.9958      2.6250      0.1548      1.5139    133.4769     27.8311
  1220.2000      7.9958      2.6443      0.1293      0.3425    130.8196     28.0135
  1220.3000      8.0182      2.6715      0.1814     -1.3017    126.5877     27.7755
  1220.4000      8.0182      2.6974      0.1803     -2.8708    120.6228     27.4860
  1220.5000      8.0896      2.7233      0.1613     -4.4406    115.0972     27.1669
  1220.6000      8.0896      2.7387      0.1900     -5.3770    110.1896     26.8257
  1220.7000      8.0896      2.7322      0.1417     -4.9808    105.5336     26.8003
  1220.8000      8.1097      2.7233      0.0758     -4.4406    101.1592     27.0672
  1220.9000      8.1097      2.7267      0.1475     -4.6491     98.3237     27.1383
  1221.0000      8.1150      2.7277      0.1448     -4.7096    100.6812     27.0466
  1221.1000      8.1150      2.7203      0.1243     -4.2590    106.4661     27.2683
  1221.2000      8.1150      2.7107      0.1133     -3.6772    109.6383     27.9244
  1221.3000      8.1762      2.6989      0.1736     -2.9656    108.9780     28.6291
  1221.4000      8.1762      2.6807      0.1265     -1.8577    107.2250     29.2066
  1221.5000      8.1812      2.6613      0.0678     -0.6853    106.2326     29.8132
  1221.6000      8.1812      2.6533      0.0918     -0.1986    108.1373     30.4327
  1221.7000      8.1812      2.6544      0.1450     -0.2658    114.7487     30.6973
  1221.8000      8.1828      2.6623      0.1551     -0.7427    119.7154     30.3634
  1221.9000      8.1828      2.6862      0.1949     -2.1965    116.0346     29.8881
  1222.0000      8.1582      2.7326      0.1551     -5.0060    108.8037     29.6191
  1222.1000      8.1582      2.8060      0.1533     -9.4515    105.0065     29.4042
  1222.2000      8.1582      2.9007      0.1785    -15.1967    105.0724     29.1618
  1222.3000      8.1563      2.9855      0.2633    -20.3309    107.9600     28.8766
  1222.4000      8.1563      3.0274      0.2357    -22.8697    112.3353     28.4331
  1222.5000      8.1224      3.0184      0.1993    -22.3273    116.1661     27.9400
  1222.6000      8.1224      2.9582      0.2117    -18.6814    120.7997     27.7462
  1222.7000      8.1224      2.8501      0.1522    -12.1284    126.9091     27.8334
  1222.8000      7.9881      2.7275      0.0308     -4.6978    129.5441     27.8088
  1222.9000      7.9881      2.6495     -0.1236      0.0289    126.2556     27.4998
  1223.0000      7.9997      2.6355     -0.0644      0.8764    124.1522     27.0940
  1223.1000      7.9997      2.6328      0.0115      1.0434    129.3246     26.8882
  1223.2000      7.9997      2.6042     -0.0394      2.7743    137.4694     27.1048
  1223.3000      8.0033      2.5814      0.0513      4.1595    142.4756     27.6301
  1223.4000      8.0033      2.5840      0.1757      4.0014    144.1464     27.9479
  1223.5000      8.1189      2.5914      0.1523      3.5533    144.6045     27.8582
