~Version Information
VERS.                      2.0: CWLS Log ASCII Standard - VERSION 2.0
WRAP.                       NO: One line per depth step
~Well Information Block
STRT.FT               650.0000: 
STOP.FT              1080.5000: 
STEP.FT                 0.2500: 
NULL.                -999.2500: 
COMP.          Pioneer Natural Resources: COMPANY
WELL.            Galileo 21-11: WELL
FLD.           Purgatoire River: FIELD
LOC.           407' FNL & 2394' FWL: LOCATION
PROV.                 Colorado: PROVINCE
CNTY.               Las Animas: COUNTRY
SRVC.                Patterson: SERVICE COMPANY
DATE.          Mon Apr 11 11:14:18 2005: LOG DATE
UWI.           05 071 08353 00: UNIQUE WELL ID
~Curve Information Block
DEPT.FT            0 000 00 00: Depth
SN.Ohm-m                      : IEL Short Normal
SP.mV                         : IEL Spontaneous Potential
DIR.Ohm-m                     : IEL Induction Resistivity
GR.GAPI                       : Gamma Ray
~Parameter Information Block
~A  Depth        SN          SP         DIR          GR     
# ...
   784.0000    336.5187   -126.0336     22.6760     85.9030
   784.2500    328.7998   -109.8557     22.2214     86.6255
   784.5000    320.6039    -91.6854     21.9026     88.7496
   784.7500    291.0440    -71.9151     21.7033     90.1617
   785.0000    228.9399    -50.9774     21.5943     91.0325
   785.2500    148.5508    -29.5008     21.5493     90.3430
   785.5000     80.5716     -8.3570     21.5499     87.5883
   785.7500     42.1363     11.3548     21.5831     85.3226
   786.0000     27.0306     28.3189     21.6409     82.7209
   786.2500     22.7568     41.0283     21.7204     81.7720
   786.5000     21.7796     48.0405     21.8246     80.7851
   786.7500     22.5030     48.7450     21.9607     80.0252
   787.0000     27.7175     44.4935     22.1378     79.1360
   787.2500     38.1413     39.1454     22.3648     79.1993
   787.5000     47.5913     37.9410     22.6470     80.2031
   787.7500     49.6406     44.9599     22.9855     80.8333
   788.0000     45.8866     61.0453     23.3751     80.8417
   788.2500     41.9302     83.7779     23.8031     80.3169
   788.5000     39.4392    109.0725     24.2486     79.4022
   788.7500     36.6144    132.8161     24.6851     78.9082
   789.0000     33.0394    151.7542     25.0869     78.3426
   789.2500     30.6324    163.9822     25.4337     78.1238
   789.5000     31.0777    169.4305     25.7106     78.2518
   789.7500     34.3917    170.0219     25.9015     78.8175
   790.0000     41.3648    168.9241     25.9857     80.8056
   790.2500     55.8345    169.0174     25.9464     83.1145
   790.5000     79.7060    171.5675     25.7838     87.9471
   790.7500    105.0008    176.0425     25.5181     91.6753
   791.0000    116.0323    181.0030     25.1762     97.3428
   791.2500    104.3546    185.2251     24.7765    101.1313
   791.5000     78.2179    188.3988     24.3283    107.1322
   791.7500     52.9359    191.2685     23.8431    111.2703
   792.0000     36.9730    195.2451     23.3417    116.8902
   792.2500     29.5939    201.5566     22.8480    119.8166
   792.5000     26.4516    210.3386     22.3750    123.0133
   792.7500     24.0526    220.3504     21.9179    124.6549
   793.0000     21.4264    229.6410     21.4586    126.6259
   793.2500     20.2231    236.6475     20.9785    127.4423
   793.5000     21.8757    240.8522     20.4740    127.4059
   793.7500     24.6722    242.6588     19.9638    126.3533
   794.0000     25.8283    242.8488     19.4829    123.4850
   794.2500     25.1018    242.0999     19.0692    121.1966
   794.5000     24.2598    240.7453     18.7503    118.1086
   794.7500     24.7189    238.7447     18.5405    116.6410
   795.0000     26.9064    235.7836     18.4410    115.7254
   795.2500     30.3861    231.3967     18.4421    116.1129
   795.5000     33.8796    225.0519     18.5218    117.9094
   795.7500     35.9653    216.2352     18.6463    119.2755
   796.0000     36.2595    204.6128     18.7750    120.1903
   796.2500     36.1450    190.2181     18.8741    119.6916
   796.5000     39.6623    173.4164     18.9309    118.0533
   796.7500     55.7175    154.4372     18.9587    117.2492
   797.0000     97.8580    132.7181     18.9841    117.4292
   797.2500    169.9309    106.7587     19.0255    118.3461
   797.5000    239.8371     74.8889     19.0805    120.0813
   797.7500    252.3152     36.4412     19.1333    121.2114
   798.0000    200.5127     -7.5406     19.1738    123.0434
   798.2500    147.3645    -54.2544     19.2087    124.3940
   798.5000    147.4310    -99.4484     19.2550    126.1447
   798.7500    194.7109   -138.1940     19.3229    126.9852
   799.0000    256.7140   -166.4228     19.4034    128.5388
   799.2500    317.9648   -182.5410     19.4717    130.4521
   799.5000    373.6756   -187.7595     19.4999    134.6663
   799.7500    411.0144   -184.8565     19.4704    137.4615
   800.0000    423.5675   -176.5714     19.3791    139.7140
   800.2500    421.3152   -164.7720     19.2293    139.4339
   800.5000    415.8482   -150.4667     19.0269    136.8952
   800.7500    411.5706   -134.1378     18.7839    134.4740
   801.0000    408.9105   -116.0249     18.5254    130.7745
   801.2500    407.6097    -96.2702     18.2923    128.6541
   801.5000    407.4419    -74.9787     18.1334    126.0792
   801.7500    408.1169    -52.2992     18.0920    124.3863
   802.0000    409.3670    -28.5856     18.1926    120.9722
   802.2500    411.1826     -4.5921     18.4335    117.9042
   802.5000    413.4009     18.3826     18.7869    112.5478
   802.7500    413.9944     38.4290     19.2108    108.9217
   803.0000    407.9051     53.0904     19.6666    104.1106
   803.2500    390.9852     59.7684     20.1333    101.7218
   803.5000    365.2050     56.6419     20.6071    100.0659
   803.7500    333.6522     43.7642     21.0888    100.5538
   804.0000    295.8284     23.5008     21.5705    103.5944
   804.2500    258.9603     -0.1573     22.0358    106.5171
   804.5000    243.4520    -22.8437     22.4773    109.9923
   804.7500    263.2819    -40.7360     22.9196    110.1226
   805.0000    308.5635    -51.0254     23.4213    105.5472
   805.2500    356.3898    -52.3031     24.0368     99.9420
   805.5000    389.6552    -44.7500     24.7540     90.9666
   805.7500    402.9887    -29.7341     25.4519     86.6063
   806.0000    401.2817     -8.9981     25.9261     84.1325
   806.2500    393.2201     15.9399     25.9913     85.0077
   806.5000    381.8236     43.9000     25.5914     88.9774
   806.7500    360.0732     73.8773     24.8183     92.7686
   807.0000    315.3829    104.8102     23.8328     99.1800
   807.2500    243.1493    135.3404     22.7762    103.1733
   807.5000    158.2395    163.6960     21.7348    107.3226
   807.7500     85.5947    187.9109     20.7481    108.5138
   808.0000     39.3563    206.3807     19.8282    108.7677
   808.2500     17.8466    218.4401     18.9762    108.8314
   808.5000     12.8853    224.5824     18.1912    109.7487
   808.7500     16.2100    226.1904     17.4750    110.8096
   809.0000     20.8684    224.9595     16.8329    112.2457
   809.2500     22.9063    222.3313     16.2714    112.7233
   809.5000     22.7824    219.1733     15.7945    112.7775
   809.7500     23.4070    215.7634     15.4007    112.7775
   810.0000     26.1486    211.9972     15.0808    113.6760
   810.2500     29.2567    207.6680     14.8191    115.2468
   810.5000     30.5824    202.6310     14.5958    118.5719
   810.7500     30.3756    196.7102     14.3919    120.4105
   811.0000     29.9404    189.4079     14.1926    120.7276
   811.2500     29.2457    179.7067     13.9895    119.0135
   811.5000     27.6983    166.2170     13.7797    114.8959
   811.7500     26.1741    147.6469     13.5660    112.4327
   812.0000     26.1382    123.4375     13.3549    110.8154
   812.2500     27.9355     94.4144     13.1548    111.2794
   812.5000     33.7413     63.0148     12.9728    113.3172
   812.7500     54.4738     32.4027     12.8128    114.7234
   813.0000    110.9487      4.6171     12.6730    115.9610
   813.2500    211.4761    -20.6292     12.5469    116.2562
   813.5000    321.0923    -45.0073     12.4253    116.6142
   813.7500    385.9598    -69.2748     12.3005    117.0670
   814.0000    398.8869    -92.0490     12.1702    117.9965
   814.2500    404.3422   -110.7773     12.0402    118.6913
   814.5000    439.0514   -123.5775     11.9242    119.8166
   814.7500    491.9348   -130.1532     11.8419    120.4519
   815.0000    523.7073   -131.5398     11.8135    120.5146
   815.2500    514.3516   -129.5705     11.8538    119.5821
   815.5000    477.8191   -126.6027     11.9672    116.6928
   815.7500    438.7153   -125.3059     12.1465    114.1133
   816.0000    410.7584   -128.1684     12.3767    110.0653
   816.2500    394.2494   -136.7179     12.6409    107.6273
   816.5000    384.3610   -150.7997     12.9264    104.5878
   816.7500    380.2572   -168.3859     13.2262    102.8178
   817.0000    386.4107   -186.2076     13.5371    100.1373
   817.2500    402.1429   -201.0143     13.8548     98.3860
