~Version Information
VERS.                      2.0: CWLS Log ASCII Standard - VERSION 2.0
WRAP.                       NO: One line per depth step
~Well Information Block
STRT.FT                15.0000: 
STOP.FT              1869.0000: 
STEP.FT                 0.2500: 
NULL.                -999.2500: 
COMP.          Pioneer Natural Resources: COMPANY
WELL.          Victory 12-14 Tr: WELL
FLD.           Purgatoire River: FIELD
LOC.           2522' FNL & 276' FWL: LOCATION
PROV.                 Colorado: PROVINCE
CNTY.               Las Animas: COUNTRY
SRVC.                Patterson: SERVICE COMPANY
DATE.          Fri Jul 22 14:39:41 2005: LOG DATE
UWI.           05 071 08433 00: UNIQUE WELL ID
~Curve Information Block
DEPT.FT            0 000 00 00: Depth
GR.GAPI                       : Gamma Ray
CCL.                          : Casing Collar Locator
TT3.usec                      : CBL 3' Travel Time
AMP3.mV                       : CBL 3' Amplitude
~Parameter Information Block
~A  Depth        GR         CCL         TT3         AMP3    
# ...
  1589.5000    121.2269      0.0000    643.5439      9.9134
  1589.7500    122.3660      0.0000    693.6750      9.3315
  1590.0000    122.7979      0.0000    735.1141      8.9687
  1590.2500    122.0734      0.0000    759.3468      8.7970
  1590.5000    120.9256      0.0000    767.3351      8.6713
  1590.7500    120.5459      0.0000    765.1224      8.4842
  1591.0000    121.5700      0.0000    758.6557      8.2246
  1591.2500    123.9562      0.0000    751.1433      7.9487
  1591.5000    127.7074      0.0000    742.7177      7.7226
  1591.7500    133.1390      0.0000    732.2047      7.5759
  1592.0000    140.1221      0.0000    720.0312      7.5015
  1592.2500    147.5041      0.0000    709.4233      7.5050
  1592.5000    153.7252      0.0000    704.4935      7.6124
  1592.7500    157.8256      0.0000    707.3250      7.8053
  1593.0000    159.6450      0.0000    716.6790      7.9969
  1593.2500    159.3417      0.0000    728.5234      8.1094
  1593.5000    157.1434      0.0000    737.4095      8.1413
  1593.7500    153.6479      0.0000    738.1940      8.1431
  1594.0000    150.0231      0.0000    727.7791      8.1630
  1594.2500    147.4218      0.0000    706.4764      8.2247
  1594.5000    146.0829      0.0000    678.3896      8.3293
  1594.7500    145.3048      0.0000    649.9547      8.4580
  1595.0000    144.4421      0.0000    627.0624      8.5830
  1595.2500    143.5980      0.0000    612.6832      8.6857
  1595.5000    143.2811      0.0000    606.2861      8.7670
  1595.7500    143.7118      0.0000    604.8572      8.8393
  1596.0000    144.5621      0.0000    604.9668      8.9105
  1596.2500    145.1489      0.0000    605.1541      8.9770
  1596.5000    144.8453      0.0000    607.2452      9.0332
  1596.7500    143.3761      0.0000    615.4860      9.0782
  1597.0000    140.8405      0.0000    633.6389      9.1089
  1597.2500    137.6902      0.0000    661.5299      9.1111
  1597.5000    134.6500      0.0000    693.7292      9.0700
  1597.7500    132.1915      0.0000    722.4170      8.9909
  1598.0000    129.9342      0.0000    742.3622      8.9015
  1598.2500    127.0626      0.0000    753.2756      8.8276
  1598.5000    123.4724      0.0000    758.0356      8.7688
  1598.7500    119.9069      0.0000    759.7128      8.7006
  1599.0000    116.8627      0.0000    760.1596      8.6012
  1599.2500    114.1679      0.0000    760.1641      8.4769
  1599.5000    111.8923      0.0000    760.0090      8.3619
  1599.7500    110.7094      0.0000    759.8108      8.2884
  1600.0000    110.7885      0.0000    759.6352      8.2520
  1600.2500    111.0807      0.0000    759.5107      8.2129
  1600.5000    110.5437      0.0000    759.4423      8.1363
  1600.7500    109.6723      0.0000    759.4263      8.0244
  1601.0000    110.0397      0.0000    759.4604      7.9053
  1601.2500    112.4569      0.0000    759.5268      7.7992
  1601.5000    116.2644      0.0000    759.5593      7.7073
  1601.7500    120.4018      0.0000    759.3394      7.6304
  1602.0000    124.5425      0.0000    758.2398      7.5874
  1602.2500    128.9400      0.0000    754.7738      7.6047
  1602.5000    133.3902      0.0000    746.3806      7.6882
  1602.7500    136.6888      0.0000    730.3708      7.8103
  1603.0000    137.5577      0.0000    706.2314      7.9256
  1603.2500    136.3247      0.0000    677.4803      7.9964
  1603.5000    135.0920      0.0000    650.6743      8.0026
  1603.7500    135.6700      0.0000    631.7804      7.9399
  1604.0000    137.7521      0.0000    622.8150      7.8221
  1604.2500    139.6011      0.0000    621.1873      7.6857
  1604.5000    140.0964      0.0000    621.8290      7.5809
  1604.7500    139.5697      0.0000    620.4034      7.5473
  1605.0000    138.8586      0.0000    615.4752      7.5981
  1605.2500    138.0523      0.0000    608.5052      7.7202
  1605.5000    136.4134      0.0000    602.2114      7.8818
  1605.7500    133.4753      0.0000    598.9443      8.0426
  1606.0000    129.9548      0.0000    600.4432      8.1673
  1606.2500    127.4409      0.0000    608.5930      8.2388
  1606.5000    127.2524      0.0000    625.2635      8.2600
  1606.7500    129.5738      0.0000    650.0873      8.2437
  1607.0000    133.4737      0.0000    677.9785      8.2017
  1607.2500    137.6052      0.0000    699.8833      8.1431
  1607.5000    140.8705      0.0000    707.6000      8.0796
  1607.7500    142.7342      0.0000    698.9747      8.0287
  1608.0000    143.3986      0.0000    678.8965      8.0096
  1608.2500    143.7085      0.0000    655.5550      8.0327
  1608.5000    144.4672      0.0000    635.8027      8.0906
  1608.7500    145.7184      0.0000    623.1429      8.1598
  1609.0000    146.8629      0.0000    618.0582      8.2095
  1609.2500    147.4248      0.0000    618.9557      8.2142
  1609.5000    147.4969      0.0000    623.5654      8.1609
  1609.7500    147.4459      0.0000    630.7305      8.0523
  1610.0000    147.4620      0.0000    641.0330      7.8995
  1610.2500    147.6434      0.0000    655.4344      7.7028
  1610.5000    148.2956      0.0000    673.5332      7.4337
  1610.7500    149.8648      0.0000    693.4114      7.0412
  1611.0000    152.5651      0.0000    712.6702      6.4828
  1611.2500    156.0376      0.0000    729.0003      5.7584
  1611.5000    159.2974      0.0000    740.1909      4.9186
  1611.7500    161.1266      0.0000    744.7006      4.0447
  1612.0000    160.5316      0.0000    742.6002      3.2177
  1612.2500    156.6832      0.0000    735.5972      2.4968
  1612.5000    148.7042      0.0000    726.0039      1.9141
  1612.7500    136.2212      0.0000    716.2285      1.4788
  1613.0000    120.3483      0.0000    709.7661      1.1842
  1613.2500    103.7077      0.0000    711.0819      1.0161
  1613.5000     89.1322      0.0000    721.3752      0.9570
  1613.7500     78.2762      0.0000    734.2042      0.9875
  1614.0000     71.4361      0.0000    738.8177      1.0871
  1614.2500     68.5157      0.0000    729.6899      1.2420
  1614.5000     69.6690      0.0000    711.0155      1.4593
  1614.7500     74.7220      0.0000    691.5325      1.7726
  1615.0000     82.3674      0.0000    677.3101      2.2295
  1615.2500     90.6235      0.0000    669.7000      2.8701
  1615.5000     98.1903      0.0000    667.2734      3.7050
  1615.7500    104.8914      0.0000    667.8735      4.6978
  1616.0000    110.6984      0.0000    669.5891      5.7551
  1616.2500    114.8882      0.0000    671.1498      6.7411
  1616.5000    116.5283      0.0000    672.0390      7.5258
  1616.7500    115.6264      0.0000    672.3071      8.0438
  1617.0000    113.6218      0.0000    672.2535      8.3139
  1617.2500    112.7306      0.0000    672.2518      8.4066
  1617.5000    114.6100      0.0000    672.9274      8.4008
  1617.7500    119.2305      0.0000    675.4306      8.3663
  1618.0000    124.9182      0.0000    680.8411      8.3574
  1618.2500    129.8009      0.0000    688.5377      8.3962
  1618.5000    133.3617      0.0000    695.5535      8.4631
  1618.7500    136.4608      0.0000    698.7797      8.5200
  1619.0000    139.8162      0.0000    697.7636      8.5526
  1619.2500    142.6013      0.0000    694.5019      8.5888
  1619.5000    142.6457      0.0000    691.3366      8.6736
  1619.7500    138.2456      0.0000    689.9847      8.8292
  1620.0000    130.0521      0.0000    691.1637      9.0401
  1620.2500    121.2097      0.0000    693.6413      9.2681
  1620.5000    115.4292      0.0000    694.5355      9.4720
  1620.7500    114.6782      0.0000    691.8396      9.6188
  1621.0000    118.3577      0.0000    686.3724      9.6871
  1621.2500    124.1988      0.0000    680.7124      9.6709
  1621.5000    129.7148      0.0000    676.7856      9.5852
  1621.7500    133.0712      0.0000    674.9083      9.4751
  1622.0000    133.3097      0.0000    674.4373      9.4062
  1622.2500    130.5490      0.0000    674.6278      9.4291
  1622.5000    126.2219      0.0000    674.9536      9.5436
  1622.7500    122.5539      0.0000    675.1214      9.7051
