~Version Information
 VERS.                                  2.0 : CWLS LAS VERSION
 WRAP.                                   NO : WRAPING MODE
 SWARE .                 MController 2.5.0J : SOFTWARE VERSION
~Well Information
 WELL.                          Graff 9-31R : WELL
 COMP.                       Petrogulf Corp : COMPANY
 FLD.                      Purgatorie River : FIELD
 LOC.                 NW/NE Sec 9 T32S R67W : LOCATION
 DATE.                           10/24/2004 : DATE(S) LOGGED
 SRVC.       Blanco Geological Services LLC : SERVICE COMPANY
 STAT.                                   CO : STATE
 CNTY.                           Las Animas : COUNTY
 CTRY.                                  USA : COUNTRY
 API.                       05-071-080370-00 : API NUMBER
 STRT.FT                             712.0 : START DEPTH
 STOP.FT                            1940.00 : STOP DEPTH
 STEP.FT                               1.00 : DEPTH INCREMENT
 NULL.                                -9999 : NULL VALUE
~Curve information
 DEPTH.FT                                   :
 ROP.MIN/FT                                 :
 GAS.UNITS                                  :
~ASCII Log data
# ...
      1513.0         0.33          8.4 
      1514.0         0.30          7.1 
      1515.0         0.30          6.7 
      1516.0         0.37          7.8 
      1517.0         0.40          7.8 
      1518.0         0.47          6.7 
      1519.0         0.42          6.1 
      1520.0         0.40          5.8 
      1521.0         0.33          6.4 
      1522.0         0.27          5.9 
      1523.0         0.30          6.1 
      1524.0         0.30          5.7 
      1525.0         0.27          6.1 
      1526.0         0.27          5.7 
      1527.0         0.27          5.1 
      1528.0         0.30          4.6 
      1529.0         0.20          5.0 
      1530.0         0.30          7.4 
      1531.0         0.23         10.4 
      1532.0         0.27         14.8 
      1533.0         0.28         17.0 
      1534.0         0.27         18.4 
      1535.0         0.20         19.0 
      1536.0         0.27         16.1 
      1537.0         0.27         15.8 
      1538.0         0.23         14.2 
      1539.0         0.30         13.1 
      1540.0         0.23         10.9 
      1541.0         0.23          9.6 
      1542.0         0.20          8.7 
      1543.0         0.23          7.8 
      1544.0         0.23          8.5 
      1545.0         0.30          9.3 
      1546.0         0.45          9.1 
      1547.0         0.27          7.6 
      1548.0         0.23          7.6 
      1549.0         0.27          6.5 
      1550.0         0.27          5.6 
      1551.0         0.30          5.0 
      1552.0         0.43          4.6 
      1553.0         0.43          4.0 
      1554.0         0.40          3.9 
      1555.0         0.27          4.0 
      1556.0         0.43          4.7 
      1557.0         0.27          6.8 
      1558.0         0.30         11.7 
      1559.0         0.27         16.6 
      1560.0         0.23         21.5 
      1561.0         0.30         25.5 
      1562.0         0.53         24.6 
      1563.0         0.30         19.3 
      1564.0         0.27         15.4 
      1565.0         0.17         12.9 
      1566.0         0.17         11.1 
      1567.0         0.22          8.9 
      1568.0         0.17          7.9 
      1569.0         0.20          7.1 
      1570.0         0.23          7.1 
      1571.0         0.20          7.7 
      1572.0         0.23          8.4 
      1573.0         0.17          8.2 
      1574.0         0.20          8.7 
      1575.0         0.17          7.7 
      1576.0         0.27          7.4 
      1577.0         0.23          7.0 
      1578.0         0.27          6.2 
      1579.0         0.27          5.7 
      1580.0         0.27          4.8 
      1581.0         0.27          5.0 
      1582.0         0.28          4.8 
      1583.0         0.23          4.5 
      1584.0         0.30          4.3 
      1585.0         0.27          4.3 
      1586.0         0.27         13.6 
      1587.0         0.40         18.4 
      1588.0         0.30         19.0 
      1589.0         0.37         15.6 
      1590.0         0.37         14.6 
      1591.0         0.33         12.3 
      1592.0         0.37         10.9 
      1593.0         0.28          8.4 
      1594.0         0.20          7.6 
      1595.0         0.20          7.3 
      1596.0         0.20          7.7 
      1597.0         0.17          7.9 
      1598.0         0.23          8.2 
      1599.0         0.27          8.0 
      1600.0         0.23          7.6 
      1601.0         0.27          7.1 
      1602.0         0.23          6.8 
      1603.0         0.23          5.7 
      1604.0         0.27          5.3 
      1605.0         0.23          5.2 
      1606.0         0.20          4.9 
      1607.0         0.20          4.6 
      1608.0         0.22          4.4 
      1609.0         0.20          4.1 
      1610.0         0.17          4.1 
      1611.0         0.20          4.6 
      1612.0         0.30          4.9 
      1613.0         0.30          4.1 
      1614.0         0.27          4.4 
      1615.0         0.27          4.6 
      1616.0         0.27         16.9 
      1617.0         0.37         25.8 
      1618.0         0.37         37.3 
      1619.0         0.37         42.8 
      1620.0         0.55         24.8 
      1621.0         0.37         16.9 
      1622.0         0.27         14.0 
      1623.0         0.23         11.7 
      1624.0         0.23          9.8 
      1625.0         0.23          8.1 
      1626.0         0.27          6.6 
      1627.0         0.23          7.0 
      1628.0         0.23          7.4 
      1629.0         0.20          7.4 
      1630.0         0.27          7.8 
      1631.0         0.23          7.6 
      1632.0         0.27          7.3 
      1633.0         0.25          6.5 
      1634.0         0.23          6.0 
      1635.0         0.23          5.8 
      1636.0         0.27          5.9 
      1637.0         0.23          5.8 
      1638.0         0.23          5.4 
      1639.0         0.23          5.5 
      1640.0         0.23          5.5 
      1641.0         0.20          5.3 
      1642.0         0.20          5.9 
      1643.0         0.20          5.7 
      1644.0         0.17          6.5 
      1645.0         0.17          6.7 
      1646.0         0.27          5.2 
      1647.0         0.30          6.9 
      1648.0         0.33         11.2 
      1649.0         0.40         18.6 
      1650.0         0.37         24.0 
      1651.0         0.38         20.8 
      1652.0         0.33         16.5 
      1653.0         0.27         14.9 
      1654.0         0.27         13.0 
      1655.0         0.27         11.9 
      1656.0         0.27          9.9 
      1657.0         0.27          8.7 
      1658.0         0.27          7.6 
      1659.0         0.30          8.8 
      1660.0         0.33         10.2 
      1661.0         0.27         11.4 
      1662.0         0.28         11.7 
      1663.0         0.30         10.0 
      1664.0         0.23          9.1 
      1665.0         0.27          8.2 
      1666.0         0.27          7.6 
      1667.0         0.27          7.1 
      1668.0         0.27          6.7 
      1669.0         0.33          6.2 
      1670.0         0.33          5.9 
      1671.0         0.27          6.2 
      1672.0         0.37          5.7 
      1673.0         0.42          5.6 
      1674.0         0.37          5.7 
      1675.0         0.30          5.5 
      1676.0         0.33          7.2 
      1677.0         0.30         11.9 
      1678.0         0.27         18.8 
      1679.0         0.27         24.5 
      1680.0         0.23         28.7 
      1681.0         0.23         31.1 
      1682.0         0.20         30.1 
      1683.0         0.27         27.0 
      1684.0         0.27         23.8 
      1685.0         0.33         19.1 
      1686.0         0.27         16.5 
      1687.0         0.32         13.6 
      1688.0         0.20         11.9 
      1689.0         0.13         10.2 
      1690.0         0.27          9.2 
      1691.0         0.23          8.8 
      1692.0         0.27          9.1 
      1693.0         0.33          9.4 
      1694.0         0.30          9.3 
      1695.0         0.27         10.0 
      1696.0         0.37         10.4 
      1697.0         0.43          9.3 
      1698.0         0.30          9.3 
      1699.0         0.22          7.7 
      1700.0         0.23          7.8 
      1701.0         0.27          7.0 
      1702.0         0.23          6.9 
      1703.0         0.13          7.2 
      1704.0         0.20          6.5 
      1705.0         0.23         22.3 
      1706.0         0.30         33.1 
      1707.0         0.37         43.8 
      1708.0         0.27         41.1 
      1709.0         0.27         34.7 
      1710.0         0.20         28.9 
      1711.0         0.23         24.0 
      1712.0         0.25         19.7 
