~Version Information
VERS.                      2.0: CWLS Log ASCII Standard - VERSION 2.0
WRAP.                       NO: One line per depth step
~Well Information Block
STRT.FT               400.0000: 
STOP.FT              2201.0000: 
STEP.FT                 0.1000: 
NULL.                -999.2500: 
COMP.          Evergreen Operating Corporation: COMPANY
WELL.            Triumph 13-10: WELL
FLD.           Purgatorie River: FIELD
LOC.           1551' FSL & 522' FWL: LOCATION
PROV.                 Colorado: PROVINCE
CNTY.               Las Animas: COUNTRY
SRVC.                Patterson: SERVICE COMPANY
DATE.          Mon Jul 26 07:55:18 2004: LOG DATE
UWI.           05 071 08108 00: UNIQUE WELL ID
~Curve Information Block
DEPT.FT            0 000 00 00: Depth
DCAL.in                       : CDL Caliper
RHOB.g/cc                     : CDL Bulk Density
RHOC.g/cc                     : CDL Density Correction
DPOR.pu                       : CDL Density Porosity
NPOR.pu                       : Neutron Porosity
GR.GAPI                       : Gamma Ray
~Parameter Information Block
~A  Depth       DCAL        RHOB        RHOC        DPOR        NPOR         GR     
# ...
  1926.4000      7.9319      2.5663      0.0364      5.0700     21.4591     65.7670
  1926.5000      7.9356      2.5682      0.0312      4.9601     21.1801     64.9487
  1926.6000      7.9356      2.5768      0.0656      4.4383     20.8411     69.1795
  1926.7000      7.9356      2.5850      0.0842      3.9399     20.7776     73.9590
  1926.8000      7.9379      2.5866      0.0473      3.8407     21.1415     75.7454
  1926.9000      7.9379      2.5841      0.0729      3.9957     21.8462     74.7392
  1927.0000      7.9371      2.5780      0.0444      4.3624     22.5355     72.7933
  1927.1000      7.9371      2.5628      0.0977      5.2839     23.0602     71.5409
  1927.2000      7.9371      2.5404      0.0422      6.6431     23.4361     71.1297
  1927.3000      7.9355      2.5286      0.0511      7.3566     23.4111     70.7951
  1927.4000      7.9355      2.5332      0.0765      7.0768     22.9823     73.4216
  1927.5000      7.9321      2.5400      0.0285      6.6696     22.6508     82.3084
  1927.6000      7.9321      2.5395      0.0554      6.6966     22.7402     91.5708
  1927.7000      7.9321      2.5315      0.0505      7.1815     23.0876     95.3720
  1927.8000      7.9376      2.5263      0.0185      7.4989     23.5795     95.8468
  1927.9000      7.9376      2.5445      0.0187      6.3960     24.1966     93.9668
  1928.0000      7.9532      2.5815      0.0757      4.1525     24.7376     89.7763
  1928.1000      7.9532      2.6032      0.0877      2.8371     25.1374     84.4371
  1928.2000      7.9532      2.5976      0.0892      3.1731     25.2737     79.2290
  1928.3000      7.9402      2.5857      0.0470      3.8961     24.7723     74.4642
  1928.4000      7.9402      2.5803      0.0824      4.2242     23.9791     70.9753
  1928.5000      7.9373      2.5726      0.0529      4.6914     23.5344     71.9623
  1928.6000      7.9373      2.5572      0.0516      5.6269     23.2523     78.6346
  1928.7000      7.9373      2.5407      0.0416      6.6215     22.9827     85.4475
  1928.8000      7.9402      2.5292      0.0461      7.3224     23.0501     87.3599
  1928.9000      7.9402      2.5236      0.0483      7.6615     23.2918     87.0450
  1929.0000      7.9560      2.5263     -0.0207      7.4975     23.3007     86.0796
  1929.1000      7.9560      2.5347      0.0160      6.9885     23.3065     81.5040
  1929.2000      7.9560      2.5419     -0.0294      6.5536     23.8043     78.4371
  1929.3000      7.9616      2.5509     -0.0070      6.0036     24.5887     83.1749
  1929.4000      7.9616      2.5654      0.0111      5.1258     25.0042     89.9151
  1929.5000      7.9628      2.5786      0.0455      4.3245     24.9827     89.4116
  1929.6000      7.9628      2.5858      0.0188      3.8886     24.8797     78.3963
  1929.7000      7.9628      2.5862      0.0614      3.8641     24.6912     66.0489
  1929.8000      7.9821      2.5782     -0.0027      4.3508     24.4062     64.7795
  1929.9000      7.9821      2.5674      0.0337      5.0038     24.2186     72.8724
  1930.0000      7.9865      2.5591      0.0168      5.5117     23.9499     80.8687
  1930.1000      7.9865      2.5592     -0.0004      5.5046     23.5491     83.8706
  1930.2000      7.9865      2.5713      0.0304      4.7720     23.4267     80.1301
  1930.3000      7.9654      2.5850      0.0458      3.9391     23.8055     74.2635
  1930.4000      7.9654      2.5932     -0.0001      3.4394     24.4637     73.1240
  1930.5000      7.9632      2.5946      0.0643      3.3605     25.1573     76.5098
  1930.6000      7.9632      2.5846      0.0332      3.9618     25.5759     79.6962
  1930.7000      7.9632      2.5704      0.0181      4.8238     25.4444     80.4283
  1930.8000      7.9615      2.5542      0.0565      5.8073     24.9165     80.4266
  1930.9000      7.9615      2.5318     -0.0083      7.1643     24.6151     80.5139
  1931.0000      7.9595      2.5140      0.0076      8.2416     24.9015     80.3423
  1931.1000      7.9595      2.5127      0.0221      8.3224     25.2350     83.1370
  1931.2000      7.9595      2.5338      0.0123      7.0423     25.1828     86.6411
  1931.3000      7.9422      2.5670      0.0719      5.0317     24.7964     85.4327
  1931.4000      7.9422      2.5792      0.0874      4.2924     24.2730     83.3771
  1931.5000      7.9575      2.5570      0.0574      5.6374     24.0789     85.5104
  1931.6000      7.9575      2.5244     -0.0198      7.6143     24.2462     89.6633
  1931.7000      7.9575      2.5022      0.0204      8.9586     24.4174     91.2209
  1931.8000      7.9605      2.4936      0.0108      9.4782     24.5655     86.6887
  1931.9000      7.9605      2.4992      0.0368      9.1410     24.5931     79.4075
  1932.0000      7.9640      2.5103      0.0443      8.4641     24.2597     77.2879
  1932.1000      7.9640      2.5140      0.0431      8.2438     24.1088     80.8312
  1932.2000      7.9640      2.5116      0.0494      8.3906     24.3547     81.7257
  1932.3000      7.9627      2.5145      0.0671      8.2109     24.3706     78.7947
  1932.4000      7.9627      2.5256      0.0589      7.5387     23.9726     79.5171
  1932.5000      7.9636      2.5361      0.0393      6.9022     23.4035     84.2184
  1932.6000      7.9636      2.5347      0.0584      6.9861     23.0452     87.0426
  1932.7000      7.9636      2.5210     -0.0012      7.8212     23.1533     87.1105
  1932.8000      7.9644      2.5069      0.0164      8.6721     23.5496     85.9229
  1932.9000      7.9644      2.4978      0.0257      9.2233     24.0112     84.4004
  1933.0000      7.9636      2.4915      0.0197      9.6087     24.2636     84.0040
  1933.1000      7.9636      2.4903      0.0126      9.6816     24.1268     83.3956
  1933.2000      7.9636      2.4993     -0.0237      9.1362     23.7009     78.6536
  1933.3000      7.9724      2.5140      0.0174      8.2420     23.1141     72.2397
  1933.4000      7.9724      2.5225      0.0183      7.7248     22.7213     71.4433
  1933.5000      7.9793      2.5295     -0.0043      7.3006     22.8108     75.5865
  1933.6000      7.9793      2.5422      0.0288      6.5357     23.1716     79.7832
  1933.7000      7.9793      2.5535      0.0379      5.8478     23.3945     80.9014
  1933.8000      7.9519      2.5636     -0.0043      5.2369     23.3449     79.5181
  1933.9000      7.9519      2.5744      0.0785      4.5826     23.0051     80.2184
  1934.0000      7.9799      2.5813      0.0411      4.1612     22.3801     84.8047
  1934.1000      7.9799      2.5925      0.0614      3.4861     21.8997     90.4602
  1934.2000      7.9799      2.6088      0.0932      2.4959     22.0637     90.6706
  1934.3000      7.9860      2.6146      0.0802      2.1467     22.7230     84.6380
  1934.4000      7.9860      2.6106      0.0760      2.3854     23.1404     80.9091
  1934.5000      7.9828      2.6091      0.0344      2.4800     22.9773     81.8265
  1934.6000      7.9828      2.6068      0.0587      2.6191     22.7854     80.1839
  1934.7000      7.9828      2.5928      0.0506      3.4660     22.8073     74.5551
  1934.8000      7.9618      2.5723      0.0510      4.7070     22.5870     72.4869
  1934.9000      7.9618      2.5615      0.0191      5.3621     22.0080     75.6456
  1935.0000      7.9475      2.5617      0.0319      5.3491     21.6274     78.9690
  1935.1000      7.9475      2.5664      0.0454      5.0650     21.8210     79.0387
  1935.2000      7.9475      2.5815      0.0372      4.1536     22.3834     74.4679
  1935.3000      7.9633      2.6075      0.0244      2.5731     22.7655     69.1491
  1935.4000      7.9633      2.6201      0.1012      1.8148     22.3822     64.6256
  1935.5000      7.9633      2.5976      0.0766      3.1775     21.6676     58.7962
  1935.6000      7.9633      2.5639     -0.0249      5.2204     21.5365     55.8224
  1935.7000      7.9633      2.5577      0.0105      5.5925     21.5511     58.7405
  1935.8000      7.9625      2.5721      0.0641      4.7215     21.0987     62.3573
  1935.9000      7.9625      2.5767      0.0337      4.4433     20.3892     62.8491
