~Version Information
VERS.                      2.0: CWLS Log ASCII Standard - VERSION 2.0
WRAP.                       NO: One line per depth step
~Well Information Block
STRT.FT                -7.2500: 
STOP.FT               765.5000: 
STEP.FT                 0.2500: 
NULL.                -999.2500: 
COMP.          Pioneer Natural Resources: COMPANY
WELL.          Barrelman 41-27: WELL
FLD.           Purgatorie River: FIELD
LOC.           371' FNL & 493' FEL--: LOCATION
PROV.                       CO: PROVINCE
CNTY.               Las Animas: COUNTRY
SRVC.          Patterson Wireline: SERVICE COMPANY
DATE.          Wed May 25 09:32:20 2005: LOG DATE
UWI.           05 071 08334 00: UNIQUE WELL ID
~Curve Information Block
DEPT.FT            0 000 00 00: Depth
CCL.                          : Casing Collar Locator
TT3.usec                      : CBL 3' Travel Time
AMP3.mV                       : CBL 3' Amplitude
GR.GAPI                       : Gamma Ray
~Parameter Information Block
~A  Depth       CCL         TT3         AMP3         GR     
# ...
   294.2500      0.0000    826.8695      9.8936    128.7006
   294.5000      0.0000    831.9221     10.0057    124.1521
   294.7500      0.0000    838.1543     10.1170    119.0448
   295.0000      0.0000    845.0314     10.2138    114.1008
   295.2500      0.0000    852.3338     10.2856    110.1200
   295.5000      0.0000    860.1453     10.3267    108.0721
   295.7500      0.0000    868.6887     10.3444    108.2136
   296.0000      0.0000    877.9065     10.3571    109.3376
   296.2500      0.0000    886.9875     10.3792    109.4374
   296.5000      0.0000    894.5773     10.4113    107.3735
   296.7500      0.0000    899.7086     10.4447    103.8982
   297.0000      0.0000    902.4203     10.4673    101.0241
   297.2500      0.0000    903.4877     10.4678    100.2940
   297.5000      0.0000    903.7656     10.4443    101.6422
   297.7500      0.0000    903.7792     10.4027    103.8456
   298.0000      0.0000    903.6415     10.3412    105.5520
   298.2500      0.0000    903.1324     10.2442    105.6605
   298.5000      0.0000    901.7165     10.1063    103.4087
   298.7500      0.0000    898.4702      9.9525     98.8154
   299.0000      0.0000    892.2169      9.8260     92.9613
   299.2500      0.0000    882.1627      9.7608     87.4971
   299.5000      0.0000    868.7315      9.7675     83.8894
   299.7500      0.0000    853.7910      9.8292     82.9900
   300.0000      0.0000    839.9708      9.9023     84.7737
   300.2500      0.0000    829.5864      9.9312     88.0945
   300.5000      0.0000    823.7531      9.8786     90.9000
   300.7500      0.0000    821.8832      9.7477     91.2310
   301.0000      0.0000    821.8951      9.5752     88.4160
   301.2500      0.0000    821.4442      9.4087     83.3696
   301.5000      0.0000    819.3663      9.2823     77.6980
   301.7500      0.0000    816.0143      9.2065     72.5727
   302.0000      0.0000    812.4734      9.1754     68.5749
   302.2500      0.0000    809.6947      9.1821     66.4296
   302.5000      0.0000    808.1189      9.2191     67.2816
   302.7500      0.0000    807.8060      9.2635     71.8703
   303.0000      0.0000    808.6749      9.2754     79.6518
   303.2500      0.0000    810.3159      9.2223     88.8967
   303.5000      0.0000    811.7330      9.1029     97.4479
   303.7500      0.0000    811.8599      8.9456    103.5445
   304.0000      0.0000    810.4622      8.7881    106.6091
   304.2500      0.0000    808.1135      8.6581    107.5463
   304.5000      0.0000    805.2972      8.5662    108.0406
   304.7500      0.0000    802.1729      8.5110    109.3463
   305.0000      0.0000    799.4392      8.4901    111.6519
   305.2500      0.0000    798.6299      8.5035    114.4167
   305.5000      0.0000    800.8553      8.5471    117.0985
   305.7500      0.0000    805.5022      8.6099    119.4649
   306.0000      0.0000    810.6287      8.6784    121.2532
   306.2500      0.0000    814.5312      8.7442    121.8122
   306.5000      0.0000    816.7048      8.8059    120.4952
   306.7500      0.0000    817.5782      8.8670    117.6117
   307.0000      0.0000    817.8193      8.9307    114.6600
   307.2500      0.0000    818.0179      8.9926    113.1270
   307.5000      0.0000    818.8129      9.0408    112.9529
   307.7500      0.0000    821.1304      9.0673    112.4463
   308.0000      0.0000    826.0834      9.0813    109.7832
   308.2500      0.0000    834.1496      9.1046    104.4839
   308.5000      0.0000    843.9103      9.1459     97.5731
   308.7500      0.0000    851.7592      9.1783     90.6231
   309.0000      0.0000    853.5442      9.1474     84.8514
   309.2500      0.0000    847.2845      9.0173     81.1302
   309.5000      0.0000    835.3196      8.8175     80.5078
   309.7500      0.0000    824.5375      8.6150     84.0570
   310.0000      0.0000    823.1926      8.4208     91.7073
   310.2500      0.0000    834.8962      8.1614    101.3996
   310.5000      0.0000    855.0956      7.7857    109.9893
   310.7500      0.0000    874.6837      7.3607    115.3085
   311.0000      0.0000    887.2004      7.0205    117.3753
   311.2500      0.0000    891.7762      6.8480    117.8393
   311.5000      0.0000    890.4512      6.8371    118.5234
   311.7500      2.0000    885.4267      6.9398    120.1241
   312.0000      0.0000    878.9299      7.1260    121.7197
   312.2500      0.0000    872.8859      7.4095    121.5595
   312.5000      0.0000    867.4863      7.8120    118.5526
   312.7500      0.0000    861.2305      8.2840    113.0035
   313.0000      0.0000    852.8651      8.6837    106.2350
   313.2500      0.0000    842.9321      8.8831     99.8307
   313.5000      0.0000    833.4551      8.8814     94.8310
   313.7500      0.0000    826.3678      8.7793     91.0466
   314.0000      0.0000    822.2805      8.6692     87.3141
   314.2500      0.0000    820.5529      8.5872     82.7809
   314.5000      0.0000    820.1570      8.5387     77.7031
   314.7500      0.0000    820.2970      8.5252     72.8662
   315.0000      0.0000    820.5329      8.5478     68.7555
   315.2500      0.0000    820.7090      8.6040     65.4874
   315.5000      0.0000    820.8589      8.6901     62.9310
   315.7500      0.0000    821.0527      8.8013     60.4895
   316.0000      0.0000    821.2835      8.9290     57.3066
   316.2500      0.0000    821.4655      9.0542     53.2118
   316.5000      0.0000    821.5277      9.1457     49.2388
   316.7500      0.0000    821.4835      9.1730     46.8380
   317.0000      0.0000    821.4195      9.1268     46.6430
   317.2500      0.0000    821.4101      9.0269     48.0542
   317.5000      0.0000    821.4166      8.9088     49.8457
   317.7500      0.0000    821.2831      8.8060     51.0471
   318.0000      0.0000    820.8810      8.7423     51.3356
   318.2500      0.0000    820.2527      8.7311     50.7832
   318.5000      0.0000    819.5755      8.7725     49.4848
   318.7500      0.0000    819.0096      8.8528     47.5801
   319.0000      0.0000    818.6252      8.9513     45.4874
   319.2500      0.0000    818.5033      9.0500     43.7690
   319.5000      0.0000    818.9069      9.1424     42.6458
   319.7500      0.0000    820.4172      9.2334     41.8104
   320.0000      0.0000    823.7294      9.3296     40.8006
   320.2500      0.0000    828.8007      9.4233     39.4308
   320.5000      0.0000    833.9537      9.4888     37.8615
   320.7500      0.0000    836.4795      9.4993     36.5170
   321.0000      0.0000    834.8976      9.4527     35.9948
   321.2500      0.0000    830.4297      9.3740     36.6623
   321.5000      0.0000    825.8784      9.2894     38.0869
   321.7500      0.0000    823.5370      9.2067     39.2032
   322.0000      0.0000    824.4455      9.1220     39.4292
   322.2500      0.0000    828.7443      9.0404     39.4533
   322.5000      0.0000    835.7598      8.9828     40.6081
   322.7500      0.0000    843.8733      8.9692     43.5542
   323.0000      0.0000    851.0769      8.9957     47.7407
   323.2500      0.0000    856.0645      9.0295     51.9307
   323.5000      0.0000    858.7573      9.0303     54.9361
   323.7500      0.0000    859.9284      8.9831     56.0252
   324.0000      0.0000    860.5595      8.9090     55.2070
   324.2500      0.0000    861.4951      8.8454     53.3143
   324.5000      0.0000    863.2253      8.8152     51.5551
   324.7500      0.0000    865.4706      8.8186     50.8398
   325.0000      0.0000    866.7983      8.8481     51.4320
   325.2500      0.0000    865.0735      8.8996     52.9727
   325.5000      0.0000    858.9549      8.9670     54.6415
   325.7500      0.0000    849.2161      9.0332     55.4624
   326.0000      0.0000    838.4424      9.0759     54.7539
   326.2500      0.0000    829.3127      9.0834     52.5025
   326.5000      0.0000    823.1064      9.0619     49.3773
   326.7500      0.0000    819.5778      9.0306     46.3643
   327.0000      0.0000    817.8168      9.0103     44.3452
   327.2500      0.0000    817.0328      9.0153     43.8896
   327.5000      0.0000    816.7761      9.0512     45.0393
