~Version Information
VERS.                      2.0: CWLS Log ASCII Standard - VERSION 2.0
WRAP.                       NO: One line per depth step
~Well Information Block
STRT.FT               850.0000: 
STOP.FT              1609.7000: 
STEP.FT                 0.1000: 
NULL.                -999.2500: 
COMP.          Petrogulf Corporation: COMPANY
WELL.          Great Plains 22-21R: WELL
FLD.           Purgatorie River: FIELD
LOC.           73' FNL & 1992' FWL: LOCATION
PROV.                 Colorado: PROVINCE
CNTY.               Las Animas: COUNTRY
SRVC.                Patterson: SERVICE COMPANY
DATE.          Wed Sep 14 12:10:29 2005: LOG DATE
UWI.                          : UNIQUE WELL ID
~Curve Information Block
DEPT.FT            0 000 00 00: Depth
NPOR.pu                       : Neutron Porosity
GR.GAPI                       : Gamma Ray
CCL.                          : Casing Collar Locator
~Parameter Information Block
~A  Depth       NPOR         GR         CCL     
# ...
  1584.8000     20.1438     40.1635      0.0000
  1584.9000     20.1438     40.1635      0.0000
  1585.0000     20.1867     40.2605      0.0000
  1585.1000     20.1867     40.2605      0.0000
  1585.2000     20.1867     40.2605      0.0000
  1585.3000     20.3998     40.9619      0.0000
  1585.4000     20.3998     40.9619      0.0000
  1585.5000     20.7401     42.3454      0.0000
  1585.6000     20.7401     42.3454      0.0000
  1585.7000     20.7401     42.3454      0.0000
  1585.8000     21.1195     44.1348      0.0000
  1585.9000     21.1195     44.1348      0.0000
  1586.0000     21.4591     46.2993      0.0000
  1586.1000     21.4591     46.2993      0.0000
  1586.2000     21.4591     46.2993      0.0000
  1586.3000     21.7485     49.8814      0.0000
  1586.4000     21.7485     49.8814      0.0000
  1586.5000     22.0420     56.6382      0.0000
  1586.6000     22.0420     56.6382      0.0000
  1586.7000     22.0420     56.6382      0.0000
  1586.8000     22.3831     67.3856      0.0000
  1586.9000     22.3831     67.3856      0.0000
  1587.0000     22.7343     80.7818      0.0000
  1587.1000     22.7343     80.7818      0.0000
  1587.2000     22.7343     80.7818      0.0000
  1587.3000     22.9880     93.8644      0.0000
  1587.4000     22.9880     93.8644      0.0000
  1587.5000     23.0509    103.5717      0.0000
  1587.6000     23.0509    103.5717      0.0000
  1587.7000     23.0509    103.5717      0.0000
  1587.8000     22.9151    107.8343      0.0000
  1587.9000     22.9151    107.8343      0.0000
  1588.0000     22.6485    106.0444      0.0000
  1588.1000     22.6485    106.0444      0.0000
  1588.2000     22.6485    106.0444      0.0000
  1588.3000     22.3306     99.2317      0.0000
  1588.4000     22.3306     99.2317      0.0000
  1588.5000     22.0076     89.6359      0.0000
  1588.6000     22.0076     89.6359      0.0000
  1588.7000     22.0076     89.6359      0.0000
  1588.8000     21.6973     79.5162      0.0000
  1588.9000     21.6973     79.5162      0.0000
  1589.0000     21.4063     70.1841      0.0000
  1589.1000     21.4063     70.1841      0.0000
  1589.2000     21.4063     70.1841      0.0000
  1589.3000     21.1210     62.0779      0.0000
  1589.4000     21.1210     62.0779      0.0000
  1589.5000     20.7961     55.3535      0.0000
  1589.6000     20.7961     55.3535      0.0000
  1589.7000     20.7961     55.3535      0.0000
  1589.8000     20.3864     50.2007      0.0000
  1589.9000     20.3864     50.2007      0.0000
  1590.0000     19.9122     46.8185      0.0000
  1590.1000     19.9122     46.8185      0.0000
  1590.2000     19.9122     46.8185      0.0000
  1590.3000     19.4844     45.2342      0.0000
  1590.4000     19.4844     45.2342      0.0000
  1590.5000     19.2455     45.1293      0.0000
  1590.6000     19.2455     45.1293      0.0000
  1590.7000     19.2455     45.1293      0.0000
  1590.8000     19.2750     45.9659      0.0000
  1590.9000     19.2750     45.9659      0.0000
  1591.0000     19.5396     47.3795      0.0000
  1591.1000     19.5396     47.3795      0.0000
  1591.2000     19.5396     47.3795      0.0000
  1591.3000     19.9297     49.3279      0.0000
  1591.4000     19.9297     49.3279      0.0000
  1591.5000     20.3490     51.8992      0.0000
  1591.6000     20.3490     51.8992      0.0000
  1591.7000     20.3490     51.8992      0.0000
  1591.8000     20.7696     55.2788      0.0000
  1591.9000     20.7696     55.2788      0.0000
  1592.0000     21.1988     59.8932      0.0000
  1592.1000     21.1988     59.8932      0.0000
  1592.2000     21.1988     59.8932      0.0000
  1592.3000     21.6084     66.1735      0.0000
  1592.4000     21.6084     66.1735      0.0000
  1592.5000     21.9155     73.9963      0.0000
  1592.6000     21.9155     73.9963      0.0000
  1592.7000     21.9155     73.9963      0.0000
  1592.8000     22.0228     82.5075      0.0000
  1592.9000     22.0228     82.5075      0.0000
  1593.0000     21.8471     90.4148      0.0000
  1593.1000     21.8471     90.4148      0.0000
  1593.2000     21.8471     90.4148      0.0000
  1593.3000     21.3145     96.2440      0.0000
  1593.4000     21.3145     96.2440      0.0000
  1593.5000     20.3899     98.7251      0.0000
  1593.6000     20.3899     98.7251      0.0000
  1593.7000     20.3899     98.7251      0.0000
  1593.8000     19.1544     97.5380      0.0000
  1593.9000     19.1544     97.5380      0.0000
  1594.0000     17.8228     93.5972      0.0000
  1594.1000     17.8228     93.5972      0.0000
  1594.2000     17.8228     93.5972      0.0000
  1594.3000     16.6390     88.3179      0.0000
  1594.4000     16.6390     88.3179      0.0000
  1594.5000     15.7503     82.8622      0.0000
  1594.6000     15.7503     82.8622      0.0000
  1594.7000     15.7503     82.8622      0.0000
  1594.8000     15.1828     78.1601   -999.2500
  1594.9000     15.1828     78.1601   -999.2500
  1595.0000     14.8937     75.0605   -999.2500
  1595.1000     14.8937     75.0605   -999.2500
  1595.2000     14.8937     75.0605   -999.2500
  1595.3000     14.8177     73.9847   -999.2500
  1595.4000     14.8177     73.9847   -999.2500
  1595.5000     14.8820     74.5563   -999.2500
  1595.6000     14.8820     74.5563   -999.2500
  1595.7000     14.8820     74.5563   -999.2500
  1595.8000     15.0141     75.8244   -999.2500
  1595.9000     15.0141     75.8244   -999.2500
  1596.0000     15.1573     76.8845   -999.2500
  1596.1000     15.1573     76.8845   -999.2500
  1596.2000     15.1573     76.8845   -999.2500
  1596.3000     15.2802     77.2385   -999.2500
  1596.4000     15.2802     77.2385   -999.2500
  1596.5000     15.3555     76.6174   -999.2500
  1596.6000     15.3555     76.6174   -999.2500
  1596.7000     15.3555     76.6174   -999.2500
  1596.8000     15.3285     74.6522   -999.2500
  1596.9000     15.3285     74.6522   -999.2500
  1597.0000     15.1265     70.8283   -999.2500
  1597.1000     15.1265     70.8283   -999.2500
  1597.2000     15.1265     70.8283   -999.2500
  1597.3000     14.7246     64.6742   -999.2500
  1597.4000     14.7246     64.6742   -999.2500
  1597.5000     14.2071     55.9599   -999.2500
  1597.6000     14.2071     55.9599   -999.2500
  1597.7000     14.2071     55.9599   -999.2500
  1597.8000     13.7429     44.9235   -999.2500
  1597.9000     13.7429     44.9235   -999.2500
  1598.0000     13.4897     32.5711   -999.2500
  1598.1000     13.4897     32.5711   -999.2500
  1598.2000     13.4897     32.5711   -999.2500
  1598.3000     13.5214     20.6985   -999.2500
  1598.4000     13.5214     20.6985   -999.2500
  1598.5000     13.8337     11.2030   -999.2500
  1598.6000     13.8337     11.2030   -999.2500
  1598.7000     13.8337     11.2030   -999.2500
  1598.8000     14.3936      5.0409   -999.2500
  1598.9000     14.3936      5.0409   -999.2500
  1599.0000     15.1761      1.8508   -999.2500
  1599.1000     15.1761      1.8508   -999.2500
  1599.2000     15.1761      1.8508   -999.2500
  1599.3000     16.1638      0.5469   -999.2500
  1599.4000     16.1638      0.5469   -999.2500
  1599.5000     17.3120      0.1285   -999.2500
  1599.6000     17.3120      0.1285   -999.2500
  1599.7000     17.3120      0.1285   -999.2500
  1599.8000     18.5121      0.0236   -999.2500
  1599.9000     18.5121      0.0236   -999.2500
  1600.0000     19.6121      0.0031   -999.2500
  1600.1000     19.6121      0.0031   -999.2500
  1600.2000     19.6121      0.0031   -999.2500
  1600.3000     20.4794      0.0000   -999.2500
  1600.4000     20.4794      0.0000   -999.2500
  1600.5000     21.0555   -999.2500   -999.2500
  1600.6000     21.0555   -999.2500   -999.2500
  1600.7000     21.0555   -999.2500   -999.2500
  1600.8000     21.3698   -999.2500   -999.2500
  1600.9000     21.3698   -999.2500   -999.2500
  1601.0000     21.5265   -999.2500   -999.2500
  1601.1000     21.5265   -999.2500   -999.2500
  1601.2000     21.5265   -999.2500   -999.2500
  1601.3000     21.6700   -999.2500   -999.2500
  1601.4000     21.6700   -999.2500   -999.2500
