~Version Information
VERS.                      2.0: CWLS Log ASCII Standard - VERSION 2.0
WRAP.                       NO: One line per depth step
~Well Information Block
STRT.FT               930.0000: 
STOP.FT              2783.2500: 
STEP.FT                 0.2500: 
NULL.                -999.2500: 
COMP.          Pioneer Natural Resources: COMPANY
WELL.           Desoto 13-7TR: WELL
FLD.           Purgatoire River: FIELD
LOC.           1404' FSL & 1115' FWL: LOCATION
PROV.                 Colorado: PROVINCE
CNTY.               Las Animas: COUNTRY
SRVC.                Patterson: SERVICE COMPANY
DATE.          Fri Jan 14 11:02:13 2005: LOG DATE
UWI.           05 071 08216 00: UNIQUE WELL ID
~Curve Information Block
DEPT.FT            0 000 00 00: Depth
SN.Ohm-m                      : IEL Short Normal
SP.mV                         : IEL Spontaneous Potential
DIR.Ohm-m                     : IEL Induction Resistivity
GR.GAPI                       : Gamma Ray
~Parameter Information Block
~A  Depth        SN          SP         DIR          GR     
# ...
  2002.0000     11.6919     45.0185     12.7680    126.0168
  2002.2500     11.1987     45.4552     12.2999    125.0419
  2002.5000     10.9834     45.8034     11.9177    125.5155
  2002.7500     11.0336     46.0855     11.6207    126.3505
  2003.0000     11.2523     46.3213     11.3938    126.5524
  2003.2500     11.5036     46.5237     11.2186    125.4424
  2003.5000     11.6790     46.6978     11.0826    122.1528
  2003.7500     11.7405     46.8424     10.9778    119.2662
  2004.0000     11.7177     46.9544     10.8947    114.2924
  2004.2500     11.6697     47.0323     10.8189    110.7156
  2004.5000     11.6421     47.0790     10.7370    105.7576
  2004.7500     11.6395     47.1025     10.6473    103.4347
  2005.0000     11.6328     47.1139     10.5638    102.2226
  2005.2500     11.5931     47.1234     10.5099    102.8620
  2005.5000     11.5184     47.1362     10.5055    105.1927
  2005.7500     11.4270     47.1487     10.5571    107.0666
  2006.0000     11.3360     47.1479     10.6571    109.7387
  2006.2500     11.2553     47.1130     10.7911    111.5689
  2006.5000     11.1959     47.0203     10.9496    114.9672
  2006.7500     11.1773     46.8495     11.1344    117.5140
  2007.0000     11.2259     46.5890     11.3593    120.3959
  2007.2500     11.3699     46.2397     11.6427    120.8363
  2007.5000     11.6341     45.8159     12.0007    118.5718
  2007.7500     12.0312     45.3428     12.4415    115.1638
  2008.0000     12.5493     44.8519     12.9623    107.9564
  2008.2500     13.1472     44.3750     13.5459    102.4914
  2008.5000     13.7677     43.9376     14.1584     94.5419
  2008.7500     14.3611     43.5532     14.7525     89.9238
  2009.0000     14.9006     43.2199     15.2800     84.9089
  2009.2500     15.3813     42.9212     15.7121     83.5761
  2009.5000     15.8100     42.6295     16.0502     85.7609
  2009.7500     16.1908     42.3128     16.3198     90.1534
  2010.0000     16.5166     41.9410     16.5528    100.0302
  2010.2500     16.7745     41.4899     16.7697    107.3860
  2010.5000     16.9608     40.9424     16.9722    116.3267
  2010.7500     17.0904     40.2868     17.1460    119.1977
  2011.0000     17.1928     39.5153     17.2737    117.7706
  2011.2500     17.3014     38.6247     17.3543    113.5902
  2011.5000     17.4529     37.6201     17.4182    104.6437
  2011.7500     17.6989     36.5201     17.5294     98.2890
  2012.0000     18.1063     35.3626     17.7680     90.3826
  2012.2500     18.7257     34.2065     18.2046     87.1292
  2012.5000     19.5373     33.1273     18.8718     85.4825
  2012.7500     20.4194     32.2078     19.7403     85.7100
  2013.0000     21.1743     31.5228     20.7037     85.8859
  2013.2500     21.6054     31.1246     21.5858     85.0323
  2013.5000     21.5984     31.0321     22.1807     82.5914
  2013.7500     21.1644     31.2274     22.3113     81.2918
  2014.0000     20.4275     31.6617     21.8788     81.9440
  2014.2500     19.5663     32.2666     20.8841     84.7368
  2014.5000     18.7417     32.9678     19.4268     92.3108
  2014.7500     18.0520     33.6947     17.6847     99.0781
  2015.0000     17.5358     34.3863     15.8740    110.2449
  2015.2500     17.2041     34.9923     14.1966    117.1268
  2015.5000     17.0647     35.4732     12.8006    124.6085
  2015.7500     17.1198     35.7997     11.7766    127.0401
  2016.0000     17.3456     35.9540     11.1891    126.7807
  2016.2500     17.6864     35.9304     11.1326    124.4794
  2016.5000     18.0792     35.7354     11.8221    119.2518
  2016.7500     18.4900     35.3867     13.8051    115.4316
  2017.0000     18.9274     34.9109     18.7587    109.9218
  2017.2500     19.4191     34.3417     34.9551    106.2446
  2017.5000     19.9814     33.7177   1441.8671    100.0160
  2017.7500     20.6127     33.0810 100000.0000     95.2574
  2018.0000     21.3040     32.4753 100000.0000     88.1813
  2018.2500     22.0392     31.9428 100000.0000     84.6231
  2018.5000     22.7795     31.5194 100000.0000     82.5110
  2018.7500     23.4522     31.2289 100000.0000     83.1659
  2019.0000     23.9615     31.0765 100000.0000     85.6329
  2019.2500     24.2184     31.0436 100000.0000     87.2123
  2019.5000     24.1720     31.0860 100000.0000     88.3326
  2019.7500     23.8282     31.1345 100000.0000     87.8870
  2020.0000     23.2475     31.1005 100000.0000     85.3391
  2020.2500     22.5200     30.8823 100000.0000     82.8809
  2020.5000     21.7335     30.3731 100000.0000     79.6521
  2020.7500     20.9518     29.4679 100000.0000     78.4724
  2021.0000     20.2070     28.0731 100000.0000     77.8004
  2021.2500     19.5001     26.1169 100000.0000     77.2967
  2021.5000     18.8074     23.5577 100000.0000     75.6501
  2021.7500     18.0902     20.3860 100000.0000     74.2015
  2022.0000     17.2951     16.6094 100000.0000     72.4400
  2022.2500     16.3386     12.2188 100000.0000     71.8345
  2022.5000     15.1011      7.1427 100000.0000     71.6598
  2022.7500     13.4685      1.2093 100000.0000     71.9272
  2023.0000     11.4272     -5.8601      8.2284     73.0168
  2023.2500      9.1397    -14.4084      2.1905     74.1982
  2023.5000      6.9057    -24.7516      0.9819     76.0495
  2023.7500      5.0105    -37.0644      0.5257     76.8749
  2024.0000      3.5845    -51.2807      0.3018     77.3738
  2024.2500      2.5871    -67.0471      0.1753     77.5660
  2024.5000      1.9002    -83.7460      0.0994     78.2550
  2024.7500      1.4241   -100.5806      0.0537     79.1416
  2025.0000      1.1063   -116.6895      0.0278     81.2990
  2025.2500      0.9177   -131.2498      0.0145     83.3435
  2025.5000      0.8252   -143.5406      0.0081     86.7336
  2025.7500      0.7901   -152.9625      0.0051     88.3976
  2026.0000      0.7811   -159.0289      0.0037     88.7469
  2026.2500      0.7818   -161.3556      0.0031     87.5337
  2026.5000      0.7863   -159.6706      0.0029     85.0152
  2026.7500      0.7924   -153.8462      0.0030     84.1912
  2027.0000      0.8002   -143.9438      0.0034     86.2706
  2027.2500      0.8163   -130.2552      0.0042     90.4872
  2027.5000      0.8585   -113.3244      0.0060    100.8149
  2027.7500      0.9616    -93.9406      0.0098    109.5442
  2028.0000      1.1863    -73.0939      0.0182    123.2310
  2028.2500      1.6204    -51.8895      0.0382    131.2853
  2028.5000      2.3508    -31.4268      0.0858    139.5960
  2028.7500      3.4107    -12.6627      0.1883    142.0396
  2029.0000      4.7437      3.7053      0.3792    141.6195
  2029.2500      6.2201     17.3057      0.7144    139.6934
  2029.5000      7.6949     28.0911      1.3140    136.8787
  2029.7500      9.0657     36.2750      2.3209    136.2834
  2030.0000     10.3066     42.2345      3.6034    137.0646
  2030.2500     11.4658     46.4107      4.5578    136.7772
  2030.5000     12.6316     49.2313      4.9537    131.0149
  2030.7500     13.8952     51.0646      5.2932    122.6897
  2031.0000     15.3428     52.2027      6.2693    105.8290
  2031.2500     17.0717     52.8655      9.4351     94.3251
  2031.5000     19.1870     53.2111     30.5553     80.3779
  2031.7500     21.7501     53.3505 100000.0000     74.0880
  2032.0000     24.7048     53.3596 100000.0000     68.6094
  2032.2500     27.8481     53.2904 100000.0000     66.7861
  2032.5000     30.8909     53.1780 100000.0000     65.3052
  2032.7500     33.5767     53.0472 100000.0000     64.3954
  2033.0000     35.7704     52.9169 100000.0000     62.4529
  2033.2500     37.4667     52.8026 100000.0000     60.8634
  2033.5000     38.7417     52.7160 100000.0000     58.6405
  2033.7500     39.6968     52.6632 100000.0000     57.5058
  2034.0000     40.4261     52.6434 100000.0000     56.3561
  2034.2500     41.0041     52.6482 100000.0000     55.9276
  2034.5000     41.4837     52.6634 100000.0000     55.8972
  2034.7500     41.8977     52.6728 100000.0000     56.3029
  2035.0000     42.2605     52.6634 100000.0000     57.1148
  2035.2500     42.5713     52.6312 100000.0000     57.3643
