~Version Information
VERS.                      2.0: CWLS Log ASCII Standard - VERSION 2.0
WRAP.                       NO: One line per depth step
~Well Information Block
STRT.FT               987.5000: 
STOP.FT              2426.0000: 
STEP.FT                 0.5000: 
NULL.                -999.2500: 
COMP.          Evergreen Operating Corporation: COMPANY
WELL.          McCullough 34-32: WELL
FLD.           Purgatorie River: FIELD
LOC.           261' FSL & 2098' FEL--: LOCATION
PROV.                 Colorado: PROVINCE
CNTY.               Las Animas: COUNTRY
SRVC.          Patterson Wireline: SERVICE COMPANY
DATE.          Mon May 17 13:38:56 2004: LOG DATE
UWI.           05-071-07953-00: UNIQUE WELL ID
~Curve Information Block
DEPT.FT            0 000 00 00: Depth
CCL.                          : Casing Collar Locator
TT3.usec                      : CBL 3' Travel Time
AMP3.mV                       : CBL 3' Amplitude
GR.GAPI                       : Gamma Ray
~Parameter Information Block
~A  Depth       CCL         TT3         AMP3         GR     
# ...
  1590.5000      0.0000    655.2241      7.8863     82.6911
  1591.0000      0.0000    551.3624      7.8386     95.6126
  1591.5000      0.0000    440.9014      7.7771    106.7011
  1592.0000      0.0000    417.8236      7.7298    110.6236
  1592.5000      0.0000    445.4554      7.4192    106.8506
  1593.0000      0.0000    459.7239      7.0236    101.9858
  1593.5000      0.0000    491.7415      6.7347     98.2575
  1594.0000      0.0000    507.1370      6.4771     93.7557
  1594.5000      5.0000    464.7774      6.4001     87.5683
  1595.0000      0.0000    420.7738      6.3737     82.3177
  1595.5000      0.0000    414.6548      6.6151     85.4281
  1596.0000      0.0000    425.6129      7.4817    100.0175
  1596.5000      0.0000    408.8884      8.0684    118.2377
  1597.0000      0.0000    372.4262      8.1376    131.0495
  1597.5000      0.0000    358.2698      8.0795    132.7388
  1598.0000      0.0000    359.1638      8.0301    129.3462
  1598.5000      0.0000    364.6513      7.9650    138.8032
  1599.0000      0.0000    379.4496      7.8666    155.9790
  1599.5000      0.0000    442.3870      7.7707    161.7052
  1600.0000      0.0000    550.2844      7.6669    154.5947
  1600.5000      0.0000    604.0699      7.6335    150.4759
  1601.0000      0.0000    621.7798      7.5527    156.4534
  1601.5000      0.0000    662.4396      7.3740    166.0407
  1602.0000      0.0000    701.9833      7.3467    172.3130
  1602.5000      0.0000    725.3047      7.6101    166.4552
  1603.0000      0.0000    739.4509      7.8879    144.3086
  1603.5000      0.0000    745.7748      7.9085    114.4062
  1604.0000      0.0000    731.6343      7.7458     97.7552
  1604.5000      0.0000    711.0542      7.6268    105.8325
  1605.0000      0.0000    702.6851      7.6918    128.0996
  1605.5000      0.0000    706.7409      7.7225    145.6509
  1606.0000      0.0000    727.3087      7.6143    149.7532
  1606.5000      0.0000    753.2252      7.5494    154.6493
  1607.0000      0.0000    751.4996      7.5538    169.0943
  1607.5000      0.0000    747.3185      7.5674    183.4737
  1608.0000      0.0000    749.7785      7.4487    184.9030
  1608.5000      0.0000    746.8886      7.1310    178.8893
  1609.0000      0.0000    756.2564      6.9028    172.1785
  1609.5000      0.0000    772.8894      6.9141    169.0251
  1610.0000      0.0000    784.8675      7.1451    168.4785
  1610.5000      0.0000    784.6440      7.4108    163.9225
  1611.0000      0.0000    775.5531      7.3501    163.0876
  1611.5000      0.0000    773.9384      6.9694    167.7598
  1612.0000      0.0000    776.7179      6.4994    164.8641
  1612.5000      0.0000    769.2515      6.1832    159.6949
  1613.0000      0.0000    765.3394      6.0872    154.2593
  1613.5000      0.0000    770.3563      6.1469    146.8069
  1614.0000      0.0000    775.0159      6.4641    143.3632
  1614.5000      0.0000    776.6659      6.8842    145.2657
  1615.0000      0.0000    765.0714      7.0955    138.4073
  1615.5000      0.0000    727.8982      7.0213    121.7219
  1616.0000      0.0000    675.9619      6.9901    113.3690
  1616.5000      0.0000    649.3872      7.0335    113.3171
  1617.0000      0.0000    677.2089      6.9072    121.0622
  1617.5000      0.0000    708.4567      6.7394    135.9808
  1618.0000      0.0000    721.2830      6.7302    145.8563
  1618.5000      0.0000    724.9816      6.8954    151.1165
  1619.0000      0.0000    728.8209      6.9697    154.2818
  1619.5000      0.0000    725.4877      6.8772    157.6979
  1620.0000      0.0000    715.7753      6.9084    159.3165
  1620.5000      0.0000    721.1101      6.9432    158.6577
  1621.0000      0.0000    738.5250      6.6067    160.0353
  1621.5000      0.0000    759.2328      5.6545    168.9174
  1622.0000      0.0000    779.5573      4.4919    176.5491
  1622.5000      0.0000    771.2910      3.7372    167.9548
  1623.0000      0.0000    749.4124      3.4670    149.9332
  1623.5000      0.0000    757.6959      3.5988    135.3865
  1624.0000      0.0000    773.1270      3.9735    128.5171
  1624.5000      0.0000    771.3630      4.4216    135.8282
  1625.0000      0.0000    767.4830      5.2148    156.4760
  1625.5000      0.0000    762.7972      6.3084    169.1723
  1626.0000      0.0000    754.0734      7.0250    165.9302
  1626.5000      0.0000    746.9113      7.1829    161.1096
  1627.0000      0.0000    735.0109      7.0567    161.0381
  1627.5000      0.0000    717.6178      7.0431    162.9860
  1628.0000      0.0000    707.3812      7.2009    161.5126
  1628.5000      0.0000    705.2839      7.2299    159.6903
  1629.0000      0.0000    705.4456      7.1521    163.6259
  1629.5000      0.0000    708.1609      6.8611    165.2406
  1630.0000      0.0000    723.8734      6.1208    161.7795
  1630.5000      0.0000    759.3752      5.1561    158.7905
  1631.0000      0.0000    792.1743      4.1941    155.1664
  1631.5000      0.0000    800.2625      3.4734    143.1100
  1632.0000      0.0000    789.5456      3.1045    122.7773
  1632.5000      0.0000    771.3691      3.0036    113.0061
  1633.0000      0.0000    763.7028      3.0697    113.4748
  1633.5000      0.0000    760.4213      3.3664    114.9596
  1634.0000      0.0000    739.4898      4.2641    120.0290
  1634.5000      0.0000    714.4987      5.4807    124.2387
  1635.0000      0.0000    702.8428      6.3308    114.0632
  1635.5000      0.0000    692.1087      6.6508     99.1708
  1636.0000      0.0000    666.7486      6.3890     94.8260
  1636.5000      0.0000    658.7494      5.6475     91.8315
  1637.0000      0.0000    694.8410      4.9141     83.7338
  1637.5000      0.0000    714.0432      4.7270     78.9985
  1638.0000      2.8244    691.1465      4.8652     90.0550
  1638.5000      0.0000    630.2169      5.0869    115.2523
  1639.0000      0.0000    573.5673      5.7775    131.6716
  1639.5000      0.0000    615.0615      6.8151    128.5586
  1640.0000      0.0000    710.8990      7.2056    128.1334
  1640.5000      0.0000    754.9744      7.0973    144.0129
  1641.0000      0.0000    747.5664      7.0133    154.9874
  1641.5000      0.0000    728.3612      6.8994    147.1633
  1642.0000      0.0000    726.5110      6.9679    138.0866
  1642.5000      0.0000    738.4651      7.1305    137.5729
  1643.0000      0.0000    738.3124      7.0224    131.5699
  1643.5000      0.0000    729.7726      6.7376    129.3313
  1644.0000      0.0000    721.3912      6.5914    134.8776
  1644.5000      0.0000    717.7842      6.8202    135.8713
  1645.0000      0.0000    723.1596      7.0536    134.4150
  1645.5000      0.0000    729.2420      6.9295    126.5597
  1646.0000      0.0000    722.5948      6.7143    112.4507
  1646.5000      0.0000    659.2585      6.8750     99.0229
  1647.0000      0.0000    541.0480      7.2635     87.7699
  1647.5000      0.0000    486.3364      7.6247     80.6791
  1648.0000      0.0000    483.7631      7.8978     90.3786
  1648.5000      0.0000    463.2348      7.8488    119.4967
  1649.0000      0.0000    529.3350      7.6576    137.0758
  1649.5000      0.0000    653.6121      7.6715    133.7434
  1650.0000      0.0000    672.8129      7.7768    135.3953
  1650.5000      0.0000    571.4385      7.7579    143.8055
  1651.0000      0.0000    454.3191      7.7260    133.4451
  1651.5000      0.0000    428.1977      7.7240    106.5694
  1652.0000      0.0000    482.5168      7.7354     86.2082
  1652.5000      0.0000    496.9757      7.8049     79.2217
  1653.0000      0.0000    428.4299      7.9106     77.7994
  1653.5000      0.0000    377.0473      7.9485     72.5334
  1654.0000      0.0000    361.7929      8.0885     63.1765
  1654.5000      0.0000    348.6448      8.3660     58.6413
  1655.0000      0.0000    333.2618      8.4940     60.5766
  1655.5000      0.0000    325.8035      8.5613     63.9160
  1656.0000      0.0000    326.3217      8.5952     69.0190
  1656.5000      0.0000    330.7626      8.4865     70.3732
  1657.0000      0.0000    332.1458      8.4482     66.0474
