~Version Information
VERS.                      2.0: CWLS Log ASCII Standard - VERSION 2.0
WRAP.                       NO: One line per depth step
~Well Information Block
STRT.FT               706.1000: 
STOP.FT              2370.0000: 
STEP.FT                 0.1000: 
NULL.                -999.2500: 
COMP.          Petrogulf Corporation: COMPANY
WELL.             State 16-12V: WELL
FLD.           Purgatorie River: FIELD
LOC.           1992' FNL & 1237' FWL: LOCATION
CNTY.               Las Animas: COUNTY
SRVC.                         : SERVICE COMPANY
DATE.          Thu Aug 04 09:34:25 2005: LOG DATE
UWI.           05-071-08016-00: UNIQUE WELL ID
STAT.                 Colorado: STATE
~Curve Information Block
DEPT.FT            0 000 00 00: Depth
DCAL.in                       : CDL Caliper
DPOR.pu                       : CDL Density Porosity
GR.GAPI                       : Gamma Ray
NPOR.pu                       : Neutron Porosity
RHOB.g/cc                     : CDL Bulk Density
RHOC.g/cc                     : CDL Density Correction
~Parameter Information Block
~A  Depth       DCAL        DPOR         GR         NPOR        RHOB        RHOC    
# ...
  2117.3000      7.9612     52.1867     59.5287      8.6335      1.7889     -0.1263
  2117.4000      7.9612     55.9993     59.0738      7.9830      1.7260     -0.1199
  2117.5000      8.0165     59.0258     58.6077      7.6169      1.6761     -0.0005
  2117.6000      8.0165     61.8172     58.2028      7.7649      1.6300      0.1509
  2117.7000      8.0165     64.0100     59.0076      8.5295      1.5938      0.1738
  2117.8000      8.0758     64.7219     60.1426      9.7679      1.5821      0.1955
  2117.9000      8.0758     63.2534     59.9660     11.2514      1.6063      0.1904
  2118.0000      8.0627     58.8026     60.7334     12.8361      1.6798      0.1894
  2118.1000      8.0627     51.0345     66.4546     14.3760      1.8079      0.1995
  2118.2000      8.0627     41.6186     77.4527     15.7072      1.9633      0.2513
  2118.3000      8.0187     33.6371     88.9472     16.9301      2.0950      0.2812
  2118.4000      8.0187     28.7564     94.5681     18.3782      2.1755      0.2682
  2118.5000      8.0325     26.1405     94.2428     20.0683      2.2187      0.2763
  2118.6000      8.0325     23.7027     94.0086     21.6488      2.2589      0.1927
  2118.7000      8.0325     19.8673     95.2925     22.8458      2.3222      0.1292
  2118.8000      7.9697     15.2134     95.9223     23.5293      2.3990      0.1100
  2118.9000      7.9697     11.9593     97.4564     23.8108      2.4527      0.1405
  2119.0000      7.9512     11.1897    100.0773     24.0434      2.4654      0.1103
  2119.1000      7.9512     11.6217     99.3023     24.4380      2.4582      0.0767
  2119.2000      7.9512     11.6792     95.4466     24.9341      2.4573      0.0875
  2119.3000      7.9436     11.3001     93.6274     25.4500      2.4635      0.0874
  2119.4000      7.9436     10.9894     94.8454     25.8466      2.4687      0.0245
  2119.5000      7.9882     10.9047     96.3883     25.8244      2.4701      0.0797
  2119.6000      7.9882     10.9504     96.5367     25.3873      2.4693      0.0356
  2119.7000      7.9882     10.5076     96.9116     25.0385      2.4766      0.0234
  2119.8000      7.9799      9.2831     98.9337     25.0359      2.4968      0.0622
  2119.9000      7.9799      7.9780    101.3355     24.9589      2.5184      0.0625
  2120.0000      7.9801      7.5376    102.5450     24.5379      2.5256      0.1082
  2120.1000      7.9801      8.2357    101.5914     24.1800      2.5141      0.0738
  2120.2000      7.9801      9.3518     99.1624     24.2284      2.4957      0.0570
  2120.3000      7.9518     10.1468     97.0576     24.3877      2.4826      0.0546
  2120.4000      7.9518     10.3423     96.3745     24.3677      2.4794      0.0597
  2120.5000      7.9628      9.7402     98.1612     24.3257      2.4893      0.0536
  2120.6000      7.9628      8.5297    100.8880     24.2377      2.5093      0.1123
  2120.7000      7.9628      7.3179    101.2548     23.9476      2.5293      0.1329
  2120.8000      7.9536      6.2976    101.3965     23.7226      2.5461      0.0976
  2120.9000      7.9536      5.4609    104.6635     23.7781      2.5599      0.1339
  2121.0000      7.9665      5.4762    109.7093     24.0694      2.5596      0.1746
  2121.1000      7.9665      6.8625    114.0683     24.5210      2.5368      0.1101
  2121.2000      7.9665      8.6824    114.9639     24.9611      2.5067      0.0508
  2121.3000      7.9882      9.4212    110.7988     25.3159      2.4945      0.0377
  2121.4000      7.9882      8.7317    106.1700     25.6566      2.5059      0.0323
  2121.5000      7.9807      7.7364    105.2305     25.9083      2.5223      0.0604
  2121.6000      7.9807      7.5257    104.7290     26.0540      2.5258      0.0656
  2121.7000      7.9807      7.8012    102.1555     26.3000      2.5213      0.0578
  2121.8000      7.9521      7.8674     99.7702     26.6276      2.5202      0.0517
  2121.9000      7.9521      7.7154     99.3423     26.7520      2.5227      0.0450
  2122.0000      7.9458      7.2611     99.2861     26.5304      2.5302      0.0188
  2122.1000      7.9458      6.3648     98.3275     26.1045      2.5450      0.0461
  2122.2000      7.9458      5.6976     98.2738     25.7198      2.5560      0.0448
  2122.3000      7.9393      6.0313     99.5662     25.4605      2.5505      0.0725
  2122.4000      7.9393      7.0958    101.4714     25.2503      2.5329      0.0096
  2122.5000      7.9566      8.0723    103.0823     24.8980      2.5168      0.0669
  2122.6000      7.9566      8.9013    102.3131     24.3582      2.5031      0.0695
  2122.7000      7.9566      9.7187    100.5676     23.8973      2.4896      0.0459
  2122.8000      7.9407     10.0544    100.8497     23.6919      2.4841      0.0179
  2122.9000      7.9407      9.4759    103.0717     23.7646      2.4936      0.0546
  2123.0000      7.9463      8.2804    104.8699     24.1029      2.5134      0.0779
  2123.1000      7.9463      7.1103    104.7813     24.3698      2.5327      0.1144
  2123.2000      7.9463      6.0879    104.3458     24.3047      2.5496      0.0741
  2123.3000      8.0214      5.1453    105.4152     24.1748      2.5651      0.1190
  2123.4000      8.0214      4.9913    106.4176     24.2801      2.5676      0.1097
  2123.5000      8.0058      6.1829    105.3872     24.7389      2.5480      0.1218
  2123.6000      8.0058      8.0749    103.0602     25.3620      2.5168      0.0437
  2123.7000      8.0058      9.2981    100.0283     25.6384      2.4966      0.0209
  2123.8000      7.9854      9.4175     96.3278     25.4812      2.4946      0.0205
  2123.9000      7.9854      9.3074     95.1379     25.5173      2.4964      0.0476
  2124.0000      8.0015      9.2833     97.0505     26.1387      2.4968      0.0193
  2124.1000      8.0015      8.6946     97.7786     26.9036      2.5065      0.0163
  2124.2000      8.0015      7.3712     95.5217     27.1613      2.5284      0.0312
  2124.3000      8.0071      5.7422     91.5527     26.9369      2.5553      0.0228
  2124.4000      8.0071      4.4667     88.3100     26.6170      2.5763      0.0982
  2124.5000      8.0105      3.7709     87.9354     26.5097      2.5878      0.0609
  2124.6000      8.0105      3.2645     89.4489     26.7237      2.5961      0.1099
  2124.7000      8.0105      2.9827     89.3145     27.1203      2.6008      0.0941
  2124.8000      8.0062      3.0534     87.2809     27.4568      2.5996      0.0698
  2124.9000      8.0062      3.4014     86.4134     27.4207      2.5939      0.0770
  2125.0000      8.0158      3.9098     86.2012     27.0958      2.5855      0.0258
  2125.1000      8.0158      4.4044     85.3098     26.8034      2.5773      0.0661
  2125.2000      8.0158      5.0668     85.9122     26.5778      2.5664      0.0407
  2125.3000      7.9986      6.1807     89.3781     26.2473      2.5480      0.0397
  2125.4000      7.9986      8.0094     92.6296     25.6770      2.5178      0.0370
  2125.5000      7.9980     10.2700     92.2543     24.9291      2.4805      0.0055
  2125.6000      7.9980     12.0021     88.9618     24.1994      2.4520      0.0061
  2125.7000      7.9980     12.7781     85.1845     23.6779      2.4392      0.0108
  2125.8000      7.9749     12.8099     83.6050     23.3809      2.4386      0.0257
  2125.9000      7.9749     12.3363     86.0086     22.8139      2.4465      0.0600
  2126.0000      7.9735     11.9094     91.0585     21.5072      2.4535      0.0785
  2126.1000      7.9735     12.7453     95.1379     19.8441      2.4397      0.1273
  2126.2000      7.9735     16.0278     95.9379     18.4769      2.3855      0.1846
  2126.3000      7.9993     21.5839     92.5957     17.5692      2.2939      0.1877
  2126.4000      7.9993     27.9824     87.2765     16.8276      2.1883      0.1334
  2126.5000      8.0284     34.5056     84.5509     15.7644      2.0807      0.0560
  2126.6000      8.0284     42.2143     84.1361     14.3021      1.9535      0.0170
  2126.7000      8.0284     52.1036     82.0083     12.9496      1.7903     -0.0277
  2126.8000      8.0204     62.8704     78.2775     12.0788      1.6126     -0.1045
