~Version Information
VERS.                      2.0: CWLS Log ASCII Standard - VERSION 2.0
WRAP.                       NO: One line per depth step
~Well Information Block
STRT.FT               720.0000: 
STOP.FT              2265.7000: 
STEP.FT                 0.1000: 
NULL.                -999.2500: 
COMP.          Pioneer Natural Resources: COMPANY
WELL.          Casablanca 11-28 Tr: WELL
FLD.           Purgatoire River: FIELD
LOC.           422' FNL & 215' FWL----: LOCATION
PROV.                 Colorado: PROVINCE
CNTY.               Las Animas: COUNTRY
SRVC.                Patterson: SERVICE COMPANY
DATE.          Mon Mar 07 07:16:34 2005: LOG DATE
UWI.           05 071 08314 00: UNIQUE WELL ID
~Curve Information Block
DEPT.FT            0 000 00 00: Depth
DCAL.in                       : CDL Caliper
RHOB.g/cc                     : CDL Bulk Density
RHOC.g/cc                     : CDL Density Correction
DPOR.pu                       : CDL Density Porosity
NPOR.pu                       : Neutron Porosity
GR.GAPI                       : Gamma Ray
~Parameter Information Block
~A  Depth       DCAL        RHOB        RHOC        DPOR        NPOR         GR     
# ...
  1728.0000      8.0639      2.5857      0.0582      3.8968     23.6805     63.9481
  1728.1000      8.0639      2.5648     -0.0721      5.1628     22.9319     68.0052
  1728.2000      8.0639      2.5493      0.0005      6.1060     22.6224     74.3950
  1728.3000      8.0651      2.5329     -0.0231      7.0952     22.2236     79.6486
  1728.4000      8.0651      2.5178     -0.0740      8.0140     21.5174     81.6830
  1728.5000      8.0625      2.5246     -0.0246      7.5987     21.1129     81.0892
  1728.6000      8.0625      2.5517      0.0164      5.9579     21.4410     80.0632
  1728.7000      8.0625      2.5799      0.0297      4.2514     21.8805     81.5892
  1728.8000      8.0597      2.5946      0.0232      3.3571     21.4563     84.2614
  1728.9000      8.0597      2.5920      0.0121      3.5130     20.4508     85.4273
  1729.0000      8.0602      2.5872      0.0032      3.8063     19.9311     84.7453
  1729.1000      8.0602      2.5961      0.0426      3.2665     20.0909     82.1436
  1729.2000      8.0602      2.6038      0.0584      2.7978     20.3461     79.5986
  1729.3000      8.0614      2.5980      0.0426      3.1529     20.2638     77.4222
  1729.4000      8.0614      2.5994      0.0490      3.0670     20.2083     74.3755
  1729.5000      8.0623      2.6252      0.0708      1.5060     20.6903     72.2462
  1729.6000      8.0623      2.6673      0.0878     -1.0486     21.3423     73.2498
  1729.7000      8.0623      2.6898      0.1210     -2.4124     21.5615     78.3663
  1729.8000      8.0649      2.6577      0.1051     -0.4661     21.3085     85.5330
  1729.9000      8.0649      2.5922     -0.0013      3.5043     20.8477     89.0869
  1730.0000      8.0663      2.5452     -0.0355      6.3499     20.5501     85.3721
  1730.1000      8.0663      2.5326      0.0300      7.1147     20.6336     77.5030
  1730.2000      8.0663      2.5326      0.0506      7.1144     20.9678     71.9705
  1730.3000      8.0662      2.5289      0.0164      7.3387     21.2144     73.5911
  1730.4000      8.0662      2.5230      0.0099      7.6996     21.0413     79.2469
  1730.5000      8.0672      2.5132      0.0397      8.2882     20.5175     79.8002
  1730.6000      8.0672      2.5009      0.0070      9.0372     20.0520     76.1653
  1730.7000      8.0672      2.5009     -0.0169      9.0343     19.8135     78.6482
  1730.8000      8.0658      2.5172      0.0185      8.0485     19.5569     86.9291
  1730.9000      8.0658      2.5344      0.0325      7.0034     19.4080     92.0642
  1731.0000      8.0625      2.5457      0.0329      6.3212     19.8858     92.9121
  1731.1000      8.0625      2.5556      0.0598      5.7217     20.9017     93.8023
  1731.2000      8.0625      2.5623      0.0650      5.3148     21.7576     94.3106
  1731.3000      8.0633      2.5622      0.0358      5.3234     22.0835     92.8929
  1731.4000      8.0633      2.5653      0.0214      5.1318     21.9900     92.4158
  1731.5000      8.0662      2.5742      0.0777      4.5957     21.8354     93.7412
  1731.6000      8.0662      2.5710      0.0773      4.7854     21.8790     96.3472
  1731.7000      8.0662      2.5550      0.0167      5.7572     22.0735     98.7632
  1731.8000      8.0667      2.5405      0.0360      6.6381     22.2904     98.2673
  1731.9000      8.0667      2.5244      0.0667      7.6135     22.4626     96.6112
  1732.0000      8.0656      2.5039      0.0297      8.8548     22.7539     97.0588
  1732.1000      8.0656      2.4953      0.0245      9.3733     23.1793     98.3244
  1732.2000      8.0656      2.5063      0.0499      8.7083     23.2020     97.6735
  1732.3000      8.0643      2.5239      0.0957      7.6431     22.7053     94.2420
  1732.4000      8.0643      2.5361      0.1002      6.9021     22.1059     91.2459
  1732.5000      8.0632      2.5405      0.1074      6.6342     21.7264     91.7900
  1732.6000      8.0632      2.5341      0.1085      7.0249     21.9046     93.1072
  1732.7000      8.0632      2.5183      0.0738      7.9815     22.8845     94.1768
  1732.8000      8.0657      2.5102      0.0954      8.4745     24.0277     95.8195
  1732.9000      8.0657      2.5295      0.0471      7.3028     24.4280     97.3643
  1733.0000      8.0739      2.5684      0.1341      4.9448     24.0595     98.2592
  1733.1000      8.0739      2.5872      0.1276      3.8061     23.5415     97.9142
  1733.2000      8.0739      2.5709      0.0325      4.7943     23.3438     97.0223
  1733.3000      8.0844      2.5460      0.0154      6.3029     23.3088     97.3711
  1733.4000      8.0844      2.5285      0.0241      7.3657     22.9988     98.9154
  1733.5000      8.0919      2.5126     -0.0384      8.3251     22.4426    100.6330
  1733.6000      8.0919      2.5065     -0.0403      8.6958     22.0765    103.4290
  1733.7000      8.0919      2.5227      0.0342      7.7154     22.0686    106.8860
  1733.8000      8.0936      2.5511      0.0209      5.9939     22.1743    107.7135
  1733.9000      8.0936      2.5765      0.0308      4.4520     22.1406    105.2495
  1734.0000      8.0949      2.5962      0.0617      3.2629     22.0683    104.8300
  1734.1000      8.0949      2.6114      0.0437      2.3400     22.2726    109.0122
  1734.2000      8.0949      2.6201      0.0780      1.8111     22.8210    114.6173
  1734.3000      8.1064      2.6204      0.1156      1.7969     23.5518    117.3108
  1734.4000      8.1064      2.6143      0.1067      2.1643     24.3528    114.2861
  1734.5000      8.1214      2.6031      0.0978      2.8418     25.0444    108.5644
  1734.6000      8.1214      2.5890      0.0815      3.6978     25.6130    105.4370
  1734.7000      8.1214      2.5768      0.0706      4.4368     25.9669    105.1221
  1734.8000      8.1134      2.5697      0.0521      4.8686     25.8216    105.4889
  1734.9000      8.1134      2.5672      0.0380      5.0171     25.5505    107.5236
  1735.0000      8.0840      2.5601      0.0454      5.4500     25.6909    111.7171
  1735.1000      8.0840      2.5414      0.0186      6.5789     25.9142    114.4973
  1735.2000      8.0840      2.5305     -0.0455      7.2414     25.7412    113.2254
  1735.3000      8.0541      2.5451      0.0214      6.3604     25.4006    111.9463
  1735.4000      8.0541      2.5604      0.0525      5.4284     25.1203    114.4539
  1735.5000      8.0388      2.5437      0.0656      6.4416     24.9223    118.4912
  1735.6000      8.0388      2.5020     -0.0056      8.9719     25.0532    122.0127
  1735.7000      8.0388      2.4723      0.0088     10.7714     25.5210    124.7772
  1735.8000      8.0383      2.4736     -0.0305     10.6914     25.8412    127.9656
  1735.9000      8.0383      2.4923     -0.0047      9.5591     25.5304    130.0341
  1736.0000      8.0473      2.5040      0.0133      8.8476     24.8869    125.2219
  1736.1000      8.0473      2.4971      0.0009      9.2654     24.5244    118.3150
  1736.2000      8.0473      2.4812     -0.0332     10.2296     24.4768    120.0743
  1736.3000      8.0593      2.4740     -0.0399     10.6674     24.3101    126.9617
  1736.4000      8.0593      2.4720      0.0199     10.7888     23.9295    128.8786
  1736.5000      8.0649      2.4578      0.0021     11.6512     23.5140    128.9381
  1736.6000      8.0649      2.4375     -0.0076     12.8759     23.2212    133.9143
  1736.7000      8.0649      2.4304      0.0095     13.3081     23.3032    141.0013
  1736.8000      8.0663      2.4377     -0.0015     12.8654     23.6681    145.7881
  1736.9000      8.0663      2.4531      0.0368     11.9321     23.6218    145.5573
  1737.0000      8.0681      2.4717      0.0312     10.8071     22.7330    141.0886
  1737.1000      8.0681      2.4839      0.0433     10.0663     21.5517    135.8562
  1737.2000      8.0681      2.4836      0.0204     10.0850     20.7463    130.1302
  1737.3000      8.0712      2.4751      0.0183     10.5993     20.4768    124.8235
  1737.4000      8.0712      2.4614      0.0404     11.4309     20.7503    122.4286
  1737.5000      8.0833      2.4519     -0.0098     12.0081     21.2611    123.3059
