~Version Information
 VERS.                                  2.0 : CWLS LAS VERSION
 WRAP.                                   NO : WRAPING MODE
 SWARE .                 MController 2.5.0E : SOFTWARE VERSION
~Well Information
 WELL.                        Triumph 13 10 : WELL
 COMP.             Evergreen Operating Corp : COMPANY
 FLD.                      Purgatorie River : FIELD
 LOC.                NW/SW Sec 10 T32S R66W : LOCATION
 DATE.                           7/22 23/04 : DATE(S) LOGGED
 SRVC.       Blanco Geological Services LLC : SERVICE COMPANY
 STAT.                                   CO : STATE
 CNTY.                           Las Animas : COUNTY
 CTRY.                                  USA : COUNTRY
 API.                       05 071 08108 00 : API NUMBER
 STRT.FT                             414.00 : START DEPTH
 STOP.FT                            2210.00 : STOP DEPTH
 STEP.FT                               1.00 : DEPTH INCREMENT
 NULL.                                 9999 : NULL VALUE
~Curve information
 DEPTH.FT                                   :
 ROP.MIN/FT                                 :
 GAS.UNITS                                  :
~ASCII Log data
# ...
      814.00        0.217        208.9 
      815.00        0.200        209.4 
      816.00        0.233        221.1 
      817.00        0.167        230.9 
      818.00        0.200        257.5 
      819.00        0.200        263.8 
      820.00        0.267        254.6 
      821.00        0.200        247.8 
      822.00        0.200        233.1 
      823.00        0.200        214.6 
      824.00        0.233        213.2 
      825.00        0.200        207.9 
      826.00        0.200        205.3 
      827.00        0.167        198.1 
      828.00        0.233        198.5 
      829.00        0.200        197.9 
      830.00        0.283        198.2 
      831.00        0.233        194.5 
      832.00        0.200        194.1 
      833.00        0.233        190.8 
      834.00        0.167        182.3 
      835.00        0.200        166.4 
      836.00        1.767        392.9 
      837.00        0.517        321.9 
      838.00        0.233        275.9 
      839.00        0.167        243.7 
      840.00        0.200        226.7 
      841.00        0.300        221.2 
      842.00        0.333        211.7 
      843.00        0.333        195.7 
      844.00        0.267        170.5 
      845.00        0.200        158.0 
      846.00        0.133        156.9 
      847.00        0.167        157.4 
      848.00        0.167        158.7 
      849.00        0.167        162.6 
      850.00        0.167        166.1 
      851.00        0.200        165.9 
      852.00        0.250        165.7 
      853.00        0.233        159.4 
      854.00        0.267        154.8 
      855.00        0.300        149.3 
      856.00        0.267        143.2 
      857.00        0.267        143.7 
      858.00        0.167        143.7 
      859.00        0.200        144.5 
      860.00        0.233        143.4 
      861.00        0.167        142.0 
      862.00        0.200        136.5 
      863.00        0.167        136.5 
      864.00        0.133        126.3 
      865.00        0.167        112.7 
      866.00        2.450        367.4 
      867.00        0.233        212.4 
      868.00        0.167        206.2 
      869.00        0.100        188.6 
      870.00        0.133        185.5 
      871.00        0.167        171.4 
      872.00        0.200        164.2 
      873.00        0.133        154.1 
      874.00        0.100        152.5 
      875.00        0.150        147.8 
      876.00        0.200        146.8 
      877.00        0.167        139.6 
      878.00        0.200        134.2 
      879.00        0.167        126.0 
      880.00        0.167        123.6 
      881.00        0.167        119.5 
      882.00        0.167        118.7 
      883.00        0.200        118.8 
      884.00        0.167        118.0 
      885.00        0.267        116.4 
      886.00        0.300        111.9 
      887.00        0.200        111.9 
      888.00        0.167        107.7 
      889.00        0.200        104.4 
      890.00        0.200        102.8 
      891.00        0.167        101.8 
      892.00        0.133         96.4 
      893.00        0.150         96.4 
      894.00        0.167         93.4 
      895.00        0.167         82.4 
      896.00        2.600        363.5 
      897.00        0.133        161.5 
      898.00        0.133        158.8 
      899.00        0.117        153.7 
      900.00        0.200        148.9 
      901.00        0.233        147.8 
      902.00        0.200        144.1 
      903.00        0.200        140.3 
      904.00        0.300        134.4 
      905.00        0.200        115.5 
      906.00        0.200        106.1 
      907.00        0.167         92.5 
      908.00        0.133         91.2 
      909.00        0.133         92.8 
      910.00        0.167         95.6 
      911.00        0.167         96.5 
      912.00        0.167         95.6 
      913.00        0.200         91.8 
      914.00        0.200         88.2 
      915.00        0.167         87.2 
      916.00        0.133         83.9 
      917.00        0.183         81.8 
      918.00        0.133         81.8 
      919.00        0.133         81.3 
      920.00        0.167         79.4 
      921.00        0.133         74.4 
      922.00        0.167         74.4 
      923.00        0.133         71.0 
      924.00        0.133         67.1 
      925.00        0.133         66.3 
      926.00        2.683        302.7 
      927.00        0.400        230.8 
      928.00        0.200        234.7 
      929.00        0.133        247.2 
      930.00        0.133        267.7 
      931.00        0.167        272.9 
      932.00        0.267        290.3 
      933.00        0.233        300.5 
      934.00        0.200        303.0 
      935.00        0.133        302.2 
      936.00        0.167        298.2 
      937.00        0.167        291.1 
      938.00        0.233        285.1 
      939.00        0.200        278.9 
      940.00        0.217        269.3 
      941.00        0.167        245.1 
      942.00        0.167        245.1 
      943.00        0.167        242.2 
      944.00        0.133        235.7 
      945.00        0.200        233.7 
      946.00        0.133        241.7 
      947.00        0.167        241.9 
      948.00        0.167        239.7 
      949.00        0.167        243.9 
      950.00        0.133        243.9 
      951.00        0.133        254.3 
      952.00        0.133        256.7 
      953.00        0.133        256.7 
      954.00        0.167        242.8 
      955.00        0.200        223.3 
      956.00        3.250       1390.9 
      957.00        0.567        869.4 
      958.00        0.583        797.0 
      959.00        0.500        786.9 
      960.00        0.500        801.7 
      961.00        0.367        762.6 
      962.00        0.267        729.9 
      963.00        0.167        718.5 
      964.00        0.167        718.8 
      965.00        0.200        720.5 
      966.00        0.200        718.5 
      967.00        0.200        713.1 
      968.00        0.200        701.6 
      969.00        0.200        690.8 
      970.00        0.200        685.4 
      971.00        0.217        688.8 
      972.00        0.200        690.2 
      973.00        0.167        688.5 
      974.00        0.200        694.5 
      975.00        0.167        703.3 
      976.00        0.200        720.1 
      977.00        0.167        720.1 
      978.00        0.200        730.9 
      979.00        0.200        714.8 
      980.00        0.200        698.2 
      981.00        0.200        680.7 
      982.00        0.233        650.4 
      983.00        0.167        623.5 
      984.00        0.200        613.3 
      985.00        0.600        647.0 
      986.00        3.217       1585.3 
      987.00        0.317        864.7 
      988.00        0.233        815.8 
      989.00        0.200        792.9 
      990.00        0.233        782.5 
      991.00        0.233        776.7 
      992.00        0.200        762.6 
      993.00        0.167        766.3 
      994.00        0.133        771.4 
      995.00        0.133        772.0 
      996.00        0.100        770.3 
      997.00        0.167        764.3 
      998.00        0.100        752.8 
      999.00        0.300        738.7 
     1000.00        0.133        726.5 
     1001.00        0.167        726.5 
     1002.00        0.167        729.2 
     1003.00        0.167        724.2 
     1004.00        0.133        725.2 
     1005.00        0.167        731.3 
     1006.00        0.150        731.3 
     1007.00        0.133        722.8 
     1008.00        0.133        698.6 
     1009.00        0.133        698.6 
     1010.00        0.133        664.6 
     1011.00        0.167        637.9 
     1012.00        0.133        637.9 
     1013.00        0.400        628.5 
