~Version Information
VERS.                      2.0: CWLS Log ASCII Standard - VERSION 2.0
WRAP.                       NO: One line per depth step
~Well Information Block
STRT.FT               294.0000: 
STOP.FT              1958.0000: 
STEP.FT                 0.1000: 
NULL.                -999.2500: 
COMP.          Pioneer Natural Resources: COMPANY
WELL.          Commander 43-26 Tr: WELL
FLD.           Purgatoire River: FIELD
LOC.           2439' FSL & 446' FEL: LOCATION
PROV.                 Colorado: PROVINCE
CNTY.               Las Animas: COUNTRY
SRVC.                Patterson: SERVICE COMPANY
DATE.          Fri Apr 15 07:31:08 2005: LOG DATE
UWI.           05 071 08341 00: UNIQUE WELL ID
~Curve Information Block
DEPT.FT            0 000 00 00: Depth
DCAL.in                       : CDL Caliper
RHOB.g/cc                     : CDL Bulk Density
RHOC.g/cc                     : CDL Density Correction
DPOR.pu                       : CDL Density Porosity
GR.GAPI                       : Gamma Ray
NPOR.pu                       : Neutron Porosity
~Parameter Information Block
~A  Depth       DCAL        RHOB        RHOC        DPOR         GR         NPOR    
# ...
   735.6000      8.4988      2.1720      0.5760     28.9698    160.0169     24.5337
   735.7000      8.4988      2.3087      0.5777     20.6877    168.9423     25.6871
   735.8000      8.4616      2.3765      0.4827     16.5771    169.5173     26.6678
   735.9000      8.4616      2.4127      0.4181     14.3800    167.8659     27.3109
   736.0000      8.4379      2.4267      0.3493     13.5359    169.9002     27.6334
   736.1000      8.4379      2.4128      0.2365     14.3743    176.3322     27.6584
   736.2000      8.4379      2.3906      0.0783     15.7208    182.4812     27.5415
   736.3000      8.3152      2.3859      0.1126     16.0065    183.7426     27.4251
   736.4000      8.3152      2.3944      0.1433     15.4905    182.5171     27.2220
   736.5000      8.2087      2.4034      0.1788     14.9438    181.4390     27.0346
   736.6000      8.2087      2.4149      0.1499     14.2457    181.0590     27.1541
   736.7000      8.2087      2.4309      0.2241     13.2799    182.2004     27.3908
   736.8000      8.1791      2.4353      0.2233     13.0138    182.4019     27.3767
   736.9000      8.1791      2.4134      0.1544     14.3417    181.3988     27.3337
   737.0000      8.1832      2.3713      0.1665     16.8933    180.0913     27.5322
   737.1000      8.1832      2.3270      0.1394     19.5762    177.1306     27.5058
   737.2000      8.1832      2.2927      0.1138     21.6533    174.2483     26.8408
   737.3000      8.2107      2.2663      0.1011     23.2567    176.1829     25.9101
   737.4000      8.2107      2.2433      0.0840     24.6480    183.0544     25.3443
   737.5000      8.2034      2.2339      0.0483     25.2175    185.0832     25.4132
   737.6000      8.2034      2.2515      0.1351     24.1498    177.1208     25.8031
   737.7000      8.2034      2.2980      0.1361     21.3327    170.1627     26.1941
   737.8000      8.3190      2.3684      0.2599     17.0641    172.8507     26.6405
   737.9000      8.3190      2.4389      0.3728     12.7909    176.3207     27.0238
   738.0000      8.2997      2.4773      0.3570     10.4682    169.2001     27.0802
   738.1000      8.2997      2.4729      0.3124     10.7319    155.3708     27.0002
   738.2000      8.2997      2.4465      0.1973     12.3344    141.9891     27.1324
   738.3000      8.2173      2.4360      0.1624     12.9718    130.4642     27.3621
   738.4000      8.2173      2.4536      0.2185     11.9028    124.5250     27.4173
   738.5000      8.1979      2.4763      0.2337     10.5279    125.4155     27.5106
   738.6000      8.1979      2.4939      0.2016      9.4591    129.8712     27.9397
   738.7000      8.1979      2.5145      0.2202      8.2131    136.2555     28.4441
   738.8000      8.1695      2.5286      0.1993      7.3577    142.4105     28.7404
   738.9000      8.1695      2.5243      0.1494      7.6164    144.4733     28.7375
   739.0000      8.1512      2.5182      0.1341      7.9903    141.4274     28.5451
   739.1000      8.1512      2.5358      0.1408      6.9198    137.9362     28.2984
   739.2000      8.1512      2.5657      0.2320      5.1105    140.2763     27.7112
   739.3000      8.1197      2.5736      0.2166      4.6281    147.7748     26.6860
   739.4000      8.1197      2.5598      0.1362      5.4662    151.1597     25.8463
   739.5000      8.1094      2.5436      0.0997      6.4481    144.3680     25.6745
   739.6000      8.1094      2.5386      0.0540      6.7524    133.3586     26.1279
   739.7000      8.1094      2.5515      0.0690      5.9704    126.5152     26.8734
   739.8000      8.1178      2.5642      0.1460      5.1998    125.1021     27.3718
   739.9000      8.1178      2.5518      0.0954      5.9509    126.7841     27.4277
   740.0000      8.1475      2.5199      0.0765      7.8834    129.2464     27.3032
   740.1000      8.1475      2.4890      0.0653      9.7566    129.3453     27.1445
   740.2000      8.1475      2.4670      0.0544     11.0896    127.1319     26.9947
   740.3000      8.1347      2.4556      0.0095     11.7827    124.1848     26.8000
   740.4000      8.1347      2.4566      0.0827     11.7192    122.0114     26.5847
   740.5000      8.1412      2.4718      0.0243     10.7978    121.9590     26.6154
   740.6000      8.1412      2.5081      0.0200      8.5992    122.2406     27.0408
   740.7000      8.1412      2.5505      0.1203      6.0274    120.4083     27.4864
   740.8000      8.1346      2.5665      0.0940      5.0609    117.8053     27.5818
   740.9000      8.1346      2.5546      0.0976      5.7843    116.6028     27.4209
   741.0000      8.0981      2.5267      0.1370      7.4753    116.8317     27.1839
   741.1000      8.0981      2.4932      0.1240      9.5045    118.5935     27.1086
   741.2000      8.0981      2.4843      0.0823     10.0423    117.4713     27.3642
   741.3000      8.0728      2.5244      0.0733      7.6116    112.8528     27.8072
   741.4000      8.0728      2.6017      0.1498      2.9267    111.3822     28.2984
   741.5000      8.0441      2.6902      0.1401     -2.4361    114.2030     28.6862
   741.6000      8.0441      2.7824      0.2003     -8.0222    119.0909     28.8553
   741.7000      8.0441      2.8652      0.3157    -13.0409    124.5949     28.9771
   741.8000      8.0499      2.9065      0.3060    -15.5427    125.5266     29.0668
   741.9000      8.0499      2.8988      0.3180    -15.0758    120.9633     28.8346
   742.0000      8.0279      2.8639      0.2439    -12.9662    118.8693     28.0190
   742.1000      8.0279      2.8128      0.1905     -9.8638    125.7061     26.8047
   742.2000      8.0279      2.7403      0.0958     -5.4704    137.8143     25.7842
   742.3000      8.0127      2.6576      0.0121     -0.4587    148.1259     25.2329
   742.4000      8.0127      2.5838     -0.0425      4.0114    156.0816     25.0129
   742.5000      8.0167      2.5262     -0.0594      7.5012    160.8200     24.8682
   742.6000      8.0167      2.4912     -0.0648      9.6246    159.2473     24.7055
   742.7000      8.0167      2.4800     -0.0199     10.3019    152.8478     24.6764
   742.8000      8.0534      2.4749      0.0006     10.6145    144.0912     24.8627
   742.9000      8.0534      2.4574      0.0284     11.6748    137.0418     25.1064
   743.0000      8.2080      2.4379      0.0064     12.8563    136.6552     24.9990
   743.1000      8.2080      2.4292      0.0849     13.3841    140.2661     24.4331
   743.2000      8.2080      2.4157      0.0675     14.2029    139.3970     23.8725
   743.3000      8.3737      2.3941      0.0211     15.5115    133.0940     23.5784
   743.4000      8.3737      2.3834      0.0220     16.1596    130.5696     23.3814
   743.5000      8.4069      2.3879      0.0675     15.8851    134.6254     22.9835
   743.6000      8.4069      2.3914      0.0414     15.6756    136.5666     22.1916
   743.7000      8.4069      2.3727      0.0333     16.8066    133.2089     21.1590
   743.8000      8.4313      2.3195      0.0161     20.0274    127.9224     20.2510
   743.9000      8.4313      2.2336     -0.0048     25.2389    121.0014     19.6492
   744.0000      8.4142      2.1267     -0.0513     31.7132    112.4436     19.2274
   744.1000      8.4142      2.0088     -0.0479     38.8604    104.4221     19.0326
   744.2000      8.4142      1.8782     -0.0777     46.7748     99.7006     19.4006
   744.3000      8.4085      1.7506     -0.0939     54.5065     95.6168     20.2773
   744.4000      8.4085      1.6640     -0.0809     59.7604     89.5664     21.0773
   744.5000      8.4109      1.6347     -0.0499     61.5340     86.6132     21.5376
   744.6000      8.4109      1.6514      0.0082     60.5234     87.6785     22.0601
   744.7000      8.4109      1.7064      0.0757     57.1871     86.8841     22.9185
   744.8000      8.3759      1.8035      0.1348     51.3058     83.5866     23.8423
   744.9000      8.3759      1.9387      0.2497     43.1087     80.5272     24.5584
   745.0000      8.2856      2.0928      0.3299     33.7698     78.1116     25.0751
   745.1000      8.2856      2.2497      0.3574     24.2620     75.9057     25.5874
