~Version Information
VERS.                      2.0: CWLS Log ASCII Standard - VERSION 2.0
WRAP.                       NO: One line per depth step
~Well Information Block
STRT.FT               -19.5000: 
STOP.FT              2456.0000: 
STEP.FT                 0.2500: 
NULL.                -999.2500: 
COMP.          Petrogulf Corporation: COMPANY
WELL.           Montoya 12-44V: WELL
FLD.           Purgatorie River: FIELD
LOC.           698' FSL & 599' FEL: LOCATION
CNTY.               Las Animas: COUNTY
SRVC.                         : SERVICE COMPANY
DATE.          Mon Sep 13 13:44:10 2004: LOG DATE
UWI.           05-071-08094-00: UNIQUE WELL ID
STAT.                 Colorado: STATE
~Curve Information Block
DEPT.FT            0 000 00 00: Depth
TT3.usec                      : CBL 3' Travel Time
AMP3.mV                       : CBL 3' Amplitude
GR.GAPI                       : Gamma Ray
CCL.                          : Casing Collar Locator
~Parameter Information Block
~A  Depth       TT3         AMP3         GR         CCL     
# ...
  1622.0000    386.5528      2.1419     98.8685      0.0000
  1622.2500    387.7452      2.0864    105.8554      0.0000
  1622.5000    388.1474      2.0785    114.8505      0.0000
  1622.7500    388.0803      2.0956    124.6120      0.0000
  1623.0000    388.3159      2.1011    133.1698      0.0000
  1623.2500    389.6799      2.0929    138.6622      0.0000
  1623.5000    392.3562      2.1015    140.0600      0.0000
  1623.7500    395.6417      2.1447    137.4542      0.0000
  1624.0000    398.8614      2.2057    132.1920      0.0000
  1624.2500    402.8248      2.2542    126.8368      0.0000
  1624.5000    410.2497      2.2791    124.1546      0.0000
  1624.7500    423.3652      2.2952    125.3604      0.0000
  1625.0000    440.1818      2.3265    129.4013      0.0000
  1625.2500    455.3540      2.3869    134.1288      0.0000
  1625.5000    465.0907      2.4798    138.1112      0.0000
  1625.7500    468.4625      2.6066    141.4182      0.0000
  1626.0000    467.0978      2.7624    144.9268      0.0000
  1626.2500    469.2742      2.9335    149.0115      0.0000
  1626.5000    489.8067      3.1051    153.1503      0.0000
  1626.7500    534.8580      3.2764    156.8767      0.0000
  1627.0000    591.3088      3.4654    160.4852      0.0000
  1627.2500    645.0221      3.6846    164.2773      0.0000
  1627.5000    693.6241      3.9147    167.6924      0.0000
  1627.7500    732.0538      4.1248    169.9030      0.0000
  1628.0000    752.3157      4.3149    170.9421      0.0000
  1628.2500    753.0547      4.5126    171.5426      0.0000
  1628.5000    734.8881      4.7307    171.8867      0.0000
  1628.7500    702.0048      4.9467    171.1010      0.0000
  1629.0000    670.2359      5.1219    168.2213      0.0000
  1629.2500    657.1867      5.2384    163.4007      0.0000
  1629.5000    668.2161      5.3194    157.9444      0.0000
  1629.7500    691.7585      5.3962    153.2452      0.0000
  1630.0000    699.5219      5.4654    149.9670      0.0000
  1630.2500    672.8925      5.4825    148.3286      0.0000
  1630.5000    631.2935      5.3759    148.6979      0.0000
  1630.7500    605.9818      5.0866    151.2720      0.0000
  1631.0000    596.8945      4.6494    155.2323      0.0000
  1631.2500    592.9110      4.2198    158.8144      0.0000
  1631.5000    606.2496      3.9597    160.4531      0.0000
  1631.7500    642.2596      3.9149    159.6099      0.0000
  1632.0000    673.2167      4.0161    156.4656      0.0000
  1632.2500    669.1096      4.1429    151.4782      1.9272
  1632.5000    628.5694      4.2091    145.8559      0.0000
  1632.7500    580.7435      4.2130    141.9162     -5.0000
  1633.0000    563.7215      4.1868    141.9130      0.0000
  1633.2500    591.5310      4.1377    146.2315      0.0000
  1633.5000    643.7146      4.0767    152.9508      0.0000
  1633.7500    689.8064      4.0885    159.1433      0.0000
  1634.0000    718.2748      4.2545    162.8005      0.0000
  1634.2500    736.2538      4.4631    163.8924      0.0000
  1634.5000    750.3224      4.5401    163.6990      0.0000
  1634.7500    759.1138      4.5341    163.2420      0.0000
  1635.0000    759.6064      4.5905    162.5242      0.0000
  1635.2500    752.2643      4.7224    161.1414      0.0000
  1635.5000    741.2894      4.8672    159.3475      0.0000
  1635.7500    730.9140      4.9878    158.2651      0.0000
  1636.0000    719.0805      5.0805    158.7363      0.0000
  1636.2500    696.1301      5.1595    159.9497      0.0000
  1636.5000    655.8629      5.2215    159.7457      0.0000
  1636.7500    611.8878      5.2087    156.7570      0.0000
  1637.0000    593.7790      5.0609    152.0600      0.0000
  1637.2500    617.6495      4.8106    148.3379      0.0000
  1637.5000    665.9244      4.5645    147.6395      0.0000
  1637.7500    702.2856      4.4046    149.9875      0.0000
  1638.0000    703.6636      4.3290    153.4973      0.0000
  1638.2500    675.6081      4.2825    155.4483      0.0000
  1638.5000    647.4893      4.2198    153.7818      0.0000
  1638.7500    649.7896      4.1234    148.3625      0.0000
  1639.0000    679.2831      4.0077    141.1391      0.0000
  1639.2500    700.7220      3.9147    134.8613      0.0000
  1639.5000    696.2894      3.8641    131.2002      0.0000
  1639.7500    687.3505      3.8295    129.7871      0.0000
  1640.0000    689.8928      3.7731    129.0337      0.0000
  1640.2500    677.7169      3.6826    127.9082      0.0000
  1640.5000    619.4379      3.5994    126.9408      0.0000
  1640.7500    529.3946      3.5918    127.4432      0.0000
  1641.0000    451.9353      3.6672    129.7008      0.0000
  1641.2500    409.8894      3.7679    132.0331      0.0000
  1641.5000    393.9973      3.8563    131.8635      0.0000
  1641.7500    388.6387      3.9402    127.8932      0.0000
  1642.0000    386.3735      4.0349    121.3728      0.0000
  1642.2500    385.4138      4.1434    115.2961      0.0000
  1642.5000    385.3363      4.2544    112.1505      0.0000
  1642.7500    385.7523      4.3434    112.0816      0.0000
  1643.0000    386.3713      4.3851    113.0887      0.0000
  1643.2500    387.0732      4.3832    113.1274      0.0000
  1643.5000    387.7874      4.3879    111.9558      0.0000
  1643.7500    388.5557      4.4603    110.8195      0.0000
  1644.0000    389.8188      4.6053    110.7540      0.0000
  1644.2500    392.3331      4.7647    111.7368      0.0000
  1644.5000    396.5634      4.8799    113.4136      0.0000
  1644.7500    402.4359      4.9378    115.9564      0.0000
  1645.0000    409.7402      4.9669    119.7314      0.0000
  1645.2500    418.0413      5.0100    124.3543      0.0000
  1645.5000    426.0885      5.0939    128.7177      0.0000
  1645.7500    432.4048      5.2144    132.2364      0.0000
  1646.0000    436.6499      5.3632    135.6909      0.0000
  1646.2500    439.6190      5.5659    140.4199      0.0000
  1646.5000    442.0240      5.8578    146.6961      0.0000
  1646.7500    443.7289      6.2352    153.0894      0.0000
  1647.0000    444.0792      6.6593    157.5667      0.0000
  1647.2500    442.5779      7.0854    159.2076      0.0000
  1647.5000    438.7919      7.4686    158.6940      0.0000
  1647.7500    432.1369      7.7606    157.2754      0.0000
  1648.0000    423.6115      7.9245    155.7449      0.0000
  1648.2500    417.2281      7.9581    154.3822      0.0000
  1648.5000    416.1021      7.8956    153.1994      0.0000
  1648.7500    418.4426      7.7807    151.9138      0.0000
  1649.0000    420.9674      7.6300    150.1442      0.0000
  1649.2500    423.0888      7.4169    148.0426      0.0000
  1649.5000    425.8403      7.1087    146.5728      0.0000
  1649.7500    429.5282      6.7254    147.0186      0.0000
  1650.0000    433.4150      6.3374    150.1181      0.0000
  1650.2500    436.7452      6.0150    155.3117      0.0000
  1650.5000    439.4359      5.8022    160.7029      0.0000
  1650.7500    441.7978      5.7125    164.2687      0.0000
  1651.0000    443.9633      5.7189    165.5119      0.0000
  1651.2500    445.7132      5.7651    165.5403      0.0000
  1651.5000    446.7022      5.8068    165.3162      0.0000
  1651.7500    446.8116      5.8230    164.4937      0.0000
  1652.0000    446.3385      5.8022    162.2928      0.0000
  1652.2500    445.8180      5.7429    158.8808      0.0000
  1652.5000    445.6167      5.6650    155.4006      0.0000
  1652.7500    445.7308      5.6054    152.8823      0.0000
  1653.0000    445.9640      5.5834    151.4503      0.0000
  1653.2500    446.1520      5.5874    150.5153      0.0000
  1653.5000    446.1667      5.5986    149.3511      0.0000
  1653.7500    445.8940      5.6095    147.2900      0.0000
  1654.0000    445.3227      5.6287    143.6612      0.0000
  1654.2500    444.5775      5.6639    138.1328      0.0000
  1654.5000    443.8181      5.6996    131.3454      0.0000
  1654.7500    443.1234      5.7123    125.0270      0.0000
  1655.0000    442.4198      5.6929    121.0875      0.0000
  1655.2500    441.4142      5.6489    120.2251      0.0000
