~Version Information
VERS.                      2.0: CWLS Log ASCII Standard - VERSION 2.0
WRAP.                       NO: One line per depth step
~Well Information Block
STRT.FT                -4.7500: 
STOP.FT              2809.5000: 
STEP.FT                 0.2500: 
NULL.                -999.2500: 
COMP.          Pioneer Natural Resources: COMPANY
WELL.              Lynch 43-30: WELL
FLD.           Purgatorie River: FIELD
LOC.           1438' FSL & 429' FEL--: LOCATION
PROV.                       CO: PROVINCE
CNTY.               Las Animas: COUNTRY
SRVC.                         : SERVICE COMPANY
DATE.          Sat Oct 30 09:52:34 2004: LOG DATE
UWI.          005 071 08170   : UNIQUE WELL ID
~Curve Information Block
DEPT.FT            0 000 00 00: Depth
GR.GAPI                       : Gamma Ray
CCL.                          : Casing Collar Locator
TT3.usec                      : CBL 3' Travel Time
AMP3.mV                       : CBL 3' Amplitude
~Parameter Information Block
~A  Depth        GR         CCL         TT3         AMP3    
# ...
   363.7500     92.8427      0.0000    775.2313      6.8885
   364.0000     93.4649      0.0000    774.6225      6.8271
   364.2500     96.1656      0.0000    774.1803      6.8044
   364.5000     99.1487      0.0000    773.9517      6.8246
   364.7500    100.2256      0.0000    773.9343      6.8595
   365.0000     98.3370      0.0000    774.0737      6.8767
   365.2500     94.1592      0.0000    774.2828      6.8660
   365.5000     89.4392      0.0000    774.4771      6.8347
   365.7500     85.6647      0.0000    774.6075      6.7901
   366.0000     83.2283      0.0000    774.6665      6.7392
   366.2500     81.7572      0.0000    774.6740      6.6970
   366.5000     80.9703      0.0000    774.6634      6.6792
   366.7500     80.8477      0.0000    774.6741      6.6815
   367.0000     81.1760      0.0000    774.7396      6.6777
   367.2500     81.5587      0.0000    774.8716      6.6453
   367.5000     81.8366      0.0000    775.0523      6.5879
   367.7500     81.8607      0.0000    775.2419      6.5266
   368.0000     81.0543      0.0000    775.4008      6.4737
   368.2500     79.0068      0.0000    775.5239      6.4212
   368.5000     76.3126      0.0000    775.6613      6.3553
   368.7500     73.9837      0.0000    775.8946      6.2767
   369.0000     72.1959      0.0000    776.2750      6.2011
   369.2500     70.3496      0.0000    776.7746      6.1435
   369.5000     68.1489      0.0000    777.3074      6.1063
   369.7500     65.9853      0.0000    777.8151      6.0814
   370.0000     64.3306      0.0000    778.3527      6.0538
   370.2500     63.1790      0.0000    779.0997      6.0036
   370.5000     62.2352      0.0000    780.3942      5.9148
   370.7500     61.4907      0.0000    782.9003      5.7903
   371.0000     61.3294      0.0000    787.7354      5.6566
   371.2500     61.9959      0.0000    795.8105      5.5506
   371.5000     63.2796      0.0000    806.1054      5.4995
   371.7500     64.8690      0.0000    814.6150      5.5062
   372.0000     66.5243      0.0000    816.4840      5.5481
   372.2500     67.6964      0.0000    810.2690      5.5926
   372.5000     67.5941      0.0000    799.4486      5.6213
   372.7500     65.9952      0.0000    789.1929      5.6442
   373.0000     63.6622      0.0000    782.4009      5.6901
   373.2500     61.7975      0.0000    778.9811      5.7804
   373.5000     61.2305      0.0000    777.5870      5.9117
   373.7500     61.9347      0.0000    777.1154      6.0650
   374.0000     63.0999      0.0000    777.1441      6.2285
   374.2500     63.7917      0.0000    777.9272      6.4023
   374.5000     63.5725      0.0000    780.4046      6.5794
   374.7500     62.3071      0.0000    785.7471      6.7333
   375.0000     59.5925      0.0000    793.8753      6.8343
   375.2500     54.9621      0.0000    801.9497      6.8769
   375.5000     48.8839      0.0000    805.4354      6.8820
   375.7500     43.2900      0.0000    801.9631      6.8722
   376.0000     40.7194      0.0000    793.7849      6.8572
   376.2500     42.7784      0.0000    785.7481      6.8404
   376.5000     49.2662      0.0000    781.6381      6.8298
   376.7500     58.4258      0.0000    783.0059      6.8346
   377.0000     67.8328      0.0000    789.7891      6.8557
   377.2500     75.2777      0.0000    799.9247      6.8846
   377.5000     79.2897      0.0000    808.6448      6.9111
   377.7500     79.4013      0.0000    810.5995      6.9313
   378.0000     76.4477      0.0000    804.2256      6.9442
   378.2500     72.5662      0.0000    793.2377      6.9439
   378.5000     70.3019      0.0000    783.1124      6.9201
   378.7500     71.0620      0.0000    776.8353      6.8662
   379.0000     74.1089      0.0000    774.1862      6.7835
   379.2500     77.2319      0.0000    773.6359      6.6802
   379.5000     78.8293      0.0000    773.9272      6.5695
   379.7500     79.3156      0.0000    774.4047      6.4654
   380.0000     80.2067      0.0000    774.7885      6.3813
   380.2500     82.2287      0.0000    774.9805      6.3293
   380.5000     84.7511      0.0000    774.9755      6.3170
   380.7500     86.5655      0.0000    774.8333      6.3407
   381.0000     86.7327      0.0000    774.6428      6.3827
   381.2500     85.1295      0.0000    774.4903      6.4192
   381.5000     82.5577      0.0000    774.4278      6.4343
   381.7500     80.0501      0.0000    774.4542      6.4296
   382.0000     77.9137      0.0000    774.5248      6.4170
   382.2500     75.6204      0.0000    774.5838      6.4027
   382.5000     72.5432      0.0000    774.5962      6.3848
   382.7500     68.6735      0.0000    774.5650      6.3650
   383.0000     64.8144      0.0000    774.5245      6.3516
   383.2500     62.1215      0.0000    774.5044      6.3495
   383.5000     61.3050      0.0000    774.5020      6.3520
   383.7500     62.1266      0.0000    774.5013      6.3480
   384.0000     63.4147      0.0000    774.5029      6.3299
   384.2500     63.6153      0.0000    774.5089      6.2993
   384.5000     61.8394      0.0000    774.4945      6.2677
   384.7500     58.6607      0.0000    774.4295      6.2513
   385.0000     55.6300      0.0000    774.3199      6.2551
   385.2500     53.8679      0.0000    774.2090      6.2647
   385.5000     53.3381      0.0000    774.1380      6.2555
   385.7500     53.3989      0.0000    774.1243      6.2110
   386.0000     53.5234      0.0000    774.1451      6.1388
   386.2500     53.3679      0.0000    774.1219      6.0737
   386.5000     52.5899      0.0000    773.9368      6.0627
   386.7500     50.9568      0.0000    773.6296      6.1306
   387.0000     48.6374      0.0000    773.7454      6.2360
   387.2500     46.2709      0.0000    775.4200      6.2604
   387.5000     44.6559      0.0000    779.8296      6.0847
   387.7500     44.2600      0.0000    787.6683      5.7122
   388.0000     45.0117      0.0000    799.2601      5.2888
   388.2500     46.6325      0.0000    814.4392      4.9725
   388.5000     48.9943      0.0000    831.3599      4.8084
   388.7500     51.8907      2.0000    846.1146      4.7446
   389.0000     54.7336      0.0000    854.8168      4.7250
   389.2500     56.9506      0.0000    856.0515      4.7468
   389.5000     58.4899      0.0000    850.8478      4.8551
   389.7500     59.4077      0.0000    840.9683      5.0877
   390.0000     59.2376      0.0000    828.0961      5.3991
   390.2500     57.6274      0.0000    814.2194      5.6593
   390.5000     55.6171      0.0000    801.6265      5.7738
   390.7500     55.3021      0.0000    792.0742      5.7792
   391.0000     57.7606      0.0000    786.0764      5.7823
   391.2500     61.7623      0.0000    783.0045      5.8424
   391.5000     64.7944      0.0000    781.7610      5.9457
   391.7500     65.1194      0.0000    781.4290      6.0543
   392.0000     62.8274      0.0000    781.4775      6.1411
   392.2500     59.4208      0.0000    781.6653      6.1930
   392.5000     56.7693      0.0000    781.8657      6.2069
   392.7500     56.1130      0.0000    782.0046      6.1895
   393.0000     57.4120      0.0000    782.0383      6.1523
   393.2500     59.5421      0.0000    781.9594      6.1040
   393.5000     61.4127      0.0000    781.7926      6.0443
   393.7500     62.7443      0.0000    781.5807      5.9686
   394.0000     63.5568      0.0000    781.3645      5.8814
   394.2500     63.4261      0.0000    781.1699      5.7996
   394.5000     61.9425      0.0000    780.9953      5.7420
   394.7500     59.6380      0.0000    780.7971      5.7163
   395.0000     57.8102      0.0000    780.5025      5.7183
   395.2500     57.2904      0.0000    780.0627      5.7402
   395.5000     57.6262      0.0000    779.5061      5.7756
   395.7500     57.5396      0.0000    778.9350      5.8168
   396.0000     56.2861      0.0000    778.4536      5.8516
   396.2500     54.7009      0.0000    778.0555      5.8623
   396.5000     54.6898      0.0000    777.5237      5.8292
   396.7500     57.3871      0.0000    776.3542      5.7399
   397.0000     62.0001      0.0000    773.8104      5.5989
