~Version Information
VERS.                      2.0: CWLS Log ASCII Standard - VERSION 2.0
WRAP.                       NO: One line per depth step
~Well Information Block
STRT.FT               238.0000: 
STOP.FT              1377.0000: 
STEP.FT                 0.1000: 
NULL.                -999.2500: 
COMP.          Pioneer Natural Resources: COMPANY
WELL.             Raptor 44-26: WELL
FLD.           Purgatoire River: FIELD
LOC.           180' FSL & 812' FEL: LOCATION
PROV.                 Colorado: PROVINCE
CNTY.               Las Animas: COUNTRY
SRVC.                Patterson: SERVICE COMPANY
DATE.          Tue Mar 22 15:28:33 2005: LOG DATE
UWI.           05 071 08187 00: UNIQUE WELL ID
~Curve Information Block
DEPT.FT            0 000 00 00: Depth
DCAL.in                       : CDL Caliper
RHOB.g/cc                     : CDL Bulk Density
RHOC.g/cc                     : CDL Density Correction
DPOR.pu                       : CDL Density Porosity
GR.GAPI                       : Gamma Ray
NPOR.pu                       : Neutron Porosity
~Parameter Information Block
~A  Depth       DCAL        RHOB        RHOC        DPOR         GR         NPOR    
# ...
   833.2000      7.8189      2.5466      0.0474      6.2660    101.4233     25.6908
   833.3000      7.8050      2.5674      0.0840      5.0032     94.9431     25.6845
   833.4000      7.8050      2.5817      0.1365      4.1417     87.6016     25.8338
   833.5000      7.8016      2.5750      0.0844      4.5482     82.8251     26.0891
   833.6000      7.8016      2.5609      0.0879      5.3996     78.8656     25.9220
   833.7000      7.8016      2.5583      0.1182      5.5562     75.9581     25.1240
   833.8000      7.7813      2.5675      0.1274      4.9979     76.4038     24.2339
   833.9000      7.7813      2.5713      0.1379      4.7690     78.9459     23.8242
   834.0000      7.7561      2.5616      0.0472      5.3557     81.3676     23.7692
   834.1000      7.7561      2.5525      0.0333      5.9081     81.1544     23.7084
   834.2000      7.7561      2.5557      0.0434      5.7176     77.1321     23.5632
   834.3000      7.7754      2.5713      0.0340      4.7724     73.2921     23.4079
   834.4000      7.7754      2.5871      0.0920      3.8133     72.6405     23.5741
   834.5000      7.8361      2.5880      0.0845      3.7606     74.5763     24.2968
   834.6000      7.8361      2.5714      0.1388      4.7611     78.3151     25.2019
   834.7000      7.8361      2.5411      0.1168      6.5995     82.6551     25.7420
   834.8000      7.8438      2.5083      0.0907      8.5905     85.7835     25.7484
   834.9000      7.8438      2.4853      0.0344      9.9809     89.4258     25.3614
   835.0000      7.7964      2.4744      0.0306     10.6410     94.9270     24.9455
   835.1000      7.7964      2.4687      0.0546     10.9905    101.5846     24.8843
   835.2000      7.7964      2.4632      0.0311     11.3225    110.6223     25.1813
   835.3000      7.8122      2.4625      0.0361     11.3641    122.5147     25.5795
   835.4000      7.8122      2.4620      0.0666     11.3952    134.3159     25.8324
   835.5000      7.8656      2.4481      0.0584     12.2355    141.8803     26.1245
   835.6000      7.8656      2.4363      0.0384     12.9537    144.1144     26.6937
   835.7000      7.8656      2.4567      0.1241     11.7128    143.1003     27.3191
   835.8000      7.8745      2.5084      0.1577      8.5789    142.3777     27.8301
   835.9000      7.8745      2.5695      0.1783      4.8764    144.5203     28.2085
   836.0000      7.8523      2.6170      0.2826      1.9973    147.7109     28.4201
   836.1000      7.8523      2.6328      0.2671      1.0414    149.1644     28.4556
   836.2000      7.8523      2.6203      0.2407      1.7998    150.0511     28.4787
   836.3000      7.8295      2.5972      0.1864      3.2014    149.6082     28.6283
   836.4000      7.8295      2.5762      0.1693      4.4724    144.8994     28.8038
   836.5000      7.8487      2.5638      0.1206      5.2223    137.9823     28.7130
   836.6000      7.8487      2.5569      0.1369      5.6441    130.7721     28.3317
   836.7000      7.8487      2.5532      0.0257      5.8664    121.4306     28.0236
   836.8000      7.8263      2.5769      0.0044      4.4316    109.2627     27.9106
   836.9000      7.8263      2.6337      0.1050      0.9900     97.7396     27.7117
   837.0000      7.8235      2.6723      0.1821     -1.3516     90.8882     27.3420
   837.1000      7.8235      2.6517      0.1665     -0.1012     86.1607     26.9703
   837.2000      7.8235      2.5946      0.0912      3.3563     79.6867     26.4069
   837.3000      7.7776      2.5487      0.0704      6.1367     72.9314     25.4789
   837.4000      7.7776      2.5363      0.0461      6.8889     68.9096     24.5969
   837.5000      7.7959      2.5545      0.0252      5.7872     67.6628     24.1568
   837.6000      7.7959      2.5910      0.0574      3.5779     67.2180     23.9853
   837.7000      7.7959      2.6320      0.0528      1.0910     67.0162     23.8367
   837.8000      7.7923      2.6614      0.1145     -0.6939     65.9420     23.7668
   837.9000      7.7923      2.6680      0.0599     -1.0898     62.4474     23.6920
   838.0000      7.8099      2.6579      0.1385     -0.4808     58.8324     23.2280
   838.1000      7.8099      2.6411      0.1112      0.5394     57.9373     22.5822
   838.2000      7.8099      2.6249      0.1111      1.5194     58.6716     22.3890
   838.3000      7.8138      2.6233      0.0244      1.6175     59.1628     22.5882
   838.4000      7.8138      2.6485      0.0399      0.0925     58.4154     22.9108
   838.5000      7.7945      2.6834      0.1024     -2.0262     56.0146     23.4070
   838.6000      7.7945      2.6952      0.1069     -2.7386     53.0596     23.8672
   838.7000      7.7945      2.6680      0.1082     -1.0929     50.7426     23.8502
   838.8000      7.8055      2.6129      0.0311      2.2496     49.8461     23.3190
   838.9000      7.8055      2.5675     -0.0384      4.9983     51.0127     22.5557
   839.0000      7.8145      2.5508      0.0191      6.0130     54.5632     21.9098
   839.1000      7.8145      2.5485     -0.0163      6.1493     59.2148     21.7010
   839.2000      7.8145      2.5532     -0.0072      5.8661     62.8521     21.8839
   839.3000      7.8189      2.5555      0.0095      5.7284     65.8904     21.7755
   839.4000      7.8189      2.5328      0.0458      7.1010     71.2094     20.9087
   839.5000      7.8158      2.4766      0.0505     10.5109     80.2749     19.7357
   839.6000      7.8158      2.3978      0.0689     15.2821     92.6791     18.8479
   839.7000      7.8158      2.3057      0.0571     20.8652    105.2861     18.2033
   839.8000      7.8300      2.2017     -0.0012     27.1674    112.3387     17.3649
   839.9000      7.8300      2.0864     -0.0559     34.1593    113.0688     16.3702
   840.0000      7.8058      1.9683     -0.0589     41.3138    112.1861     15.7478
   840.1000      7.8058      1.8680     -0.0457     47.3926    111.3401     15.6637
   840.2000      7.8058      1.7966     -0.0264     51.7224    108.3396     15.7685
   840.3000      7.8368      1.7418      0.0680     55.0440    102.6217     15.7751
   840.4000      7.8368      1.6814      0.1343     58.7042     96.9272     15.7131
   840.5000      8.0372      1.5977      0.1566     63.7788     92.5971     15.6989
   840.6000      8.0372      1.4937      0.0724     70.0790     87.4553     15.7727
   840.7000      8.0372      1.3977      0.0607     75.8945     81.4809     15.9592
   840.8000      8.1092      1.3295      0.0770     80.0293     75.9673     16.3278
   840.9000      8.1092      1.2882      0.0346     82.5351     70.4237     16.9761
   841.0000      8.0999      1.2782      0.0249     83.1376     66.5098     17.9281
   841.1000      8.0999      1.3192      0.0187     80.6515     65.3345     18.8110
   841.2000      8.0999      1.4217      0.0978     74.4443     64.8932     19.2907
   841.3000      8.1832      1.5590      0.2038     66.1208     63.2041     19.8010
   841.4000      8.1832      1.6913      0.2436     58.1053     60.2625     20.7860
   841.5000      8.2514      1.8086      0.2977     50.9934     57.8793     21.8841
   841.6000      8.2514      1.9130      0.3430     44.6667     56.4676     22.4923
   841.7000      8.2514      1.9860      0.3807     40.2448     56.7113     22.4842
   841.8000      8.2978      2.0108      0.3155     38.7370     60.9093     22.2341
   841.9000      8.2978      1.9938      0.2252     39.7703     67.8598     22.0441
   842.0000      8.2845      1.9458      0.1273     42.6775     73.2667     21.7289
   842.1000      8.2845      1.8711      0.0820     47.2042     74.6992     21.0879
   842.2000      8.2845      1.7727     -0.0193     53.1721     72.7114     20.3055
   842.3000      8.2204      1.6584     -0.0212     60.0941     70.6753     19.5592
   842.4000      8.2204      1.5416     -0.0113     67.1755     70.0124     18.7153
   842.5000      8.3199      1.4338     -0.0406     73.7077     67.0199     17.5901
   842.6000      8.3199      1.3414     -0.0162     79.3095     60.5886     16.4613
   842.7000      8.3199      1.2705     -0.0469     83.6090     55.4965     15.7167
