~Version Information
VERS.                      2.0: CWLS Log ASCII Standard - VERSION 2.0
WRAP.                       NO: One line per depth step
~Well Information Block
STRT.FT               910.3000: 
STOP.FT              1932.5000: 
STEP.FT                 0.1000: 
NULL.                -999.2500: 
COMP.          Petrogulf Corporation: COMPANY
WELL.             State 16-34R: WELL
FLD.           Purgatorie River: FIELD
LOC.           1095' FSL & 1498' FEL: LOCATION
CNTY.               Las Animas: COUNTY
SRVC.                         : SERVICE COMPANY
DATE.          Thu May 06 14:28:18 2004: LOG DATE
UWI.           05 071 08032 00: UNIQUE WELL ID
STAT.                 Colorado: STATE
~Curve Information Block
DEPT.FT            0 000 00 00: Depth
DCAL.in                       : CDL Caliper
RHOB.g/cc                     : CDL Bulk Density
RHOC.g/cc                     : CDL Density Correction
DPOR.pu                       : CDL Density Porosity
NPOR.pu                       : Neutron Porosity
GR.GAPI                       : Gamma Ray
~Parameter Information Block
~A  Depth       DCAL        RHOB        RHOC        DPOR        NPOR         GR     
# ...
  1630.3000      7.9237      2.5127      0.0409      8.3184     23.6943    146.3967
  1630.4000      7.9237      2.5077     -0.0025      8.6234     23.7434    150.0614
  1630.5000      7.9213      2.5036      0.0245      8.8715     23.6482    151.3444
  1630.6000      7.9213      2.5039      0.0227      8.8558     23.4308    147.0994
  1630.7000      7.9213      2.5004      0.0576      9.0651     23.2942    140.6908
  1630.8000      7.9150      2.4870      0.0124      9.8762     23.1251    136.4017
  1630.9000      7.9150      2.4830     -0.0158     10.1219     22.7319    131.9759
  1631.0000      7.9036      2.5030      0.0149      8.9072     22.4766    126.8514
  1631.1000      7.9036      2.5315      0.0461      7.1847     22.5463    125.4515
  1631.2000      7.9036      2.5499      0.0457      6.0643     22.6617    124.4306
  1631.3000      7.9110      2.5563      0.0568      5.6782     22.6555    119.5938
  1631.4000      7.9110      2.5608      0.0275      5.4078     22.5151    115.6907
  1631.5000      7.9025      2.5721      0.0515      4.7202     22.3316    115.2813
  1631.6000      7.9025      2.5810      0.0546      4.1824     22.5279    114.0244
  1631.7000      7.9025      2.5728      0.0742      4.6780     23.3093    108.0332
  1631.8000      7.8892      2.5453      0.0649      6.3433     24.0197    100.3565
  1631.9000      7.8892      2.5079      0.0081      8.6128     24.3598     96.2070
  1632.0000      7.8815      2.4800     -0.0112     10.3053     24.6446     94.8058
  1632.1000      7.8815      2.4822      0.0151     10.1668     24.8263     94.1079
  1632.2000      7.8815      2.5163      0.0247      8.1049     24.8081     93.2194
  1632.3000      7.8740      2.5580      0.1201      5.5782     24.7824     91.6946
  1632.4000      7.8740      2.5859      0.0917      3.8843     25.0668     93.3326
  1632.5000      7.8756      2.6065      0.0794      2.6344     25.4882    100.5708
  1632.6000      7.8756      2.6201      0.1471      1.8099     25.4960    109.4702
  1632.7000      7.8756      2.6123      0.0671      2.2863     24.9425    114.6683
  1632.8000      7.8849      2.5943      0.0750      3.3731     24.1116    114.1133
  1632.9000      7.8849      2.5827      0.0878      4.0777     23.4678    110.7639
  1633.0000      7.8837      2.5744      0.0687      4.5817     23.4602    108.7222
  1633.1000      7.8837      2.5753      0.0313      4.5253     24.1134    108.9760
  1633.2000      7.8837      2.5930      0.0457      3.4568     24.9154    112.2578
  1633.3000      7.8940      2.6081      0.0830      2.5415     25.3822    117.1550
  1633.4000      7.8940      2.6010      0.0289      2.9724     25.3137    119.2326
  1633.5000      7.9001      2.5756      0.0339      4.5065     24.6692    117.9762
  1633.6000      7.9001      2.5491      0.0058      6.1142     23.8836    114.1698
  1633.7000      7.9001      2.5417      0.0015      6.5649     23.5609    107.9621
  1633.8000      7.9078      2.5580      0.0386      5.5758     23.5438    101.7843
  1633.9000      7.9078      2.5790      0.0670      4.3023     23.4751     98.9968
  1634.0000      7.9080      2.5872      0.0633      3.8060     23.4153     99.4453
  1634.1000      7.9080      2.5852      0.0336      3.9264     23.3001     98.7659
  1634.2000      7.9080      2.5836      0.0285      4.0254     23.1506     96.6463
  1634.3000      7.8964      2.5852      0.0555      3.9281     23.3302     94.5364
  1634.4000      7.8964      2.5872      0.0320      3.8044     23.9735     95.9984
  1634.5000      7.8843      2.5869      0.0572      3.8233     24.5190    105.4771
  1634.6000      7.8843      2.5841      0.0575      3.9923     24.2887    117.3882
  1634.7000      7.8843      2.5819      0.0590      4.1254     23.5896    123.1623
  1634.8000      7.8824      2.5803      0.0779      4.2232     23.1994    120.8236
  1634.9000      7.8824      2.5748      0.0621      4.5575     23.2151    113.9324
  1635.0000      7.8738      2.5687      0.0130      4.9291     23.1764    109.7638
  1635.1000      7.8738      2.5715      0.0349      4.7587     23.0675    108.3220
  1635.2000      7.8738      2.5781      0.0576      4.3593     23.3558    106.7127
  1635.3000      7.8973      2.5831      0.0017      4.0532     23.8906    106.9617
  1635.4000      7.8973      2.5899      0.0651      3.6446     24.1728    108.4842
  1635.5000      7.8771      2.5926      0.0305      3.4815     24.4039    109.7935
  1635.6000      7.8771      2.5921      0.0308      3.5116     24.7755    110.7267
  1635.7000      7.8771      2.5918      0.0320      3.5275     25.1840    110.3148
  1635.8000      7.6910      2.5868      0.0275      3.8277     25.8343    109.8222
  1635.9000      7.6910      2.5787      0.0242      4.3232     26.7797    111.9195
  1636.0000      7.6810      2.5703      0.0215      4.8321     27.6400    113.8728
  1636.1000      7.6810      2.5579     -0.0197      5.5840     28.1308    112.6110
  1636.2000      7.6810      2.5406     -0.0129      6.6333     28.4290    111.4422
  1636.3000      7.6885      2.5270     -0.0340      7.4567     28.6095    112.4874
  1636.4000      7.6885      2.5248     -0.0079      7.5895     28.4613    114.6053
  1636.5000      7.6891      2.5307     -0.0093      7.2306     28.2393    119.9290
  1636.6000      7.6891      2.5348      0.0360      6.9830     28.2726    130.4131
  1636.7000      7.6891      2.5332      0.0533      7.0801     28.3318    139.7589
  1636.8000      7.7021      2.5292      0.0301      7.3223     28.2545    140.3839
  1636.9000      7.7021      2.5229     -0.0059      7.7032     28.3009    132.6465
  1637.0000      7.7090      2.5195      0.0003      7.9068     28.3349    123.5281
  1637.1000      7.7090      2.5272      0.0312      7.4440     27.9358    121.3049
  1637.2000      7.7090      2.5427      0.0343      6.5005     27.2988    126.8828
  1637.3000      7.7262      2.5559      0.0515      5.7011     26.8873    135.0044
  1637.4000      7.7262      2.5574      0.0252      5.6099     26.6462    141.8482
  1637.5000      7.7440      2.5458      0.0379      6.3161     26.4333    143.4493
  1637.6000      7.7440      2.5300      0.0106      7.2700     26.3862    138.6087
  1637.7000      7.7440      2.5222      0.0230      7.7461     26.5447    134.3847
  1637.8000      7.7538      2.5256      0.0071      7.5375     26.7264    135.1397
  1637.9000      7.7538      2.5366      0.0741      6.8722     26.9354    137.4059
  1638.0000      7.7576      2.5488      0.0354      6.1334     27.2249    139.8896
  1638.1000      7.7576      2.5628      0.0563      5.2843     27.1471    140.5591
  1638.2000      7.7576      2.5798      0.0549      4.2567     26.3904    137.9255
  1638.3000      7.7694      2.5936      0.0569      3.4205     25.5458    137.2689
  1638.4000      7.7694      2.5983      0.0389      3.1341     25.0135    139.8966
  1638.5000      7.7775      2.5947      0.0449      3.3494     24.4662    140.3196
  1638.6000      7.7775      2.5874      0.0563      3.7939     23.8429    136.8725
  1638.7000      7.7775      2.5752      0.0964      4.5321     23.4111    134.1080
  1638.8000      7.7897      2.5559      0.0711      5.7057     23.1346    136.3905
  1638.9000      7.7897      2.5326      0.0471      7.1179     22.7248    140.6445
  1639.0000      7.7972      2.5112      0.0314      8.4096     22.1239    140.7707
  1639.1000      7.7972      2.5039     -0.0196      8.8534     21.7186    137.5638
  1639.2000      7.7972      2.5153      0.0142      8.1631     21.9805    134.6832
  1639.3000      7.8110      2.5330      0.0002      7.0915     22.6649    130.7141
  1639.4000      7.8110      2.5494      0.0135      6.0997     22.9588    124.3081
  1639.5000      7.8237      2.5669      0.0221      5.0364     22.6720    118.4805
  1639.6000      7.8237      2.5828      0.0849      4.0704     22.1545    113.6762
  1639.7000      7.8237      2.5880      0.0638      3.7576     21.7513    109.3185
  1639.8000      7.8183      2.5856      0.0104      3.9060     21.8592    108.6427
