~Version Information
 VERS.                                  2.0 : CWLS LAS VERSION
 WRAP.                                   NO : WRAPING MODE
 SWARE .                 MController 2.5.0J : SOFTWARE VERSION
~Well Information
 WELL.                     Pacheco 33-27 Tr : WELL
 COMP.    PIONEER NATURAL RESOURCES USA INC : COMPANY
 FLD.                      PURGATOIRE RIVER : FIELD
 LOC.                    NW/SE  27 33S  67W : LOCATION
 DATE.                              6/10/05 : DATE(S) LOGGED
 SRVC.       Blanco Geological Sdrvices LLC : SERVICE COMPANY
 STAT.                                   CO : STATE
 CNTY.                           LAS ANIMAS : COUNTY
 CTRY.                                  USA : COUNTRY
 API.                           05-071-08384: API NUMBER
 STRT.FT                             206.00 : START DEPTH
 STOP.FT                            1210.00 : STOP DEPTH
 STEP.FT                               1.00 : DEPTH INCREMENT
 NULL.                                -9999 : NULL VALUE
~Curve information
 DEPTH.FT                                   :
 ROP.MIN/FT                                 :
 GAS.UNITS                                  :
~ASCII Log data
# ...
       606.0         0.33         38.5 
       607.0         0.23         38.2 
       608.0         0.23         37.5 
       609.0         0.20         37.6 
       610.0         0.20         37.8 
       611.0         0.22         37.2 
       612.0         0.20         36.9 
       613.0         0.20         36.8 
       614.0         0.27         37.6 
       615.0         0.37         39.2 
       616.0         0.33         39.7 
       617.0         0.33         39.0 
       618.0         0.30         38.1 
       619.0         0.30         37.8 
       620.0         0.27         38.1 
       621.0         0.30         38.0 
       622.0         0.27         37.8 
       623.0         0.32         37.9 
       624.0         0.33         37.3 
       625.0         0.27         36.7 
       626.0         3.15        131.1 
       627.0         0.37         63.5 
       628.0         0.37         66.5 
       629.0         0.33         66.3 
       630.0         0.37         59.0 
       631.0         0.43         50.3 
       632.0         0.43         44.2 
       633.0         0.58         71.6 
       634.0         0.17         71.5 
       635.0         0.23         73.9 
       636.0         0.27         85.6 
       637.0         0.27         87.9 
       638.0         0.20         87.6 
       639.0         0.37         85.5 
       640.0         0.43         81.1 
       641.0         0.27         78.6 
       642.0         0.50         74.6 
       643.0         0.38         69.9 
       644.0         0.30         66.2 
       645.0         0.20         64.4 
       646.0         0.33         62.4 
       647.0         0.27         63.2 
       648.0         0.43         62.9 
       649.0         0.27         63.4 
       650.0         0.33         62.9 
       651.0         0.40         59.5 
       652.0         0.33         59.6 
       653.0         0.68         58.9 
       654.0         0.53         59.2 
       655.0         0.60         58.2 
       656.0         3.55        212.7 
       657.0         0.33         69.7 
       658.0         0.33         73.1 
       659.0         0.27         77.2 
       660.0         0.23         78.0 
       661.0         0.33         77.9 
       662.0         0.42         77.4 
       663.0         0.40         69.6 
       664.0         0.40         61.2 
       665.0         0.33         56.2 
       666.0         0.40         53.4 
       667.0         0.40         51.7 
       668.0         0.37         51.7 
       669.0         0.43         51.3 
       670.0         0.38         50.8 
       671.0         0.47         50.7 
       672.0         0.40         50.4 
       673.0         0.43         50.5 
       674.0         0.40         50.5 
       675.0         0.40         50.7 
       676.0         0.37         50.5 
       677.0         0.37         49.8 
       678.0         0.40         50.0 
       679.0         0.38         50.5 
       680.0         0.40         50.5 
       681.0         0.33         49.9 
       682.0         0.37         49.9 
       683.0         0.50         49.7 
       684.0         0.37         49.5 
       685.0         0.30         49.9 
       686.0         3.08        217.9 
       687.0         0.43        100.0 
       688.0         0.50         93.1 
       689.0         0.48         88.0 
       690.0         0.37         70.3 
       691.0         0.33         60.2 
       692.0         0.33         55.0 
       693.0         0.37         52.3 
       694.0         0.37         50.6 
       695.0         0.27         50.4 
       696.0         0.37         49.9 
       697.0         0.27         48.6 
       698.0         0.20         48.3 
       699.0         0.18         47.4 
       700.0         0.27         46.0 
       701.0         0.40         52.2 
       702.0         0.43         53.7 
       703.0         0.33         52.8 
       704.0         0.23         50.5 
       705.0         0.27         49.8 
       706.0         0.27         48.9 
       707.0         0.33         48.7 
       708.0         0.37         48.5 
       709.0         0.32         49.0 
       710.0         0.20         49.2 
       711.0         0.17         48.1 
       712.0         0.30         46.9 
       713.0         0.23         49.2 
       714.0         0.37         52.9 
       715.0         0.33         54.6 
       716.0         3.82        276.0 
       717.0         0.57        113.6 
       718.0         0.53         89.8 
       719.0         0.42         85.7 
       720.0         0.50         71.8 
       721.0         0.47         59.7 
       722.0         0.47         54.3 
       723.0         0.33         48.5 
       724.0         0.33         47.3 
       725.0         0.33         46.6 
       726.0         0.40         46.7 
       727.0         0.32         46.8 
       728.0         0.33         46.4 
       729.0         0.27         46.5 
       730.0         0.33         46.2 
       731.0         0.27         46.7 
       732.0         0.30         47.2 
       733.0         0.27         46.9 
       734.0         0.23         46.0 
       735.0         0.27         45.2 
       736.0         0.30         47.3 
       737.0         0.23         48.1 
       738.0         0.45         47.8 
       739.0         0.30         47.4 
       740.0         0.33         47.8 
       741.0         0.37         47.8 
       742.0         0.33         47.0 
       743.0         0.57         46.5 
       744.0         0.40         46.3 
       745.0         0.33         46.5 
       746.0         3.35        278.5 
       747.0         0.40        144.0 
       748.0         0.55         88.4 
       749.0         0.43         87.8 
       750.0         0.40         74.6 
       751.0         0.20         61.1 
       752.0         0.33         55.2 
       753.0         0.40         52.1 
       754.0         0.37         52.6 
       755.0         0.77         64.9 
       756.0         0.52         71.5 
       757.0         0.37         64.6 
       758.0         0.50         52.9 
       759.0         0.40         47.5 
       760.0         0.33         46.6 
       761.0         0.37         46.0 
       762.0         0.33         45.5 
       763.0         0.33         45.2 
       764.0         0.38         45.1 
       765.0         0.33         44.5 
       766.0         0.33         44.5 
       767.0         0.20         44.5 
       768.0         0.27         45.3 
       769.0         0.33         46.2 
       770.0         0.40         46.4 
       771.0         0.37         47.0 
       772.0         0.27         46.4 
       773.0         0.30         45.5 
       774.0         0.40         44.3 
       775.0         0.35         44.8 
       776.0         3.92        190.9 
       777.0         0.63         70.0 
       778.0         0.47         75.9 
       779.0         0.47         75.1 
       780.0         0.43         67.6 
       781.0         0.45         56.2 
       782.0         0.30         50.3 
       783.0         0.33         47.3 
       784.0         0.30         44.4 
       785.0         0.30         43.9 
       786.0         0.37         44.5 
       787.0         0.37         45.8 
       788.0         0.40         46.5 
       789.0         0.40         46.9 
       790.0         0.40         47.0 
       791.0         0.38         46.1 
       792.0         0.37         46.1 
       793.0         0.27         45.5 
       794.0         0.23         45.1 
       795.0         0.30         43.9 
       796.0         0.37         45.7 
       797.0         0.30         45.9 
       798.0         0.30         45.8 
       799.0         0.37         46.2 
       800.0         0.33         46.3 
       801.0         0.35         46.3 
       802.0         0.30         45.7 
       803.0         0.50         47.5 
       804.0         0.50         48.8 
       805.0         0.53         48.7 
