~Version Information
 VERS.                                  2.0 : CWLS LAS VERSION
 WRAP.                                   NO : WRAPING MODE
 SWARE .                 MController 2.5.0J : SOFTWARE VERSION
~Well Information
 WELL.                           Furu 6-23R : WELL
 COMP.                Petrogulf Corporation : COMPANY
 FLD.                       Purgatory River : FIELD
 LOC.                  NE/SW Sec6 T33S R67W : LOCATION
 DATE.                    6/19/06 - 6/21/06 : DATE(S) LOGGED
 SRVC.      Blanco Geological Services, LLC : SERVICE COMPANY
 STAT.                             Colorado : STATE
 CNTY.                           Las Animas : COUNTY
 CTRY.                                  USA : COUNTRY
 API.                       05-071-08266-00 : API NUMBER
 STRT.FT                             566.00 : START DEPTH
 STOP.FT                            2205.00 : STOP DEPTH
 STEP.FT                               1.00 : DEPTH INCREMENT
 NULL.                                -9999 : NULL VALUE
~Curve information
 DEPTH.FT                                   :
 ROP.MIN/FT                                 :
 GAS.UNITS                                  :
~ASCII Log data
# ...
      1766.0         0.60         14.5 
      1767.0         0.70         15.6 
      1768.0         0.92         16.1 
      1769.0         0.70         15.9 
      1770.0         0.73         15.7 
      1771.0         0.33         15.4 
      1772.0         0.83         16.6 
      1773.0         0.45         17.5 
      1774.0         0.50         18.3 
      1775.0         0.60         18.5 
      1776.0         0.80         17.6 
      1777.0         0.90         19.0 
      1778.0         1.02         18.5 
      1779.0         0.93         16.4 
      1780.0         1.00         17.0 
      1781.0         0.78         16.5 
      1782.0         1.10         16.6 
      1783.0         1.00         16.6 
      1784.0         1.82         15.9 
      1785.0         0.93         18.7 
      1786.0         6.60        388.8 
      1787.0         0.83        461.8 
      1788.0         0.50        171.3 
      1789.0         0.68         46.4 
      1790.0         0.57         13.9 
      1791.0         0.70         16.5 
      1792.0         0.63         18.2 
      1793.0         0.53         18.3 
      1794.0         0.68         18.4 
      1795.0         0.57         17.3 
      1796.0         0.73         17.3 
      1797.0         0.83         20.9 
      1798.0         0.80         22.4 
      1799.0         0.82         22.6 
      1800.0         0.73         25.3 
      1801.0         0.70         25.5 
      1802.0         0.70         21.8 
      1803.0         0.68         17.8 
      1804.0         0.67         15.2 
      1805.0         0.80         16.3 
      1806.0         0.93         17.2 
      1807.0         0.40         16.8 
      1808.0         0.37         17.1 
      1809.0         1.12         19.4 
      1810.0         0.73         21.4 
      1811.0         1.47         21.2 
      1812.0         1.12         17.0 
      1813.0         0.80         17.7 
      1814.0         0.77         19.1 
      1815.0         0.57         20.4 
      1816.0         7.88        328.7 
      1817.0         0.67         64.8 
      1818.0         0.87         14.6 
      1819.0         0.92         17.8 
      1820.0         0.90         19.1 
      1821.0         0.70         18.9 
      1822.0         3.12         23.4 
      1823.0         1.73         27.9 
      1824.0         1.25         29.4 
      1825.0         0.63         15.6 
      1826.0         0.73         21.9 
      1827.0         0.77         25.7 
      1828.0         0.95         25.4 
      1829.0         0.60         23.8 
      1830.0         0.80         23.7 
      1831.0         1.10         19.2 
      1832.0         1.35         29.9 
      1833.0         0.97         30.4 
      1834.0         1.15         19.0 
      1835.0         0.83         19.8 
      1836.0         0.70         23.8 
      1837.0         0.63         39.5 
      1838.0         1.58         44.6 
      1839.0         2.47         31.6 
      1840.0         1.25         30.2 
      1841.0         1.83         32.4 
      1842.0         1.32         32.2 
      1843.0         1.53         34.2 
      1844.0         1.42         29.3 
      1845.0         1.57         31.1 
      1846.0         7.97        936.1 
      1847.0         0.72         22.0 
      1848.0         0.87         26.2 
      1849.0         2.03         30.0 
      1850.0         1.35         30.1 
      1851.0         0.87         28.7 
      1852.0         1.07         28.9 
      1853.0         0.88         26.2 
      1854.0         2.40         26.6 
      1855.0         0.65         27.4 
      1856.0         0.17         27.3 
      1857.0         0.40         28.4 
      1858.0         0.97         27.6 
      1859.0         1.92         26.4 
      1860.0         2.37         26.0 
      1861.0         2.82         27.3 
      1862.0         2.22         27.4 
      1863.0         1.33         26.8 
      1864.0         1.38         26.8 
      1865.0         1.00         26.9 
      1866.0         0.53         27.0 
      1867.0         1.75         28.6 
      1868.0         1.20         28.4 
      1869.0         1.07         26.0 
      1870.0         1.05         29.5 
      1871.0         0.73         27.2 
      1872.0         0.70         24.9 
      1873.0         1.13         29.3 
      1874.0         0.92         30.1 
      1875.0         0.77         27.7 
      1876.0         0.57         28.1 
      1877.0        12.43        364.1 
      1878.0         0.87         14.6 
      1879.0         0.53         14.3 
      1880.0         0.50         18.3 
      1881.0         0.78         19.5 
      1882.0         1.03         17.4 
      1883.0         1.07         21.3 
      1884.0         0.77         22.4 
      1885.0         0.62         22.0 
      1886.0         0.90         19.2 
      1887.0         1.00         20.6 
      1888.0         0.53         27.0 
      1889.0         0.58         30.0 
      1890.0         0.60         26.5 
      1891.0         0.80         11.3 
      1892.0         0.83         19.5 
      1893.0         0.77         23.5 
      1894.0         0.68         23.3 
      1895.0         0.67         21.0 
      1896.0         0.70         17.3 
      1897.0         1.00         15.6 
      1898.0         0.85         16.3 
      1899.0         0.87         18.5 
      1900.0         0.77         18.3 
      1901.0         1.23         16.0 
      1902.0         1.25         16.3 
      1903.0         1.43         17.0 
      1904.0         0.78         16.3 
      1905.0         0.83         38.8 
      1906.0         4.55        293.6 
      1907.0         0.03        163.2 
      1908.0         0.23        136.9 
      1909.0         0.63         83.5 
      1910.0         0.72         25.3 
      1911.0         0.60         18.7 
      1912.0         0.67         20.2 
      1913.0         0.70         21.2 
      1914.0         0.60         21.1 
      1915.0         0.58         19.8 
      1916.0         0.50         18.2 
      1917.0         0.50         16.3 
      1918.0         0.93         15.4 
      1919.0         1.75         17.8 
      1920.0         0.90         19.2 
      1921.0         0.60         19.8 
      1922.0         0.60         20.0 
      1923.0         0.53         18.7 
      1924.0         0.45         16.9 
      1925.0         0.47         16.5 
      1926.0         0.50         17.8 
      1927.0         0.57         19.1 
      1928.0         0.53         19.9 
      1929.0         0.50         19.8 
      1930.0         0.47         19.6 
      1931.0         0.45         18.6 
      1932.0         0.57         17.9 
      1933.0         0.67         17.7 
      1934.0         0.57         18.1 
      1935.0         0.57         17.7 
      1936.0         8.35        235.1 
      1937.0         1.00         15.7 
      1938.0         0.47         17.1 
      1939.0         0.57         18.8 
      1940.0         0.65         24.0 
      1941.0         0.57         26.5 
      1942.0         0.57         27.8 
      1943.0         0.60         28.2 
      1944.0         0.57         27.9 
      1945.0         0.53         27.8 
      1946.0         0.62         27.8 
      1947.0         0.63         28.0 
      1948.0         0.73         28.1 
      1949.0         0.60         27.9 
      1950.0         0.60         29.0 
      1951.0         1.28         29.7 
      1952.0         1.20         27.5 
      1953.0         0.90         25.9 
      1954.0         1.18         27.5 
      1955.0         1.07         27.9 
      1956.0         0.83         27.6 
      1957.0         0.68         27.6 
      1958.0         0.67         27.3 
      1959.0         0.83         27.7 
      1960.0         1.00         27.5 
      1961.0         0.68         26.4 
      1962.0         0.97         26.1 
      1963.0         2.65         27.2 
      1964.0         1.00         26.5 
      1965.0         1.17         27.2 
