~Version Information
 VERS.                                  2.0 : CWLS LAS VERSION
 WRAP.                                   NO : WRAPING MODE
 SWARE .                 MController 2.5.0J : SOFTWARE VERSION
~Well Information
 WELL.                           State 16-14: WELL
 COMP.                       Petrogulf Corp : COMPANY
 FLD.                       Purgatoire River: FIELD
 LOC.                  SW/SW Sec16 T33S R67W: LOCATION
 DATE.                             11/04/04 : DATE(S) LOGGED
 SRVC.        BLanco Geological Services LLC: SERVICE COMPANY
 STAT.                                    CO: STATE
 CNTY.                           Las Animas : COUNTY
 CTRY.                                   USA: COUNTRY
 API.                           05-071-08034: API NUMBER
 STRT.FT                             659.00 : START DEPTH
 STOP.FT                            1890.00 : STOP DEPTH
 STEP.FT                               1.00 : DEPTH INCREMENT
 NULL.                                -9999 : NULL VALUE
~Curve information
 DEPTH.FT                                   :
 ROP.MIN/FT                                 :
 GAS.UNITS                                  :
~ASCII Log data
       659.0     -9999.00          2.9 
       660.0         2.82          5.8 
       661.0         0.30          5.6 
       662.0         1.07          5.5 
       663.0         0.10          5.0 
       664.0         0.28          5.3 
       665.0         0.40          4.9 
       666.0         0.27          5.9 
       667.0         0.53          5.4 
       668.0         0.28          5.6 
       669.0         0.40          4.7 
       670.0         0.80          6.1 
       671.0         0.62          5.9 
       672.0         0.80          5.6 
       673.0         1.15          5.5 
       674.0         1.12          5.8 
       675.0         0.27          4.6 
       676.0         0.07          5.1 
       677.0         0.07          5.0 
       678.0         0.10          4.1 
       679.0         0.07          4.9 
       680.0         0.13          4.8 
       681.0         0.13          4.4 
       682.0         0.10          4.3 
       683.0         0.07          4.3 
       684.0         0.10          5.2 
       685.0         0.07          4.6 
       686.0         0.07          4.6 
       687.0         0.22          4.7 
       688.0         0.07          4.7 
       689.0         0.10          4.6 
       690.0         0.03          4.6 
       691.0         0.10          4.6 
       692.0         0.07          4.6 
       693.0         0.10          5.0 
       694.0         0.27          3.8 
       695.0         0.07          3.8 
       696.0         0.10          3.8 
       697.0         0.07          3.6 
       698.0         0.07          3.6 
       699.0         0.10          3.6 
       700.0         0.07          2.2 
       701.0         0.07          2.2 
       702.0         0.07          2.2 
       703.0         0.12          2.2 
       704.0         0.07          2.2 
       705.0         0.07          2.2 
       706.0         0.10          2.2 
       707.0         0.07          3.7 
       708.0         0.53          4.6 
       709.0         1.62          5.1 
       710.0         0.10          4.7 
       711.0         0.17          4.1 
       712.0         0.13          3.9 
       713.0         0.10          3.9 
       714.0         0.17          4.8 
       715.0         0.17          4.8 
       716.0         0.07          4.8 
       717.0         0.10          4.2 
       718.0         0.10          4.3 
       719.0         0.12          5.0 
       720.0         0.17          5.3 
       721.0         0.30          4.9 
       722.0         0.17          4.1 
       723.0         0.17          4.1 
       724.0         0.23          3.5 
       725.0         0.20          2.2 
       726.0         0.10          2.2 
       727.0         0.37          2.3 
       728.0         0.13          5.1 
       729.0         0.10          9.1 
       730.0         0.15         19.7 
       731.0         0.13         34.4 
       732.0         0.30         55.2 
       733.0         0.20         55.6 
       734.0         0.10         48.0 
       735.0         0.10         46.8 
       736.0         0.20         37.1 
       737.0         0.30         35.3 
       738.0         0.20         18.3 
       739.0         0.20          0.3 
       740.0         0.18          0.2 
       741.0         0.13          0.2 
       742.0         0.17          0.5 
       743.0         0.10          0.1 
       744.0         0.23          0.4 
       745.0         0.20          0.8 
       746.0         0.22          0.3 
       747.0         0.20          0.3 
       748.0         0.13          0.3 
       749.0         0.23          0.6 
       750.0         0.23          0.9 
       751.0         0.33          0.9 
       752.0         0.37          2.5 
       753.0         0.22          2.7 
       754.0         0.17          3.0 
       755.0         0.20          2.2 
       756.0         0.17          2.0 
       757.0         0.13          3.4 
       758.0         0.17          3.3 
       759.0         0.13          2.8 
       760.0         0.17          2.4 
       761.0         0.13          2.8 
       762.0         0.13          2.8 
       763.0         0.10          3.2 
       764.0         0.15          2.6 
       765.0         0.13          2.7 
       766.0         0.17          2.7 
       767.0         0.20          2.9 
       768.0         0.20          2.6 
       769.0         0.17          4.0 
       770.0         0.17          2.8 
       771.0         0.20          3.2 
       772.0         0.27          3.4 
       773.0         0.20          3.4 
       774.0         0.17          3.3 
       775.0         0.13          3.3 
       776.0         0.20          4.0 
       777.0         0.27          4.0 
       778.0         0.20          4.4 
       779.0         0.30          4.5 
       780.0         0.40          4.4 
       781.0         0.30          4.6 
       782.0         0.30          3.7 
       783.0         0.27          3.4 
       784.0         0.27          3.6 
       785.0         0.20          3.8 
       786.0         0.23          3.9 
       787.0         0.20          3.4 
       788.0         0.22          3.7 
       789.0         0.20          3.6 
       790.0         0.27          3.6 
       791.0         0.23          4.1 
       792.0         0.20          4.2 
       793.0         0.23          4.0 
       794.0         0.20          3.8 
       795.0         0.20          4.0 
       796.0         0.17          5.1 
       797.0         0.17          4.4 
       798.0         0.17          3.8 
       799.0         0.10          2.6 
       800.0         0.13          2.3 
       801.0         0.13          2.4 
       802.0         0.13          2.9 
       803.0         0.13          2.9 
       804.0         0.17          3.7 
       805.0         0.13          3.7 
       806.0         0.20          3.8 
       807.0         0.22          4.0 
       808.0         0.13          4.0 
       809.0         0.37          5.3 
       810.0         0.20          3.7 
       811.0         0.17          4.8 
       812.0         0.17          5.9 
       813.0         0.17          4.0 
       814.0         0.15          4.0 
       815.0         0.23          4.5 
       816.0         0.13          4.2 
       817.0         0.13          3.2 
       818.0         0.13          3.0 
       819.0         0.10          3.0 
       820.0         0.13          4.3 
       821.0         0.17          4.0 
       822.0         0.17          3.8 
       823.0         0.17          3.7 
       824.0         0.20          3.6 
       825.0         0.17          4.7 
       826.0         0.30          5.2 
       827.0         0.23          4.6 
       828.0         0.23          5.0 
       829.0         0.20          4.1 
       830.0         0.17          3.9 
       831.0         0.13          3.2 
       832.0         0.17          3.2 
       833.0         0.18          4.1 
       834.0         0.23          4.2 
       835.0         0.27          4.2 
       836.0         0.27          5.0 
       837.0         0.27          4.4 
       838.0         0.17          4.5 
       839.0         0.27          5.1 
       840.0         0.30          4.4 
       841.0         0.23          4.5 
       842.0         0.23          5.5 
       843.0         0.22          4.6 
       844.0         0.20          4.7 
       845.0         0.23          4.1 
       846.0         0.20          4.1 
       847.0         0.23          4.8 
       848.0         0.23          4.9 
       849.0         0.27          4.3 
       850.0         0.20          4.5 
       851.0         0.20          4.9 
       852.0         0.27          5.0 
       853.0         0.27          4.3 
       854.0         0.27          4.0 
       855.0         0.23          4.7 
       856.0         0.27          5.3 
       857.0         0.22          5.3 
       858.0         0.30          5.1 
