~Version Information
VERS.                      2.0: CWLS Log ASCII Standard - VERSION 2.0
WRAP.                       NO: One line per depth step
~Well Information Block
STRT.FT               500.0000: 
STOP.FT              2732.5000: 
STEP.FT                 0.1000: 
NULL.                -999.2500: 
COMP.          Pioneer Natural Resources: COMPANY
WELL.          Dude Canyon 22-32: WELL
FLD.           Purgatoire River: FIELD
LOC.           1662' FNL & 2446' FWL----: LOCATION
PROV.                 Colorado: PROVINCE
CNTY.               Las Animas: COUNTRY
SRVC.                Patterson: SERVICE COMPANY
DATE.          Thu Mar 10 07:06:34 2005: LOG DATE
UWI.           05 071 08257 00: UNIQUE WELL ID
~Curve Information Block
DEPT.FT            0 000 00 00: Depth
GR.GAPI                       : Gamma Ray
DCAL.in                       : CDL Caliper
DPOR.pu                       : CDL Density Porosity
NPOR.pu                       : Neutron Porosity
RHOB.g/cc                     : CDL Bulk Density
RHOC.g/cc                     : CDL Density Correction
~Parameter Information Block
~A  Depth        GR         DCAL        DPOR        NPOR        RHOB        RHOC    
# ...
  2717.6000   -999.2500      7.7500      5.6322     11.3851      2.5571      0.0268
  2717.7000   -999.2500      7.7500      5.7480     11.2847      2.5552      0.0522
  2717.8000   -999.2500      7.7493      6.3566     11.0707      2.5451     -0.0083
  2717.9000   -999.2500      7.7493      6.1916     11.0452      2.5478      0.0084
  2718.0000   -999.2500      7.7467      5.6219     11.0879      2.5572      0.0690
  2718.1000   -999.2500      7.7467      5.1223     10.8959      2.5655      0.0035
  2718.2000   -999.2500      7.7467      4.0217     10.6555      2.5836      0.0354
  2718.3000   -999.2500      7.7468      2.6737     10.7279      2.6059      0.0907
  2718.4000   -999.2500      7.7468      1.8967     10.9979      2.6187      0.0408
  2718.5000   -999.2500      7.7470      1.8469     11.4844      2.6195      0.0742
  2718.6000   -999.2500      7.7470      2.9047     12.1830      2.6021      0.0543
  2718.7000   -999.2500      7.7470      4.9435     12.6586      2.5684      0.0131
  2718.8000   -999.2500      7.7395      7.0559     12.7975      2.5336      0.0091
  2718.9000   -999.2500      7.7395      8.5460     12.9151      2.5090     -0.0327
  2719.0000   -999.2500      7.7183      9.0386     13.0480      2.5009     -0.0171
  2719.1000   -999.2500      7.7183      8.6455     13.0158      2.5073     -0.0058
  2719.2000   -999.2500      7.7183      7.9650     12.7350      2.5186      0.0256
  2719.3000   -999.2500      7.6902      7.6403     12.3238      2.5239      0.0525
  2719.4000   -999.2500      7.6902      7.5871     12.0480      2.5248      0.0129
  2719.5000   -999.2500      7.6757      7.5886     11.9960      2.5248      0.0636
  2719.6000   -999.2500      7.6757      7.6572     12.0821      2.5237      0.0101
  2719.7000   -999.2500      7.6757      7.1174     12.3724      2.5326      0.0060
  2719.8000   -999.2500      7.6730      5.8800     12.8861      2.5530      0.0571
  2719.9000   -999.2500      7.6730      4.9387     13.5640      2.5685      0.0575
  2720.0000   -999.2500      7.6727      4.7443     14.9293      2.5717      0.0584
  2720.1000   -999.2500      7.6727      4.7928     18.4942      2.5709      0.0145
  2720.2000   -999.2500      7.6727      4.6802     26.9491      2.5728      0.0334
  2720.3000   -999.2500      7.6704      5.1321     39.2185      2.5653      0.0798
  2720.4000   -999.2500      7.6704      6.8006     47.9409      2.5378      0.0469
  2720.5000   -999.2500      7.6639      9.0495     51.0757      2.5007      0.0333
  2720.6000   -999.2500      7.6639     10.6489     51.6899      2.4743     -0.0305
  2720.7000   -999.2500      7.6639     10.6034     51.7550      2.4750     -0.0205
  2720.8000   -999.2500      7.6539      8.8317     51.7587      2.5043      0.0043
  2720.9000   -999.2500      7.6539      6.1598   -999.2500      2.5484      0.0410
  2721.0000   -999.2500      7.6468      3.7147   -999.2500      2.5887      0.0798
  2721.1000   -999.2500      7.6468      2.4005   -999.2500      2.6104      0.1365
  2721.2000   -999.2500      7.6468      2.2462   -999.2500      2.6129      0.0948
  2721.3000   -999.2500      7.6442      2.7535   -999.2500      2.6046      0.0670
  2721.4000   -999.2500      7.6442      3.3690   -999.2500      2.5944      0.0326
  2721.5000   -999.2500      7.6446      3.6482   -999.2500      2.5898      0.1103
  2721.6000   -999.2500      7.6446      3.4476   -999.2500      2.5931      0.0493
  2721.7000   -999.2500      7.6446      2.6464   -999.2500      2.6063      0.0606
  2721.8000   -999.2500      7.6444      2.1532   -999.2500      2.6145      0.0885
  2721.9000   -999.2500      7.6444      3.1253   -999.2500      2.5984      0.0533
  2722.0000   -999.2500      7.6417      5.1186   -999.2500      2.5655      0.0784
  2722.1000   -999.2500      7.6417      6.7737   -999.2500      2.5382      0.0114
  2722.2000   -999.2500      7.6417      7.0516   -999.2500      2.5336      0.0343
  2722.3000   -999.2500      7.6373      6.4797   -999.2500      2.5431      0.0583
  2722.4000   -999.2500      7.6373      6.5452   -999.2500      2.5420      0.0701
  2722.5000   -999.2500      7.6280      7.3991   -999.2500      2.5279      0.0155
  2722.6000   -999.2500      7.6280      7.8520   -999.2500      2.5204      0.0402
  2722.7000   -999.2500      7.6280      7.6536   -999.2500      2.5237      0.0277
  2722.8000   -999.2500      7.6051      7.5350   -999.2500      2.5257      0.0273
  2722.9000   -999.2500      7.6051      7.6420   -999.2500      2.5239      0.0222
  2723.0000   -999.2500      7.5577      7.9564   -999.2500      2.5187      0.0527
  2723.1000   -999.2500      7.5577      8.8448   -999.2500      2.5041      0.0447
  2723.2000   -999.2500      7.5577      9.9529   -999.2500      2.4858      0.0211
  2723.3000   -999.2500      7.4741     10.4904   -999.2500      2.4769      0.0401
  2723.4000   -999.2500      7.4741     10.8397   -999.2500      2.4711      0.0749
  2723.5000   -999.2500      7.3385     12.5258   -999.2500      2.4433      0.1318
  2723.6000   -999.2500      7.3385     16.5967   -999.2500      2.3762      0.0470
  2723.7000   -999.2500      7.3385     22.7174   -999.2500      2.2752     -0.0112
  2723.8000   -999.2500      7.0821     30.1884   -999.2500      2.1519      0.0004
  2723.9000   -999.2500      7.0821     38.3561   -999.2500      2.0171     -0.0375
  2724.0000   -999.2500      6.6578     46.1251   -999.2500      1.8889     -0.0757
  2724.1000   -999.2500      6.6578     52.5390   -999.2500      1.7831     -0.0587
  2724.2000   -999.2500      6.6578     57.0857   -999.2500      1.7081     -0.1048
  2724.3000   -999.2500      6.1289     59.8660   -999.2500      1.6622      0.0072
  2724.4000   -999.2500      6.1289     61.8632   -999.2500      1.6293      0.0497
  2724.5000   -999.2500      5.5609     63.7639   -999.2500      1.5979      0.0814
  2724.6000   -999.2500      5.5609     65.6709   -999.2500      1.5664      0.1224
  2724.7000   -999.2500      5.5609     67.4807   -999.2500      1.5366      0.1007
  2724.8000   -999.2500      5.0109     68.7696   -999.2500      1.5153      0.0990
  2724.9000   -999.2500      5.0109     69.4260   -999.2500      1.5045      0.1261
  2725.0000   -999.2500      4.5674     69.8856   -999.2500      1.4969      0.1244
  2725.1000   -999.2500      4.5674     70.3443   -999.2500      1.4893      0.1011
  2725.2000   -999.2500      4.5674     70.6806   -999.2500      1.4838      0.1008
  2725.3000   -999.2500      4.2653     70.8813   -999.2500      1.4805      0.0943
  2725.4000   -999.2500      4.2653     71.1021   -999.2500      1.4768      0.1054
  2725.5000   -999.2500      4.1035     71.5282   -999.2500      1.4698      0.0864
  2725.6000   -999.2500      4.1035     72.0955   -999.2500      1.4604      0.0846
  2725.7000   -999.2500      4.1035     72.6627   -999.2500      1.4511      0.0850
  2725.8000   -999.2500      4.0309     73.2537   -999.2500      1.4413      0.0863
  2725.9000   -999.2500      4.0309     73.7880   -999.2500      1.4325      0.0567
  2726.0000   -999.2500      3.9929     74.0624   -999.2500      1.4280      0.0734
  2726.1000   -999.2500      3.9929     74.1289   -999.2500      1.4269      0.0770
  2726.2000   -999.2500      3.9929     74.1991   -999.2500      1.4257      0.0750
  2726.3000   -999.2500      3.9645     74.3014   -999.2500      1.4240      0.0648
  2726.4000   -999.2500      3.9645     74.4027   -999.2500      1.4224      0.0788
  2726.5000   -999.2500      3.9367     74.5612   -999.2500      1.4197      0.0666
  2726.6000   -999.2500      3.9367     74.8006   -999.2500      1.4158      0.0651
  2726.7000   -999.2500      3.9367     75.2117   -999.2500      1.4090      0.0719
  2726.8000   -999.2500      3.9032     75.7935   -999.2500      1.3994      0.0309
  2726.9000   -999.2500      3.9032     76.1378   -999.2500      1.3937      0.0253
  2727.0000   -999.2500      3.8629     75.8898   -999.2500      1.3978      0.0219
  2727.1000   -999.2500      3.8629     75.2343   -999.2500      1.4086      0.0417
