~Version Information
VERS.                      2.0: CWLS Log ASCII Standard - VERSION 2.0
WRAP.                       NO: One line per depth step
~Well Information Block
STRT.FT               350.0000: 
STOP.FT              2531.5000: 
STEP.FT                 0.1000: 
NULL.                -999.2500: 
COMP.          Pioneer Natural Resources: COMPANY
WELL.          Cock-a-doodle-doo: WELL
FLD.           Purgatoire River: FIELD
LOC.           163' FSL & 54' FEL: LOCATION
PROV.                 Colorado: PROVINCE
CNTY.               Las Animas: COUNTRY
SRVC.                Patterson: SERVICE COMPANY
DATE.          Fri Jul 01 09:34:59 2005: LOG DATE
UWI.           05 071 08429 00: UNIQUE WELL ID
~Curve Information Block
DEPT.FT            0 000 00 00: Depth
DCAL.in                       : CDL Caliper
RHOB.g/cc                     : CDL Bulk Density
RHOC.g/cc                     : CDL Density Correction
DPOR.pu                       : CDL Density Porosity
GR.GAPI                       : Gamma Ray
NPOR.pu                       : Neutron Porosity
~Parameter Information Block
~A  Depth       DCAL        RHOB        RHOC        DPOR         GR         NPOR    
# ...
  2375.6000      7.9687      2.5688      0.0807      4.9223     91.2519     20.3159
  2375.7000      7.9687      2.5772      0.0511      4.4101     88.4080     19.3699
  2375.8000      7.9596      2.5882      0.0578      3.7468     84.2635     18.9599
  2375.9000      7.9596      2.6013      0.0897      2.9531     79.0057     19.3881
  2376.0000      7.9276      2.6144      0.1007      2.1597     76.9993     19.6894
  2376.1000      7.9276      2.6270      0.0617      1.3930     77.2583     19.0981
  2376.2000      7.9276      2.6266      0.1115      1.4176     76.9075     18.3180
  2376.3000      7.9320      2.6015      0.0600      2.9381     76.6422     18.0807
  2376.4000      7.9320      2.5734     -0.0090      4.6437     78.6525     18.1862
  2376.5000      7.9464      2.5666      0.0502      5.0543     82.8582     18.2911
  2376.6000      7.9464      2.5752      0.0772      4.5352     85.1869     18.8121
  2376.7000      7.9464      2.5887      0.1060      3.7131     83.4412     19.9982
  2376.8000      7.9458      2.6055      0.0666      2.6953     80.2396     20.8644
  2376.9000      7.9458      2.6186      0.1281      1.9024     79.3840     20.5565
  2377.0000      7.9383      2.6188      0.1279      1.8919     81.1485     19.5961
  2377.1000      7.9383      2.6063      0.1697      2.6467     83.0323     19.1002
  2377.2000      7.9383      2.5928      0.0731      3.4690     82.5363     19.2966
  2377.3000      7.9387      2.5915      0.0960      3.5447     79.5192     19.4232
  2377.4000      7.9387      2.5981      0.0614      3.1464     77.1066     19.2457
  2377.5000      7.9143      2.5960      0.1215      3.2713     74.8471     19.3997
  2377.6000      7.9143      2.5862      0.0422      3.8683     69.4178     19.9339
  2377.7000      7.9143      2.5937      0.0197      3.4128     63.8212     19.9913
  2377.8000      7.9273      2.6240      0.0610      1.5753     62.9402     19.0951
  2377.9000      7.9273      2.6483      0.0982      0.1039     63.6100     17.6133
  2378.0000      7.9388      2.6517      0.0603     -0.1035     60.9125     16.3584
  2378.1000      7.9388      2.6471      0.0952      0.1733     57.4805     15.8542
  2378.2000      7.9388      2.6401      0.1228      0.5973     56.2626     15.7919
  2378.3000      7.9435      2.6305      0.0999      1.1848     57.0085     15.4691
  2378.4000      7.9435      2.6279      0.0272      1.3387     58.1663     14.6538
  2378.5000      7.9409      2.6339      0.0828      0.9771     57.3549     13.9714
  2378.6000      7.9409      2.6287      0.0870      1.2898     54.8186     13.9445
  2378.7000      7.9409      2.6066      0.0915      2.6277     52.3039     13.9367
  2378.8000      7.9311      2.5933      0.0344      3.4351     50.1154     13.6107
  2378.9000      7.9311      2.6075      0.0590      2.5753     50.8002     13.4419
  2379.0000      7.9253      2.6348      0.0469      0.9193     56.1999     13.5165
  2379.1000      7.9253      2.6592      0.0788     -0.5550     60.9947     13.7050
  2379.2000      7.9253      2.6793      0.0968     -1.7781     59.7732     14.1352
  2379.3000      7.9310      2.6939      0.0857     -2.6633     55.3000     14.8767
  2379.4000      7.9310      2.6959      0.1030     -2.7836     54.0322     15.4537
  2379.5000      7.9424      2.6859      0.0909     -2.1782     58.1385     15.3051
  2379.6000      7.9424      2.6742      0.0772     -1.4669     62.0396     15.0263
  2379.7000      7.9424      2.6644      0.1169     -0.8731     58.7861     15.2731
  2379.8000      7.9328      2.6586      0.0617     -0.5219     51.1178     15.2645
  2379.9000      7.9328      2.6537      0.1124     -0.2261     46.7486     14.7947
  2380.0000      7.9267      2.6324      0.0696      1.0689     46.9524     14.6606
  2380.1000      7.9267      2.6019     -0.0035      2.9162     47.2861     14.5518
  2380.2000      7.9267      2.5900      0.0506      3.6389     45.9991     14.0831
  2380.3000      7.9408      2.5958      0.0692      3.2839     45.7635     13.9742
  2380.4000      7.9408      2.6060      0.0428      2.6659     48.0487     14.3798
  2380.5000      7.9543      2.6161      0.0651      2.0516     50.8358     14.9354
  2380.6000      7.9543      2.6182      0.0482      1.9274     54.2490     15.6314
  2380.7000      7.9543      2.6073      0.1128      2.5853     58.8871     16.2901
  2380.8000      7.9443      2.5839      0.0761      4.0064     62.2332     17.0633
  2380.9000      7.9443      2.5499      0.0623      6.0662     64.8565     18.3075
  2381.0000      7.9552      2.5202      0.0233      7.8666     68.7257     19.8257
  2381.1000      7.9552      2.5213      0.0303      7.8003     72.6171     20.8878
  2381.2000      7.9552      2.5510      0.1107      6.0021     74.0381     21.3409
  2381.3000      7.9536      2.5680      0.0898      4.9690     72.9201     21.8179
  2381.4000      7.9536      2.5444      0.0796      6.4016     73.1883     22.6886
  2381.5000      7.9484      2.4862      0.0184      9.9246     76.1955     24.0578
  2381.6000      7.9484      2.4143      0.0022     14.2871     79.9039     25.6038
  2381.7000      7.9484      2.3306      0.0441     19.3578     83.9544     26.6584
  2381.8000      7.9448      2.2286     -0.0288     25.5413     87.0680     26.7493
  2381.9000      7.9448      2.1293     -0.0297     31.5589     88.4065     26.5123
  2382.0000      7.9534      2.0505     -0.0831     36.3337     89.7006     27.1334
  2382.1000      7.9534      1.9670     -0.0459     41.3939     91.3850     28.3120
  2382.2000      7.9534      1.8461     -0.0932     48.7207     92.3187     28.4898
  2382.3000      7.9331      1.7038     -0.0858     57.3478     90.9371     27.4354
  2382.4000      7.9331      1.5890     -0.0761     64.3057     86.1868     27.3520
  2382.5000      7.9251      1.5307     -0.0382     67.8347     79.5341     29.5213
  2382.6000      7.9251      1.5280     -0.0259     67.9984     74.0786     31.9494
  2382.7000      7.9251      1.5809     -0.0256     64.7938     68.5180     32.6692
  2382.8000      7.9195      1.6939      0.0674     57.9461     62.1957     32.3787
  2382.9000      7.9195      1.8463      0.1396     48.7066     59.2077     32.5024
  2383.0000      8.0267      1.9998      0.1430     39.4048     60.8965     33.2693
  2383.1000      8.0267      2.1274      0.1664     31.6732     65.8843     33.6475
  2383.2000      8.0267      2.2194      0.2392     26.0944     72.8052     32.8598
  2383.3000      8.2324      2.2778      0.2288     22.5577     78.4377     31.5997
  2383.4000      8.2324      2.3183      0.1652     20.1017     81.3184     30.9110
  2383.5000      8.3925      2.3618      0.0447     17.4659     84.9155     30.6195
  2383.6000      8.3925      2.4154      0.0633     14.2201     93.1215     30.2512
  2383.7000      8.3925      2.4675      0.1492     11.0607    103.5497     29.8728
  2383.8000      8.3007      2.5011      0.1233      9.0256    111.1827     29.3241
  2383.9000      8.3007      2.5095      0.1098      8.5122    113.2943     28.5945
  2384.0000      8.1029      2.4996      0.1063      9.1176    110.6051     27.7711
  2384.1000      8.1029      2.4996      0.0299      9.1164    107.8226     26.3605
  2384.2000      8.1029      2.5365      0.1249      6.8814    108.6934     24.8190
  2384.3000      8.0974      2.5970      0.1447      3.2136    111.1228     24.3117
  2384.4000      8.0974      2.6463      0.1568      0.2234    112.2683     24.5259
  2384.5000      8.0479      2.6577      0.1232     -0.4641    110.8000     24.8195
  2384.6000      8.0479      2.6339      0.1124      0.9769    108.0371     25.2817
  2384.7000      8.0479      2.6093      0.0357      2.4667    110.5467     25.7286
  2384.8000      7.9530      2.6109      0.0181      2.3673    119.4511     25.7677
  2384.9000      7.9530      2.6282      0.0797      1.3229    125.6397     25.2760
  2385.0000      7.8929      2.6375      0.0535      0.7551    126.0487     24.3725
  2385.1000      7.8929      2.6396      0.0679      0.6303    125.4447     23.5078
