~Version Information
VERS.                      2.0: CWLS Log ASCII Standard - VERSION 2.0
WRAP.                       NO: One line per depth step
~Well Information Block
STRT.FT               700.0000: 
STOP.FT              1869.5000: 
STEP.FT                 0.2500: 
NULL.                -999.2500: 
COMP.          Petrogulf Corporation: COMPANY
WELL.             State 16-24R: WELL
FLD.           Purgatorie River: FIELD
LOC.           541' FSL & 2371' FWL: LOCATION
PROV.                 Colorado: PROVINCE
CNTY.               Las Animas: COUNTRY
SRVC.                Patterson: SERVICE COMPANY
DATE.          Fri Aug 12 09:07:22 2005: LOG DATE
UWI.                071-08312 : UNIQUE WELL ID
~Curve Information Block
DEPT.FT            0 000 00 00: Depth
SP.mV                         : DIL Spontaneous Potential
RILD.Ohm-m                    : DIL Deep Resistivity
RILM.Ohm-m                    : DIL Medium Resistivity
RLL3.Ohm-m                    : DIL Shallow Resistivity
GR.GAPI                       : Gamma Ray
~Parameter Information Block
~A  Depth        SP         RILD        RILM        RLL3         GR     
# ...
   924.0000    119.1928     13.8175     17.4897     16.2872     93.3904
   924.2500    117.7762     13.2437     17.2151     17.2250     93.3432
   924.5000    117.0617     12.4753     16.2026     17.3161     95.8029
   924.7500    115.7465     11.9901     15.3286     16.2952     95.0455
   925.0000    114.1641     11.7567     14.4724     15.5510    102.0402
   925.2500    112.8655     11.4688     13.9571     15.0569    102.8958
   925.5000    113.4960     11.2521     13.4581     14.5737     99.9907
   925.7500    117.4648     10.9143     13.1769     14.2146    101.1141
   926.0000    118.2747     10.4359     13.3726     14.2798    106.3067
   926.2500    119.1740     10.5312     12.9057     14.5218    107.2683
   926.5000    121.1633     10.3366     12.7401     14.6741    102.8078
   926.7500    123.2252     10.1017     12.3740     14.6335    106.8342
   927.0000    121.0010     10.2011     12.3468     14.5111    111.7379
   927.2500    117.7866      9.8539     12.4887     14.3369    111.6962
   927.5000    117.0500      9.7350     12.1664     14.1154    108.8349
   927.7500    116.4982      9.7647     11.7276     13.8735    107.1529
   928.0000    116.2393      9.6609     11.8479     13.8075    102.9760
   928.2500    116.0028      9.7084     11.8095     13.9444    100.9975
   928.5000    115.4477      9.6256     11.8624     14.1567    101.2011
   928.7500    114.8939      9.5300     11.6070     13.9286     98.5710
   929.0000    112.5195      9.7637     11.7637     13.6248     93.0542
   929.2500    110.5519      9.8949     11.7882     13.6215     96.3601
   929.5000    108.1478      9.7294     11.9669     13.8839     92.1641
   929.7500    107.9652      9.9309     12.3337     14.3235    100.6298
   930.0000    111.8053     10.2084     12.4260     14.6923    105.4119
   930.2500    112.1651      9.8248     12.6389     14.9844     95.5982
   930.5000    113.3249     10.0056     12.6855     15.0561     97.8824
   930.7500    115.6877     10.3289     12.5694     14.8853     98.2541
   931.0000    113.1363     10.3301     12.6952     14.6193     96.5410
   931.2500    111.0244     10.4597     12.7068     14.6195     94.5302
   931.5000    110.1193     10.2679     12.7594     14.7611     99.6043
   931.7500    109.3120     10.5429     12.7533     14.6627     98.2856
   932.0000    108.7693     10.6293     12.7578     14.3677     92.9057
   932.2500    107.9406     10.9247     13.0389     13.4601     92.8699
   932.5000    108.1022     10.7654     13.5110     13.7320     91.8407
   932.7500    106.6967     10.9797     13.5848     14.3411     92.5124
   933.0000    105.6502     11.1940     13.8003     15.2032     89.5617
   933.2500    104.6890     11.0999     14.3389     15.6729     89.2558
   933.5000    103.2052     11.5197     14.0406     15.9135     82.5877
   933.7500    101.6425     11.7131     13.9960     16.1362     90.9259
   934.0000    100.2323     11.7491     14.6862     15.8140     85.5834
   934.2500     98.3428     11.8928     14.4769     15.3018     84.5056
   934.5000     96.6215     11.9184     14.5185     15.3095     90.6529
   934.7500     95.2748     12.1968     14.6180     15.8086     90.3104
   935.0000     94.2829     12.3885     14.8622     16.4636     86.4625
   935.2500     92.4771     12.7929     15.4565     16.4827     93.3679
   935.5000     91.1350     12.3963     15.6962     16.6391     96.2954
   935.7500     90.9043     12.4901     16.0678     16.9025     98.3503
   936.0000     89.6222     12.8228     16.0199     16.9660     91.1804
   936.2500     89.2590     13.3034     16.3833     16.9125     94.7991
   936.5000     89.1389     13.7326     16.3511     16.7692     84.6317
   936.7500     87.7786     13.5389     16.3714     16.4634     86.0294
   937.0000     86.5821     13.9107     16.8395     16.3095     90.3171
   937.2500     85.4545     13.8943     16.4674     16.6307     95.3290
   937.5000     84.6418     13.4556     16.7883     17.3755     97.6756
   937.7500     83.8761     14.3675     17.2435     17.4313     96.5186
   938.0000     82.6141     14.7756     17.8076     17.1004     88.6018
   938.2500     81.6351     15.2975     18.2889     17.5378     83.1656
   938.5000     81.9563     15.0484     18.4355     18.9459     83.6812
   938.7500     81.1133     15.3693     18.8914     20.5299     91.2093
   939.0000     81.2624     16.5398     19.2081     20.4373     88.2963
   939.2500     80.5650     16.5471     19.8627     19.7260     83.1713
   939.5000     79.5012     17.3941     20.4784     19.9124     84.6068
   939.7500     78.7329     17.3200     20.5284     20.4850     80.2977
   940.0000     77.9844     17.7891     20.8161     21.1218     86.3123
   940.2500     77.2676     18.6984     21.6782     21.6362     88.7225
   940.5000     77.2361     19.0257     22.5114     22.1992     74.6607
   940.7500     77.9032     19.9451     23.7403     23.1068     76.0957
   941.0000     78.2242     20.6201     24.9185     24.1120     79.1405
   941.2500     76.8507     21.2851     26.8614     25.1635     86.0316
   941.5000     76.2067     22.0860     26.4222     26.2941     79.7827
   941.7500     76.2284     22.1032     26.5304     27.7360     74.1538
   942.0000     74.6882     23.0232     26.7554     29.3583     79.5794
   942.2500     74.2282     24.1344     28.0789     29.2349     81.4544
   942.5000     74.8286     23.7861     28.3090     28.0433     75.9756
   942.7500     75.2095     24.8135     28.5378     27.4616     72.1111
   943.0000     72.0080     26.0108     29.3160     27.9412     70.3873
   943.2500     70.0246     25.9308     29.3474     28.6791     65.2169
   943.5000     68.1979     25.2807     30.5497     29.6428     75.6158
   943.7500     68.6418     27.1076     31.0611     30.5742     73.4757
   944.0000     68.0431     28.4916     31.2254     31.3506     73.3159
   944.2500     66.4530     28.4368     31.1854     31.6777     70.4351
   944.5000     65.9585     28.2757     31.6795     32.0935     74.0317
   944.7500     66.0486     28.9583     32.0807     32.7216     74.2048
   945.0000     65.3187     28.0720     32.2040     32.2931     74.0707
   945.2500     65.2804     28.8863     31.8558     31.8483     72.5037
   945.5000     64.8273     30.1537     33.4767     32.0950     63.4876
   945.7500     63.8826     30.3521     33.0044     32.1628     66.9997
   946.0000     63.2400     30.9081     32.2126     31.7772     74.0926
   946.2500     62.5049     28.0900     32.2783     31.7056     66.9328
   946.5000     61.6495     30.8815     30.8507     31.5436     69.5576
   946.7500     61.1245     31.6698     31.0742     30.9822     75.8397
   947.0000     61.1557     32.7004     32.1091     30.5540     72.8830
   947.2500     61.9795     33.7500     32.9365     30.2990     63.7979
   947.5000     61.2302     31.3329     32.2114     31.5410     67.8488
   947.7500     60.6803     33.4063     31.7586     32.4338     61.6010
   948.0000     60.0081     31.4973     33.8397     33.8412     56.3620
   948.2500     58.8291     33.5289     34.7627     36.1080     55.4965
   948.5000     58.6281     34.4874     35.7376     40.1765     46.9743
   948.7500     58.2493     36.1651     37.0187     43.0338     44.0846
   949.0000     57.5374     38.9124     37.0233     45.4521     40.7578
   949.2500     56.7543     39.4529     39.1352     47.6395     39.9559
   949.5000     56.1913     37.6910     39.4646     48.4131     34.5438
   949.7500     56.4059     37.7384     39.9680     48.6670     39.1721
   950.0000     56.1813     40.1666     43.4698     48.1862     39.0758
   950.2500     55.3567     42.8033     41.1486     48.1670     42.9756
   950.5000     54.9627     39.1141     41.4675     48.9584     43.2698
   950.7500     55.2295     38.7191     40.7438     48.4710     40.2798
   951.0000     55.6445     36.8421     40.5732     46.7419     42.5275
   951.2500     55.6078     40.1364     43.5833     46.2125     39.0753
   951.5000     55.1021     41.1463     41.9839     47.0615     39.6484
   951.7500     54.4060     43.5530     45.0467     47.5588     39.0776
