~Version Information
 VERS.                                  2.0 : CWLS LAS VERSION
 WRAP.                                   NO : WRAPING MODE
 SWARE .                 MController 2.5.0E : SOFTWARE VERSION
~Well Information
 WELL.                        Rimrock 14-29 : WELL
 COMP.             Evergreen Operating Corp : COMPANY
 FLD.                      Purgatorie River : FIELD
 LOC.                SW SW Sec 29 T32S R65W : LOCATION
 DATE.                              9/20/04 : DATE(S) LOGGED
 SRVC.       Blanco Geological Services LLC : SERVICE COMPANY
 STAT.                                   CO : STATE
 CNTY.                           Las Animas : COUNTY
 CTRY.                                  USA : COUNTRY
 API.                       05-071-08136-00 : API NUMBER
 STRT.FT                             517.00 : START DEPTH
 STOP.FT                            1705.00 : STOP DEPTH
 STEP.FT                               1.00 : DEPTH INCREMENT
 NULL.                                -9999 : NULL VALUE
~Curve information
 DEPTH.FT                                   :
 ROP.MIN/FT                                 :
 GAS.UNITS                                  :
~ASCII Log data
# ...
      717.00        0.300          2.9 
      718.00        0.267          3.1 
      719.00        0.233          2.8 
      720.00        0.233          3.0 
      721.00        0.233          3.1 
      722.00        0.233          3.2 
      723.00        0.200          3.1 
      724.00        0.167          2.8 
      725.00        0.167          2.8 
      726.00        0.133          2.7 
      727.00        0.167          2.9 
      728.00        0.133          2.5 
      729.00        0.133          2.4 
      730.00        0.133          2.4 
      731.00        0.100          2.6 
      732.00        0.267          2.7 
      733.00        0.200          2.8 
      734.00        0.350          3.3 
      735.00        0.433          6.4 
      736.00        0.200          7.9 
      737.00        0.100          8.5 
      738.00        0.133          9.0 
      739.00        0.100          9.5 
      740.00        0.100          9.3 
      741.00        0.100          9.5 
      742.00        0.100         10.1 
      743.00        0.100         10.4 
      744.00        0.100         10.1 
      745.00        0.133          8.8 
      746.00        1.783         19.1 
      747.00        0.167         16.4 
      748.00        0.200         13.7 
      749.00        0.167         10.2 
      750.00        0.233          7.7 
      751.00        0.233          5.0 
      752.00        0.233          3.4 
      753.00        0.200          2.4 
      754.00        0.200          2.7 
      755.00        0.200          3.1 
      756.00        0.200          4.2 
      757.00        0.200          4.9 
      758.00        0.167          5.2 
      759.00        0.233          5.9 
      760.00        0.217          6.5 
      761.00        0.200          7.0 
      762.00        0.300          7.6 
      763.00        0.200          7.0 
      764.00        0.200          7.1 
      765.00        0.167          6.9 
      766.00        0.200          6.9 
      767.00        0.133          7.0 
      768.00        0.133          6.9 
      769.00        0.167          6.8 
      770.00        0.167          5.6 
      771.00        0.167          5.1 
      772.00        0.200          4.4 
      773.00        0.167          3.8 
      774.00        0.300          3.6 
      775.00        0.167          2.1 
      776.00        1.183          2.5 
      777.00        0.267          2.6 
      778.00        0.267          2.7 
      779.00        0.233          2.6 
      780.00        0.200          2.2 
      781.00        0.200          1.9 
      782.00        0.200          1.7 
      783.00        0.233          1.3 
      784.00        0.233          1.3 
      785.00        0.267          1.1 
      786.00        0.233          1.2 
      787.00        0.133          1.1 
      788.00        0.150          1.3 
      789.00        0.167          1.4 
      790.00        0.133          1.3 
      791.00        0.133          1.3 
      792.00        0.133          1.5 
      793.00        0.167          1.3 
      794.00        0.133          1.6 
      795.00        0.167          1.6 
      796.00        0.200          1.7 
      797.00        0.200          1.7 
      798.00        0.233          1.9 
      799.00        0.167          1.8 
      800.00        0.167          1.8 
      801.00        0.167          1.9 
      802.00        0.200          2.1 
      803.00        0.133          1.6 
      804.00        0.133          1.2 
      805.00        0.067          0.9 
      806.00        1.283          4.5 
      807.00        0.267          5.0 
      808.00        0.300          4.6 
      809.00        0.200          4.3 
      810.00        0.167          3.7 
      811.00        0.167          3.0 
      812.00        0.133          2.8 
      813.00        0.133          2.1 
      814.00        0.133          1.7 
      815.00        0.167          1.6 
      816.00        0.133          1.4 
      817.00        0.167          1.6 
      818.00        0.200          1.4 
      819.00        0.233          1.6 
      820.00        0.200          2.3 
      821.00        0.283          2.5 
      822.00        0.267          2.6 
      823.00        0.167          2.8 
      824.00        0.233          3.3 
      825.00        0.267          4.0 
      826.00        0.133          3.7 
      827.00        0.100          3.1 
      828.00        0.133          2.6 
      829.00        0.200          2.6 
      830.00        0.133          2.6 
      831.00        0.133          2.2 
      832.00        0.167          2.6 
      833.00        0.133          2.3 
      834.00        0.200          2.2 
      835.00        0.133          2.0 
      836.00        1.317         14.2 
      837.00        0.333         12.8 
      838.00        0.367          9.0 
      839.00        0.467          6.4 
      840.00        0.167          5.9 
      841.00        0.100          5.5 
      842.00        0.167          4.9 
      843.00        0.133          3.9 
      844.00        0.100          3.0 
      845.00        0.133          2.7 
      846.00        0.100          2.6 
      847.00        0.100          2.3 
      848.00        0.133          2.2 
      849.00        0.100          1.5 
      850.00        0.100          1.6 
      851.00        0.133          1.8 
      852.00        0.117          1.4 
      853.00        0.100          1.5 
      854.00        0.133          1.6 
      855.00        0.133          1.6 
      856.00        0.133          2.0 
      857.00        0.200          2.8 
      858.00        0.267          3.8 
      859.00        0.167          4.8 
      860.00        0.167          6.0 
      861.00        0.233          7.0 
      862.00        0.200          7.7 
      863.00        0.133          8.5 
      864.00        0.133          8.4 
      865.00        0.100          7.9 
      866.00        1.550          6.9 
      867.00        0.200          5.9 
      868.00        0.200          7.2 
      869.00        0.333         13.5 
      870.00        0.200         17.4 
      871.00        0.200         19.7 
      872.00        0.133         19.9 
      873.00        0.167         19.6 
      874.00        0.133         19.2 
      875.00        0.133         16.5 
      876.00        0.100         15.7 
      877.00        0.133         14.1 
      878.00        0.133         11.9 
      879.00        0.100         10.4 
      880.00        0.133          9.4 
      881.00        0.267          8.6 
      882.00        0.233          6.9 
      883.00        0.133          5.6 
      884.00        0.217          5.6 
      885.00        0.200          4.8 
      886.00        0.233          5.0 
      887.00        0.233          4.3 
      888.00        0.267          3.6 
      889.00        0.233          3.1 
      890.00        0.167          3.1 
      891.00        0.133          3.0 
      892.00        0.167          3.1 
      893.00        0.200          2.9 
      894.00        0.133          2.9 
      895.00        0.133          2.1 
      896.00        1.283          4.2 
      897.00        0.300          4.4 
      898.00        0.200          4.9 
      899.00        0.300          7.0 
      900.00        0.167          8.4 
      901.00        0.233         10.8 
      902.00        0.233         12.7 
      903.00        0.200         13.7 
      904.00        0.233         14.2 
      905.00        0.233         13.8 
      906.00        0.167         12.4 
      907.00        0.200         10.8 
      908.00        0.267          9.3 
      909.00        0.200          7.7 
      910.00        0.217          6.8 
      911.00        0.200          6.0 
      912.00        0.200          5.5 
      913.00        0.233          5.0 
      914.00        0.200          5.0 
      915.00        0.167          4.4 
      916.00        0.200          3.6 
