~Version Information
VERS.                      2.0: CWLS Log ASCII Standard - VERSION 2.0
WRAP.                       NO: One line per depth step
~Well Information Block
STRT.FT               750.0000: 
STOP.FT              2433.0000: 
STEP.FT                 0.2500: 
NULL.                -999.2500: 
COMP.          Petrogulf Corporation: COMPANY
WELL.           McDaniel 9-34V: WELL
FLD.           Purgatorie River: FIELD
LOC.           620' FSL & 1800' FEL: LOCATION
PROV.                 Colorado: PROVINCE
CNTY.               Las Animas: COUNTRY
SRVC.                Patterson: SERVICE COMPANY
DATE.          Tue Sep 27 19:56:11 2005: LOG DATE
UWI.                          : UNIQUE WELL ID
~Curve Information Block
DEPT.FT            0 000 00 00: Depth
SP.mV                         : DIL Spontaneous Potential
RILD.Ohm-m                    : DIL Deep Resistivity
RILM.Ohm-m                    : DIL Medium Resistivity
RLL3.Ohm-m                    : DIL Shallow Resistivity
GR.GAPI                       : Gamma Ray
~Parameter Information Block
~A  Depth        SP         RILD        RILM        RLL3         GR     
# ...
  1198.0000    151.4211      9.4262      9.2604     33.8446    119.3551
  1198.2500    151.1874      9.6768      9.9167     54.3852    112.4801
  1198.5000    150.9910      9.9304     10.6188     79.8281     98.2915
  1198.7500    150.8298     10.2116     11.3190    103.4801     88.5444
  1199.0000    150.7038     10.5507     11.9673    116.7896     77.1182
  1199.2500    150.6157     10.9786     12.5272    114.3260     72.5455
  1199.5000    150.5718     11.5213     12.9916     97.4374     69.7932
  1199.7500    150.5815     12.1906     13.3872     73.2755     69.9122
  1200.0000    150.6559     12.9736     13.7661     50.1670     72.0934
  1200.2500    150.8049     13.8218     14.1897     33.5345     74.8551
  1200.5000    151.0353     14.6499     14.7130     25.3144     81.2120
  1200.7500    151.3481     15.3504     15.3712     26.1841     86.6230
  1201.0000    151.7372     15.8282     16.1688     37.7523     94.6823
  1201.2500    152.1909     16.0381     17.0678     62.3173     98.4565
  1201.5000    152.6927     16.0027     17.9809     99.8159     99.1114
  1201.7500    153.2253     15.8010     18.7775    144.1450     95.2837
  1202.0000    153.7723     15.5379     19.3170    182.7251     83.7208
  1202.2500    154.3213     15.3138     19.5033    201.5933     73.9059
  1202.5000    154.8634     15.2051     19.3311    193.3700     60.0337
  1202.7500    155.3924     15.2549     18.8870    161.7995     53.0213
  1203.0000    155.9020     15.4690     18.3071    119.0344     46.8811
  1203.2500    156.3832     15.8154     17.7242     78.2957     45.9213
  1203.5000    156.8226     16.2292     17.2349     47.8431     49.7489
  1203.7500    157.2024     16.6241     16.8922     29.5587     55.7378
  1204.0000    157.5026     16.9125     16.7116     21.0771     67.8574
  1204.2500    157.7039     17.0290     16.6811     18.6921     76.1360
  1204.5000    157.7917     16.9508     16.7699     19.2784     86.3138
  1204.7500    157.7583     16.7039     16.9359     20.9708     91.0857
  1205.0000    157.6050     16.3521     17.1324     23.0082     95.5079
  1205.2500    157.3413     15.9742     17.3164     25.1498     97.0452
  1205.5000    156.9839     15.6398     17.4549     27.0589     97.9513
  1205.7500    156.5549     15.3937     17.5289     28.1332     97.9825
  1206.0000    156.0789     15.2497     17.5332     27.9365     97.7362
  1206.2500    155.5813     15.1934     17.4714     26.6675     97.6733
  1206.5000    155.0852     15.1885     17.3493     24.9877     98.0702
  1206.7500    154.6103     15.1852     17.1696     23.4008     98.8007
  1207.0000    154.1714     15.1300     16.9288     21.9764    100.9495
  1207.2500    153.7785     14.9756     16.6175     20.6386    103.2514
  1207.5000    153.4377     14.6921     16.2231     19.4578    107.6243
  1207.7500    153.1524     14.2759     15.7345     18.5734    110.4839
  1208.0000    152.9242     13.7515     15.1472     17.9965    113.3897
  1208.2500    152.7542     13.1632     14.4682     17.5984    113.8668
  1208.5000    152.6420     12.5622     13.7184     17.2220    112.2078
  1208.7500    152.5861     11.9947     12.9309     16.7369    110.0427
  1209.0000    152.5824     11.4939     12.1457     16.0362    107.1080
  1209.2500    152.6239     11.0778     11.4030     15.0550    106.4903
  1209.5000    152.7000     10.7499     10.7362     13.8165    108.4150
  1209.7500    152.7970     10.5029     10.1688     12.4601    111.3822
  1210.0000    152.8989     10.3240      9.7140     11.2147    117.4463
  1210.2500    152.9888     10.1993      9.3763     10.3084    122.0040
  1210.5000    153.0504     10.1172      9.1538      9.8621    128.6611
  1210.7500    153.0700     10.0686      9.0410      9.8577    132.3575
  1211.0000    153.0374     10.0472      9.0302     10.2087    135.6190
  1211.2500    152.9464     10.0493      9.1126     10.8483    135.7901
  1211.5000    152.7950     10.0738      9.2785     11.7486    133.3068
  1211.7500    152.5848     10.1224      9.5177     12.8773    130.6456
  1212.0000    152.3207     10.1982      9.8179     14.1523    126.6329
  1212.2500    152.0114     10.3025     10.1649     15.4166    124.3028
  1212.5000    151.6699     10.4311     10.5404     16.4554    121.3635
  1212.7500    151.3130     10.5721     10.9219     17.0832    119.9596
  1213.0000    150.9606     10.7073     11.2814     17.2728    119.0698
  1213.2500    150.6326     10.8155     11.5871     17.2010    119.0037
  1213.5000    150.3452     10.8770     11.8057     17.1136    118.4204
  1213.7500    150.1072     10.8760     11.9080     17.1109    117.2502
  1214.0000    149.9180     10.8023     11.8755     17.0569    114.7529
  1214.2500    149.7681     10.6527     11.7053     16.7004    113.2546
  1214.5000    149.6417     10.4332     11.4118     15.8922    112.4589
  1214.7500    149.5210     10.1577     11.0229     14.7154    113.5513
  1215.0000    149.3911      9.8447     10.5729     13.4395    118.1574
  1215.2500    149.2428      9.5120     10.0957     12.3401    122.6279
  1215.5000    149.0739      9.1734      9.6194     11.5379    128.9174
  1215.7500    148.8878      8.8388      9.1640     10.9790    131.4091
  1216.0000    148.6912      8.5161      8.7417     10.5472    131.9870
  1216.2500    148.4907      8.2127      8.3587     10.1806    130.9272
  1216.5000    148.2900      7.9352      8.0172      9.8959    128.7660
  1216.7500    148.0887      7.6887      7.7171      9.7276    127.7093
  1217.0000    147.8828      7.4755      7.4574      9.6652    127.5820
  1217.2500    147.6657      7.2955      7.2366      9.6524    128.6691
  1217.5000    147.4313      7.1456      7.0532      9.6350    131.7540
  1217.7500    147.1761      7.0218      6.9049      9.6039    134.2383
  1218.0000    146.9007      6.9202      6.7892      9.5988    137.2504
  1218.2500    146.6106      6.8385      6.7023      9.6779    138.0894
  1218.5000    146.3155      6.7767      6.6405      9.8680    137.4300
  1218.7500    146.0275      6.7362      6.5997     10.1281    136.1677
  1219.0000    145.7586      6.7183      6.5770     10.3627    133.5317
  1219.2500    145.5183      6.7242      6.5710     10.4788    131.0995
  1219.5000    145.3121      6.7543      6.5820     10.4366    126.4795
  1219.7500    145.1417      6.8081      6.6125     10.2569    123.4819
  1220.0000    145.0056      6.8831      6.6657      9.9947    120.5876
  1220.2500    144.9035      6.9724      6.7448      9.7152    119.9971
  1220.5000    144.8389      7.0640      6.8512      9.4958    120.6724
  1220.7500    144.8229      7.1413      6.9828      9.4668    121.8123
  1221.0000    144.8749      7.1870      7.1322      9.8821    124.0319
  1221.2500    145.0205      7.1890      7.2850     11.1431    125.5153
  1221.5000    145.2860      7.1445      7.4202     13.6429    126.9015
  1221.7500    145.6919      7.0614      7.5131     17.3646    126.4500
  1222.0000    146.2451      6.9542      7.5414     21.4559    122.1922
  1222.2500    146.9351      6.8387      7.4924     24.3167    116.7826
  1222.5000    147.7325      6.7277      7.3680     24.5066    106.6266
  1222.7500    148.5924      6.6285      7.1844     21.8513    100.4084
  1223.0000    149.4605      6.5424      6.9652     17.6182     94.8916
  1223.2500    150.2816      6.4652      6.7345     13.5360     94.4284
  1223.5000    151.0056      6.3895      6.5113     10.6829     97.4738
  1223.7500    151.5941      6.3064      6.3067      9.1869    100.7583
  1224.0000    152.0227      6.2094      6.1257      8.6359    106.2919
  1224.2500    152.2820      6.0970      5.9688      8.5614    110.3289
  1224.5000    152.3775      5.9748      5.8350      8.6504    116.6070
  1224.7500    152.3269      5.8537      5.7230      8.7484    120.1013
  1225.0000    152.1579      5.7461      5.6327      8.8072    122.6536
  1225.2500    151.9041      5.6621      5.5650      8.8400    122.4346
  1225.5000    151.6007      5.6073      5.5214      8.8787    120.7801
  1225.7500    151.2804      5.5834      5.5036      8.9386    119.9653
