~Version Information
VERS.                      2.0: CWLS Log ASCII Standard - VERSION 2.0
WRAP.                       NO: One line per depth step
~Well Information Block
STRT.FT                 0.0000: 
STOP.FT              1439.5000: 
STEP.FT                 0.2500: 
NULL.                -999.2500: 
COMP.          Petrogulf Corporation: COMPANY
WELL.          Robinson 15-12R: WELL
FLD.           Purgatorie River: FIELD
LOC.           1752' FNL & 561' FWL: LOCATION
PROV.                 Colorado: PROVINCE
CNTY.               Las Animas: COUNTRY
SRVC.                Patterson: SERVICE COMPANY
DATE.          Tue Oct 04 09:17:52 2005: LOG DATE
UWI.                          : UNIQUE WELL ID
~Curve Information Block
DEPT.FT            0 000 00 00: Depth
GR.GAPI                       : Gamma Ray
CCL.                          : Casing Collar Locator
TT3.usec                      : CBL 3' Travel Time
AMP3.mV                       : CBL 3' Amplitude
~Parameter Information Block
~A  Depth        GR         CCL         TT3         AMP3    
# ...
   938.0000     74.6166      0.0000    516.1062     13.1363
   938.2500     71.2892      0.0000    603.4803     12.5402
   938.5000     67.8992      0.0000    642.9151     12.0304
   938.7500     63.6580      0.0000    613.2326     11.6534
   939.0000     58.1530      0.0000    552.8716     11.4474
   939.2500     52.1684      0.0000    519.8947     11.4315
   939.5000     47.5019      0.0000    549.7474     11.5423
   939.7500     46.0076      0.0000    636.1645     11.5854
   940.0000     48.7998      0.0000    735.2770     11.3277
   940.2500     56.1778      0.0000    809.5744     10.6863
   940.5000     67.8418      0.0000    862.8267      9.7798
   940.7500     82.6880      0.0000    904.8655      8.8140
   941.0000     98.5671      0.0000    914.5250      7.9492
   941.2500    112.8525      0.0000    880.6650      7.2421
   941.5000    123.6518      0.0000    835.7022      6.6787
   941.7500    130.5475      0.0000    812.0031      6.2405
   942.0000    134.2845      0.0000    808.6696      5.9132
   942.2500    135.9793      0.0000    810.0087      5.6607
   942.5000    136.5848      0.0000    807.2685      5.4168
   942.7500    136.6553      0.0000    801.9882      5.1244
   943.0000    136.2563      0.0000    798.1768      4.7938
   943.2500    134.9791      0.0000    796.5444      4.4887
   943.5000    132.0171      0.0000    795.9545      4.2639
   943.7500    126.7075      0.0000    795.7415      4.1448
   944.0000    119.6986      0.0000    795.7602      4.1239
   944.2500    113.4775      0.0000    795.9196      4.1594
   944.5000    111.0555      0.0000    796.1160      4.2077
   944.7500    113.8142      0.0000    796.2542      4.2590
   945.0000    120.6286      0.0000    796.3315      4.3154
   945.2500    128.7377      0.0000    796.4947      4.3513
   945.5000    135.1419      0.0000    796.8004      4.3486
   945.7500    137.6013      0.0000    797.0829      4.3557
   946.0000    135.4532      0.0000    797.2167      4.4519
   946.2500    130.0636      0.0000    797.1624      4.6676
   946.5000    124.0253      0.0000    796.5565      4.9877
   946.7500    119.3304      0.0000    794.3180      5.4073
   947.0000    116.3179      0.0000    788.6802      5.9247
   947.2500    114.4749      0.0000    778.6439      6.5054
   947.5000    113.8513      0.0000    766.4179      7.1180
   947.7500    115.1288      0.0000    756.4399      7.7681
   948.0000    118.2737      0.0000    750.9481      8.4747
   948.2500    121.7084      0.0000    748.9933      9.2616
   948.5000    123.2637      0.0000    749.4493     10.1626
   948.7500    121.8516      0.0000    751.3146     11.1870
   949.0000    118.1403      0.0000    747.0692     12.2595
   949.2500    114.0055      0.0000    717.7842     13.1959
   949.5000    111.5871      0.0000    654.2947     13.7645
   949.7500    112.2299      0.0000    591.2309     13.7997
   950.0000    115.4558      0.0000    579.7936     13.2975
   950.2500    118.9336      0.0000    614.6741     12.4237
   950.5000    120.1499      0.0000    647.2507     11.4110
   950.7500    118.4648      0.0000    665.2202     10.4397
   951.0000    115.4918      0.0000    689.4758      9.5852
   951.2500    113.7103      0.0000    720.0852      8.8312
   951.5000    114.8859      0.0000    742.6544      8.1085
   951.7500    119.1942      0.0000    756.4570      7.3632
   952.0000    125.0815      0.0000    768.8571      6.6273
   952.2500    130.1274      0.0000    781.5628      5.9743
   952.5000    132.6304      0.0000    791.2226      5.4195
   952.7500    132.6123      0.0000    796.1064      4.9320
   953.0000    131.3945      0.0000    797.7103      4.4998
   953.2500    130.2462      0.0000    797.9562      4.1369
   953.5000    129.2755      0.0000    797.5210      3.8563
   953.7500    127.6083      0.0000    796.2289      3.6618
   954.0000    124.5455      0.0000    793.6194      3.5656
   954.2500    120.0808      0.0000    789.3190      3.5565
   954.5000    114.4030      0.0000    784.8829      3.5410
   954.7500    107.7498      0.0000    784.9460      3.4214
   955.0000    100.8964      0.0000    792.9897      3.2165
   955.2500     94.9258      0.0000    807.8306      3.0233
   955.5000     90.2467      0.0000    827.0431      2.9675
   955.7500     86.4117      0.0000    845.6541      3.1701
   956.0000     83.0234      0.0000    851.2772      3.6046
   956.2500     80.5056      0.0000    840.3611      4.0977
   956.5000     80.0453      0.0000    831.7814      4.5150
   956.7500     82.9075     -2.0000    834.2947      4.8118
   957.0000     89.4952      0.0000    825.9109      4.9795
   957.2500     98.7393      0.0000    792.5521      5.0992
   957.5000    108.4379      0.0000    753.6400      5.4181
   957.7500    116.5240      0.0000    736.2803      6.1737
   958.0000    122.2772      0.0000    745.7432      7.3045
   958.2500    126.3374      0.0000    766.2006      8.5988
   958.5000    129.4884      0.0000    780.4255     10.0126
   958.7500    131.5117      0.0000    780.2244     11.5825
   959.0000    131.3762      0.0000    759.2646     13.3809
   959.2500    128.3856      0.0000    705.1050     15.5837
   959.5000    122.9367      0.0000    609.3263     18.3133
   959.7500    116.2988      0.0000    490.6153     21.5178
   960.0000    109.9902      0.0000    390.2065     24.9662
   960.2500    105.3441      0.0000    332.8453     28.2669
   960.5000    103.0657      0.0000    310.6382     31.0528
   960.7500    102.6503      0.0000    304.6762     33.2264
   961.0000    102.4836      0.0000    303.4185     34.9498
   961.2500    101.2449      0.0000    303.1405     36.3851
   961.5000     99.3038      0.0000    303.1331     37.5344
   961.7500     98.3179      0.0000    303.1895     38.3681
   962.0000     99.5135      0.0000    303.1835     38.9470
   962.2500    102.7956      0.0000    303.1362     39.3297
   962.5000    107.2806      0.0000    303.1378     39.5144
   962.7500    112.0057      0.0000    303.2022     39.5162
   963.0000    116.1587      0.0000    303.2097     39.4147
   963.2500    119.1738      0.0000    302.8524     39.3597
   963.5000    120.6600      0.0000    301.3430     39.5811
   963.7500    120.0578      0.0000    297.1548     40.3402
   964.0000    116.8372      0.0000    289.2502     41.7016
   964.2500    111.5669      0.0000    279.4357     43.3021
   964.5000    106.2964      0.0000    271.5446     44.5710
   964.7500    103.0820      0.0000    267.4811     45.2207
   965.0000    102.2729      0.0000    266.2422     45.3418
   965.2500    102.7349      0.0000    266.3931     45.1174
   965.5000    103.4664      0.0000    267.8758     44.6050
   965.7500    104.5241      0.0000    272.0649     43.6941
   966.0000    106.5843      0.0000    280.0263     42.1891
   966.2500    110.0659      0.0000    290.1210     39.9848
   966.5000    114.6545      0.0000    299.6062     37.1652
   966.7500    119.4656      0.0000    310.6594     33.9191
   967.0000    123.5556      0.0000    333.6804     30.4390
   967.2500    126.2798      0.0000    382.2042     26.9309
   967.5000    127.4194      0.0000    462.5600     23.6250
   967.7500    127.4324      0.0000    566.4570     20.7028
   968.0000    127.6866      0.0000    669.2353     18.2402
   968.2500    129.8625      0.0000    742.5513     16.2551
   968.5000    134.5014      0.0000    778.2242     14.7922
   968.7500    140.1003      0.0000    789.6848     13.9100
   969.0000    143.9729      0.0000    792.0681     13.5122
   969.2500    144.1847      0.0000    792.3864     13.2534
   969.5000    140.7733      0.0000    792.5238     12.7838
   969.7500    135.4621      0.0000    792.7863     12.0861
   970.0000    130.3965      0.0000    792.8853     11.4555
   970.2500    126.9735      0.0000    791.9127     11.1570
   970.5000    125.5390      0.0000    788.7771     11.1602
   970.7500    125.8847      0.0000    784.1246     11.2074
   971.0000    127.7158      0.0000    780.9373     11.0477
   971.2500    130.5932      0.0000    779.0324     10.5757
