~Version Information
VERS.                      2.0: CWLS Log ASCII Standard - VERSION 2.0
WRAP.                       NO: One line per depth step
~Well Information Block
STRT.FT               -13.5000: 
STOP.FT              2474.2500: 
STEP.FT                 0.2500: 
NULL.                -999.2500: 
COMP.          Pioneer Natural Resources: COMPANY
WELL.              Tiaga 23-14: WELL
FLD.           Purgatorie River: FIELD
LOC.           2168' FSL & 2030' FWL--: LOCATION
PROV.                       CO: PROVINCE
CNTY.               Las Animas: COUNTRY
SRVC.                         : SERVICE COMPANY
DATE.          Thu May 12 17:01:37 2005: LOG DATE
UWI.                          : UNIQUE WELL ID
~Curve Information Block
DEPT.FT            0 000 00 00: Depth
TT3.usec                      : CBL 3' Travel Time
AMP3.mV                       : CBL 3' Amplitude
GR.GAPI                       : Gamma Ray
CCL.                          : Casing Collar Locator
~Parameter Information Block
~A  Depth       TT3         AMP3         GR         CCL     
# ...
  1628.0000    668.4985      5.6828    129.5159      0.0000
  1628.2500    663.4601      5.7775    118.4698      0.0000
  1628.5000    653.2416      5.8736    107.6665      0.0000
  1628.7500    640.9803      5.9623     99.8099      0.0000
  1629.0000    634.0933      6.0478     96.0341      0.0000
  1629.2500    635.1348      6.1038     95.6506      0.0000
  1629.5000    639.7014      6.0906     97.1144      0.0000
  1629.7500    644.2083      6.0010     98.8993      0.0000
  1630.0000    647.4895      5.8661     99.9671      0.0000
  1630.2500    649.0951      5.7183    100.0890      0.0000
  1630.5000    650.1277      5.5684     99.9315      0.0000
  1630.7500    650.5953      5.4213    100.5978      0.0000
  1631.0000    648.3784      5.2953    102.6977      0.0000
  1631.2500    644.2186      5.1879    105.6246      0.0000
  1631.5000    643.7945      5.0694    107.8411      0.0000
  1631.7500    650.5359      4.9712    107.9378      0.0000
  1632.0000    659.3726      4.9627    105.3784      0.0000
  1632.2500    662.4592      5.0391    100.6061      0.0000
  1632.5000    655.7103      5.1493     95.0007      0.0000
  1632.7500    639.3539      5.2697     90.5135      0.0000
  1633.0000    617.7281      5.3891     88.5566      0.0000
  1633.2500    592.8510      5.4921     88.9014      0.0000
  1633.5000    561.1938      5.5736     89.7960      0.0000
  1633.7500    529.1184      5.6284     89.2446      0.0000
  1634.0000    510.5577      5.6497     86.3051      0.0000
  1634.2500    497.9699      5.6538     81.4712      0.0000
  1634.5000    472.8965      5.6729     76.1181      0.0000
  1634.7500    440.7897      5.7160     71.6046      0.0000
  1635.0000    420.1848      5.7635     68.7069      0.0000
  1635.2500    415.4394      5.7871     67.6320      0.0000
  1635.5000    418.1643      5.7663     68.3550      0.0000
  1635.7500    420.8894      5.7003     70.7228      0.0000
  1636.0000    421.7356      5.6049     74.1958      0.0000
  1636.2500    421.5402      5.5079     77.7562      0.0000
  1636.5000    421.1748      5.4392     80.3322      0.0000
  1636.7500    421.1527      5.4033     81.4458      0.0000
  1637.0000    422.6451      5.3765     81.3497      0.0000
  1637.2500    429.5053      5.3381     80.4609      0.0000
  1637.5000    447.5855      5.3179     78.8701      0.0000
  1637.7500    474.8360      5.4086     76.5950      0.0000
  1638.0000    496.8275      5.6674     74.0081      0.0000
  1638.2500    510.7386      6.0096     71.5361      0.0000
  1638.5000    536.0787      6.2656     69.0066      0.0000
  1638.7500    575.8932      6.3452     65.7326      0.0000
  1639.0000    602.8323      6.3023     61.4420      0.0000
  1639.2500    600.6339      6.2507     56.9641      0.0000
  1639.5000    582.7267      6.2651     53.9026      0.0000
  1639.7500    567.5279      6.3314     53.5710      0.0000
  1640.0000    560.7123      6.3601     56.0911      0.0000
  1640.2500    560.9422      6.2718     60.2955      0.0000
  1640.5000    569.6675      6.0706     64.5658      0.0000
  1640.7500    591.3298      5.8177     68.0620      0.0000
  1641.0000    623.4339      5.5728     71.1083      0.0000
  1641.2500    649.6429      5.3880     74.3404      0.0000
  1641.5000    654.6030      5.3020     77.7248      0.0000
  1641.7500    646.8197      5.3069     80.4349      0.0000
  1642.0000    649.1427      5.3607     81.3276      0.0000
  1642.2500    665.8402      5.4355     79.6228      0.0000
  1642.5000    680.4893      5.5281     75.4818      0.0000
  1642.7500    683.6486      5.6377     69.8987      0.0000
  1643.0000    681.8000      5.7490     63.9807      0.0000
  1643.2500    683.6251      5.8302     58.5652      0.0000
  1643.5000    691.5674      5.8522     54.3980      0.0000
  1643.7500    702.8251      5.8208     52.0703      0.0000
  1644.0000    712.1357      5.7645     51.4522      0.0000
  1644.2500    715.3737      5.6999     51.4367      0.0000
  1644.5000    711.1727      5.6326     50.6626      0.0000
  1644.7500    698.9764      5.5702     48.6163      0.0000
  1645.0000    680.2919      5.5242     45.9927      0.0000
  1645.2500    664.3659      5.5012     44.0529      0.0000
  1645.5000    663.5424      5.4972     43.6490      0.0000
  1645.7500    675.1180      5.5144     44.6651      0.0000
  1646.0000    678.9924      5.5714     46.1317      0.0000
  1646.2500    664.6281      5.6780     46.8739      0.0000
  1646.5000    647.9555      5.8208     46.3857      0.0000
  1646.7500    649.8998      5.9788     45.5578      0.0000
  1647.0000    667.6613      6.1447     46.6558      0.0000
  1647.2500    681.6847      6.3209     52.1020      0.0000
  1647.5000    681.6941      6.4992     62.5402      0.0000
  1647.7500    670.7173      6.6697     75.6736      0.0000
  1648.0000    656.8300      6.8472     87.0528      0.0000
  1648.2500    650.4717      7.0436     92.5591      0.0000
  1648.5000    655.1902      7.2418     90.9683      0.0000
  1648.7500    661.3393      7.4254     84.7042      0.0000
  1649.0000    661.3723      7.6036     78.0854      0.0000
  1649.2500    661.3629      7.7979     74.4040      0.0000
  1649.5000    667.5698      8.0183     74.2878      0.0000
  1649.7500    676.4080      8.2495     76.5670      0.0000
  1650.0000    680.3976      8.4582     80.2439      0.0000
  1650.2500    676.8373      8.6228     85.2840      0.0000
  1650.5000    671.7928      8.7533     91.7802      0.0000
  1650.7500    671.8995      8.8732     98.9939      0.0000
  1651.0000    676.9117      9.0097    105.5293      0.0000
  1651.2500    682.0547      9.1975    110.2927      0.0000
  1651.5000    682.1993      9.4623    113.1076      0.0000
  1651.7500    677.6816      9.8062    114.4977      0.0000
  1652.0000    672.9824     10.1986    115.0615      0.0000
  1652.2500    669.1563     10.5519    115.1328      0.0000
  1652.5000    664.3848     10.7358    114.9773      0.0000
  1652.7500    659.9993     10.6895    115.0968      0.0000
  1653.0000    660.2018     10.4909    116.0830      0.0000
  1653.2500    663.6887     10.2725    118.0298      0.0000
  1653.5000    664.3625     10.1130    120.1951      0.0000
  1653.7500    661.3309     10.0124    121.5562      0.0000
  1654.0000    658.3450      9.9426    121.9385      0.0000
  1654.2500    657.2025      9.8828    122.4419      0.0000
  1654.5000    657.1948      9.8073    124.4502      0.0000
  1654.7500    657.1841      9.6968    128.3176      0.0000
  1655.0000    656.1611      9.5684    133.2328      0.0000
  1655.2500    652.2360      9.4644    137.9428      0.0000
  1655.5000    641.8849      9.4162    141.0881      0.0000
  1655.7500    624.0067      9.4309    141.2393      0.0000
  1656.0000    606.2559      9.4999    137.5860      0.0000
  1656.2500    599.5656      9.6179    131.0040      0.0000
  1656.5000    605.4994      9.7744    124.0058      0.0000
  1656.7500    619.2412      9.9176    119.0251      0.0000
  1657.0000    637.9445      9.9689    116.7868      0.0000
  1657.2500    656.8472      9.9018    116.5872      0.0000
  1657.5000    669.1649      9.7722    117.7102      0.0000
  1657.7500    674.7510      9.6412    119.9260      0.0000
  1658.0000    680.1263      9.5067    122.8905      0.0000
  1658.2500    687.5802      9.3502    125.8515      0.0000
  1658.5000    692.1158      9.1984    128.1232      0.0000
  1658.7500    691.5894      9.0932    129.5016      0.0000
  1659.0000    690.6603      9.0216    129.9776      0.0000
  1659.2500    691.4669      8.9129    128.9379      0.0000
  1659.5000    689.7295      8.7494    124.8713      0.0000
  1659.7500    680.9328      8.6231    116.4612      0.0000
  1660.0000    664.1832      8.6253    104.3718      0.0000
  1660.2500    646.1943      8.7517     91.7889      0.0000
  1660.5000    640.8801      8.9246     82.9025      0.0000
  1660.7500    655.5143      9.0637     80.6881      0.0000
  1661.0000    679.6553      9.1403     85.6913      0.0000
  1661.2500    695.5486      9.1453     96.0879      0.0000
