~Version Information
VERS.                      2.0: CWLS Log ASCII Standard - VERSION 2.0
WRAP.                       NO: One line per depth step
~Well Information Block
STRT.FT               456.0000: 
STOP.FT              1700.7000: 
STEP.FT                 0.1000: 
NULL.                -999.2500: 
COMP.          Pioneer Natural Resources: COMPANY
WELL.                Mead 11-9: WELL
FLD.           Purgatoire River: FIELD
LOC.           1127' FNL & 668' FWL: LOCATION
PROV.                 Colorado: PROVINCE
CNTY.               Las Animas: COUNTRY
SRVC.                Patterson: SERVICE COMPANY
DATE.          Sat Feb 19 09:18:18 2005: LOG DATE
UWI.           05 071 08160 00: UNIQUE WELL ID
~Curve Information Block
DEPT.FT            0 000 00 00: Depth
DCAL.in                       : CDL Caliper
RHOB.g/cc                     : CDL Bulk Density
RHOC.g/cc                     : CDL Density Correction
DPOR.pu                       : CDL Density Porosity
GR.GAPI                       : Gamma Ray
NPOR.pu                       : Neutron Porosity
~Parameter Information Block
~A  Depth       DCAL        RHOB        RHOC        DPOR         GR         NPOR    
# ...
  1358.4000      8.0011      2.5672      0.1349      5.0177     68.7944     25.6865
  1358.5000      7.9680      2.5779      0.0732      4.3692     66.5121     25.4923
  1358.6000      7.9680      2.5785      0.0710      4.3324     64.9773     25.3034
  1358.7000      7.9680      2.5715      0.0656      4.7570     63.5815     24.5275
  1358.8000      7.9447      2.5573      0.0530      5.6179     65.1828     23.5966
  1358.9000      7.9447      2.5339      0.0880      7.0355     70.3581     23.7160
  1359.0000      7.9285      2.4973      0.0533      9.2545     77.0172     24.6990
  1359.1000      7.9285      2.4569      0.0334     11.7014     82.2847     25.7371
  1359.2000      7.9285      2.4305      0.0250     13.3033     86.3976     26.6540
  1359.3000      7.9190      2.4190     -0.0112     14.0011     93.4128     26.9763
  1359.4000      7.9190      2.4128      0.0285     14.3766     96.8930     26.6916
  1359.5000      7.9157      2.4105      0.0442     14.5143     89.4583     26.6468
  1359.6000      7.9157      2.4138      0.0675     14.3149     78.9841     27.0964
  1359.7000      7.9157      2.4258      0.0464     13.5897     73.1662     27.7737
  1359.8000      7.9127      2.4563      0.0772     11.7382     71.1398     28.4599
  1359.9000      7.9127      2.4905      0.1696      9.6660     72.1343     28.6738
  1360.0000      7.9124      2.4968      0.1245      9.2844     75.6805     28.0187
  1360.1000      7.9124      2.4809      0.1037     10.2511     80.7956     27.1573
  1360.2000      7.9124      2.4667      0.0996     11.1101     86.9086     26.8758
  1360.3000      7.9263      2.4561      0.0871     11.7538     91.3576     26.8504
  1360.4000      7.9263      2.4454      0.0449     12.3988     91.0782     26.7950
  1360.5000      7.9536      2.4453     -0.0080     12.4032     89.1633     27.0021
  1360.6000      7.9536      2.4627      0.0392     11.3522     89.1457     27.2841
  1360.7000      7.9536      2.4823      0.0624     10.1615     89.0049     27.4515
  1360.8000      7.9667      2.4881      0.0385      9.8118     87.1715     27.6457
  1360.9000      7.9667      2.4875      0.0246      9.8489     85.9726     27.7079
  1361.0000      7.9540      2.4885      0.0555      9.7860     88.1629     27.5517
  1361.1000      7.9540      2.4843      0.0504     10.0417     91.9081     27.2730
  1361.2000      7.9540      2.4723      0.0402     10.7695     93.6850     27.0410
  1361.3000      7.9393      2.4571      0.0626     11.6884     92.8715     26.9411
  1361.4000      7.9393      2.4473      0.0317     12.2854     90.7549     26.9077
  1361.5000      7.9374      2.4425      0.0814     12.5743     88.6258     27.0633
  1361.6000      7.9374      2.4291      0.0631     13.3852     87.5556     27.2275
  1361.7000      7.9374      2.4077      0.0488     14.6844     85.8327     27.1556
  1361.8000      7.9410      2.3917      0.0693     15.6551     83.8289     27.2624
  1361.9000      7.9410      2.3922      0.0286     15.6239     85.9543     27.7537
  1362.0000      7.9560      2.4082      0.0723     14.6530     89.3714     28.2037
  1362.1000      7.9560      2.4261      0.0719     13.5673     87.1910     28.3851
  1362.2000      7.9560      2.4402      0.0564     12.7145     83.4906     28.2005
  1362.3000      7.9839      2.4506      0.0893     12.0872     86.2665     27.6306
  1362.4000      7.9839      2.4576      0.0413     11.6626     91.9346     27.1922
  1362.5000      7.9976      2.4710      0.0840     10.8461     92.4683     27.2396
  1362.6000      7.9976      2.4956      0.0758      9.3603     89.4377     27.3829
  1362.7000      7.9976      2.5189      0.1042      7.9461     87.8995     27.2619
  1362.8000      7.9949      2.5228      0.0748      7.7107     87.8791     27.0066
  1362.9000      7.9949      2.4965      0.0839      9.3009     86.5204     27.0169
  1363.0000      7.9960      2.4444      0.0306     12.4632     86.1412     27.5135
  1363.1000      7.9960      2.3940     -0.0091     15.5148     90.5698     28.3265
  1363.2000      7.9960      2.3676      0.0180     17.1147     96.7275     28.9344
  1363.3000      8.0024      2.3540     -0.0115     17.9398     99.8272     29.1485
  1363.4000      8.0024      2.3421     -0.0245     18.6629     97.9150     29.2914
  1363.5000      8.0059      2.3366     -0.0165     18.9943     93.6782     29.2556
  1363.6000      8.0059      2.3290      0.0230     19.4561     92.0859     29.0718
  1363.7000      8.0059      2.2940      0.0200     21.5739     92.3556     29.5511
  1363.8000      8.0073      2.2236      0.0088     25.8446     91.4746     30.4489
  1363.9000      8.0073      2.1408     -0.0277     30.8630     90.2713     30.8983
  1364.0000      8.0212      2.0635     -0.0192     35.5453     88.5926     30.7584
  1364.1000      8.0212      1.9803     -0.0633     40.5888     85.5484     30.0623
  1364.2000      8.0212      1.8903     -0.1177     46.0410     85.0139     29.2890
  1364.3000      8.0375      1.8231     -0.1177     50.1171     88.7520     29.1280
  1364.4000      8.0375      1.7976     -0.0427     51.6601     90.3970     29.7438
  1364.5000      8.0186      1.8043     -0.0097     51.2515     86.6900     30.8494
  1364.6000      8.0186      1.8287      0.0548     49.7736     82.0195     31.9211
  1364.7000      8.0186      1.8627      0.0385     47.7174     79.8035     32.1990
  1364.8000      7.9653      1.8990      0.0788     45.5162     79.3792     31.4334
  1364.9000      7.9653      1.9267      0.0796     43.8375     77.2281     30.8133
  1365.0000      7.9242      1.9408      0.0650     42.9848     71.3993     31.3783
  1365.1000      7.9242      1.9463      0.1042     42.6492     64.9128     32.4925
  1365.2000      7.9242      1.9488      0.0868     42.4940     63.1921     33.1818
  1365.3000      7.8991      1.9531      0.1195     42.2385     66.7718     33.5019
  1365.4000      7.8991      1.9554      0.1493     42.0941     69.5019     33.7731
  1365.5000      7.8793      1.9505      0.1091     42.3947     67.5136     33.8879
  1365.6000      7.8793      1.9471      0.0718     42.5975     64.7973     33.5751
  1365.7000      7.8793      1.9574      0.0698     41.9784     65.1720     32.6717
  1365.8000      7.8912      1.9747      0.1211     40.9272     67.5367     31.4229
  1365.9000      7.8912      1.9793      0.1242     40.6467     70.0564     30.3554
  1366.0000      7.9365      1.9612      0.1081     41.7434     72.0176     29.7518
  1366.1000      7.9365      1.9272      0.0318     43.8067     71.8367     29.7781
  1366.2000      7.9365      1.8795      0.0730     46.6994     67.6933     30.4322
  1366.3000      7.9842      1.7988      0.0653     51.5901     63.1038     31.1403
  1366.4000      7.9842      1.6761     -0.0252     59.0260     63.2153     31.4377
  1366.5000      8.0053      1.5452     -0.0600     66.9550     63.0906     31.2030
  1366.6000      8.0053      1.4529     -0.0572     72.5502     56.9298     30.8245
  1366.7000      8.0053      1.4063     -0.0349     75.3759     48.7530     31.0401
  1366.8000      7.9934      1.3755     -0.0400     77.2450     42.6998     31.7533
  1366.9000      7.9934      1.3371     -0.0498     79.5719     39.2361     32.3961
  1367.0000      7.9968      1.2986     -0.1159     81.9037     38.0220     32.9397
  1367.1000      7.9968      1.2768     -0.0587     83.2220     37.5196     33.3643
  1367.2000      7.9968      1.2701     -0.0968     83.6292     36.8443     33.6349
  1367.3000      8.0647      1.2686     -0.0443     83.7237     36.7001     34.1183
  1367.4000      8.0647      1.2709     -0.0730     83.5790     38.2660     34.7050
  1367.5000      8.1735      1.2856     -0.0721     82.6895     40.9016     34.6901
  1367.6000      8.1735      1.3103     -0.0336     81.1912     42.5578     34.1172
  1367.7000      8.1735      1.3262     -0.0097     80.2293     42.5672     33.7982
  1367.8000      8.2124      1.3234     -0.0371     80.3975     40.9496     33.8911
  1367.9000      8.2124      1.3116     -0.0507     81.1149     39.5314     34.2141
