~Version Information
VERS.                      2.0: CWLS Log ASCII Standard - VERSION 2.0
WRAP.                       NO: One line per depth step
~Well Information Block
STRT.FT               665.0000: 
STOP.FT              1972.5000: 
STEP.FT                 0.1000: 
NULL.                -999.2500: 
COMP.          Petrogulf Corporation: COMPANY
WELL.          Great Plains 22-21V: WELL
FLD.           Purgatorie River: FIELD
LOC.           63' FNL & 1895' FWL: LOCATION
PROV.                 Colorado: PROVINCE
CNTY.               Las Animas: COUNTRY
SRVC.                Patterson: SERVICE COMPANY
DATE.          Thu Sep 01 07:39:43 2005: LOG DATE
UWI.                          : UNIQUE WELL ID
~Curve Information Block
DEPT.FT            0 000 00 00: Depth
DCAL.in                       : CDL Caliper
RHOB.g/cc                     : CDL Bulk Density
RHOC.g/cc                     : CDL Density Correction
DPOR.pu                       : CDL Density Porosity
GR.GAPI                       : Gamma Ray
NPOR.pu                       : Neutron Porosity
~Parameter Information Block
~A  Depth       DCAL        RHOB        RHOC        DPOR         GR         NPOR    
# ...
   751.4000      8.3451      2.8436      0.0759    -11.7355    108.5229     27.3264
   751.5000      8.3729      2.8420      0.0948    -11.6365    105.7970     28.3849
   751.6000      8.3729      2.8221     -0.0111    -10.4284    104.8475     28.5860
   751.7000      8.3729      2.8014      0.0005     -9.1784    103.3524     28.0009
   751.8000      8.3366      2.7913      0.0275     -8.5641    100.6000     27.5054
   751.9000      8.3366      2.7847      0.0577     -8.1664     99.0073     27.5038
   752.0000      8.3044      2.7664      0.0633     -7.0529     99.6591     27.5056
   752.1000      8.3044      2.7296      0.0270     -4.8248    101.3201     27.1744
   752.2000      8.3044      2.6871      0.0318     -2.2479    103.3474     26.8115
   752.3000      8.3060      2.6592      0.0348     -0.5547    106.2874     26.8101
   752.4000      8.3060      2.6535      0.0898     -0.2117    109.4985     26.6811
   752.5000      8.3290      2.6629      0.0548     -0.7844    112.3501     25.7951
   752.6000      8.3290      2.6727      0.1077     -1.3728    116.0229     25.0154
   752.7000      8.3290      2.6728      0.0325     -1.3830    118.9085     25.4178
   752.8000      8.3494      2.6697      0.0779     -1.1914    117.4226     26.3703
   752.9000      8.3494      2.6654      0.1023     -0.9316    114.1581     26.8318
   753.0000      8.3236      2.6568      0.0693     -0.4145    115.7141     27.0916
   753.1000      8.3236      2.6439      0.1003      0.3673    121.5445     27.4132
   753.2000      8.3236      2.6253      0.0402      1.4989    126.5826     27.5932
   753.3000      8.3571      2.6066      0.0162      2.6330    130.4829     27.9511
   753.4000      8.3571      2.5913      0.0238      3.5602    135.9022     28.5339
   753.5000      8.3563      2.5759      0.0275      4.4931    141.4001     28.6567
   753.6000      8.3563      2.5636      0.0078      5.2361    143.5425     27.9719
   753.7000      8.3563      2.5579      0.0345      5.5800    143.2870     27.1166
   753.8000      8.3766      2.5529      0.0138      5.8831    142.6462     26.8512
   753.9000      8.3766      2.5453     -0.0033      6.3453    142.4797     27.3233
   754.0000      8.3760      2.5368      0.0036      6.8619    142.0986     28.1969
   754.1000      8.3760      2.5309     -0.0182      7.2191    138.5089     28.7009
   754.2000      8.3760      2.5340      0.0497      7.0317    132.3234     28.3107
   754.3000      8.3796      2.5501      0.0406      6.0540    127.8984     27.3572
   754.4000      8.3796      2.5804      0.0467      4.2166    127.2040     26.5787
   754.5000      8.3286      2.6141      0.0701      2.1742    128.3587     26.6279
   754.6000      8.3286      2.6354      0.0464      0.8837    129.0853     27.6086
   754.7000      8.3286      2.6479      0.0280      0.1270    129.8531     28.6628
   754.8000      8.3438      2.6611      0.0900     -0.6731    130.6144     28.6064
   754.9000      8.3438      2.6706      0.0813     -1.2487    130.8555     27.4752
   755.0000      8.3761      2.6664      0.0875     -0.9946    131.5337     26.3037
   755.1000      8.3761      2.6419      0.0372      0.4888    132.1021     25.4924
   755.2000      8.3761      2.6049     -0.0409      2.7309    131.2240     25.2868
   755.3000      8.3672      2.5750     -0.0313      4.5462    128.4530     26.1050
   755.4000      8.3672      2.5615     -0.0340      5.3623    125.8290     26.9805
   755.5000      8.3662      2.5600      0.0378      5.4549    126.9800     26.5715
   755.6000      8.3662      2.5639      0.0738      5.2165    131.3885     25.3045
   755.7000      8.3662      2.5681      0.1494      4.9647    134.7063     24.1680
   755.8000      8.4537      2.5605      0.1437      5.4259    134.9114     23.6125
   755.9000      8.4537      2.5338      0.1244      7.0398    133.2661     23.5995
   756.0000      8.5246      2.5076      0.0605      8.6333    131.4378     23.7497
   756.1000      8.5246      2.5119      0.0715      8.3688    131.0111     23.9596
   756.2000      8.5246      2.5437      0.1279      6.4401    131.9329     24.3843
   756.3000      8.5585      2.5745      0.1065      4.5738    131.6492     24.5488
   756.4000      8.5585      2.5953      0.0875      3.3140    129.2040     24.0289
   756.5000      8.5652      2.6178      0.1348      1.9543    127.3424     23.3776
   756.6000      8.5652      2.6501      0.1557     -0.0045    127.6933     23.0355
   756.7000      8.5652      2.6830      0.2179     -2.0030    127.9907     22.9437
   756.8000      8.5803      2.6989      0.1960     -2.9620    125.6399     23.2239
   756.9000      8.5803      2.7005      0.1823     -3.0626    121.8644     23.8183
   757.0000      8.5081      2.7015      0.1765     -3.1195    119.1507     24.3913
   757.1000      8.5081      2.7014      0.1598     -3.1148    117.1814     24.7159
   757.2000      8.5081      2.7013      0.1019     -3.1099    113.9995     24.7157
   757.3000      8.4020      2.7105      0.0871     -3.6643    109.8106     24.7343
   757.4000      8.4020      2.7275      0.1014     -4.6969    107.7481     25.0994
   757.5000      8.3453      2.7391      0.1177     -5.4023    109.2264     25.6628
   757.6000      8.3453      2.7397      0.0717     -5.4357    111.2775     26.2422
   757.7000      8.3453      2.7297      0.0894     -4.8297    111.4481     26.6382
   757.8000      8.3329      2.7079      0.0599     -3.5093    111.2402     26.4799
   757.9000      8.3329      2.6774      0.0898     -1.6624    113.9405     25.8211
   758.0000      8.3311      2.6451      0.0522      0.2957    120.6429     25.0706
   758.1000      8.3311      2.6163      0.0723      2.0394    125.6294     24.3478
   758.2000      8.3311      2.5925      0.0197      3.4868    122.9130     23.5892
   758.3000      8.3208      2.5742      0.0051      4.5955    117.9191     22.9863
   758.4000      8.3208      2.5564      0.0052      5.6733    120.1429     22.7487
   758.5000      8.2947      2.5367      0.0055      6.8675    127.1091     23.0343
   758.6000      8.2947      2.5245      0.0401      7.6081    131.2236     23.8661
   758.7000      8.2947      2.5242      0.0234      7.6255    133.0108     24.4973
   758.8000      8.3086      2.5226      0.0535      7.7225    134.2147     24.4313
   758.9000      8.3086      2.5007      0.0415      9.0470    133.6064     24.2152
   759.0000      8.3166      2.4614      0.0050     11.4280    131.8732     24.3319
   759.1000      8.3166      2.4265     -0.0088     13.5476    130.9352     24.9066
   759.2000      8.3166      2.4082     -0.0038     14.6562    131.5859     25.8365
   759.3000      8.3281      2.3947      0.0505     15.4750    132.9385     26.4072
   759.4000      8.3281      2.3727      0.0191     16.8054    134.2424     26.1930
   759.5000      8.3150      2.3461      0.0197     18.4200    135.8039     25.9785
   759.6000      8.3150      2.3062      0.0856     20.8365    135.5819     26.1112
   759.7000      8.3150      2.2254      0.0982     25.7339    131.5442     25.8233
   759.8000      8.3325      2.1018      0.0180     33.2263    125.1171     24.8521
   759.9000      8.3325      1.9532      0.0219     42.2282    118.1241     23.8206
   760.0000      8.4365      1.7716      0.0542     53.2360    111.2458     23.0226
   760.1000      8.4365      1.5599     -0.1047     66.0642    105.3798     22.3014
   760.2000      8.4365      1.3657     -0.1187     77.8382    100.0406     21.8614
   760.3000      8.5148      1.2364     -0.1185     85.6703     95.2116     21.9519
   760.4000      8.5148      1.2055     -0.0895     87.5449     91.6507     21.9482
   760.5000      8.6295      1.2764      0.0450     83.2492     86.5603     21.4803
   760.6000      8.6295      1.3984      0.2032     75.8539     79.7729     21.4115
   760.7000      8.6295      1.5103      0.2998     69.0740     76.8479     21.8547
   760.8000      8.9096      1.5877      0.3222     64.3788     77.9234     21.5737
   760.9000      8.9096      1.6305      0.3397     61.7878     77.0493     20.5904
