~Version Information
VERS.                      2.0: CWLS Log ASCII Standard - VERSION 2.0
WRAP.                       NO: One line per depth step
~Well Information Block
STRT.FT               240.0000: 
STOP.FT               966.2000: 
STEP.FT                 0.1000: 
NULL.                -999.2500: 
COMP.          Pioneer Natural Resources: COMPANY
WELL.          New Mexico 21-5: WELL
FLD.           Purgatoire River: FIELD
LOC.           175' FNL & 1700' FWL: LOCATION
PROV.                 Colorado: PROVINCE
CNTY.               Las Animas: COUNTRY
SRVC.                Patterson: SERVICE COMPANY
DATE.          Mon Dec 13 06:55:26 2004: LOG DATE
UWI.           05 071 08234 00: UNIQUE WELL ID
~Curve Information Block
DEPT.FT            0 000 00 00: Depth
DCAL.in                       : CDL Caliper
RHOB.g/cc                     : CDL Bulk Density
RHOC.g/cc                     : CDL Density Correction
DPOR.pu                       : CDL Density Porosity
NPOR.pu                       : Neutron Porosity
GR.GAPI                       : Gamma Ray
~Parameter Information Block
~A  Depth       DCAL        RHOB        RHOC        DPOR        NPOR         GR     
# ...
   614.4000      8.0022      2.3423      0.1993     18.6464     13.4697     80.8250
   614.5000      8.0006      2.4562      0.2998     11.7425     13.6839     75.8878
   614.6000      8.0006      2.5591      0.3437      5.5111     14.3604     71.1746
   614.7000      8.0006      2.6142      0.2951      2.1684     15.5706     67.5571
   614.8000      7.9874      2.6215      0.1572      1.7258     17.3048     68.1918
   614.9000      7.9874      2.6114      0.0918      2.3377     19.2896     71.8524
   615.0000      7.9656      2.6030      0.0870      2.8489     21.3631     75.6801
   615.1000      7.9656      2.5898      0.0633      3.6488     23.3454     80.1903
   615.2000      7.9656      2.5602      0.0350      5.4410     24.8166     84.5891
   615.3000      7.9537      2.5250     -0.0579      7.5752     25.5736     88.4924
   615.4000      7.9537      2.5066     -0.0517      8.6917     25.7985     94.4540
   615.5000      7.9523      2.5018     -0.0216      8.9804     25.8124     99.1203
   615.6000      7.9523      2.4924      0.0151      9.5504     25.7484     99.0044
   615.7000      7.9523      2.4798     -0.0066     10.3179     25.2871    100.4581
   615.8000      7.9511      2.4748      0.0475     10.6211     24.3934    105.9183
   615.9000      7.9511      2.4770      0.0326     10.4831     23.5652    109.2472
   616.0000      7.9490      2.4856      0.0564      9.9650     23.0049    109.6483
   616.1000      7.9490      2.4976      0.0719      9.2360     22.5679    113.5410
   616.2000      7.9490      2.4977      0.0749      9.2300     22.2473    122.8532
   616.3000      7.9493      2.4861      0.0170      9.9340     22.2744    131.2838
   616.4000      7.9493      2.4894      0.0454      9.7347     22.7275    133.2972
   616.5000      7.9506      2.5168      0.0562      8.0712     23.0886    130.3305
   616.6000      7.9506      2.5484      0.0798      6.1549     22.7493    128.6046
   616.7000      7.9506      2.5598      0.1054      5.4666     22.0281    127.1309
   616.8000      7.9511      2.5473      0.0588      6.2219     21.7860    119.4634
   616.9000      7.9511      2.5299      0.0670      7.2814     22.0946    107.7173
   617.0000      7.9513      2.5234      0.0442      7.6722     22.5363    100.0468
   617.1000      7.9513      2.5376      0.0510      6.8098     22.9415    100.8501
   617.2000      7.9513      2.5657      0.0871      5.1120     23.1188    108.0591
   617.3000      7.9510      2.5802      0.0908      4.2302     23.2097    115.0027
   617.4000      7.9510      2.5684      0.0679      4.9484     23.5529    117.4616
   617.5000      7.9513      2.5430      0.0386      6.4822     24.0027    115.5074
   617.6000      7.9513      2.5223      0.0299      7.7374     24.4714    111.4971
   617.7000      7.9513      2.5184     -0.0054      7.9778     24.9048    109.6456
   617.8000      7.9516      2.5333      0.0150      7.0725     25.0166    109.6260
   617.9000      7.9516      2.5553      0.0169      5.7369     24.8758    107.5546
   618.0000      7.9509      2.5654      0.0574      5.1279     24.9395    103.2532
   618.1000      7.9509      2.5521      0.0479      5.9331     25.2076     99.5477
   618.2000      7.9509      2.5222      0.0459      7.7426     25.3149     98.9619
   618.3000      7.9508      2.5001     -0.0332      9.0873     25.2892    101.2038
   618.4000      7.9508      2.4995      0.0143      9.1211     25.2554    101.1251
   618.5000      7.9515      2.5103      0.0083      8.4648     24.9875     96.7206
   618.6000      7.9515      2.5303      0.0165      7.2556     24.4227     94.0166
   618.7000      7.9515      2.5623      0.0689      5.3144     24.0323     95.6140
   618.8000      7.9504      2.5929      0.0760      3.4604     24.0343     99.3929
   618.9000      7.9504      2.6044      0.0656      2.7633     24.1415    105.2420
   619.0000      7.9499      2.5973      0.0541      3.1956     24.0866    111.8897
   619.1000      7.9499      2.5834      0.0720      4.0364     23.9356    116.6685
   619.2000      7.9499      2.5704      0.0503      4.8260     23.9932    118.2391
   619.3000      7.9507      2.5740      0.0217      4.6056     24.3058    115.5577
   619.4000      7.9507      2.6019      0.0495      2.9159     24.7334    109.1321
   619.5000      7.9502      2.6265      0.1066      1.4213     24.9505    102.2747
   619.6000      7.9502      2.6246      0.0729      1.5378     24.8506     98.3923
   619.7000      7.9502      2.6092      0.0756      2.4712     24.8140     99.0224
   619.8000      7.9489      2.5991      0.0922      3.0860     24.8480    102.4886
   619.9000      7.9489      2.5946      0.0751      3.3594     24.6873    104.9694
   620.0000      7.9498      2.5889      0.0642      3.7003     24.6478    103.6604
   620.1000      7.9498      2.5824      0.0749      4.0983     24.9878    100.2491
   620.2000      7.9498      2.5788      0.0951      4.3138     25.3869    100.1936
   620.3000      7.9510      2.5750      0.0386      4.5425     25.6365    104.7476
   620.4000      7.9510      2.5586      0.0862      5.5411     25.7164    108.5801
   620.5000      7.9499      2.5173      0.0305      8.0397     25.6413    105.0783
   620.6000      7.9499      2.4650     -0.0052     11.2095     25.4302     95.1210
   620.7000      7.9499      2.4338     -0.0612     13.1005     25.0808     90.0092
   620.8000      7.9489      2.4360     -0.0115     12.9673     24.7750     93.3976
   620.9000      7.9489      2.4491      0.0032     12.1759     24.5468     99.9127
   621.0000      7.9496      2.4461      0.0276     12.3582     24.1130    106.9384
   621.1000      7.9496      2.4254     -0.0084     13.6112     23.3848    113.7178
   621.2000      7.9496      2.3964      0.0057     15.3709     22.6601    118.6578
   621.3000      7.9504      2.3589     -0.0102     17.6417     22.3293    120.6019
   621.4000      7.9504      2.3180     -0.0038     20.1189     22.1269    120.0365
   621.5000      7.9490      2.2880     -0.0269     21.9412     21.4254    116.0666
   621.6000      7.9490      2.2765     -0.0114     22.6349     20.3232    109.1436
   621.7000      7.9490      2.2830      0.0119     22.2445     19.1904    104.4575
   621.8000      7.9483      2.3030      0.0453     21.0289     18.1636    105.2917
   621.9000      7.9483      2.3318      0.0317     19.2850     17.4922    106.4380
   622.0000      7.9490      2.3633      0.0671     17.3754     17.2628    103.6382
   622.1000      7.9490      2.3893      0.0967     15.7975     17.0894     99.2642
   622.2000      7.9490      2.4119      0.0812     14.4280     16.8817     94.8339
   622.3000      7.9500      2.4429      0.1046     12.5518     16.8665     91.3877
   622.4000      7.9500      2.4805      0.1745     10.2704     17.0565     92.3845
   622.5000      7.9512      2.5149      0.1084      8.1898     17.4797     98.5659
   622.6000      7.9512      2.5429      0.1181      6.4914     18.2008    104.3894
   622.7000      7.9512      2.5565      0.1236      5.6646     18.9665    104.5496
   622.8000      7.9514      2.5519      0.0676      5.9428     19.2806     98.0752
   622.9000      7.9514      2.5425      0.0662      6.5143     19.1886     89.0973
   623.0000      7.9515      2.5357      0.0851      6.9294     19.3749     83.8362
   623.1000      7.9515      2.5293      0.0453      7.3136     19.9436     84.1080
   623.2000      7.9515      2.5259      0.0763      7.5238     20.3077     89.1571
   623.3000      7.9514      2.5251      0.0471      7.5685     20.5097     95.5420
   623.4000      7.9514      2.5281      0.0358      7.3884     21.0351     97.3353
   623.5000      7.9513      2.5328      0.0902      7.1033     21.9440     93.7751
   623.6000      7.9513      2.5318      0.0189      7.1656     22.8425     88.8056
   623.7000      7.9513      2.5356      0.0189      6.9338     23.2894     84.0323
   623.8000      7.9525      2.5564      0.0268      5.6720     23.2330     82.1563
   623.9000      7.9525      2.5764      0.0558      4.4603     22.9958     86.8803
