~Version Information
VERS.                      2.0: CWLS Log ASCII Standard - VERSION 2.0
WRAP.                       NO: One line per depth step
~Well Information Block
STRT.FT               546.2500: 
STOP.FT              2496.7500: 
STEP.FT                 0.2500: 
NULL.                -999.2500: 
COMP.          Petrogulf Corporation: COMPANY
WELL.               Egan 9-11V: WELL
FLD.           Purgatorie River: FIELD
LOC.           724' FNL & 1379' FWL: LOCATION
PROV.                 Colorado: PROVINCE
CNTY.               Las Animas: COUNTRY
SRVC.          Patterson Wireline: SERVICE COMPANY
DATE.          Fri Jul 11 23:32:41 2003: LOG DATE
UWI.           05 071 07875 00: UNIQUE WELL ID
~Curve Information Block
DEPT.FT            0 000 00 00: Depth
SP.mV                         : DIL Spontaneous Potential
RILD.Ohm-m                    : DIL Deep Resistivity
RILM.Ohm-m                    : DIL Medium Resistivity
RLL3.Ohm-m                    : DIL Shallow Resistivity
GR.GAPI                       : Gamma Ray
~Parameter Information Block
~A  Depth        SP         RILD        RILM        RLL3         GR     
# ...
  1834.2500    -87.2069     13.9749     16.7936     18.1975    109.8877
  1834.5000    -86.9153     13.3791     15.9100     17.1786    112.1941
  1834.7500    -86.6844     12.8857     15.1892     16.2758    113.7442
  1835.0000    -86.5036     12.5031     14.6177     15.5884    117.4882
  1835.2500    -86.3525     12.2351     14.1851     15.0317    121.1008
  1835.5000    -86.2186     12.0781     13.8840     14.5351    127.2881
  1835.7500    -86.1089     12.0217     13.7088     14.1903    131.0952
  1836.0000    -86.0481     12.0520     13.6553     14.2494    135.3244
  1836.2500    -86.0639     12.1552     13.7199     14.9896    136.9073
  1836.5000    -86.1733     12.3189     13.8978     16.5213    136.7870
  1836.7500    -86.3754     12.5314     14.1820     18.7150    134.2598
  1837.0000    -86.6508     12.7776     14.5604     21.4642    125.5840
  1837.2500    -86.9689     13.0360     15.0136     25.1756    116.7114
  1837.5000    -87.3026     13.2789     15.5120     30.9111    100.8072
  1837.7500    -87.6427     13.4766     16.0140     39.7306     89.9036
  1838.0000    -87.9984     13.6047     16.4670     51.5976     74.6033
  1838.2500    -88.3840     13.6501     16.8125     64.7402     65.5543
  1838.5000    -88.8013     13.6133     16.9961     75.9864     54.6780
  1838.7500    -89.2326     13.5054     16.9805     81.8790     49.9441
  1839.0000    -89.6444     13.3436     16.7557     80.0779     47.3763
  1839.2500    -90.0012     13.1450     16.3424     70.5363     48.6863
  1839.5000    -90.2819     12.9213     15.7860     55.8263     54.8864
  1839.7500    -90.4892     12.6780     15.1438     40.1024     61.6393
  1840.0000    -90.6465     12.4160     14.4724     27.0991     74.8032
  1840.2500    -90.7852     12.1368     13.8189     18.5379     84.5130
  1840.5000    -90.9288     11.8440     13.2169     14.0268     98.0662
  1840.7500    -91.0798     11.5440     12.6869     12.1348    105.1981
  1841.0000    -91.2131     11.2432     12.2389     11.5089    111.8446
  1841.2500    -91.2846     10.9486     11.8747     11.3559    113.5470
  1841.5000    -91.2528     10.6687     11.5909     11.3918    113.0976
  1841.7500    -91.1017     10.4148     11.3808     11.6186    111.8477
  1842.0000    -90.8484     10.1993     11.2352     12.1234    110.1952
  1842.2500    -90.5340     10.0319     11.1431     12.9360    109.6754
  1842.5000    -90.2099      9.9166     11.0925     13.9526    109.4043
  1842.7500    -89.9267      9.8502     11.0703     14.9454    108.9466
  1843.0000    -89.7255      9.8232     11.0626     15.6524    106.8817
  1843.2500    -89.6231      9.8220     11.0554     15.9079    104.5339
  1843.5000    -89.5989      9.8306     11.0351     15.7429    100.7335
  1843.7500    -89.5994      9.8320     10.9900     15.3857     99.0082
  1844.0000    -89.5613      9.8106     10.9109     15.1295     98.3218
  1844.2500    -89.4419      9.7548     10.7928     15.1372     98.6657
  1844.5000    -89.2344      9.6600     10.6352     15.3195     99.2093
  1844.7500    -88.9605      9.5293     10.4425     15.3861     99.3293
  1845.0000    -88.6482      9.3728     10.2231     15.0463     99.5979
  1845.2500    -88.3153      9.2044      9.9884     14.2124    100.3345
  1845.5000    -87.9681      9.0388      9.7512     13.0475    102.7730
  1845.7500    -87.6116      8.8885      9.5241     11.8363    105.0091
  1846.0000    -87.2581      8.7616      9.3180     10.8073    108.0126
  1846.2500    -86.9271      8.6616      9.1414     10.0512    109.1690
  1846.5000    -86.6400      8.5862      9.0000      9.5588    109.6057
  1846.7500    -86.4137      8.5277      8.8960      9.3081    109.4025
  1847.0000    -86.2559      8.4757      8.8288      9.3257    108.5262
  1847.2500    -86.1633      8.4198      8.7944      9.7035    107.1322
  1847.5000    -86.1198      8.3526      8.7865     10.5698    103.0108
  1847.7500    -86.0986      8.2710      8.7963     12.0125     99.0477
  1848.0000    -86.0703      8.1767      8.8140     13.9577     92.6105
  1848.2500    -86.0163      8.0758      8.8294     16.0683     88.7796
  1848.5000    -85.9402      7.9778      8.8343     17.7703     84.2974
  1848.7500    -85.8663      7.8945      8.8229     18.4693     82.1862
  1849.0000    -85.8262      7.8365      8.7935     17.8667     80.4422
  1849.2500    -85.8398      7.8104      8.7485     16.1555     80.4123
  1849.5000    -85.9028      7.8174      8.6937     13.9302     82.5170
  1849.7500    -85.9848      7.8533      8.6375     11.8674     85.5652
  1850.0000    -86.0357      7.9101      8.5891     10.4179     92.4522
  1850.2500    -86.0005      7.9777      8.5578      9.7100     98.1022
  1850.5000    -85.8394      8.0464      8.5516      9.6455    106.8924
  1850.7500    -85.5429      8.1099      8.5769     10.0317    112.1198
  1851.0000    -85.1298      8.1667      8.6389     10.6572    117.8374
  1851.2500    -84.6332      8.2208      8.7411     11.3459    120.0858
  1851.5000    -84.0913      8.2803      8.8862     12.0234    121.8127
  1851.7500    -83.5465      8.3554      9.0759     12.7476    122.2124
  1852.0000    -83.0425      8.4574      9.3115     13.6458    121.2920
  1852.2500    -82.6109      8.5975      9.5939     14.7803    119.2229
  1852.5000    -82.2581      8.7866      9.9241     16.0391    114.0509
  1852.7500    -81.9629      9.0328     10.3029     17.1597    109.9157
  1853.0000    -81.6904      9.3399     10.7314     17.9073    104.0946
  1853.2500    -81.4113      9.7060     11.2108     18.2820    100.9990
  1853.5000    -81.1156     10.1252     11.7421     18.5702     97.7671
  1853.7500    -80.8148     10.5896     12.3267     19.1854     96.3574
  1854.0000    -80.5339     11.0910     12.9660     20.4193     94.6132
  1854.2500    -80.2998     11.6203     13.6613     22.2600     93.1822
  1854.5000    -80.1338     12.1662     14.4140     24.3637     90.0233
  1854.7500    -80.0488     12.7165     15.2257     26.2034     87.2399
  1855.0000    -80.0503     13.2617     16.0980     27.3448     82.7075
  1855.2500    -80.1367     13.7988     17.0322     27.6850     80.0712
  1855.5000    -80.3034     14.3305     18.0285     27.4885     77.7478
  1855.7500    -80.5444     14.8625     19.0846     27.2569     77.6748
  1856.0000    -80.8487     15.3983     20.1924     27.6132     79.6192
  1856.2500    -81.1949     15.9345     21.3345     29.2471     81.5789
  1856.5000    -81.5512     16.4554     22.4786     32.7868     83.8582
  1856.7500    -81.8818     16.9315     23.5734     38.5483     84.3273
  1857.0000    -82.1553     17.3231     24.5462     46.2724     83.4346
  1857.2500    -82.3525     17.5904     25.3077     54.8902     82.1031
  1857.5000    -82.4724     17.7030     25.7650     62.3774     79.6014
  1857.7500    -82.5346     17.6448     25.8437     66.1150     77.8953
  1858.0000    -82.5751     17.4175     25.5112     64.1283     75.7560
  1858.2500    -82.6343     17.0444     24.7906     56.5141     74.9378
  1858.5000    -82.7428     16.5684     23.7568     45.6065     75.3010
  1858.7500    -82.9069     16.0409     22.5165     34.5488     77.0135
  1859.0000    -83.1032     15.5072     21.1815     25.6161     82.5045
  1859.2500    -83.2851     14.9967     19.8478     19.5747     88.3622
  1859.5000    -83.4006     14.5219     18.5850     16.0541     99.6027
  1859.7500    -83.4129     14.0825     17.4357     14.2351    107.1953
  1860.0000    -83.3142     13.6704     16.4198     13.3837    115.6283
  1860.2500    -83.1265     13.2746     15.5416     13.0757    118.4076
  1860.5000    -82.8928     12.8870     14.7954     13.1355    118.9655
  1860.7500    -82.6648     12.5069     14.1708     13.4555    117.6732
  1861.0000    -82.4871     12.1433     13.6550     13.8912    113.7015
  1861.2500    -82.3804     11.8121     13.2355     14.2759    109.7602
  1861.5000    -82.3330     11.5299     12.9010     14.4823    102.9542
  1861.7500    -82.3084     11.3094     12.6414     14.4633     99.0390
  1862.0000    -82.2681     11.1573     12.4479     14.2679     95.9238
