~Version Information
VERS.                      2.0: CWLS Log ASCII Standard - VERSION 2.0
WRAP.                       NO: One line per depth step
~Well Information Block
STRT.FT                -9.7500: 
STOP.FT              2374.2500: 
STEP.FT                 0.2500: 
NULL.                -999.2500: 
COMP.          Pioneer Natural Resources: COMPANY
WELL.            Chevron 13-13: WELL
FLD.           Purgatorie River: FIELD
LOC.           1560' FSL & 711' FWL--: LOCATION
CNTY.               Las Animas: COUNTY
SRVC.          Superior Well Services: SERVICE COMPANY
DATE.          Wed Apr 11 08:47:55 2007: LOG DATE
UWI.           05 071 08319 00: UNIQUE WELL ID
STAT.                       CO: STATE
~Curve Information Block
DEPT.FT            0 000 00 00: Depth
CCL.                          : Casing Collar Locator
TT3.usec                      : CBL 3' Travel Time
AMP3.mV                       : CBL 3' Amplitude
GR.GAPI                       : Gamma Ray
~Parameter Information Block
~A  Depth       CCL         TT3         AMP3         GR     
# ...
  1866.2500      0.0000    651.0193      3.8043     56.5308
  1866.5000      0.0000    669.5237      3.8193     60.2520
  1866.7500      0.0000    681.4008      3.8008     65.5302
  1867.0000      0.0000    686.9742      3.7465     73.5597
  1867.2500      0.0000    688.9368      3.6714     84.4698
  1867.5000      0.0000    689.5079      3.5987     97.0419
  1867.7500      0.0000    689.7819      3.5487    109.4687
  1868.0000      0.0000    690.1569      3.5309    120.2298
  1868.2500      0.0000    690.7151      3.5443    128.6155
  1868.5000      0.0000    691.3873      3.5839    135.0525
  1868.7500      0.0000    692.0298      3.6450    140.8225
  1869.0000      0.0000    692.5535      3.7242    146.6078
  1869.2500      0.0000    692.9659      3.8141    151.1962
  1869.5000      0.0000    693.3124      3.8988    152.3744
  1869.7500      0.0000    693.6199      3.9600    149.1980
  1870.0000      0.0000    693.8937      3.9921    142.9509
  1870.2500      0.0000    694.1237      4.0087    136.1801
  1870.5000      0.0000    694.2850      4.0281    131.3350
  1870.7500      0.0000    694.3677      4.0550    129.9653
  1871.0000      0.0000    694.4109      4.0790    132.3519
  1871.2500      0.0000    694.4880      4.0888    137.3143
  1871.5000      0.0000    694.6470      4.0816    142.4396
  1871.7500      0.0000    694.8724      4.0603    145.3603
  1872.0000      0.0000    695.1037      4.0284    145.4549
  1872.2500      0.0000    695.2853      3.9916    143.8413
  1872.5000      0.0000    695.3963      3.9626    141.4550
  1872.7500      0.0000    695.4469      3.9571    138.1850
  1873.0000      0.0000    695.4700      3.9847    134.2285
  1873.2500      0.0000    695.5196      4.0423    130.8990
  1873.5000      0.0000    695.6641      4.1160    129.2068
  1873.7500      0.0000    695.9601      4.1888    128.6249
  1874.0000      0.0000    696.4157      4.2458    128.1054
  1874.2500      0.0000    696.9572      4.2746    127.6205
  1874.5000      0.0000    697.4061      4.2592    128.1240
  1874.7500      0.0000    697.4894      4.1788    130.5346
  1875.0000      0.0000    696.9235      4.0197    135.0002
  1875.2500      0.0000    695.6335      3.7953    140.5153
  1875.5000      0.0000    694.0637      3.5520    144.9713
  1875.7500      0.0000    693.3796      3.3430    146.1878
  1876.0000      0.0000    695.1724      3.1898    143.3925
  1876.2500      0.0000    700.4858      3.0733    137.5868
  1876.5000      0.0000    708.8480      2.9647    130.4337
  1876.7500      0.0000    718.7515      2.8555    123.1995
  1877.0000      0.0000    729.2640      2.7565    116.7890
  1877.2500      0.0000    739.8894      2.6804    112.1050
  1877.5000      0.0000    748.0447      2.6365    109.8096
  1877.7500      0.0000    748.8350      2.6403    109.8730
  1878.0000      0.0000    739.7471      2.7165    111.6109
  1878.2500      0.0000    724.4643      2.8852    114.1847
  1878.5000      0.0000    710.0129      3.1426    117.0527
  1878.7500      0.0000    700.8716      3.4535    119.9568
  1879.0000      0.0000    696.9424      3.7627    122.6899
  1879.2500      0.0000    695.8892      4.0188    125.0739
  1879.5000      0.0000    695.7654      4.1963    126.9324
  1879.7500      0.0000    695.7538      4.3015    127.9575
  1880.0000      0.0000    695.7227      4.3576    128.0167
  1880.2500      0.0000    695.7465      4.3878    127.8690
  1880.5000      0.0000    695.8932      4.4114    129.2298
  1880.7500      0.0000    696.1697      4.4415    133.5193
  1881.0000      0.0000    696.4849      4.4759    140.1911
  1881.2500      0.0000    696.6887      4.4954    146.6399
  1881.5000      0.0000    696.6860      4.4748    150.3823
  1881.7500      0.0000    696.5176      4.3987    151.1843
  1882.0000      0.0000    696.3225      4.2740    150.6136
  1882.2500      0.0000    696.2113      4.1294    150.1415
  1882.5000      0.0000    696.1550      4.0019    150.3273
  1882.7500      0.0000    695.9438      3.9191    150.9259
  1883.0000      0.0000    695.1396      3.8930    150.8799
  1883.2500      0.0000    692.9609      3.9295    148.8777
  1883.5000      0.0000    688.1182      4.0361    144.7586
  1883.7500      0.0000    679.1328      4.2107    139.9771
  1884.0000      0.0000    665.3813      4.4201    136.2816
  1884.2500      0.0000    648.2935      4.6002    134.3803
  1884.5000      0.0000    631.7703      4.6948    134.0026
  1884.7500      0.0000    621.1030      4.7024    134.4343
  1885.0000      0.0000    619.7686      4.6770    134.6757
  1885.2500      0.0000    625.3604      4.6781    133.9278
  1885.5000      0.0000    630.0089      4.7239    132.5248
  1885.7500      0.0000    628.1088      4.7944    131.9447
  1886.0000      2.0000    623.4977      4.8629    133.4435
  1886.2500      0.0000    625.8203      4.9128    136.8307
  1886.5000      0.0000    639.1764      4.9319    140.5701
  1886.7500      0.0000    656.7579      4.9124    142.8318
  1887.0000      0.0000    666.6358      4.8601    142.6179
  1887.2500      0.0000    660.0113      4.7903    140.1988
  1887.5000      0.0000    634.8010      4.7103    136.6777
  1887.7500      0.0000    596.1084      4.6177    133.1995
  1888.0000      0.0000    554.1544      4.5158    130.3389
  1888.2500      0.0000    517.8928      4.4181    127.9758
  1888.5000      0.0000    489.2281      4.3368    125.8280
  1888.7500      0.0000    465.3729      4.2761    124.0395
  1889.0000      0.0000    445.9201      4.2341    122.9050
  1889.2500      0.0000    435.2786      4.2055    122.1377
  1889.5000      0.0000    439.2822      4.1835    120.9304
  1889.7500      0.0000    460.6289      4.1597    118.8695
  1890.0000      0.0000    495.0422      4.1261    116.4605
  1890.2500      0.0000    530.2877      4.0781    114.5900
  1890.5000      0.0000    551.6172      4.0174    113.5382
  1890.7500      0.0000    550.9134      3.9492    112.5258
  1891.0000      0.0000    530.4470      3.8766    110.2624
  1891.2500      0.0000    498.6783      3.8007    106.0380
  1891.5000      0.0000    465.1122      3.7243    100.4090
  1891.7500      0.0000    438.8726      3.6541     95.0039
  1892.0000      0.0000    427.9391      3.5971     91.5855
  1892.2500      0.0000    436.2992      3.5592     90.8790
  1892.5000      0.0000    461.2808      3.5445     92.0445
  1892.7500      0.0000    494.2852      3.5508     93.5124
  1893.0000      0.0000    525.1193      3.5688     94.4360
  1893.2500      0.0000    547.1213      3.5885     95.1461
  1893.5000      0.0000    559.7866      3.6068     96.3031
  1893.7500      0.0000    566.3271      3.6290     97.9565
  1894.0000      0.0000    567.0828      3.6650     99.3321
  1894.2500      0.0000    556.8923      3.7234     99.3032
  1894.5000      0.0000    532.0341      3.8038     97.2978
  1894.7500      0.0000    498.9274      3.8939     94.0955
  1895.0000      0.0000    472.4725      3.9736     91.5938
  1895.2500      0.0000    465.2955      4.0264     91.4194
  1895.5000      0.0000    479.9166      4.0451     93.6789
  1895.7500      0.0000    510.2731      4.0304     97.0591
  1896.0000      0.0000    547.2888      3.9867     99.9399
  1896.2500      0.0000    581.1785      3.9220    101.3417
  1896.5000      0.0000    601.9630      3.8483    101.0386
  1896.7500      0.0000    603.5021      3.7776     99.1553
  1897.0000      0.0000    588.4131      3.7142     95.7542
  1897.2500      0.0000    565.8102      3.6532     90.9195
  1897.5000      0.0000    542.8346      3.5858     85.4291
  1897.7500      0.0000    519.8674      3.5089     80.9322
  1898.0000      0.0000    494.1270      3.4291     78.7010
  1898.2500      0.0000    465.8095      3.3573     78.2522
  1898.5000      0.0000    439.3981      3.3022     77.7032
  1898.7500      0.0000    419.8138      3.2670     75.5948
  1899.0000      0.0000    408.6163      3.2503     72.3003
  1899.2500      0.0000    404.0907      3.2496     69.6954
  1899.5000      0.0000    403.6126      3.2634     69.3188
