~Version Information
VERS.                      2.0: CWLS Log ASCII Standard - VERSION 2.0
WRAP.                       NO: One line per depth step
~Well Information Block
STRT.FT               430.0000: 
STOP.FT              1910.2500: 
STEP.FT                 0.2500: 
NULL.                -999.2500: 
COMP.          Pioneer Natural Resources: COMPANY
WELL.          Formula 23-11 Tr: WELL
FLD.           Purgatoire River: FIELD
LOC.           1976' FSL & 1935' FWL--: LOCATION
PROV.                 Colorado: PROVINCE
CNTY.               Las Animas: COUNTRY
SRVC.                Patterson: SERVICE COMPANY
DATE.          Fri Jun 10 22:41:39 2005: LOG DATE
UWI.           05 071 08399 00: UNIQUE WELL ID
~Curve Information Block
DEPT.FT            0 000 00 00: Depth
SN.Ohm-m                      : IEL Short Normal
SP.mV                         : IEL Spontaneous Potential
DIR.Ohm-m                     : IEL Induction Resistivity
GR.GAPI                       : Gamma Ray
~Parameter Information Block
~A  Depth        SN          SP         DIR          GR     
# ...
  1502.0000     29.6047   -143.6826     22.5240    119.9000
  1502.2500     27.8095   -142.9195     21.7272    124.3028
  1502.5000     25.8061   -142.0308     21.0799    124.1786
  1502.7500     23.7327   -141.0892     20.4972    120.6241
  1503.0000     21.8653   -140.1642     19.9551    113.6066
  1503.2500     20.4884   -139.3101     19.4793    109.7088
  1503.5000     19.7552   -138.5578     19.1097    106.6074
  1503.7500     19.6186   -137.9134     18.8650    106.4063
  1504.0000     19.8699   -137.3620     18.7276    108.2737
  1504.2500     20.2482   -136.8785     18.6500    110.5058
  1504.5000     20.5493   -136.4379     18.5740    114.7498
  1504.7500     20.6738   -136.0228     18.4503    118.0356
  1505.0000     20.6132   -135.6259     18.2503    123.5052
  1505.2500     20.4071   -135.2480     17.9708    127.1525
  1505.5000     20.1079   -134.8936     17.6316    131.2996
  1505.7500     19.7654   -134.5659     17.2691    132.4153
  1506.0000     19.4318   -134.2648     16.9267    131.4894
  1506.2500     19.1692   -133.9854     16.6467    129.8016
  1506.5000     19.0422   -133.7199     16.4656    126.8096
  1506.7500     19.0925   -133.4596     16.4108    124.6796
  1507.0000     19.3158   -133.1977     16.4977    120.9809
  1507.2500     19.6591   -132.9307     16.7279    117.9486
  1507.5000     20.0424   -132.6605     17.0882    112.2062
  1507.7500     20.3915   -132.3931     17.5525    107.5211
  1508.0000     20.6631   -132.1366     18.0841     99.7274
  1508.2500     20.8499   -131.8988     18.6394     94.7418
  1508.5000     20.9673   -131.6833     19.1699     89.1614
  1508.7500     21.0327   -131.4887     19.6235     87.4544
  1509.0000     21.0456   -131.3088     19.9461     88.1191
  1509.2500     20.9775   -131.1347     20.0857     90.0910
  1509.5000     20.7797   -130.9588     20.0029     93.8756
  1509.7500     20.4110   -130.7769     19.6866     96.5611
  1510.0000     19.8672   -130.5903     19.1634    101.2991
  1510.2500     19.1916   -130.4044     18.4908    105.3086
  1510.5000     18.4585   -130.2274     17.7375    112.2614
  1510.7500     17.7415   -130.0684     16.9647    116.7659
  1511.0000     17.0904   -129.9354     16.2211    122.2227
  1511.2500     16.5292   -129.8358     15.5451    124.9136
  1511.5000     16.0664   -129.7752     14.9673    127.9482
  1511.7500     15.7039   -129.7580     14.5089    129.3439
  1512.0000     15.4391   -129.7863     14.1783    129.9576
  1512.2500     15.2640   -129.8605     13.9718    129.1240
  1512.5000     15.1653   -129.9795     13.8763    126.4977
  1512.7500     15.1244   -130.1422     13.8729    124.5526
  1513.0000     15.1191   -130.3485     13.9387    122.2396
  1513.2500     15.1264   -130.6011     14.0484    121.0776
  1513.5000     15.1241   -130.9039     14.1740    119.4932
  1513.7500     15.0932   -131.2599     14.2849    118.5093
  1514.0000     15.0208   -131.6676     14.3495    117.4139
  1514.2500     14.9011   -132.1159     14.3375    117.1016
  1514.5000     14.7268   -132.5798     14.2254    117.5960
  1514.7500     14.4786   -133.0161     13.9997    118.7613
  1515.0000     14.1289   -133.3621     13.6594    121.6198
  1515.2500     13.6606   -133.5400     13.2164    123.9232
  1515.5000     13.0891   -133.4683     12.6951    127.6907
  1515.7500     12.4684   -133.0808     12.1307    130.5432
  1516.0000     11.8732   -132.3494     11.5629    135.3825
  1516.2500     11.3645   -131.3022     11.0286    138.6847
  1516.5000     10.9636   -130.0297     10.5544    143.0684
  1516.7500     10.6528   -128.6730     10.1536    145.3569
  1517.0000     10.3990   -127.3952      9.8266    147.6945
  1517.2500     10.1825   -126.3446      9.5639    148.5249
  1517.5000     10.0067   -125.6210      9.3491    148.7768
  1517.7500      9.8839   -125.2571      9.1639    148.4621
  1518.0000      9.8130   -125.2193      8.9917    147.5981
  1518.2500      9.7693   -125.4251      8.8211    146.6427
  1518.5000      9.7139   -125.7699      8.6468    143.9028
  1518.7500      9.6088   -126.1527      8.4687    141.0785
  1519.0000      9.4249   -126.4941      8.2886    136.5018
  1519.2500      9.1417   -126.7440      8.1078    134.2450
  1519.5000      8.7482   -126.8804      7.9269    132.5701
  1519.7500      8.2497   -126.9026      7.7459    131.8229
  1520.0000      7.6774   -126.8241      7.5664    129.6225
  1520.2500      7.0901   -126.6660      7.3924    127.3709
  1520.5000      6.5622   -126.4533      7.2300    124.2215
  1520.7500      6.1646   -126.2120      7.0862    123.0543
  1521.0000      5.9461   -125.9670      6.9673    122.9400
  1521.2500      5.9225   -125.7401      6.8773    123.6098
  1521.5000      6.0750   -125.5461      6.8180    124.8661
  1521.7500      6.3589   -125.3914      6.7880    125.4350
  1522.0000      6.7162   -125.2719      6.7829    125.7417
  1522.2500      7.0866   -125.1745      6.7954    125.8406
  1522.5000      7.4164   -125.0808      6.8150    126.1640
  1522.7500      7.6680   -124.9710      6.8296    126.4202
  1523.0000      7.8264   -124.8288      6.8287    126.8226
  1523.2500      7.8946   -124.6433      6.8055    127.4222
  1523.5000      7.8836   -124.4101      6.7583    129.4264
  1523.7500      7.8040   -124.1298      6.6900    131.3281
  1524.0000      7.6658   -123.8078      6.6057    133.6461
  1524.2500      7.4801   -123.4543      6.5116    133.8930
  1524.5000      7.2601   -123.0835      6.4144    131.7021
  1524.7500      7.0228   -122.7149      6.3219    129.0706
  1525.0000      6.7925   -122.3711      6.2427    125.0572
  1525.2500      6.6055   -122.0763      6.1866    122.9590
  1525.5000      6.5087   -121.8515      6.1633    120.6158
  1525.7500      6.5441   -121.7106      6.1819    119.4809
  1526.0000      6.7273   -121.6563      6.2493    119.0206
  1526.2500      7.0337   -121.6790      6.3706    120.0266
  1526.5000      7.4050   -121.7577      6.5479    123.3506
  1526.7500      7.7668   -121.8633      6.7798    125.9044
  1527.0000      8.0423   -121.9626      7.0602    128.2126
  1527.2500      8.1675   -122.0239      7.3778    127.9674
  1527.5000      8.1147   -122.0203      7.7162    125.2355
  1527.7500      7.9178   -121.9336      8.0566    122.7987
  1528.0000      7.6815   -121.7562      8.3820    119.9271
  1528.2500      7.5583   -121.4923      8.6806    118.9856
  1528.5000      7.6961   -121.1573      8.9476    118.7438
  1528.7500      8.1706   -120.7759      9.1826    118.8940
  1529.0000      8.9364   -120.3776      9.3854    119.0165
  1529.2500      9.8317   -119.9914      9.5534    119.0103
  1529.5000     10.6492   -119.6404      9.6813    119.1225
  1529.7500     11.2292   -119.3381      9.7651    119.3972
  1530.0000     11.5135   -119.0875      9.8058    120.2285
  1530.2500     11.5370   -118.8831      9.8107    121.1406
  1530.5000     11.3859   -118.7149      9.7911    123.1219
  1530.7500     11.1526   -118.5722      9.7577    124.7857
  1531.0000     10.9055   -118.4472      9.7174    127.5930
  1531.2500     10.6788   -118.3358      9.6734    129.6079
  1531.5000     10.4822   -118.2362      9.6263    132.7311
  1531.7500     10.3151   -118.1467      9.5759    134.6959
  1532.0000     10.1707   -118.0629      9.5217    137.0527
  1532.2500     10.0374   -117.9756      9.4627    138.0983
  1532.5000      9.9061   -117.8714      9.3988    138.8295
  1532.7500      9.7798   -117.7347      9.3323    138.6927
  1533.0000      9.6715   -117.5504      9.2690    137.3242
  1533.2500      9.5926   -117.3079      9.2171    135.5823
  1533.5000      9.5429   -117.0029      9.1838    132.1964
  1533.7500      9.5129   -116.6396      9.1728    130.1303
  1534.0000      9.4930   -116.2292      9.1828    128.7667
  1534.2500      9.4796   -115.7894      9.2103    129.3798
  1534.5000      9.4735   -115.3425      9.2503    131.7047
  1534.7500      9.4736   -114.9129      9.2981    133.2072
  1535.0000      9.4741   -114.5253      9.3482    134.4295
  1535.2500      9.4686   -114.2025      9.3948    134.7424
