~Version Information
VERS.                      2.0: CWLS Log ASCII Standard - VERSION 2.0
WRAP.                       NO: One line per depth step
~Well Information Block
STRT.FT               400.0000: 
STOP.FT              2201.0000: 
STEP.FT                 0.1000: 
NULL.                -999.2500: 
COMP.          Evergreen Operating Corporation: COMPANY
WELL.            Triumph 13-10: WELL
FLD.           Purgatorie River: FIELD
LOC.           1551' FSL & 522' FWL: LOCATION
PROV.                 Colorado: PROVINCE
CNTY.               Las Animas: COUNTRY
SRVC.                Patterson: SERVICE COMPANY
DATE.          Mon Jul 26 07:55:18 2004: LOG DATE
UWI.           05 071 08108 00: UNIQUE WELL ID
~Curve Information Block
DEPT.FT            0 000 00 00: Depth
DCAL.in                       : CDL Caliper
RHOB.g/cc                     : CDL Bulk Density
RHOC.g/cc                     : CDL Density Correction
DPOR.pu                       : CDL Density Porosity
NPOR.pu                       : Neutron Porosity
GR.GAPI                       : Gamma Ray
~Parameter Information Block
~A  Depth       DCAL        RHOB        RHOC        DPOR        NPOR         GR     
# ...
   985.6000      8.1796      2.5794      0.0541      4.2802     22.8152    102.5975
   985.7000      8.1796      2.5672      0.0122      5.0190     23.0520    104.3237
   985.8000      8.1813      2.5639      0.0136      5.2169     23.6465    104.6041
   985.9000      8.1813      2.5752      0.0282      4.5305     24.0042    102.3071
   986.0000      8.1819      2.5936     -0.0044      3.4184     23.7337    102.2792
   986.1000      8.1819      2.6068      0.0574      2.6205     23.2714    103.8407
   986.2000      8.1819      2.6064      0.0248      2.6438     23.0160    102.4380
   986.3000      8.1845      2.5994     -0.0154      3.0669     23.1748     99.4179
   986.4000      8.1845      2.5885      0.0269      3.7289     23.4130     97.8663
   986.5000      8.1897      2.5677      0.0070      4.9877     23.4235     98.5301
   986.6000      8.1897      2.5546     -0.0392      5.7836     23.8007    100.1012
   986.7000      8.1897      2.5680      0.0283      4.9669     24.6977     99.1210
   986.8000      8.1836      2.5908      0.0476      3.5851     25.1621     97.2960
   986.9000      8.1836      2.5987      0.0523      3.1075     25.0038    100.4619
   987.0000      8.1752      2.5956      0.0327      3.2986     25.0546    107.2104
   987.1000      8.1752      2.5927      0.0416      3.4718     25.3620    110.9883
   987.2000      8.1752      2.5856      0.0532      3.9025     25.4108    108.8677
   987.3000      8.1801      2.5804      0.0256      4.2206     25.3376    105.5459
   987.4000      8.1801      2.5910      0.0543      3.5770     25.1736    105.8848
   987.5000      8.1760      2.6065      0.0777      2.6349     24.6032    104.7938
   987.6000      8.1760      2.6124      0.0388      2.2769     23.8129     98.7663
   987.7000      8.1760      2.6103      0.0650      2.4071     23.0769     94.4871
   987.8000      8.1736      2.6038      0.0614      2.8029     22.7447     95.5159
   987.9000      8.1736      2.5917      0.0792      3.5340     22.9126     98.2140
   988.0000      8.1745      2.5764      0.0219      4.4600     22.9584     99.5519
   988.1000      8.1745      2.5716      0.0207      4.7491     22.3803     99.1418
   988.2000      8.1745      2.5848      0.0060      3.9508     21.7804    100.1496
   988.3000      8.1792      2.6099      0.0245      2.4328     21.8727    102.4563
   988.4000      8.1792      2.6269      0.0944      1.4001     22.3241    100.5300
   988.5000      8.1998      2.6188      0.0224      1.8891     22.4940     94.8980
   988.6000      8.1998      2.5995     -0.0323      3.0606     22.5891     91.0438
   988.7000      8.1998      2.5889      0.0401      3.7001     23.0865     94.1617
   988.8000      8.2057      2.5911     -0.0132      3.5673     23.9547    104.0765
   988.9000      8.2057      2.6027      0.0093      2.8679     24.8648    111.7644
   989.0000      8.2069      2.6143     -0.0154      2.1641     25.4124    113.1846
   989.1000      8.2069      2.6201      0.0133      1.8151     25.3387    112.5698
   989.2000      8.2069      2.6275     -0.0079      1.3635     24.8704    112.1375
   989.3000      8.1939      2.6458      0.0246      0.2522     24.5544    111.8109
   989.4000      8.1939      2.6626      0.0313     -0.7607     24.6782    112.2925
   989.5000      8.2050      2.6665      0.0005     -0.9980     25.1049    113.7693
   989.6000      8.2050      2.6679      0.0143     -1.0860     25.7209    114.7123
   989.7000      8.2050      2.6754      0.0796     -1.5386     26.2645    115.3451
   989.8000      8.2063      2.6730      0.0884     -1.3925     26.2887    116.1009
   989.9000      8.2063      2.6413      0.0528      0.5268     26.2747    116.3085
   990.0000      8.2100      2.5979      0.0063      3.1574     26.9195    116.3789
   990.1000      8.2100      2.5744      0.0089      4.5804     27.5238    116.3756
   990.2000      8.2100      2.5698      0.0018      4.8616     27.4597    115.6844
   990.3000      8.2099      2.5622      0.0193      5.3209     27.1715    112.4075
   990.4000      8.2099      2.5460     -0.0013      6.3034     27.0357    109.0645
   990.5000      8.2053      2.5364     -0.0269      6.8855     27.1707    111.2802
   990.6000      8.2053      2.5407     -0.0157      6.6263     27.2731    119.8061
   990.7000      8.2053      2.5490     -0.0084      6.1208     26.8636    129.2143
   990.8000      8.2056      2.5559     -0.0064      5.7039     26.2104    131.3893
   990.9000      8.2056      2.5726      0.0064      4.6931     26.0843    124.0805
   991.0000      8.2054      2.6071      0.0363      2.5999     26.5605    115.8524
   991.1000      8.2054      2.6323      0.1309      1.0743     27.0159    117.2608
   991.2000      8.2054      2.6192      0.0873      1.8671     27.1973    127.7944
   991.3000      8.2038      2.5896      0.0141      3.6601     27.4985    136.6394
   991.4000      8.2038      2.5755      0.0144      4.5136     27.8870    136.2650
   991.5000      8.2057      2.5743      0.0060      4.5890     27.7520    128.3807
   991.6000      8.2057      2.5705      0.0599      4.8203     27.4622    120.0776
   991.7000      8.2057      2.5570      0.0673      5.6371     27.8043    114.5336
   991.8000      8.2077      2.5411      0.0174      6.6017     28.4290    111.0536
   991.9000      8.2077      2.5337      0.0159      7.0502     28.4197    109.3971
   992.0000      8.2072      2.5340      0.0276      7.0298     27.8462    110.4459
   992.1000      8.2072      2.5394      0.0288      6.7005     27.6165    113.6039
   992.2000      8.2072      2.5509      0.0232      6.0032     28.2833    114.6690
   992.3000      8.2080      2.5631      0.0533      5.2695     29.4383    112.0271
   992.4000      8.2080      2.5718      0.0209      4.7370     29.9544    111.3921
   992.5000      8.2086      2.5799      0.0580      4.2503     29.3422    117.6697
   992.6000      8.2086      2.5827      0.0566      4.0769     28.1531    129.8801
   992.7000      8.2086      2.5809      0.0297      4.1874     27.0448    143.4820
   992.8000      8.2116      2.5813      0.0418      4.1625     26.7878    152.3454
   992.9000      8.2116      2.5814      0.0825      4.1561     27.4912    152.6433
   993.0000      8.2066      2.5809      0.0253      4.1857     27.8900    147.6919
   993.1000      8.2066      2.5890      0.0408      3.6962     27.4034    145.7997
   993.2000      8.2066      2.6028      0.0250      2.8619     26.8876    147.5576
   993.3000      8.2070      2.6107      0.0517      2.3829     26.7987    144.7782
   993.4000      8.2070      2.6121      0.0194      2.2993     26.8531    138.7419
   993.5000      8.2093      2.6139      0.0500      2.1877     26.8590    134.6800
   993.6000      8.2093      2.6137      0.0482      2.1972     26.8755    132.5045
   993.7000      8.2093      2.6034      0.0670      2.8265     26.9114    132.1070
   993.8000      8.2115      2.5829      0.0206      4.0689     27.0220    132.6026
   993.9000      8.2115      2.5626      0.0377      5.2986     27.4903    132.0128
   994.0000      8.2120      2.5497     -0.0058      6.0778     28.1197    126.1549
   994.1000      8.2120      2.5466      0.0088      6.2674     28.3648    115.8558
   994.2000      8.2120      2.5568      0.0141      5.6481     28.1302    109.6981
   994.3000      8.2134      2.5778      0.0489      4.3743     27.5310    112.0689
   994.4000      8.2134      2.6002      0.0464      3.0172     26.9795    117.8212
   994.5000      8.2094      2.6134      0.0576      2.2164     27.0236    118.9109
   994.6000      8.2094      2.6078      0.0680      2.5591     27.5590    114.2725
   994.7000      8.2094      2.5918      0.0082      3.5291     27.8394    109.4778
   994.8000      8.2092      2.5841      0.0725      3.9939     27.4769    106.4513
   994.9000      8.2092      2.5842      0.0413      3.9895     26.8538    104.6761
   995.0000      8.2317      2.5827      0.0522      4.0760     26.6103    104.3799
   995.1000      8.2317      2.5762      0.0191      4.4703     27.1056    103.9291
