~Version Information
 VERS.                      2.0: CWLS Log ASCII Standard - VERSION 2.0
 WRAP.                       NO: One line per depth step
 ~Well Information Block
 STRT.FT               763.7500: 
 STOP.FT              2577.0000: 
 STEP.FT                 0.2500: 
 NULL.                -999.2500: 
 COMP.          Petrogulf Corporation: COMPANY
 WELL.               J&P 12-33V: WELL
 FLD.           Purgatorie River: FIELD
 LOC.           2005' FSL & 1928' FEL: LOCATION
 CNTY.               Las Animas: COUNTY
 SRVC.                         : SERVICE COMPANY
 DATE.          Sat Aug 28 09:00:36 2004: LOG DATE
 UWI.           05 071 08092 00: UNIQUE WELL ID
 STAT.                 Colorado: STATE
 PROV.                         :Province
 ~Curve Information Block
 DEPT.FT            0 000 00 00: Depth
 SP.mV                         : DIL Spontaneous Potential
 RILD.Ohm-m                    : DIL Deep Resistivity
 RILM.Ohm-m                    : DIL Medium Resistivity
 RLL3.Ohm-m                    : DIL Shallow Resistivity
 GR.GAPI                       : Gamma Ray
 ~Parameter Information Block
 ~A  Depth        SP         RILD        RILM        RLL3         GR     
# ...
  1743.7500    -40.3393     16.6560     19.9908     19.9313    167.2674
  1744.0000    -40.5883     16.8446     20.0254     19.5062    171.5393
  1744.2500    -40.8748     17.0949     20.2962     20.5075    170.7347
  1744.5000    -41.1779     17.4132     20.8104     22.8613    163.3351
  1744.7500    -41.4773     17.8045     21.5781     26.4586    154.9439
  1745.0000    -41.7561     18.2701     22.6131     31.1327    139.7164
  1745.2500    -42.0021     18.8077     23.9335     36.6814    129.3469
  1745.5000    -42.2085     19.4133     25.5595     42.9490    115.0373
  1745.7500    -42.3732     20.0859     27.5098     49.8947    106.5328
  1746.0000    -42.4985     20.8327     29.7965     57.5413     95.1915
  1746.2500    -42.5900     21.6704     32.4172     65.7963     88.7068
  1746.5000    -42.6553     22.6200     35.3462     74.2884     81.3374
  1746.7500    -42.7028     23.6926     38.5263     82.3689     78.3116
  1747.0000    -42.7398     24.8705     41.8628     89.2692     76.1582
  1747.2500    -42.7713     26.0924     45.2219     94.2852     75.5477
  1747.5000    -42.7981     27.2512     48.4334     96.9307     74.7052
  1747.7500    -42.8156     28.2134     51.2945     97.1005     74.0249
  1748.0000    -42.8141     28.8549     53.5742     95.2389     73.1521
  1748.2500    -42.7791     29.0958     55.0225     92.3633     72.8049
  1748.5000    -42.6943     28.9155     55.3946     89.8121     72.6525
  1748.7500    -42.5437     28.3459     54.5066     88.7666     72.8799
  1749.0000    -42.3152     27.4552     52.3124     89.7610     73.8656
  1749.2500    -42.0026     26.3333     48.9663     92.3994     74.7601
  1749.5000    -41.6083     25.0822     44.8158     95.4095     75.8190
  1749.7500    -41.1435     23.8071     40.3113     97.0512     76.3720
  1750.0000    -40.6281     22.6043     35.8796     95.7376     78.3393
  1750.2500    -40.0886     21.5494     31.8331     90.5956     81.5014
  1750.5000    -39.5557     20.6871     28.3440     81.7122     90.1321
  1750.7500    -39.0591     20.0259     25.4677     70.0237     98.5639
  1751.0000    -38.6242     19.5391     23.1852     57.0038    114.8594
  1751.2500    -38.2674     19.1720     21.4398     44.3080    127.5005
  1751.5000    -37.9949     18.8558     20.1616     33.4295    146.5278
  1751.7500    -37.8025     18.5280     19.2810     25.4083    157.1348
  1752.0000    -37.6787     18.1527     18.7337     20.6895    167.2222
  1752.2500    -37.6080     17.7304     18.4623     19.1826    169.7820
  1752.5000    -37.5746     17.2940     18.4151     20.4337    168.3264
  1752.7500    -37.5651     16.8942     18.5457     23.7539    164.3452
  1753.0000    -37.5691     16.5857     18.8126     28.2551    154.5151
  1753.2500    -37.5791     16.4168     19.1795     32.8951    146.2474
  1753.5000    -37.5900     16.4253     19.6158     36.6558    134.0777
  1753.7500    -37.5981     16.6337     20.0964     38.8298    127.9597
  1754.0000    -37.6013     17.0444     20.5999     39.2532    123.4376
  1754.2500    -37.5992     17.6344     21.1059     38.3139    123.0743
  1754.5000    -37.5934     18.3521     21.5919     36.7099    124.1277
  1754.7500    -37.5871     19.1211     22.0310     35.0983    124.6528
  1755.0000    -37.5849     19.8522     22.3911     33.8388    124.6029
  1755.2500    -37.5919     20.4596     22.6373     32.9572    124.4787
  1755.5000    -37.6119     20.8772     22.7361     32.2850    125.3530
  1755.7500    -37.6469     21.0671     22.6621     31.6271    127.1090
  1756.0000    -37.6952     21.0221     22.4038     30.8425    131.4274
  1756.2500    -37.7515     20.7647     21.9671     29.8425    134.9044
  1756.5000    -37.8068     20.3405     21.3757     28.5839    140.1765
  1756.7500    -37.8500     19.8073     20.6663     27.0870    143.7092
  1757.0000    -37.8703     19.2220     19.8827     25.4428    149.3078
  1757.2500    -37.8595     18.6320     19.0688     23.7756    152.9514
  1757.5000    -37.8147     18.0704     18.2632     22.1921    157.0990
  1757.7500    -37.7396     17.5561     17.4962     20.7610    158.5693
  1758.0000    -37.6445     17.0938     16.7887     19.5318    159.3857
  1758.2500    -37.5439     16.6770     16.1529     18.5565    159.8704
  1758.5000    -37.4538     16.2931     15.5931     17.8836    161.7041
  1758.7500    -37.3880     15.9303     15.1085     17.5264    163.5652
  1759.0000    -37.3557     15.5840     14.6944     17.4370    166.0548
  1759.2500    -37.3605     15.2582     14.3446     17.5139    166.9836
  1759.5000    -37.4003     14.9615     14.0529     17.6436    167.6355
  1759.7500    -37.4698     14.7013     13.8144     17.7445    168.2393
  1760.0000    -37.5622     14.4790     13.6262     17.7824    170.4183
  1760.2500    -37.6714     14.2904     13.4878     17.7581    172.8255
  1760.5000    -37.7927     14.1291     13.4006     17.6902    176.6282
  1760.7500    -37.9233     13.9929     13.3677     17.6133    178.1029
  1761.0000    -38.0621     13.8873     13.3929     17.5842    177.7537
  1761.2500    -38.2091     13.8269     13.4799     17.6799    176.2814
  1761.5000    -38.3649     13.8324     13.6324     17.9801    173.3187
  1761.7500    -38.5296     13.9266     13.8533     18.5382    170.8951
  1762.0000    -38.7024     14.1290     14.1450     19.3557    166.0368
  1762.2500    -38.8807     14.4522     14.5101     20.3741    161.8198
  1762.5000    -39.0602     14.8978     14.9519     21.4878    154.3191
  1762.7500    -39.2349     15.4550     15.4747     22.5700    149.1079
  1763.0000    -39.3985     16.1005     16.0852     23.5010    142.6717
  1763.2500    -39.5454     16.8013     16.7917     24.2069    140.1733
  1763.5000    -39.6712     17.5196     17.6031     24.7189    138.9663
  1763.7500    -39.7733     18.2171     18.5256     25.2459    138.8811
  1764.0000    -39.8494     18.8568     19.5567     26.2238    138.6815
  1764.2500    -39.8960     19.4002     20.6756     28.3149    138.7649
  1764.5000    -39.9068     19.8037     21.8309     32.3337    139.6278
  1764.7500    -39.8718     20.0212     22.9298     39.0552    139.7602
  1765.0000    -39.7778     20.0138     23.8355     48.8652    136.5316
  1765.2500    -39.6116     19.7668     24.3879     61.3044    131.4243
  1765.5000    -39.3633     19.2973     24.4501     74.7256    121.2265
  1765.7500    -39.0304     18.6513     23.9653     86.3928    114.8641
  1766.0000    -38.6198     17.8880     22.9887     93.2167    109.1953
  1766.2500    -38.1485     17.0659     21.6669     92.9405    108.9322
  1766.5000    -37.6407     16.2342     20.1800     85.1957    113.7061
  1766.7500    -37.1236     15.4295     18.6852     71.7824    119.6721
  1767.0000    -36.6233     14.6744     17.2889     55.9374    131.6399
  1767.2500    -36.1609     13.9769     16.0447     40.9896    141.1789
  1767.5000    -35.7512     13.3320     14.9679     29.1810    156.7763
  1767.7500    -35.4030     12.7275     14.0500     21.2299    166.7847
  1768.0000    -35.1209     12.1529     13.2715     16.6559    178.3528
  1768.2500    -34.9062     11.6052     12.6101     14.4427    182.5763
  1768.5000    -34.7583     11.0903     12.0450     13.5901    183.7096
  1768.7500    -34.6744     10.6181     11.5590     13.3712    182.1194
  1769.0000    -34.6489     10.1972     11.1384     13.3509    178.7309
  1769.2500    -34.6726      9.8303     10.7727     13.3114    176.8149
  1769.5000    -34.7337      9.5154     10.4537     13.1763    174.7472
  1769.7500    -34.8186      9.2483     10.1741     12.9555    173.7074
  1770.0000    -34.9140      9.0254      9.9278     12.7014    173.0201
  1770.2500    -35.0090      8.8448      9.7093     12.4664    173.7681
  1770.5000    -35.0962      8.7054      9.5145     12.2702    177.0564
  1770.7500    -35.1720      8.6053      9.3408     12.0941    180.0085
  1771.0000    -35.2362      8.5411      9.1876     11.9024    183.8306
  1771.2500    -35.2910      8.5083      9.0562     11.6728    185.4781
  1771.5000    -35.3395      8.5022      8.9490     11.4139    186.8965
