~Version Information
VERS.                      2.0: CWLS Log ASCII Standard - VERSION 2.0
WRAP.                       NO: One line per depth step
~Well Information Block
STRT.FT               546.0000: 
STOP.FT              1771.5000: 
STEP.FT                 0.1000: 
NULL.                -999.2500: 
COMP.          Petrogulf Corporation: COMPANY
WELL.             McLeod 9-42R: WELL
FLD.           Purgatorie River: FIELD
LOC.           1748' FNL & 372' FEL: LOCATION
PROV.                 Colorado: PROVINCE
CNTY.               Las Animas: COUNTRY
SRVC.                Patterson: SERVICE COMPANY
DATE.          Tue Aug 16 11:11:38 2005: LOG DATE
UWI.                071 08092 : UNIQUE WELL ID
~Curve Information Block
DEPT.FT            0 000 00 00: Depth
DCAL.in                       : CDL Caliper
RHOB.g/cc                     : CDL Bulk Density
RHOC.g/cc                     : CDL Density Correction
DPOR.pu                       : CDL Density Porosity
GR.GAPI                       : Gamma Ray
NPOR.pu                       : Neutron Porosity
~Parameter Information Block
~A  Depth       DCAL        RHOB        RHOC        DPOR         GR         NPOR    
# ...
  1179.6000      7.9907      2.5380      0.0226      6.7886    145.1986     28.8024
  1179.7000      7.9907      2.5628      0.0946      5.2838    141.6189     29.1778
  1179.8000      8.0253      2.5894      0.1007      3.6751    143.2344     29.3033
  1179.9000      8.0253      2.5919      0.0900      3.5194    146.9983     29.3736
  1180.0000      8.0700      2.5762      0.0474      4.4749    146.4639     29.5632
  1180.1000      8.0700      2.5611      0.0596      5.3851    142.9945     30.1989
  1180.2000      8.0700      2.5483      0.0753      6.1633    140.5757     30.9080
  1180.3000      8.0383      2.5368      0.0290      6.8619    138.6284     30.9804
  1180.4000      8.0383      2.5330      0.0543      7.0883    135.5051     30.6857
  1180.5000      8.0613      2.5299      0.0693      7.2805    133.7242     30.5056
  1180.6000      8.0613      2.5229      0.0458      7.7023    134.4782     30.4284
  1180.7000      8.0613      2.5225      0.0835      7.7280    134.6708     30.4178
  1180.8000      8.1530      2.5282      0.1286      7.3803    132.1216     30.4249
  1180.9000      8.1530      2.5361      0.0526      6.9030    130.1604     30.5991
  1181.0000      8.2646      2.5490      0.1266      6.1216    132.8728     31.0165
  1181.1000      8.2646      2.5624      0.0902      5.3087    137.4676     31.1392
  1181.2000      8.2646      2.5645      0.1381      5.1829    138.9082     30.7766
  1181.3000      8.2201      2.5425      0.0976      6.5143    134.9536     30.3634
  1181.4000      8.2201      2.5037      0.0344      8.8693    126.8976     30.0364
  1181.5000      8.1071      2.4717     -0.0209     10.8073    121.5598     29.7278
  1181.6000      8.1071      2.4470      0.0430     12.3032    123.4759     29.5918
  1181.7000      8.1071      2.4073      0.0166     14.7086    129.2047     29.5760
  1181.8000      8.0979      2.3529      0.0035     18.0033    132.2532     29.4475
  1181.9000      8.0979      2.3076     -0.0129     20.7529    130.3073     29.3144
  1182.0000      8.1121      2.2840     -0.0229     22.1840    128.3798     29.4246
  1182.1000      8.1121      2.2710      0.0297     22.9690    129.4437     29.6066
  1182.2000      8.1121      2.2529      0.0435     24.0680    130.2652     29.8443
  1182.3000      8.1456      2.2356      0.0175     25.1136    129.2086     30.4993
  1182.4000      8.1456      2.2321      0.0395     25.3261    127.4533     31.5262
  1182.5000      8.2069      2.2366      0.0788     25.0552    124.8317     32.6872
  1182.6000      8.2069      2.2338      0.1475     25.2246    120.3515     33.8798
  1182.7000      8.2069      2.2194      0.1254     26.0956    114.3092     34.6617
  1182.8000      8.1650      2.2044      0.0533     27.0047    109.5633     34.8128
  1182.9000      8.1650      2.1976      0.0153     27.4176    108.4241     34.5884
  1183.0000      8.0523      2.1851      0.0840     28.1745    109.9123     34.1768
  1183.1000      8.0523      2.1484      0.0430     30.3997    111.3646     33.8909
  1183.2000      8.0523      2.0965     -0.0226     33.5483    111.2770     33.9335
  1183.3000      8.0680      2.0399      0.0081     36.9782    110.8840     34.1331
  1183.4000      8.0680      1.9673     -0.0235     41.3751    108.6289     34.3532
  1183.5000      8.1457      1.8733     -0.0125     47.0755    101.0120     34.4822
  1183.6000      8.1457      1.7754     -0.0344     53.0065     93.1551     34.4459
  1183.7000      8.1457      1.6984     -0.0353     57.6710     90.7282     34.4422
  1183.8000      8.4400      1.6507     -0.0198     60.5606     89.7293     34.7557
  1183.9000      8.4400      1.6323     -0.0111     61.6774     87.5682     35.3795
  1184.0000      8.3471      1.6484      0.0425     60.7004     87.0294     35.9927
  1184.1000      8.3471      1.6940      0.1315     57.9419     88.8159     36.2365
  1184.2000      8.3471      1.7520      0.1769     54.4252     90.0002     36.1685
  1184.3000      8.2599      1.8184      0.1882     50.4006     88.1245     36.1448
  1184.4000      8.2599      1.9044      0.1903     45.1884     84.8416     36.2620
  1184.5000      8.1830      2.0141      0.1812     38.5406     83.5808     36.1921
  1184.6000      8.1830      2.1308      0.2095     31.4678     84.6162     35.6502
  1184.7000      8.1830      2.2363      0.1429     25.0756     85.9023     34.9701
  1184.8000      8.0675      2.3300      0.1065     19.3967     86.1331     34.5718
  1184.9000      8.0675      2.4068      0.1797     14.7405     86.0757     34.3263
  1185.0000      8.0452      2.4549      0.1125     11.8232     86.5431     33.9837
  1185.1000      8.0452      2.4794      0.1123     10.3374     87.5030     33.4161
  1185.2000      8.0452      2.4936      0.0771      9.4764     89.5478     32.2908
  1185.3000      8.0252      2.5066      0.0508      8.6904     92.3217     30.7555
  1185.4000      8.0252      2.5183      0.0706      7.9814     94.5937     29.5717
  1185.5000      8.0172      2.5235      0.0652      7.6677     96.4336     29.0273
  1185.6000      8.0172      2.5261      0.0282      7.5105     97.7347     28.5312
  1185.7000      8.0172      2.5321      0.0470      7.1442     97.5668     27.6062
  1185.8000      8.0226      2.5356      0.0501      6.9333     97.0585     26.7896
  1185.9000      8.0226      2.5342      0.0071      7.0174     98.6172     26.5754
  1186.0000      8.0126      2.5349      0.0254      6.9731    102.2284     26.3745
  1186.1000      8.0126      2.5398      0.0417      6.6810    105.6202     25.6853
  1186.2000      8.0126      2.5484      0.0174      6.1600    107.6726     25.0009
  1186.3000      8.0171      2.5593      0.0615      5.4963    107.4913     25.0733
  1186.4000      8.0171      2.5695      0.0649      4.8793    106.4401     25.9458
  1186.5000      8.0265      2.5741      0.0596      4.6025    106.7828     27.0800
  1186.6000      8.0265      2.5654      0.0736      5.1296    106.7430     27.9191
  1186.7000      8.0265      2.5479      0.0314      6.1886    105.2766     27.8908
  1186.8000      8.0424      2.5363      0.0302      6.8895    103.1771     26.9637
  1186.9000      8.0424      2.5294      0.0700      7.3117    101.1059     26.0107
  1187.0000      8.0411      2.5187      0.0308      7.9571    101.4208     25.7547
  1187.1000      8.0411      2.5073      0.0424      8.6487    104.3022     25.9370
  1187.2000      8.0411      2.4993      0.0304      9.1311    106.6978     25.9705
  1187.3000      8.0560      2.5018      0.0168      8.9833    107.1946     25.8021
  1187.4000      8.0560      2.5161      0.0631      8.1155    106.5562     25.7041
  1187.5000      8.0765      2.5319      0.0862      7.1559    105.5259     25.5731
  1187.6000      8.0765      2.5514      0.0303      5.9778    103.5535     25.5631
  1187.7000      8.0765      2.5809      0.0808      4.1905     99.6837     25.9737
  1187.8000      8.0814      2.6045      0.1345      2.7550     96.0309     26.4291
  1187.9000      8.0814      2.6062      0.0748      2.6565     94.0680     26.3337
  1188.0000      8.0803      2.5947      0.0802      3.3522     92.7574     25.3593
  1188.1000      8.0803      2.5871      0.0826      3.8103     92.5529     23.9987
  1188.2000      8.0803      2.5896      0.0569      3.6593     92.1531     23.2875
  1188.3000      8.0755      2.5979      0.0785      3.1569     88.7833     23.4835
  1188.4000      8.0755      2.6035      0.0759      2.8195     84.8349     23.8804
  1188.5000      8.0384      2.6010      0.0776      2.9678     83.9653     23.9442
  1188.6000      8.0384      2.5891      0.0648      3.6937     83.9883     23.5989
  1188.7000      8.0384      2.5778      0.0502      4.3783     81.7440     22.9416
  1188.8000      7.9328      2.5826      0.0622      4.0848     79.4559     22.2703
  1188.9000      7.9328      2.6002      0.0907      3.0168     79.4138     21.6704
  1189.0000      7.8875      2.6131      0.1178      2.2352     79.6494     20.8760
  1189.1000      7.8875      2.6141      0.1206      2.1784     79.9333     20.0472
