~Version Information
VERS.                      2.0: CWLS Log ASCII Standard - VERSION 2.0
WRAP.                       NO: One line per depth step
~Well Information Block
STRT.FT               488.0000: 
STOP.FT              1824.7000: 
STEP.FT                 0.1000: 
NULL.                -999.2500: 
COMP.          Pioneer Natural Resources: COMPANY
WELL.            Buckeye 11-13: WELL
FLD.           Purgatoire River: FIELD
LOC.           211' FNL & 1054' FWL: LOCATION
STAT.                 Colorado: State
CNTY.               Las Animas: COUNTY
CTRY. USA : Country
SECT. 13 : Section
TOWN. 33S : Township
RANG. 67W : Range
SRVC.                Patterson: SERVICE COMPANY
DATE.          Mon Mar 07 02:06:39 2005: LOG DATE
API.           05 071 08317 00: UNIQUE WELL ID
~Curve Information Block
DEPT.FT            0 000 00 00: Depth
DCAL.in                       : CDL Caliper
RHOB.g/cc                     : CDL Bulk Density
RHOC.g/cc                     : CDL Density Correction
DPOR.pu                       : CDL Density Porosity
GR.GAPI                       : Gamma Ray
NPOR.pu                       : Neutron Porosity
~Parameter Information Block
~A  Depth       DCAL        RHOB        RHOC        DPOR         GR         NPOR    
   488.0000      8.2134      2.2311     -0.4624     25.3884    128.0557     21.3570
   488.1000      8.2134      2.2185     -0.4457     26.1537    115.5569     21.6011
   488.2000      8.2134      2.2046     -0.5107     26.9957    108.4981     21.5410
   488.3000      8.2038      2.2092     -0.4891     26.7126    109.0167     21.0891
   488.4000      8.2038      2.2323     -0.4759     25.3133    114.7660     20.3099
   488.5000      8.2019      2.2534     -0.4540     24.0372    123.7622     19.4921
   488.6000      8.2019      2.2505     -0.4226     24.2128    132.1892     18.9793
   488.7000      8.2019      2.2326     -0.5048     25.2984    135.3673     19.0849
   488.8000      8.2029      2.2359     -0.4918     25.0984    134.5929     19.5930
   488.9000      8.2029      2.2593     -0.3851     23.6801    132.9212     20.2381
   489.0000      8.2050      2.2649     -0.4016     23.3396    129.3743     20.8671
   489.1000      8.2050      2.2427     -0.4595     24.6836    126.3782     21.2657
   489.2000      8.2050      2.2059     -0.4222     26.9138    126.9046     21.4975
   489.3000      8.2047      2.1695     -0.4889     29.1207    127.1058     21.5696
   489.4000      8.2047      2.1559     -0.5278     29.9460    124.9444     21.4850
   489.5000      8.2047      2.1655     -0.4569     29.3660    123.6389     21.3748
   489.6000      8.2047      2.1747     -0.4715     28.8058    126.3827     21.4888
   489.7000      8.2047      2.1752     -0.4931     28.7777    131.1016     21.8735
   489.8000      8.2045      2.1727     -0.4899     28.9291    133.5340     22.1085
   489.9000      8.2045      2.1697     -0.4976     29.1064    133.8035     21.9580
   490.0000      8.2033      2.1671     -0.4791     29.2659    132.5712     21.6567
   490.1000      8.2033      2.1616     -0.4676     29.6023    130.8941     21.5587
   490.2000      8.2033      2.1520     -0.5046     30.1794    132.5025     21.4807
   490.3000      8.2029      2.1523     -0.5205     30.1661    139.1137     21.1219
   490.4000      8.2029      2.1677     -0.4732     29.2288    147.4720     20.8707
   490.5000      8.2035      2.1831     -0.4918     28.2943    150.5527     20.8928
   490.6000      8.2035      2.1879     -0.4660     28.0077    144.0547     20.5644
   490.7000      8.2035      2.1840     -0.5270     28.2407    135.0386     20.0647
   490.8000      8.2037      2.1833     -0.5048     28.2829    129.4345     20.3205
   490.9000      8.2037      2.1873     -0.4621     28.0449    125.3314     21.0654
   491.0000      8.2027      2.1771     -0.4387     28.6593    124.2766     21.5321
   491.1000      8.2027      2.1429     -0.4807     30.7317    127.7535     21.6846
   491.2000      8.2027      2.1081     -0.5614     32.8449    130.6004     21.9212
   491.3000      8.2016      2.1063     -0.5550     32.9503    129.2707     22.1782
   491.4000      8.2016      2.1405     -0.4975     30.8760    127.1718     22.1146
   491.5000      8.2026      2.1796     -0.4345     28.5079    131.2387     21.9291
   491.6000      8.2026      2.1921     -0.4433     27.7492    140.3087     21.5360
   491.7000      8.2026      2.1791     -0.4696     28.5420    146.9621     21.1221
   491.8000      8.2028      2.1602     -0.4754     29.6846    150.1866     21.2718
   491.9000      8.2028      2.1471     -0.5238     30.4779    146.5582     21.5689
   492.0000      8.2026      2.1404     -0.5047     30.8857    132.6235     21.5644
   492.1000      8.2026      2.1333     -0.5188     31.3150    118.7328     21.6527
   492.2000      8.2026      2.1292     -0.5441     31.5632    115.4239     21.8080
   492.3000      8.2012      2.1357     -0.4852     31.1727    121.8682     21.7398
   492.4000      8.2012      2.1458     -0.5248     30.5597    131.6940     21.6294
   492.5000      8.2018      2.1519     -0.5442     30.1885    137.2514     21.6749
   492.6000      8.2018      2.1537     -0.5312     30.0795    135.6326     21.8870
   492.7000      8.2018      2.1639     -0.5311     29.4620    131.4559     22.1318
   492.8000      8.2030      2.1963     -0.4844     27.4982    129.8926     22.1728
   492.9000      8.2030      2.2381     -0.4517     24.9618    132.9227     22.1438
   493.0000      8.2008      2.2675     -0.4335     23.1834    134.9241     22.4759
   493.1000      8.2008      2.2802     -0.4636     22.4151    126.8030     23.0055
   493.2000      8.2008      2.2856     -0.4697     22.0827    112.2713     22.9232
   493.3000      8.2028      2.2872     -0.4539     21.9902    104.8763     21.8099
   493.4000      8.2028      2.2788     -0.4539     22.4984    103.9156     20.1716
   493.5000      8.2032      2.2646     -0.5338     23.3587    102.0361     19.0615
   493.6000      8.2032      2.2599     -0.4960     23.6429    101.7902     19.3116
   493.7000      8.2032      2.2643     -0.4660     23.3785    106.8096     20.5411
   493.8000      8.2035      2.2594     -0.4559     23.6734    115.1478     21.1723
   493.9000      8.2035      2.2326     -0.4812     25.2959    123.4253     20.7496
   494.0000      8.2039      2.1906     -0.5132     27.8440    133.7933     20.6272
   494.1000      8.2039      2.1542     -0.5236     30.0456    144.7363     21.2754
   494.2000      8.2039      2.1428     -0.5383     30.7396    147.1077     21.9763
   494.3000      8.2038      2.1535     -0.5054     30.0880    141.2657     22.3510
   494.4000      8.2038      2.1628     -0.4645     29.5271    135.8153     22.3274
   494.5000      8.2034      2.1599     -0.4756     29.7034    134.2402     22.0214
   494.6000      8.2034      2.1611     -0.5205     29.6325    134.7480     21.8804
   494.7000      8.2034      2.1798     -0.4587     28.4983    135.7737     22.1867
   494.8000      8.2047      2.2023     -0.4659     27.1309    137.1984     22.6925
   494.9000      8.2047      2.2061     -0.4532     26.9011    139.1090     22.9570
   495.0000      8.2041      2.1905     -0.5296     27.8492    142.7972     23.3633
   495.1000      8.2041      2.1775     -0.5020     28.6355    145.7601     24.1818
   495.2000      8.2041      2.1756     -0.4816     28.7530    142.3950     24.7201
   495.3000      8.2046      2.1800     -0.5231     28.4854    136.4780     25.0408
   495.4000      8.2046      2.1970     -0.5061     27.4520    133.6342     24.9624
   495.5000      8.2048      2.2287     -0.4908     25.5327    131.9215     23.9492
   495.6000      8.2048      2.2614     -0.4733     23.5516    128.4417     22.6558
   495.7000      8.2048      2.2789     -0.4383     22.4928    124.3566     22.4047
   495.8000      8.2035      2.2706     -0.4379     22.9928    124.4258     23.3752
   495.9000      8.2035      2.2408     -0.4827     24.7984    127.8441     24.0424
   496.0000      8.2042      2.2088     -0.4990     26.7375    132.3923     23.2929
   496.1000      8.2042      2.1927     -0.5476     27.7175    141.2768     21.3595
   496.2000      8.2042      2.2005     -0.5317     27.2438    147.9555     19.8195
   496.3000      8.2025      2.2235     -0.4569     25.8498    142.6707     20.1913
   496.4000      8.2025      2.2436     -0.4540     24.6288    132.3555     22.0281
   496.5000      8.2041      2.2494     -0.4446     24.2779    125.0663     23.4488
   496.6000      8.2041      2.2340     -0.4694     25.2115    122.2766     23.6216
   496.7000      8.2041      2.2053     -0.5068     26.9504    124.7949     23.5693
   496.8000      8.2052      2.1820     -0.5019     28.3635    128.6337     23.9908
   496.9000      8.2052      2.1650     -0.4696     29.3924    131.5667     24.6117
   497.0000      8.2072      2.1442     -0.4883     30.6531    136.9911     24.8424
   497.1000      8.2072      2.1252     -0.5376     31.8048    142.1997     24.4626
   497.2000      8.2072      2.1182     -0.5383     32.2282    142.6541     23.9731
   497.3000      8.2065      2.1198     -0.5632     32.1354    144.2615     23.9513
   497.4000      8.2065      2.1217     -0.5296     32.0171    150.9432     24.4610
   497.5000      8.2082      2.1252     -0.5194     31.8063    156.5059     25.0452
