~Version Information
VERS.                      2.0: CWLS Log ASCII Standard - VERSION 2.0
WRAP.                       NO: One line per depth step
~Well Information Block
STRT.FT               840.0000: 
STOP.FT              2448.5000: 
STEP.FT                 0.2500: 
NULL.                -999.2500: 
COMP.          Petrogulf Corporation: COMPANY
WELL.             Leier 17-42V: WELL
FLD.           Purgatorie River: FIELD
LOC.           2309' FNL & 1062' FEL SENE 17 33S 67W: LOCATION
PROV.                 Colorado: PROVINCE
CNTY.               Las Animas: COUNTRY
SRVC.                Patterson: SERVICE COMPANY
DATE.          Thu Sep 22 09:40:29 2005: LOG DATE
UWI.                 071 08409: UNIQUE WELL ID
~Curve Information Block
DEPT.FT            0 000 00 00: Depth
SP.mV                         : DIL Spontaneous Potential
RILD.Ohm-m                    : DIL Deep Resistivity
RILM.Ohm-m                    : DIL Medium Resistivity
RLL3.Ohm-m                    : DIL Shallow Resistivity
GR.GAPI                       : Gamma Ray
~Parameter Information Block
~A  Depth        SP         RILD        RILM        RLL3         GR     
# ...
  2100.0000     71.5102      0.0537      0.3910      0.5313     41.4946
  2100.2500     86.4550      0.0323      0.3874      0.5781     33.8273
  2100.5000    109.3364      0.0355      0.4888      0.7195     36.9151
  2100.7500    134.7572      0.0570      0.4866      0.9694     48.5208
  2101.0000    163.1200      0.1242      0.3343      1.5745     52.2149
  2101.2500    190.8146      0.3673      0.6581      4.2166     49.1815
  2101.5000    212.9911      1.5688 100000.0000      9.1082     49.8116
  2101.7500    229.0545      7.1434 100000.0000     10.7951     62.4586
  2102.0000    238.1837      1.0341 100000.0000      9.8091     66.4964
  2102.2500    243.0123      0.2706 100000.0000      8.9318     83.3469
  2102.5000    246.0743      0.1364      7.7190      7.6447     96.5779
  2102.7500    247.8956      0.1856      0.4701      7.2911     86.5292
  2103.0000    249.0879      0.3398      0.2246      9.5045     87.4411
  2103.2500    250.1467      0.7232      0.2378     14.6826    102.0183
  2103.5000    251.1339      2.2856      0.3599     17.9879    103.0235
  2103.7500    251.7883 100000.0000      0.5551     17.2586     73.9396
  2104.0000    252.1602 100000.0000      0.8157     17.5134     68.6064
  2104.2500    252.1830 100000.0000      1.0458     18.8053     85.5635
  2104.5000    251.9470 100000.0000      1.2835     20.8139     84.2798
  2104.7500    251.4781 100000.0000      1.6468     23.0651     77.7567
  2105.0000    250.7692 100000.0000      2.3125     24.4182     87.2066
  2105.2500    249.9603 100000.0000      5.1050     24.2928     80.4562
  2105.5000    250.1648 100000.0000 100000.0000     22.9307     63.5263
  2105.7500    253.3362 100000.0000 100000.0000     21.4822     59.6728
  2106.0000    254.7897 100000.0000 100000.0000     20.3484     73.9810
  2106.2500    251.0215     34.0217 100000.0000     20.4606     78.5568
  2106.5000    249.1686     29.3170 100000.0000     21.3917     78.8700
  2106.7500    247.4140     33.0867 100000.0000     23.5359     66.7399
  2107.0000    248.1583     59.2113    320.6067     27.3454     79.4582
  2107.2500    251.6589    452.4670     22.3066     30.8296     89.6118
  2107.5000    250.9422 100000.0000     10.9525     33.8129     86.6492
  2107.7500    249.0174 100000.0000      6.0543     33.7279     85.3639
  2108.0000    251.4315     78.3855      4.3527     31.7108     75.4068
  2108.2500    249.9489     24.6514      3.8526     27.8857     57.6727
  2108.5000    251.9807     16.3798      4.0099     22.8785     59.6253
  2108.7500    252.4063     13.3130      4.7023     19.7437     63.7805
  2109.0000    249.7982     12.1760      5.8718     18.6537     55.1569
  2109.2500    247.3650     11.7762      7.1462     18.2889     71.9890
  2109.5000    245.7140     11.8564      8.4212     17.5582     92.3149
  2109.7500    246.8357     12.0382      9.6391     16.0689     81.7942
  2110.0000    246.7098     12.3572     10.7669     14.4212    102.3742
  2110.2500    245.0946     12.5554     12.4702     13.5571     98.6965
  2110.5000    243.0051     12.6198     14.9888     14.3345    101.9615
  2110.7500    243.9866     12.7478     17.8208     19.6032     95.7786
  2111.0000    244.8097     12.9375     20.4331     36.3607     89.4910
  2111.2500    246.7289     13.2442     22.0038     80.3039     87.6423
  2111.5000    248.7931     13.3166     22.0376    155.5301     78.4080
  2111.7500    250.5592     13.5460     21.0314    163.2200     48.0957
  2112.0000    252.0705     14.0713     19.5838     84.5674     45.3343
  2112.2500    252.9928     14.6250     19.0348     31.4985     34.5849
  2112.5000    253.1254     15.4250     18.8712     17.4710     26.2595
  2112.7500    252.4897     16.0163     19.0715     17.4211     38.0904
  2113.0000    251.7019     16.6768     19.6316     21.9215     43.3817
  2113.2500    251.1798     17.2602     20.3512     26.6450     44.7058
  2113.5000    251.0147     17.4062     20.9804     28.1302     59.0589
  2113.7500    251.0698     17.2946     20.9476     26.2310     59.9010
  2114.0000    251.2435     17.3625     20.5887     26.8449     70.4367
  2114.2500    251.3919     16.9865     19.7269     28.6768     80.3989
  2114.5000    251.5314     16.8921     19.3792     25.5572     71.5748
  2114.7500    251.7840     16.8638     18.8370     21.2804     70.7940
  2115.0000    251.9454     17.0427     18.4492     16.6474     80.8890
  2115.2500    252.0112     17.1687     18.1618     14.3191     66.1864
  2115.5000    251.8783     16.8154     18.7727     13.0844     72.6880
  2115.7500    251.6205     16.6192     19.2672     13.5743     68.3455
  2116.0000    251.1914     16.5263     19.5595     17.6947     91.9268
  2116.2500    250.7324     16.2090     19.4344     24.7480     72.9557
  2116.5000    250.3086     16.1141     18.8601     27.1037     77.7744
  2116.7500    249.8437     15.6555     17.4888     26.8820     66.3176
  2117.0000    249.3420     15.3830     15.8688     23.6894     59.5988
  2117.2500    248.8055     14.8336     14.7409     18.3124     45.8362
  2117.5000    248.1270     14.1823     14.1593     13.8566     63.8380
  2117.7500    247.2925     13.9018     13.4954     14.1114     67.8012
  2118.0000    246.3382     13.8035     13.0572     14.4151     78.4548
  2118.2500    245.1695     13.5047     12.6407     16.3975     86.2755
  2118.5000    244.1387     13.0318     12.2572     14.4016     84.5143
  2118.7500    243.3723     12.2195     11.9296     13.7367    103.5992
  2119.0000    242.7661     11.8557     11.5428     13.4089     96.2491
  2119.2500    242.2968     11.2634     11.1613     14.0186     95.0463
  2119.5000    241.9973     10.8974     10.8905     13.4933     82.6722
  2119.7500    241.7455     10.6491     10.5030     12.5353     76.0053
  2120.0000    241.4211     10.2264     10.1819     12.5937     91.3006
  2120.2500    240.9945      9.6092      9.9028     12.1282     78.3908
  2120.5000    240.5864      9.0271      9.8542     10.9844     90.6103
  2120.7500    240.4538      8.4380      9.7003     11.4140    104.1114
  2121.0000    240.7657      7.9978      9.5128     15.8817     89.6642
  2121.2500    241.7809      7.6310      8.9672     23.9474    104.9837
  2121.5000    243.2477      7.2807      8.2832     23.3251     85.3154
  2121.7500    244.5377      6.9734      7.6022     12.5582     81.8545
  2122.0000    245.4716      6.6745      6.9045      7.5434     82.8546
  2122.2500    245.8642      6.4226      6.3266      6.3912     72.2347
  2122.5000    245.8925      6.2101      5.9930      6.4554     91.7116
  2122.7500    245.6878      6.0405      5.7777      6.5561     81.9849
  2123.0000    245.5057      5.9374      5.6149      6.9102     73.8071
  2123.2500    245.3857      5.7809      5.4586      7.2901     77.3869
  2123.5000    245.3265      5.6649      5.2673      7.5101     75.2617
  2123.7500    245.3563      5.5567      5.1099      7.0897     74.6455
  2124.0000    245.4177      5.5198      4.9605      6.5022     83.3988
  2124.2500    245.4099      5.5658      4.8897      6.1969     88.1512
  2124.5000    245.2604      5.6043      4.9137      6.4168     78.6420
  2124.7500    244.9390      5.7206      5.0491      6.6714     76.2364
  2125.0000    244.4502      5.8561      5.2983      7.0166     72.8107
  2125.2500    243.8960      5.9929      5.6133      7.8466     87.9389
  2125.5000    243.2600      6.1312      5.9531      9.1146    101.8657
  2125.7500    242.5734      6.3735      6.3877     10.1169    112.4267
  2126.0000    241.8400      6.6393      6.8411     10.9002     88.4299
  2126.2500    241.0604      6.9609      7.2515     11.2122     93.9841
  2126.5000    240.2817      7.3833      7.7685     11.5265     92.1998
  2126.7500    239.4560      7.8714      8.2379     12.1889     94.9292
  2127.0000    238.6756      8.3056      8.7748     14.0685     86.1573
  2127.2500    237.8194      8.8871      9.4238     16.4718     91.0659
  2127.5000    236.9496      9.4247     10.0689     17.2632     83.0741
  2127.7500    235.9973      9.8938     10.6995     16.3842    101.3099
