~Version Information
VERS.                      2.0: CWLS Log ASCII Standard - VERSION 2.0
WRAP.                       NO: One line per depth step
~Well Information Block
STRT.FT                -8.0000: 
STOP.FT              2410.0000: 
STEP.FT                 0.2500: 
NULL.                -999.2500: 
COMP.          Petrogulf Corporation: COMPANY
WELL.            Torcom 17-33V: WELL
FLD.           Purgatorie River: FIELD
LOC.           1544' FSL & 1746' FEL--: LOCATION
PROV.                       CO: PROVINCE
CNTY.               Las Animas: COUNTRY
SRVC.          Patterson Wireline: SERVICE COMPANY
DATE.          Wed Dec 10 17:24:27 2003: LOG DATE
UWI.                          : UNIQUE WELL ID
~Curve Information Block
DEPT.FT            0 000 00 00: Depth
CCL.                          : Casing Collar Locator
TT3.usec                      : CBL 3' Travel Time
AMP3.mV                       : CBL 3' Amplitude
GR.GAPI                       : Gamma Ray
~Parameter Information Block
~A  Depth       CCL         TT3         AMP3         GR     
# ...
  2203.0000      0.0000    676.1330      1.1779     83.5647
  2203.2500      0.0000    666.5309      1.1266     83.5679
  2203.5000      0.0000    659.3458      1.1126     85.4891
  2203.7500      0.0000    655.3474      1.1455     88.3704
  2204.0000      0.0000    653.9583      1.2063     90.3730
  2204.2500      0.0000    654.6691      1.2618     90.1054
  2204.5000      0.0000    657.6193      1.2892     87.5239
  2204.7500      0.0000    663.1603      1.2911     83.7289
  2205.0000      0.0000    670.9729      1.2889     80.0896
  2205.2500      0.0000    679.6349      1.2998     77.6589
  2205.5000      0.0000    687.2543      1.3208     76.9368
  2205.7500      0.0000    692.7217      1.3410     77.5671
  2206.0000      0.0000    696.4294      1.3612     78.3841
  2206.2500      0.0000    699.9467      1.3902     78.3442
  2206.5000      0.0000    704.9366      1.4265     77.4340
  2206.7500      0.0000    711.8284      1.4520     76.4344
  2207.0000      0.0000    718.9749      1.4481     76.0119
  2207.2500      0.0000    723.2710      1.4129     76.3928
  2207.5000      0.0000    722.3647      1.3648     77.6870
  2207.7500      0.0000    717.1242      1.3318     79.8635
  2208.0000      0.0000    712.0849      1.3344     82.1270
  2208.2500      0.0000    712.4063      1.3734     82.8474
  2208.5000      0.0000    719.0323      1.4334     80.7251
  2208.7500      0.0000    727.0396      1.4979     75.9808
  2209.0000      0.0000    730.0008      1.5566     70.1968
  2209.2500      0.0000    726.2496      1.6022     65.2072
  2209.5000      0.0000    720.0506      1.6279     62.2004
  2209.7500      0.0000    716.7377      1.6323     61.3879
  2210.0000      0.0000    717.6901      1.6234     62.1520
  2210.2500      0.0000    720.0836      1.6166     63.5845
  2210.5000      0.0000    720.4163      1.6282     64.9661
  2210.7500      0.0000    717.4799      1.6675     65.8753
  2211.0000      2.0000    712.2900      1.7311     66.1744
  2211.2500      0.0000    706.5316      1.8054     65.9808
  2211.5000      0.0000    701.8118      1.8783     65.3972
  2211.7500      0.0000    699.5027      1.9433     64.1699
  2212.0000      0.0000    700.0546      1.9888     61.7668
  2212.2500      0.0000    702.6174      2.0044     57.9285
  2212.5000      0.0000    705.9809      2.0115     53.2113
  2212.7500      0.0000    709.6718      2.0723     48.8616
  2213.0000      0.0000    713.6041      2.2460     45.8465
  2213.2500      0.0000    717.1204      2.5424     44.0161
  2213.5000      0.0000    719.3491      2.9271     42.5042
  2213.7500      0.0000    720.7690      3.3586     40.9086
  2214.0000      0.0000    723.7573      3.8070     39.7408
  2214.2500      0.0000    731.0760      4.2440     39.7045
  2214.5000      0.0000    743.6423      4.6303     40.8585
  2214.7500      0.0000    759.2864      4.9328     42.7031
  2215.0000      0.0000    773.2011      5.1642     44.8918
  2215.2500      0.0000    780.2556      5.3872     47.3759
  2215.5000      0.0000    777.9697      5.6594     49.7356
  2215.7500      0.0000    767.6397      5.9765     50.9361
  2216.0000      0.0000    752.6833      6.2771     50.1477
  2216.2500      0.0000    736.2729      6.5060     47.4920
  2216.5000      0.0000    720.4730      6.6647     43.8246
  2216.7500      0.0000    706.7338      6.8062     40.1540
  2217.0000      0.0000    696.1328      6.9901     37.3557
  2217.2500      0.0000    688.9293      7.2371     35.9758
  2217.5000      0.0000    684.3823      7.5166     36.0126
  2217.7500      0.0000    681.4355      7.7812     37.0600
  2218.0000      0.0000    679.6768      8.0207     38.7968
  2218.2500      0.0000    679.5135      8.2850     41.2400
  2218.5000      0.0000    681.1968      8.6501     44.4566
  2218.7500      0.0000    683.5286      9.1555     48.1354
  2219.0000      0.0000    683.7079      9.7694     51.5596
  2219.2500      0.0000    677.9495     10.4204     54.0464
  2219.5000      0.0000    662.0258     11.0740     55.4042
  2219.7500      0.0000    632.4738     11.7856     55.9627
  2220.0000      0.0000    588.8345     12.6682     56.1788
  2220.2500      0.0000    534.5445     13.7878     56.2097
  2220.5000      0.0000    475.9014     15.0685     55.8009
  2220.7500      0.0000    422.0074     16.2778     54.5906
  2221.0000      0.0000    385.6378     17.1021     52.7175
  2221.2500      0.0000    380.6654     17.2654     51.1493
  2221.5000      0.0000    414.8827     16.6215     51.1383
  2221.7500      0.0000    482.8517     15.1970     53.1071
  2222.0000      0.0000    565.4693     13.1892     56.0975
  2222.2500      0.0000    639.5461     10.9116     58.4044
  2222.5000      0.0000    690.8138      8.6922     58.7356
  2222.7500      0.0000    718.8883      6.7814     56.9016
  2223.0000      0.0000    731.7641      5.3032     53.7654
  2223.2500      0.0000    737.2937      4.2515     50.7180
  2223.5000      0.0000    738.7031      3.5316     49.0150
  2223.7500      0.0000    735.6719      3.0267     49.3062
  2224.0000      0.0000    728.6075      2.6478     51.5406
  2224.2500      0.0000    721.2311      2.3522     55.1906
  2224.5000      0.0000    718.6863      2.1474     59.6156
  2224.7500      0.0000    723.6816      2.0921     64.2997
  2225.0000      0.0000    734.9897      2.2819     68.7716
  2225.2500      0.0000    749.0213      2.7998     72.4318
  2225.5000      0.0000    761.8820      3.6481     74.7179
  2225.7500      0.0000    769.9355      4.7169     75.4837
  2226.0000      0.0000    770.1551      5.8176     75.0248
  2226.2500      0.0000    762.3107      6.7361     73.8485
  2226.5000      0.0000    751.1390      7.2846     72.7675
  2226.7500      0.0000    744.4338      7.3677     72.8854
  2227.0000      0.0000    747.4451      7.0198     74.6974
  2227.2500      0.0000    759.0693      6.3569     77.1227
  2227.5000      0.0000    773.3868      5.5027     77.9767
  2227.7500      0.0000    784.3155      4.5785     75.5567
  2228.0000      0.0000    788.6746      3.7103     69.6813
  2228.2500      0.0000    785.8099      2.9859     61.6370
  2228.5000      0.0000    776.0306      2.4203     53.6774
  2228.7500      0.0000    760.8677      1.9902     48.3272
  2229.0000      0.0000    744.6073      1.6793     47.3306
  2229.2500      0.0000    733.1992      1.4713     50.7012
  2229.5000      0.0000    729.6457      1.3360     56.7175
  2229.7500      0.0000    730.9902      1.2604     63.0554
  2230.0000      0.0000    731.1677      1.2690     68.2146
  2230.2500      0.0000    726.5794      1.3825     72.0299
  2230.5000      0.0000    718.2578      1.5699     74.8239
  2230.7500      0.0000    709.5383      1.7681     76.2989
  2231.0000      0.0000    703.1691      1.9383     75.7416
  2231.2500      0.0000    700.6626      2.0810     73.3056
  2231.5000      0.0000    702.9012      2.1968     70.5053
  2231.7500      0.0000    710.4405      2.2602     69.1037
  2232.0000      2.0000    723.2888      2.2493     69.7922
  2232.2500      2.0000    739.8267      2.1861     72.0617
  2232.5000      0.0000    755.0994      2.1235     74.9009
  2232.7500      0.0000    761.8981      2.0912     77.3627
  2233.0000      0.0000    756.7554      2.0739     78.7944
  2233.2500      0.0000    745.0361      2.0420     78.8480
  2233.5000      0.0000    737.4570      1.9864     77.3456
  2233.7500      0.0000    740.8007      1.9200     74.3622
  2234.0000      0.0000    753.0779      1.8715     70.6447
  2234.2500      0.0000    767.1972      1.8921     67.6366
  2234.5000      0.0000    777.5961      2.0417     66.6280
  2234.7500      0.0000    783.1495      2.3318     67.8917
  2235.0000      0.0000    785.0503      2.6942     70.8044
  2235.2500      0.0000    783.3040      3.0392     74.6195
  2235.5000      0.0000    776.2286      3.3395     78.9122
  2235.7500      0.0000    763.6143      3.6283     83.4271
  2236.0000      0.0000    749.3898      3.9111     87.7636
  2236.2500      0.0000    739.7755      4.1117     91.2956
