~Version Information
VERS.                      2.0: CWLS Log ASCII Standard - VERSION 2.0
WRAP.                       NO: One line per depth step
~Well Information Block
STRT.FT               294.0000: 
STOP.FT              1961.5000: 
STEP.FT                 0.2500: 
NULL.                -999.2500: 
COMP.          Pioneer Natural Resources: COMPANY
WELL.          Commander 43-26 Tr: WELL
FLD.           Purgatoire River: FIELD
LOC.           2439' FSL & 446' FEL: LOCATION
PROV.                 Colorado: PROVINCE
CNTY.               Las Animas: COUNTRY
SRVC.                Patterson: SERVICE COMPANY
DATE.          Thu Apr 14 18:26:07 2005: LOG DATE
UWI.           05 071 08341 00: UNIQUE WELL ID
~Curve Information Block
DEPT.FT            0 000 00 00: Depth
SN.Ohm-m                      : IEL Short Normal
SP.mV                         : IEL Spontaneous Potential
DIR.Ohm-m                     : IEL Induction Resistivity
GR.GAPI                       : Gamma Ray
~Parameter Information Block
~A  Depth        SN          SP         DIR          GR     
# ...
  1165.0000     24.3760     60.8265     19.4968    126.6232
  1165.2500     24.2545     60.9039     19.0826    126.1437
  1165.5000     23.8281     60.9677     18.5912    124.0770
  1165.7500     23.1894     61.0424     18.0972    123.0809
  1166.0000     22.5065     61.1565     17.6546    123.7992
  1166.2500     21.9200     61.3182     17.2962    125.9055
  1166.5000     21.5544     61.5021     17.0436    130.1677
  1166.7500     21.4325     61.6601     16.9139    132.4915
  1167.0000     21.4156     61.7477     16.9158    133.7668
  1167.2500     21.3853     61.7488     17.0407    133.1445
  1167.5000     21.3938     61.6866     17.2586    130.8344
  1167.7500     21.5343     61.6097     17.5258    128.8347
  1168.0000     21.7427     61.5586     17.8018    125.5812
  1168.2500     21.7824     61.5328     18.0643    123.2156
  1168.5000     21.3668     61.4886     18.3148    118.6449
  1168.7500     20.4322     61.3721     18.5734    114.4270
  1169.0000     19.3609     61.1605     18.8710    106.7083
  1169.2500     18.7813     60.8800     19.2410    101.7246
  1169.5000     19.2467     60.5884     19.7135     96.4563
  1169.7500     21.0713     60.3395     20.3128     94.7420
  1170.0000     24.0755     60.1630     21.0578     93.9984
  1170.2500     27.4743     60.0694     21.9574     94.0952
  1170.5000     30.3497     60.0659     22.9985     94.8919
  1170.7500     32.2621     60.1595     24.1322     96.1237
  1171.0000     33.3077     60.3457     25.2736     99.2050
  1171.2500     33.7682     60.5970     26.3211    101.5816
  1171.5000     33.8885     60.8624     27.1876    103.9022
  1171.7500     33.8426     61.0819     27.8242    103.7755
  1172.0000     33.7719     61.2094     28.2226    101.0839
  1172.2500     33.8033     61.2359     28.4014     98.3979
  1172.5000     34.0175     61.1954     28.3900     94.4508
  1172.7500     34.4854     61.1464     28.2236     92.2099
  1173.0000     35.2394     61.1397     27.9564     89.1535
  1173.2500     36.1752     61.1970     27.6784     87.0025
  1173.5000     37.1101     61.3123     27.5092     83.3868
  1173.7500     37.9214     61.4683     27.5614     80.9014
  1174.0000     38.5033     61.6481     27.8920     77.7829
  1174.2500     38.5444     61.8381     28.4666     76.6395
  1174.5000     37.6654     62.0316     29.1601     77.2862
  1174.7500     35.9267     62.2284     29.8034     79.8174
  1175.0000     33.8931     62.4212     30.2544     87.0881
  1175.2500     32.3135     62.5818     30.4405     93.6100
  1175.5000     31.7868     62.6662     30.3441    103.1032
  1175.7500     32.2931     62.6399     29.9669    107.2898
  1176.0000     33.1138     62.5015     29.3244    108.4224
  1176.2500     33.5010     62.2890     28.4663    105.9184
  1176.5000     33.2676     62.0672     27.4806     99.1624
  1176.7500     32.6196     61.9022     26.4674     94.0828
  1177.0000     31.6822     61.8364     25.5107     87.8551
  1177.2500     30.4640     61.8753     24.6719     85.6213
  1177.5000     29.1299     61.9932     23.9920     85.9935
  1177.7500     27.9147     62.1511     23.4920     88.5922
  1178.0000     26.8534     62.3185     23.1738     94.7129
  1178.2500     25.8355     62.4864     23.0273     99.1316
  1178.5000     24.7914     62.6673     23.0374    104.6737
  1178.7500     23.7579     62.8824     23.1845    107.3903
  1179.0000     22.8560     63.1426     23.4377    110.4702
  1179.2500     22.2551     63.4327     23.7475    112.0001
  1179.5000     22.1762     63.7097     24.0499    112.7509
  1179.7500     22.7514     63.9203     24.2790    111.5336
  1180.0000     23.8365     64.0247     24.3789    106.7561
  1180.2500     25.1786     64.0139     24.3076    102.1067
  1180.5000     26.7020     63.9120     24.0390     94.3565
  1180.7500     28.4966     63.7639     23.5801     89.2833
  1181.0000     30.5722     63.6195     22.9941     82.1785
  1181.2500     32.4956     63.5236     22.3950     78.0151
  1181.5000     33.4133     63.5122     21.9001     73.9897
  1181.7500     32.8331     63.6079     21.5729     73.9820
  1182.0000     31.0986     63.8151     21.3949     79.2112
  1182.2500     28.8115     64.1202     21.2777     85.7488
  1182.5000     26.3459     64.4952     21.1042     97.5824
  1182.7500     24.0067     64.8990     20.7790    105.0234
  1183.0000     22.0505     65.2768     20.2638    113.3692
  1183.2500     20.5306     65.5700     19.5782    116.7885
  1183.5000     19.3978     65.7393     18.7755    119.6799
  1183.7500     18.5867     65.7856     17.9164    121.0271
  1184.0000     17.9429     65.7491     17.0560    123.4051
  1184.2500     17.2927     65.6919     16.2426    125.4348
  1184.5000     16.6085     65.6773     15.5164    128.6443
  1184.7500     16.0190     65.7514     14.9044    130.4801
  1185.0000     15.6373     65.9272     14.4147    132.6503
  1185.2500     15.3795     66.1785     14.0362    133.9238
  1185.5000     15.0698     66.4521     13.7433    135.6765
  1185.7500     14.6815     66.6951     13.5052    136.4618
  1186.0000     14.2797     66.8818     13.2951    136.4274
  1186.2500     13.8972     67.0236     13.0947    135.3887
  1186.5000     13.6286     67.1556     12.8952    132.3395
  1186.7500     13.6120     67.3098     12.6951    129.5578
  1187.0000     13.8356     67.4972     12.4985    124.9676
  1187.2500     14.0930     67.7075     12.3131    121.9860
  1187.5000     14.1725     67.9214     12.1478    117.7513
  1187.7500     14.0673     68.1232     12.0083    114.9760
  1188.0000     13.9328     68.3028     11.8951    111.1252
  1188.2500     13.8667     68.4523     11.8050    109.3607
  1188.5000     13.8312     68.5643     11.7347    109.0698
  1188.7500     13.7587     68.6365     11.6814    110.6520
  1189.0000     13.6020     68.6764     11.6394    114.8696
  1189.2500     13.3490     68.7029     11.5986    117.9353
  1189.5000     13.0719     68.7420     11.5488    121.1008
  1189.7500     12.8707     68.8182     11.4875    121.6731
  1190.0000     12.7699     68.9443     11.4223    120.8151
  1190.2500     12.7422     69.1167     11.3660    120.1415
  1190.5000     12.7891     69.3192     11.3288    120.5263
  1190.7500     12.9039     69.5314     11.3139    121.8814
  1191.0000     13.0239     69.7309     11.3170    124.7846
  1191.2500     13.1158     69.8909     11.3320    126.7514
  1191.5000     13.2261     69.9828     11.3579    129.2473
  1191.7500     13.3950     69.9850     11.4039    130.4707
  1192.0000     13.5773     69.8941     11.4845    131.3804
  1192.2500     13.7050     69.7305     11.6089    131.3967
  1192.5000     13.7857     69.5365     11.7725    131.3648
  1192.7500     13.8582     69.3651     11.9595    131.9567
  1193.0000     13.8874     69.2608     12.1537    133.8107
  1193.2500     13.8229     69.2413     12.3442    134.8282
  1193.5000     13.7182     69.2920     12.5192    134.3501
  1193.7500     13.6692     69.3753     12.6604    132.5581
  1194.0000     13.6927     69.4527     12.7491    128.9846
  1194.2500     13.7644     69.5058     12.7833    126.8637
  1194.5000     13.9494     69.5466     12.7861    124.4059
  1194.7500     14.3601     69.6132     12.7950    122.8763
  1195.0000     14.9255     69.7514     12.8414    119.9779
  1195.2500     15.3742     69.9883     12.9381    117.4160
  1195.5000     15.5281     70.3130     13.0795    112.9333
  1195.7500     15.4500     70.6759     13.2502    110.1914
  1196.0000     15.3260     71.0085     13.4329    107.7915
  1196.2500     15.3575     71.2493     13.6104    107.5559
  1196.5000     15.6336     71.3627     13.7647    108.3766
  1196.7500     16.0240     71.3484     13.8768    109.0090
  1197.0000     16.3059     71.2408     13.9316    109.3184
  1197.2500     16.3431     71.0945     13.9232    108.7722
  1197.5000     16.0518     70.9538     13.8579    106.2648
  1197.7500     15.3195     70.8250     13.7503    103.4387
  1198.0000     14.1405     70.6788     13.6173     98.4998
  1198.2500     12.7611     70.4848     13.4757     95.8221
