~Version Information
VERS.                      2.0: CWLS Log ASCII Standard - VERSION 2.0
WRAP.                       NO: One line per depth step
~Well Information Block
STRT.FT               528.0000: 
STOP.FT              2250.0000: 
STEP.FT                 0.1000: 
NULL.                -999.2500: 
COMP.          Pioneer Natural Resources: COMPANY
WELL.           Parklane 43-34: WELL
FLD.           Purgatorie River: FIELD
LOC.           1704' FSL & 1119' FEL: LOCATION
PROV.                 Colorado: PROVINCE
CNTY.               Las Animas: COUNTRY
SRVC.                         : SERVICE COMPANY
DATE.          Thu Oct 07 08:21:17 2004: LOG DATE
UWI.           05 071 08162 00: UNIQUE WELL ID
~Curve Information Block
DEPT.FT            0 000 00 00: Depth
LTEN.lb                       : Surface Line Tension
DCAL.in                       : CDL Caliper
RHOB.g/cc                     : CDL Bulk Density
RHOC.g/cc                     : CDL Density Correction
DPOR.pu                       : CDL Density Porosity
GR.GAPI                       : Gamma Ray
NPOR.pu                       : Neutron Porosity
~Parameter Information Block
~A  Depth       LTEN        DCAL        RHOB        RHOC        DPOR         GR         NPOR    
# ...
  2014.8000   1204.7769      7.9292      2.5264      0.0071      7.4919     75.0567     16.9305
  2014.9000   1204.7769      7.9292      2.5138     -0.0386      8.2544     72.0730     17.1777
  2015.0000   1217.0754      7.9418      2.5267      0.0396      7.4709     73.2947     18.6502
  2015.1000   1217.0754      7.9418      2.5472      0.0579      6.2276     78.9657     20.5667
  2015.2000   1217.0754      7.9418      2.5533      0.0517      5.8622     82.3833     21.2862
  2015.3000   1242.1277      7.9507      2.5426      0.0387      6.5110     80.0397     20.3948
  2015.4000   1242.1277      7.9507      2.5251      0.0338      7.5723     79.3218     18.7475
  2015.5000   1246.7122      7.9558      2.5125      0.0268      8.3347     83.2453     17.3792
  2015.6000   1246.7122      7.9558      2.5106      0.0243      8.4497     85.4478     17.1144
  2015.7000   1246.7122      7.9558      2.5173      0.0385      8.0420     84.3351     17.6378
  2015.8000   1224.9808      7.9637      2.5280      0.0421      7.3945     83.9845     18.2172
  2015.9000   1224.9808      7.9637      2.5417      0.0344      6.5633     84.2463     18.7391
  2016.0000   1224.0317      7.9736      2.5563      0.0625      5.6776     82.6930     19.3675
  2016.1000   1224.0317      7.9736      2.5657      0.0787      5.1102     79.4432     20.3145
  2016.2000   1224.0317      7.9736      2.5692      0.0391      4.8953     74.7043     21.3117
  2016.3000   1210.9883      7.9789      2.5721      0.0748      4.7193     69.8923     22.0735
  2016.4000   1210.9883      7.9789      2.5697      0.0662      4.8682     71.2296     22.9993
  2016.5000   1212.2040      7.9796      2.5581      0.0690      5.5688     81.2774     23.6506
  2016.6000   1212.2040      7.9796      2.5443      0.0457      6.4055     91.0841     23.0935
  2016.7000   1212.2040      7.9796      2.5305      0.0291      7.2417     94.0151     21.8261
  2016.8000   1223.4928      7.9804      2.5108      0.0486      8.4388     92.3144     21.2144
  2016.9000   1223.4928      7.9804      2.4865      0.0005      9.9068     86.1809     21.8529
  2017.0000   1203.7428      7.9826      2.4724      0.0056     10.7642     77.2246     23.1163
  2017.1000   1203.7428      7.9826      2.4721      0.0015     10.7819     72.4280     23.9946
  2017.2000   1203.7428      7.9826      2.4701      0.0142     10.9055     72.9857     24.3380
  2017.3000   1213.7366      7.9867      2.4456      0.0610     12.3855     74.1202     24.6119
  2017.4000   1213.7366      7.9867      2.3932      0.0112     15.5624     75.4791     24.6977
  2017.5000   1215.3552      7.9945      2.3202     -0.0440     19.9874     78.3332     24.5853
  2017.6000   1215.3552      7.9945      2.2154     -0.0182     26.3404     78.6886     25.2364
  2017.7000   1215.3552      7.9945      2.0640     -0.0743     35.5143     75.0459     26.7040
  2017.8000   1214.1355      8.0012      1.8937     -0.1576     45.8341     71.6252     27.3374
  2017.9000   1214.1355      8.0012      1.7473     -0.1728     54.7111     68.1745     26.7396
  2018.0000   1212.6394      8.0071      1.6244     -0.1296     62.1572     62.0631     26.5163
  2018.1000   1212.6394      8.0071      1.5030     -0.1539     69.5162     54.8132     27.3300
  2018.2000   1212.6394      8.0071      1.3998     -0.1989     75.7683     48.1276     28.2863
  2018.3000   1209.2278      8.0312      1.3524     -0.0604     78.6402     41.1701     29.1205
  2018.4000   1209.2278      8.0312      1.3552      0.0610     78.4725     35.5934     30.1714
  2018.5000   1221.7164      8.0769      1.3661      0.0824     77.8129     33.6678     31.2062
  2018.6000   1221.7164      8.0769      1.3583      0.0842     78.2842     33.3932     32.1362
  2018.7000   1221.7164      8.0769      1.3350      0.0572     79.6991     32.4396     32.9207
  2018.8000   1195.6986      8.1501      1.3116      0.0353     81.1166     30.5293     33.3893
  2018.9000   1195.6986      8.1501      1.2934      0.0710     82.2183     28.0018     33.7496
  2019.0000   1218.4331      8.3086      1.2689      0.0776     83.7016     27.3324     33.9367
  2019.1000   1218.4331      8.3086      1.2297      0.0500     86.0775     29.7691     33.6881
  2019.2000   1218.4331      8.3086      1.1848      0.0350     88.8019     33.3133     33.3262
  2019.3000   1170.4833      8.5779      1.1524      0.0038     90.7651     35.5492     33.4933
  2019.4000   1170.4833      8.5779      1.1471      0.0004     91.0853     35.9479     34.2672
  2019.5000   1219.0585      9.0106      1.1684      0.0194     89.7917     35.5506     34.7715
  2019.6000   1219.0585      9.0106      1.2003      0.0595     87.8628     35.2030     34.2813
  2019.7000   1219.0585      9.0106      1.2351      0.0498     85.7515     37.6667     33.6437
  2019.8000   1185.2052      9.5030      1.2971      0.0184     81.9964     44.0601     33.5572
  2019.9000   1185.2052      9.5030      1.4136      0.0697     74.9338     49.6371     33.3592
  2020.0000   1200.2992      9.6552      1.5749      0.1184     65.1589     52.1595     32.9340
  2020.1000   1200.2992      9.6552      1.7458      0.2021     54.7971     55.4769     32.8364
  2020.2000   1200.2992      9.6552      1.9029      0.2488     45.2772     62.5558     32.8005
  2020.3000   1208.6167      9.3815      2.0488      0.2567     36.4384     74.3031     32.0219
  2020.4000   1208.6167      9.3815      2.1924      0.3023     27.7313     89.0331     30.0485
  2020.5000   1235.6647      8.9383      2.3285      0.2777     19.4856    102.7973     27.5830
  2020.6000   1235.6647      8.9383      2.4450      0.2343     12.4270    114.8544     25.9636
  2020.7000   1235.6647      8.9383      2.5293      0.2095      7.3141    125.8445     25.1573
  2020.8000   1154.1094      8.4545      2.5709      0.1729      4.7946    133.1929     24.4061
  2020.9000   1154.1094      8.4545      2.5720      0.1129      4.7281    133.0073     23.8342
  2021.0000   1232.5238      8.1183      2.5508      0.0507      6.0123    124.7400     23.7947
  2021.1000   1232.5238      8.1183      2.5320      0.0310      7.1517    114.9429     23.8018
  2021.2000   1232.5238      8.1183      2.5291      0.0423      7.3279    111.5006     23.0435
  2021.3000   1183.4003      7.9890      2.5386      0.0429      6.7519    115.2890     21.8182
  2021.4000   1183.4003      7.9890      2.5533      0.0537      5.8597    118.7809     20.7332
  2021.5000   1217.6902      7.9478      2.5679      0.0708      4.9775    116.7376     19.9624
  2021.6000   1217.6902      7.9478      2.5770      0.0663      4.4265    111.5172     19.5995
  2021.7000   1217.6902      7.9478      2.5807      0.0765      4.1997    109.8924     19.1405
  2021.8000   1212.6027      7.9185      2.5870      0.0522      3.8164    112.9302     18.1819
  2021.9000   1212.6027      7.9185      2.5999      0.0937      3.0389    113.8075     17.4158
  2022.0000   1134.7491      7.8903      2.6132      0.1011      2.2278    112.4792     17.3261
  2022.1000   1134.7491      7.8903      2.6185      0.1140      1.9076    114.0223     17.1575
  2022.2000   1134.7491      7.8903      2.6107      0.0881      2.3798    115.0774     16.5962
  2022.3000   1171.1654      7.8814      2.5964      0.0489      3.2471    112.4305     16.5149
  2022.4000   1171.1654      7.8814      2.5833      0.0826      4.0396    111.6644     17.2178
  2022.5000   1134.8705      7.8937      2.5679      0.0901      4.9752    116.9810     17.8599
  2022.6000   1134.8705      7.8937      2.5511      0.0790      5.9940    120.8803     17.6633
  2022.7000   1134.8705      7.8937      2.5462      0.0807      6.2890    115.4420     16.9819
  2022.8000   1161.5038      7.9104      2.5505      0.1197      6.0299    104.7569     16.8702
  2022.9000   1161.5038      7.9104      2.5432      0.0710      6.4700    100.4716     17.5495
  2023.0000   1201.4688      7.9242      2.5191      0.0420      7.9317    109.4626     18.3742
  2023.1000   1201.4688      7.9242      2.4844      0.0606     10.0360    123.5693     19.1077
