~Version Information
VERS.                      2.0: CWLS Log ASCII Standard - VERSION 2.0
WRAP.                       NO: One line per depth step
~Well Information Block
STRT.FT                -7.7500: 
STOP.FT              1532.2500: 
STEP.FT                 0.2500: 
NULL.                -999.2500: 
COMP.          Pioneer Natural Resources: COMPANY
WELL.          Big Cat Federal 44-1: WELL
FLD.           Purgatorie River: FIELD
LOC.           197' FSL & 973' FEL--: LOCATION
CNTY.               Las Animas: COUNTY
SRVC.          Patterson Wireline: SERVICE COMPANY
DATE.          Fri Apr 28 12:21:06 2006: LOG DATE
UWI.           05 071 08042 00: UNIQUE WELL ID
STAT.                       CO: STATE
~Curve Information Block
DEPT.FT            0 000 00 00: Depth
CCL.                          : Casing Collar Locator
TT3.usec                      : CBL 3' Travel Time
AMP3.mV                       : CBL 3' Amplitude
GR.GAPI                       : Gamma Ray
~Parameter Information Block
~A  Depth       CCL         TT3         AMP3         GR     
# ...
  1499.7500      0.0000    728.7998      5.5540     65.9229
  1500.0000      0.0000    729.2838      5.6139     66.2256
  1500.2500      0.0000    726.7400      5.7009     66.9171
  1500.5000      0.0000    722.0041      5.7964     68.0415
  1500.7500      0.0000    717.6114      5.8875     69.4380
  1501.0000      0.0000    716.0519      5.9646     70.9298
  1501.2500      0.0000    717.8295      6.0062     72.2036
  1501.5000      0.0000    721.1247      5.9742     72.7913
  1501.7500      0.0000    723.6202      5.8466     72.4208
  1502.0000      0.0000    724.5493      5.6607     71.1243
  1502.2500      0.0000    724.7382      5.5087     69.0552
  1502.5000      0.0000    725.1516      5.4762     66.6521
  1502.7500      0.0000    725.9969      5.5928     64.6352
  1503.0000      0.0000    726.7073      5.8398     63.3451
  1503.2500      0.0000    726.0448      6.1842     62.6948
  1503.5000      2.0000    722.8386      6.5935     63.1853
  1503.7500      0.0000    717.7498      7.0397     66.1054
  1504.0000      0.0000    713.9858      7.5175     72.1521
  1504.2500      0.0000    713.7067      8.0802     80.2901
  1504.5000      0.0000    712.7344      8.8405     88.1982
  1504.7500      0.0000    701.7330      9.8776     93.6541
  1505.0000      0.0000    676.3421     11.0975     95.7819
  1505.2500      0.0000    645.5053     12.2266     95.2793
  1505.5000      0.0000    626.6670     13.0085     93.2866
  1505.7500      0.0000    632.0378     13.3929     90.1667
  1506.0000      0.0000    659.9407     13.5032     85.8868
  1506.2500      0.0000    698.0490     13.4742     81.4961
  1506.5000      0.0000    733.2971     13.3609     79.3346
  1506.7500      0.0000    758.9897     13.1572     81.0493
  1507.0000      0.0000    774.7097     12.8445     85.5777
  1507.2500      0.0000    782.1980     12.4188     89.6926
  1507.5000      0.0000    782.1343     11.8975     90.7408
  1507.7500      0.0000    773.9869     11.3166     88.6249
  1508.0000      0.0000    758.3817     10.7174     85.1495
  1508.2500      0.0000    739.1595     10.1306     81.9375
  1508.5000      0.0000    722.1150      9.5707     79.2780
  1508.7500      0.0000    710.5010      9.0468     76.6998
  1509.0000      0.0000    702.6075      8.5712     74.1450
  1509.2500      0.0000    695.1730      8.1551     72.2892
  1509.5000      0.0000    688.5026      7.7987     71.8306
  1509.7500      0.0000    686.2580      7.4917     72.7399
  1510.0000      0.0000    690.5271      7.2225     74.3037
  1510.2500      0.0000    699.0455      6.9883     75.7605
  1510.5000      0.0000    707.5317      6.7954     76.8020
  1510.7500      0.0000    713.3830      6.6499     77.5939
  1511.0000      0.0000    716.7952      6.5468     78.4217
  1511.2500      0.0000    719.3644      6.4678     79.3408
  1511.5000      0.0000    722.1893      6.3904     80.2816
  1511.7500      0.0000    724.9290      6.3038     81.3725
  1512.0000      0.0000    726.3230      6.2164     82.7894
  1512.2500      0.0000    725.6495      6.1488     84.1749
  1512.5000      0.0000    723.6091      6.1175     84.5076
  1512.7500      0.0000    721.6890      6.1245     82.8089
  1513.0000      0.0000    720.9081      6.1566     79.0529
  1513.2500      0.0000    721.3466      6.1920     74.4007
  1513.5000      0.0000    722.5799      6.2110     70.4954
  1513.7500      0.0000    724.2645      6.2049     68.4682
  1514.0000      0.0000    726.3494      6.1771     68.4838
  1514.2500      0.0000    728.7983      6.1366     69.9386
  1514.5000      0.0000    731.1004      6.0870     71.9799
  1514.7500      0.0000    732.2985      6.0236     73.9603
  1515.0000      0.0000    731.9004      5.9420     75.3643
  1515.2500      0.0000    730.6169      5.8480     75.5731
  1515.5000      0.0000    729.6973      5.7578     74.4366
  1515.7500      0.0000    729.4828      5.6875     73.2585
  1516.0000      0.0000    729.0473      5.6432     74.3368
  1516.2500      0.0000    727.4017      5.6188     78.8768
  1516.5000      0.0000    724.6335      5.6018     85.6029
  1516.7500      0.0000    721.6357      5.5812     91.7691
  1517.0000      0.0000    719.1431      5.5531     95.2992
  1517.2500      0.0000    717.4087      5.5219     95.6362
  1517.5000      0.0000    716.6030      5.4998     92.8612
  1517.7500      0.0000    717.2297      5.5036     86.7337
  1518.0000      0.0000    720.1070      5.5463     76.7482
  1518.2500      0.0000    725.8026      5.6256     62.8445
  1518.5000      0.0000    733.7417      5.7208     46.2169
  1518.7500      0.0000    741.7308      5.8043     29.5641
  1519.0000      0.0000    746.7001      5.8556     15.9804
  1519.2500      0.0000    746.4416      5.8687      7.1359
  1519.5000      0.0000    741.1164      5.8519      2.5889
  1519.7500      0.0000    733.3611      5.8220      0.7545
  1520.0000      0.0000    726.8741      5.7945      0.1746
  1520.2500      0.0000    724.5013      5.7752      0.0319
  1520.5000      0.0000    727.0085      5.7628      0.0039
  1520.7500      0.0000    732.8781      5.7574   -999.2500
  1521.0000      0.0000    739.0018      5.7661   -999.2500
  1521.2500      0.0000    742.3708      5.7967   -999.2500
  1521.5000      0.0000    742.0974      5.8498   -999.2500
  1521.7500      0.0000    739.9639      5.9176   -999.2500
  1522.0000      0.0000    738.6577      5.9915   -999.2500
  1522.2500      0.0000    739.3489      6.0699   -999.2500
  1522.5000      0.0000    740.8104      6.1579   -999.2500
  1522.7500      0.0000    739.8645      6.2549   -999.2500
  1523.0000      0.0000    731.4865      6.3335   -999.2500
  1523.2500      0.0000    707.4260      6.3123   -999.2500
  1523.5000      0.0000    655.3141      6.0501   -999.2500
  1523.7500      0.0000    563.6651      5.4076   -999.2500
  1524.0000      0.0000    434.0835      4.3746   -999.2500
  1524.2500      0.0000    289.0582      3.1490   -999.2500
  1524.5000      0.0000    161.7371      2.0410   -999.2500
  1524.7500      0.0000     74.4221      1.2689   -999.2500
  1525.0000      0.0000     27.7296      0.8521   -999.2500
  1525.2500      0.0000      8.2737      0.6775   -999.2500
  1525.5000      0.0000      1.9590      0.6205   -999.2500
  1525.7500      0.0000      0.3625      0.6061   -999.2500
  1526.0000      0.0000   -999.2500   -999.2500   -999.2500
  1526.2500      0.0000   -999.2500   -999.2500   -999.2500
  1526.5000      0.0000   -999.2500   -999.2500   -999.2500
  1526.7500      0.0000   -999.2500   -999.2500   -999.2500
  1527.0000      0.0000   -999.2500   -999.2500   -999.2500
  1527.2500      0.0000   -999.2500   -999.2500   -999.2500
  1527.5000      0.0000   -999.2500   -999.2500   -999.2500
  1527.7500      0.0000   -999.2500   -999.2500   -999.2500
  1528.0000      0.0000   -999.2500   -999.2500   -999.2500
  1528.2500      0.0000   -999.2500   -999.2500   -999.2500
  1528.5000      0.0000   -999.2500   -999.2500   -999.2500
  1528.7500      0.0000   -999.2500   -999.2500   -999.2500
  1529.0000      0.0000   -999.2500   -999.2500   -999.2500
  1529.2500      0.0000   -999.2500   -999.2500   -999.2500
  1529.5000      0.0000   -999.2500   -999.2500   -999.2500
  1529.7500      0.0000   -999.2500   -999.2500   -999.2500
  1530.0000      0.0000   -999.2500   -999.2500   -999.2500
  1530.2500      0.0000   -999.2500   -999.2500   -999.2500
  1530.5000      0.0000   -999.2500   -999.2500   -999.2500
  1530.7500      0.0000   -999.2500   -999.2500   -999.2500
  1531.0000      0.0000   -999.2500   -999.2500   -999.2500
  1531.2500      0.0000   -999.2500   -999.2500   -999.2500
  1531.5000      0.0000   -999.2500   -999.2500   -999.2500
  1531.7500   -999.2500   -999.2500   -999.2500   -999.2500
  1532.0000   -999.2500   -999.2500   -999.2500   -999.2500
  1532.2500   -999.2500   -999.2500   -999.2500   -999.2500
