~Version Information
 VERS.                                  2.0 : CWLS LAS VERSION
 WRAP.                                   NO : WRAPING MODE
 SWARE .                 MController 2.5.0N : SOFTWARE VERSION
~Well Information
 WELL.                                  N/A : WELL
 COMP.                                  N/A : COMPANY
 FLD.                                   N/A : FIELD
 LOC.                                   N/A : LOCATION
 DATE.                                  N/A : DATE(S) LOGGED
 SRVC.                                  N/A : SERVICE COMPANY
 STAT.                                  N/A : STATE
 CNTY.                                  N/A : COUNTY
 CTRY.                                  N/A : COUNTRY
 API.                                   N/A : API NUMBER
 STRT.FT                               0.00 : START DEPTH
 STOP.FT                            2050.00 : STOP DEPTH
 STEP.FT                               1.00 : DEPTH INCREMENT
 NULL.                                -9999 : NULL VALUE
~Curve information
 DEPTH.FT                                   :
 ROP.MIN/FT                                 :
 GAS.UNITS                                  :
~ASCII Log data
# ...
      1600.0         0.53          1.3 
      1601.0         0.33          1.1 
      1602.0         0.40          1.2 
      1603.0         0.30          1.4 
      1604.0         0.30          1.2 
      1605.0         0.47          1.5 
      1606.0         0.52          1.7 
      1607.0         0.43          1.5 
      1608.0         0.30          1.4 
      1609.0         0.27          1.2 
      1610.0         0.40          1.3 
      1611.0         0.43          1.3 
      1612.0         0.60          1.4 
      1613.0         0.43          1.5 
      1614.0         0.45          1.7 
      1615.0         0.37          1.6 
      1616.0         0.27          1.8 
      1617.0         0.53          1.7 
      1618.0         0.37          1.5 
      1619.0         0.50          1.9 
      1620.0         2.08          1.6 
      1621.0         0.63          1.8 
      1622.0         0.37          1.5 
      1623.0         0.43          1.4 
      1624.0         0.40          1.6 
      1625.0         0.48          1.4 
      1626.0         0.40          1.4 
      1627.0         0.37          1.7 
      1628.0         0.40          1.7 
      1629.0         0.63          1.5 
      1630.0         0.47          1.7 
      1631.0         0.43          1.4 
      1632.0         0.43          1.4 
      1633.0         0.45          1.7 
      1634.0         0.40          1.7 
      1635.0         0.37          1.5 
      1636.0         0.30          1.3 
      1637.0         0.23          1.5 
      1638.0         0.27          1.4 
      1639.0         0.33          1.3 
      1640.0         0.33          1.5 
      1641.0         0.30          1.6 
      1642.0         0.27          1.5 
      1643.0         0.42          1.3 
      1644.0         0.33          1.6 
      1645.0         0.30          1.5 
      1646.0         0.27          1.5 
      1647.0         0.23          1.4 
      1648.0         0.23          1.7 
      1649.0         0.23          1.3 
      1650.0         2.75          2.0 
      1651.0         0.33          1.6 
      1652.0         0.30          1.4 
      1653.0         0.37          1.9 
      1654.0         0.37          1.4 
      1655.0         0.33          1.5 
      1656.0         0.30          1.5 
      1657.0         0.28          1.7 
      1658.0         0.20          1.4 
      1659.0         0.30          1.4 
      1660.0         0.37          1.7 
      1661.0         0.50          1.4 
      1662.0         0.40          1.6 
      1663.0         0.43          1.5 
      1664.0         0.37          1.5 
      1665.0         0.27          1.5 
      1666.0         0.33          1.4 
      1667.0         0.28          1.7 
      1668.0         0.30          1.5 
      1669.0         0.37          1.4 
      1670.0         0.37          1.8 
      1671.0         0.47          1.5 
      1672.0         0.43          1.5 
      1673.0         0.43          1.4 
      1674.0         0.40          1.4 
      1675.0         0.45          1.6 
      1676.0         0.30          1.7 
      1677.0         0.37          1.6 
      1678.0         0.37          1.3 
      1679.0         0.33          1.9 
      1680.0         1.73          2.0 
      1681.0         0.62          1.8 
      1682.0         0.57          1.6 
      1683.0         0.50          1.8 
      1684.0         0.73          1.7 
      1685.0         0.53          3.7 
      1686.0         0.43          5.6 
      1687.0         0.52          5.7 
      1688.0         0.50          4.9 
      1689.0         0.40          4.0 
      1690.0         0.50          3.4 
      1691.0         0.40          3.1 
      1692.0         0.50          3.3 
      1693.0         0.37         10.8 
      1694.0         0.32          5.1 
      1695.0         0.33          5.5 
      1696.0         0.27          9.9 
      1697.0         0.27         11.3 
      1698.0         0.27         11.9 
      1699.0         0.30         11.2 
      1700.0         0.33          9.7 
      1701.0         0.33          9.8 
      1702.0         0.27         10.9 
      1703.0         0.27         10.3 
      1704.0         0.23         10.9 
      1705.0         0.28         11.0 
      1706.0         0.47         10.2 
      1707.0         0.30          8.7 
      1708.0         0.23          7.4 
      1709.0         0.30          6.8 
      1710.0         3.02         61.5 
      1711.0         0.43         23.7 
      1712.0         0.40         16.1 
      1713.0         0.37         11.9 
      1714.0         0.47         11.1 
      1715.0         0.47         12.4 
      1716.0         0.42         12.7 
      1717.0         0.40         28.0 
      1718.0         0.33         77.4 
      1719.0         0.37        141.8 
      1720.0         0.30        152.7 
      1721.0         0.30        148.2 
      1722.0         0.30        119.0 
      1723.0         0.30         88.9 
      1724.0         0.30         68.8 
      1725.0         0.30         55.1 
      1726.0         0.32         46.5 
      1727.0         0.30         39.6 
      1728.0         0.33         34.2 
      1729.0         0.33         31.4 
      1730.0         0.33         30.2 
      1731.0         0.37         27.7 
      1732.0         0.40         24.4 
      1733.0         0.33         23.5 
      1734.0         0.33         23.1 
      1735.0         0.30         23.2 
      1736.0         0.32         21.8 
      1737.0         0.40         20.3 
      1738.0         0.33         15.4 
      1739.0         0.30         15.8 
      1740.0         2.85         83.0 
      1741.0         0.50         52.3 
      1742.0         0.53         37.7 
      1743.0         0.40         28.9 
      1744.0         0.27         26.5 
      1745.0         0.33         27.9 
      1746.0         0.37         28.6 
      1747.0         0.27         28.4 
      1748.0         0.42         26.2 
      1749.0         0.33         24.6 
      1750.0         0.30         23.2 
      1751.0         0.33         21.2 
      1752.0         0.33         18.3 
      1753.0         0.33         16.2 
      1754.0         0.27         13.8 
      1755.0         0.53         13.5 
      1756.0         0.38         12.5 
      1757.0         0.30         12.2 
      1758.0         0.27         12.0 
      1759.0         0.23         11.9 
      1760.0         0.27         12.8 
      1761.0         0.23         13.2 
      1762.0         0.23         13.1 
      1763.0         0.33         15.8 
      1764.0         0.27         22.9 
      1765.0         0.23         28.6 
      1766.0         0.27         30.0 
      1767.0         0.27         28.4 
      1768.0         0.27         24.9 
      1769.0         0.28         20.2 
      1770.0         2.10         73.0 
      1771.0         0.57         71.9 
      1772.0         0.47         54.6 
      1773.0         0.58         38.0 
      1774.0         0.30         24.2 
      1775.0         0.30         21.9 
      1776.0         0.30         19.9 
      1777.0         0.37         20.4 
      1778.0         0.33         20.3 
      1779.0         0.33         19.2 
      1780.0         0.27         17.8 
      1781.0         0.27         16.9 
      1782.0         0.27         15.6 
      1783.0         0.28         14.6 
      1784.0         0.23         12.5 
      1785.0         0.23         12.1 
      1786.0         0.27         11.5 
      1787.0         0.23         12.0 
      1788.0         0.33         17.3 
      1789.0         0.33         23.4 
      1790.0         0.33         26.7 
      1791.0         0.27         29.7 
      1792.0         0.27         31.3 
      1793.0         0.33         31.4 
      1794.0         0.45         31.1 
      1795.0         0.27         31.2 
      1796.0         0.23         31.0 
      1797.0         0.23         29.6 
      1798.0         0.27         27.9 
      1799.0         0.23         25.8 
