~Version Information
VERS.                      2.0: CWLS Log ASCII Standard - VERSION 2.0
WRAP.                       NO: One line per depth step
~Well Information Block
STRT.FT               910.3000: 
STOP.FT              1932.5000: 
STEP.FT                 0.1000: 
NULL.                -999.2500: 
COMP.          Petrogulf Corporation: COMPANY
WELL.             State 16-34R: WELL
FLD.           Purgatorie River: FIELD
LOC.           1095' FSL & 1498' FEL: LOCATION
CNTY.               Las Animas: COUNTY
SRVC.                         : SERVICE COMPANY
DATE.          Thu May 06 14:28:18 2004: LOG DATE
UWI.           05 071 08032 00: UNIQUE WELL ID
STAT.                 Colorado: STATE
~Curve Information Block
DEPT.FT            0 000 00 00: Depth
DCAL.in                       : CDL Caliper
RHOB.g/cc                     : CDL Bulk Density
RHOC.g/cc                     : CDL Density Correction
DPOR.pu                       : CDL Density Porosity
NPOR.pu                       : Neutron Porosity
GR.GAPI                       : Gamma Ray
~Parameter Information Block
~A  Depth       DCAL        RHOB        RHOC        DPOR        NPOR         GR     
# ...
  1697.5000      7.9410      2.5956      0.0359      3.2950     24.1767    108.5020
  1697.6000      7.9410      2.6106      0.0336      2.3902     24.5329     98.5702
  1697.7000      7.9410      2.6124      0.0540      2.2771     24.9129     91.7331
  1697.8000      7.9463      2.6058      0.0454      2.6799     25.0788     91.5358
  1697.9000      7.9463      2.5956      0.0290      3.2980     24.9588     95.1791
  1698.0000      7.9450      2.5874      0.0032      3.7911     24.7208     97.9045
  1698.1000      7.9450      2.5860     -0.0024      3.8801     24.5459     97.5546
  1698.2000      7.9450      2.5923     -0.0226      3.4975     24.7930     97.5690
  1698.3000      7.9622      2.6068     -0.0371      2.6199     25.3062    100.6562
  1698.4000      7.9622      2.6226      0.0343      1.6601     25.4811    102.5863
  1698.5000      7.9650      2.6254      0.0240      1.4918     25.4230    101.2725
  1698.6000      7.9650      2.6126      0.0414      2.2650     25.6735     99.8787
  1698.7000      7.9650      2.6000      0.0324      3.0295     26.2814     99.9939
  1698.8000      7.9344      2.6048      0.0199      2.7420     26.7176    100.9935
  1698.9000      7.9344      2.6151      0.0949      2.1130     26.6126    101.5177
  1699.0000      7.8863      2.6071      0.0435      2.5991     26.3728    100.1800
  1699.1000      7.8863      2.5893      0.0372      3.6764     26.5465     99.3172
  1699.2000      7.8863      2.5830      0.0429      4.0636     27.0631    102.4543
  1699.3000      7.8872      2.5872      0.0659      3.8044     27.3432    109.2835
  1699.4000      7.8872      2.5914      0.0573      3.5523     27.1196    115.7250
  1699.5000      7.8993      2.5933      0.0548      3.4358     26.8318    116.3891
  1699.6000      7.8993      2.5928      0.0574      3.4638     26.7879    111.4268
  1699.7000      7.8993      2.5871      0.0112      3.8114     26.6308    106.8181
  1699.8000      7.9149      2.5760     -0.0049      4.4855     26.1419    105.2810
  1699.9000      7.9149      2.5621     -0.0054      5.3298     25.7323    103.3652
  1700.0000      7.9277      2.5575      0.0020      5.6085     25.7263     99.0695
  1700.1000      7.9277      2.5731      0.0071      4.6580     25.8953     95.2919
  1700.2000      7.9277      2.5942      0.0466      3.3797     26.0245     93.7366
  1700.3000      7.9157      2.6044     -0.0251      2.7619     26.3145     92.0441
  1700.4000      7.9157      2.6051      0.0260      2.7235     26.8240     87.1252
  1700.5000      7.8076      2.5960      0.0048      3.2745     27.1998     83.8763
  1700.6000      7.8076      2.5841     -0.0288      3.9921     27.4125     89.3056
  1700.7000      7.8076      2.5838     -0.0106      4.0139     27.5754     97.4903
  1700.8000      7.8012      2.5981     -0.0369      3.1431     27.3397    100.2127
  1700.9000      7.8012      2.6062      0.0749      2.6545     26.8295    100.2532
  1701.0000      7.8330      2.5875     -0.0261      3.7907     26.7216     98.6341
  1701.1000      7.8330      2.5667     -0.0352      5.0507     27.2201     93.0165
  1701.2000      7.8330      2.5736     -0.0199      4.6281     27.9304     86.8471
  1701.3000      7.8554      2.6004     -0.0142      3.0085     28.1210     83.5545
  1701.4000      7.8554      2.6255     -0.0062      1.4862     27.5950     82.6713
  1701.5000      7.8670      2.6378      0.0348      0.7396     27.1464     84.0939
  1701.6000      7.8670      2.6353      0.0306      0.8937     27.6333     86.7744
  1701.7000      7.8670      2.6212      0.0533      1.7446     28.7609     87.7765
  1701.8000      7.8716      2.6000      0.0147      3.0325     29.3639     86.6475
  1701.9000      7.8716      2.5809     -0.0334      4.1900     28.9445     85.4817
  1702.0000      7.8818      2.5751      0.0519      4.5395     28.3293     85.8084
  1702.1000      7.8818      2.5814      0.0360      4.1579     28.5039     86.8890
  1702.2000      7.8818      2.5918      0.0078      3.5294     29.2275     88.7505
  1702.3000      7.8765      2.5919      0.0685      3.5199     29.6081     93.1511
  1702.4000      7.8765      2.5712      0.0905      4.7756     29.7984    100.1199
  1702.5000      7.8763      2.5431     -0.0014      6.4809     30.1722    105.9816
  1702.6000      7.8763      2.5292      0.0418      7.3225     30.2864    110.4826
  1702.7000      7.8763      2.5320      0.0388      7.1485     29.9795    116.9221
  1702.8000      7.8734      2.5453      0.0210      6.3471     29.6527    124.9259
  1702.9000      7.8734      2.5588      0.0468      5.5273     29.5854    132.7257
  1703.0000      7.9112      2.5566      0.0316      5.6622     29.6842    137.5387
  1703.1000      7.9112      2.5367      0.0150      6.8665     29.5980    135.0893
  1703.2000      7.9112      2.5169     -0.0263      8.0660     29.1794    127.6702
  1703.3000      7.9248      2.5115     -0.0667      8.3912     28.6909    123.5961
  1703.4000      7.9248      2.5184     -0.0206      7.9764     28.2325    127.2444
  1703.5000      7.9273      2.5252      0.0132      7.5651     27.7476    135.6475
  1703.6000      7.9273      2.5262     -0.0131      7.5039     27.4204    143.3058
  1703.7000      7.9273      2.5305     -0.0446      7.2434     27.2272    145.4259
  1703.8000      7.9283      2.5396      0.0048      6.6913     26.9678    141.9166
  1703.9000      7.9283      2.5378     -0.0215      6.7992     26.4564    138.5354
  1704.0000      7.9297      2.5239     -0.0091      7.6428     25.6709    136.2934
  1704.1000      7.9297      2.5151     -0.0192      8.1733     25.0014    129.8115
  1704.2000      7.9297      2.5224     -0.0161      7.7351     24.6728    122.0229
  1704.3000      7.9309      2.5391      0.0296      6.7229     24.4026    118.8625
  1704.4000      7.9309      2.5536      0.0389      5.8444     24.0778    120.1349
  1704.5000      7.9352      2.5655      0.0135      5.1218     23.8843    123.6468
  1704.6000      7.9352      2.5774      0.0407      4.3980     23.7444    123.2681
  1704.7000      7.9352      2.5850      0.0383      3.9405     23.5726    114.5722
  1704.8000      7.9126      2.5890      0.0201      3.6973     23.6004    102.8532
  1704.9000      7.9126      2.5953      0.0309      3.3163     24.0654     95.6227
  1705.0000      7.9167      2.5981      0.0534      3.1432     24.7301     92.8406
  1705.1000      7.9167      2.5871      0.0419      3.8091     24.7773     91.3811
  1705.2000      7.9167      2.5660      0.0302      5.0909     24.0440     91.4891
  1705.3000      7.8950      2.5556     -0.0285      5.7235     23.4174     92.5418
  1705.4000      7.8950      2.5619      0.0706      5.3400     23.3631     89.8756
  1705.5000      7.8734      2.5542      0.0576      5.8049     23.5123     83.2361
  1705.6000      7.8734      2.5245     -0.0228      7.6076     23.5145     77.3375
  1705.7000      7.8734      2.5092     -0.0310      8.5353     23.2041     72.9046
  1705.8000      7.8757      2.5199      0.0250      7.8857     22.5542     68.6640
  1705.9000      7.8757      2.5339      0.0052      7.0365     21.8398     63.7702
  1706.0000      7.8860      2.5437      0.0014      6.4409     21.3516     59.2016
  1706.1000      7.8860      2.5560      0.0000      5.6942     21.1250     57.5262
  1706.2000      7.8860      2.5716      0.0663      4.7537     20.9741     58.0874
  1706.3000      7.8682      2.5823      0.0666      4.1004     20.6672     59.2585
  1706.4000      7.8682      2.5777      0.0700      4.3820     20.2717     60.4030
  1706.5000      7.8475      2.5606      0.0326      5.4180     19.8946     60.9782
  1706.6000      7.8475      2.5463      0.0768      6.2842     19.3410     60.7232
  1706.7000      7.8475      2.5364      0.0527      6.8877     18.6107     58.6801
  1706.8000      7.8564      2.5256      0.0630      7.5412     18.0551     55.7966
  1706.9000      7.8564      2.5211      0.0343      7.8124     17.9282     54.6208
  1707.0000      7.8392      2.5243      0.0645      7.6189     17.9260     55.8273
