~Version Information
VERS.                      2.0: CWLS Log ASCII Standard - VERSION 2.0
WRAP.                       NO: One line per depth step
~Well Information Block
STRT.FT               -14.5000: 
STOP.FT              2676.5000: 
STEP.FT                 0.1000: 
NULL.                -999.2500: 
COMP.          Petrogulf Corporation: COMPANY
WELL.          Latiluppe 8-13V: WELL
FLD.           Purgatorie River: FIELD
LOC.           1069' FWL & 1647' FSL: LOCATION
CNTY.               Las Animas: COUNTY
SRVC.                         : SERVICE COMPANY
DATE.          Tue Nov 18 16:12:50 2003: LOG DATE
UWI.                          : UNIQUE WELL ID
STAT.                 Colorado: STATE
~Curve Information Block
DEPT.FT            0 000 00 00: Depth
CCL.                          : Casing Collar Locator
TT3.usec                      : CBL 3' Travel Time
AMP3.mV                       : CBL 3' Amplitude
GR.GAPI                       : Gamma Ray
~Parameter Information Block
~A  Depth       CCL         TT3         AMP3         GR     
# ...
  1405.9000      0.0000    753.9082      4.1317    134.2609
  1406.0000      0.0000    747.5618      4.1223    139.5137
  1406.1000      0.0000    747.5618      4.1223    139.5137
  1406.2000      0.0000    747.5618      4.1223    139.5137
  1406.3000      0.0000    750.8258      4.1041    145.0204
  1406.4000      0.0000    750.8258      4.1041    145.0204
  1406.5000      0.0000    765.2471      4.0971    148.9421
  1406.6000      0.0000    765.2471      4.0971    148.9421
  1406.7000      0.0000    765.2471      4.0971    148.9421
  1406.8000      0.0000    786.9655      4.1142    149.4010
  1406.9000      0.0000    786.9655      4.1142    149.4010
  1407.0000      0.0000    808.4333      4.1376    146.2262
  1407.1000      0.0000    808.4333      4.1376    146.2262
  1407.2000      0.0000    808.4333      4.1376    146.2262
  1407.3000      0.0000    822.7371      4.1171    140.9281
  1407.4000      0.0000    822.7371      4.1171    140.9281
  1407.5000      0.0000    826.5985      4.0116    135.3790
  1407.6000      0.0000    826.5985      4.0116    135.3790
  1407.7000      0.0000    826.5985      4.0116    135.3790
  1407.8000      0.0000    820.9377      3.8349    131.1501
  1407.9000      0.0000    820.9377      3.8349    131.1501
  1408.0000      0.0000    810.2814      3.6652    129.5477
  1408.1000      0.0000    810.2814      3.6652    129.5477
  1408.2000      0.0000    810.2814      3.6652    129.5477
  1408.3000      0.0000    800.5272      3.6027    131.0494
  1408.4000      0.0000    800.5272      3.6027    131.0494
  1408.5000      0.0000    795.0582      3.6921    134.5907
  1408.6000      0.0000    795.0582      3.6921    134.5907
  1408.7000      0.0000    795.0582      3.6921    134.5907
  1408.8000      0.0000    792.0798      3.8813    138.2883
  1408.9000      0.0000    792.0798      3.8813    138.2883
  1409.0000      0.0000    785.8665      4.0656    140.9719
  1409.1000      0.0000    785.8665      4.0656    140.9719
  1409.2000      0.0000    785.8665      4.0656    140.9719
  1409.3000      0.0000    771.4761      4.1607    142.3527
  1409.4000      0.0000    771.4761      4.1607    142.3527
  1409.5000      0.0000    749.5018      4.1342    142.0079
  1409.6000      0.0000    749.5018      4.1342    142.0079
  1409.7000      0.0000    749.5018      4.1342    142.0079
  1409.8000      0.0000    726.3231      4.0046    139.4062
  1409.9000      0.0000    726.3231      4.0046    139.4062
  1410.0000      0.0000    709.2958      3.8328    135.1573
  1410.1000      0.0000    709.2958      3.8328    135.1573
  1410.2000      0.0000    709.2958      3.8328    135.1573
  1410.3000      0.0000    701.9261      3.6951    131.1830
  1410.4000      0.0000    701.9261      3.6951    131.1830
  1410.5000      0.0000    703.7022      3.6473    129.1268
  1410.6000      0.0000    703.7022      3.6473    129.1268
  1410.7000      0.0000    703.7022      3.6473    129.1268
  1410.8000      0.0000    713.0928      3.7015    129.0268
  1410.9000      0.0000    713.0928      3.7015    129.0268
  1411.0000      0.0000    729.4152      3.8220    129.6897
  1411.1000      0.0000    729.4152      3.8220    129.6897
  1411.2000      0.0000    729.4152      3.8220    129.6897
  1411.3000      0.0000    751.9025      3.9432    129.8690
  1411.4000      0.0000    751.9025      3.9432    129.8690
  1411.5000      0.0000    778.0074      3.9974    129.0550
  1411.6000      0.0000    778.0074      3.9974    129.0550
  1411.7000      0.0000    778.0074      3.9974    129.0550
  1411.8000      0.0000    803.4036      3.9431    127.5201
  1411.9000      0.0000    803.4036      3.9431    127.5201
  1412.0000      0.0000    824.3776      3.7969    125.7176
  1412.1000      0.0000    824.3776      3.7969    125.7176
  1412.2000      0.0000    824.3776      3.7969    125.7176
  1412.3000      0.0000    840.4915      3.6413    123.6786
  1412.4000      0.0000    840.4915      3.6413    123.6786
  1412.5000      0.0000    854.1135      3.5664    121.1375
  1412.6000      0.0000    854.1135      3.5664    121.1375
  1412.7000      0.0000    854.1135      3.5664    121.1375
  1412.8000      0.0000    867.0087      3.5972    118.2176
  1412.9000      0.0000    867.0087      3.5972    118.2176
  1413.0000      0.0000    878.4905      3.6900    115.8330
  1413.1000      2.0000    878.4905      3.6900    115.8330
  1413.2000     -2.0000    878.4905      3.6900    115.8330
  1413.3000      0.0000    886.7425      3.7777    115.4284
  1413.4000      2.0000    886.7425      3.7777    115.4284
  1413.5000     -2.0000    890.0990      3.8086    118.1841
  1413.6000      0.0000    890.0990      3.8086    118.1841
  1413.7000      0.0000    890.0990      3.8086    118.1841
  1413.8000      0.0000    886.9205      3.7865    124.1477
  1413.9000      0.0000    886.9205      3.7865    124.1477
  1414.0000      0.0000    876.4001      3.7812    131.9985
  1414.1000      0.0000    876.4001      3.7812    131.9985
  1414.2000      0.0000    876.4001      3.7812    131.9985
  1414.3000      0.0000    860.5105      3.8623    139.8218
  1414.4000      0.0000    860.5105      3.8623    139.8218
  1414.5000      0.0000    843.9496      4.0112    146.0833
  1414.6000      0.0000    843.9496      4.0112    146.0833
  1414.7000      0.0000    843.9496      4.0112    146.0833
  1414.8000      0.0000    831.0928      4.1254    149.8680
  1414.9000      0.0000    831.0928      4.1254    149.8680
  1415.0000      0.0000    823.3989      4.1109    150.8926
  1415.1000      0.0000    823.3989      4.1109    150.8926
  1415.2000      0.0000    823.3989      4.1109    150.8926
  1415.3000      0.0000    819.7169      3.9588    149.9128
  1415.4000      0.0000    819.7169      3.9588    149.9128
  1415.5000      0.0000    818.2223      3.7445    148.6498
  1415.6000      0.0000    818.2223      3.7445    148.6498
  1415.7000      0.0000    818.2223      3.7445    148.6498
  1415.8000      0.0000    817.7465      3.5763    148.5003
  1415.9000      0.0000    817.7465      3.5763    148.5003
  1416.0000      0.0000    817.9501      3.5415    149.1566
  1416.1000      0.0000    817.9501      3.5415    149.1566
  1416.2000      0.0000    817.9501      3.5415    149.1566
  1416.3000      0.0000    818.8561      3.6600    148.6614
  1416.4000      0.0000    818.8561      3.6600    148.6614
  1416.5000      0.0000    820.1164      3.8601    144.9853
  1416.6000      0.0000    820.1164      3.8601    144.9853
  1416.7000      0.0000    820.1164      3.8601    144.9853
  1416.8000      0.0000    820.6276      4.0163    137.8328
  1416.9000      0.0000    820.6276      4.0163    137.8328
  1417.0000      0.0000    819.4716      4.0339    129.0345
  1417.1000      0.0000    819.4716      4.0339    129.0345
  1417.2000      0.0000    819.4716      4.0339    129.0345
  1417.3000      0.0000    817.6801      3.9090    121.0729
  1417.4000      0.0000    817.6801      3.9090    121.0729
  1417.5000      0.0000    818.2006      3.7301    115.1465
  1417.6000      0.0000    818.2006      3.7301    115.1465
  1417.7000      0.0000    818.2006      3.7301    115.1465
  1417.8000      0.0000    822.9860      3.6211    110.6941
  1417.9000      0.0000    822.9860      3.6211    110.6941
  1418.0000      0.0000    830.6484      3.6520    106.6208
  1418.1000      0.0000    830.6484      3.6520    106.6208
  1418.2000      0.0000    830.6484      3.6520    106.6208
  1418.3000      0.0000    837.8892      3.7875    102.6967
  1418.4000      0.0000    837.8892      3.7875    102.6967
  1418.5000      0.0000    842.5988      3.9239     99.8125
  1418.6000      0.0000    842.5988      3.9239     99.8125
  1418.7000      0.0000    842.5988      3.9239     99.8125
  1418.8000      0.0000    844.8647      3.9775     99.2529
  1418.9000      0.0000    844.8647      3.9775     99.2529
  1419.0000      0.0000    845.7868      3.9432    101.7566
  1419.1000      0.0000    845.7868      3.9432    101.7566
  1419.2000      0.0000    845.7868      3.9432    101.7566
