~Version Information
VERS.                      2.0: CWLS Log ASCII Standard - VERSION 2.0
WRAP.                       NO: One line per depth step
~Well Information Block
STRT.FT               700.0000: 
STOP.FT              1869.5000: 
STEP.FT                 0.1000: 
NULL.                -999.2500: 
COMP.          Petrogulf Corporation: COMPANY
WELL.             State 16-24R: WELL
FLD.           Purgatorie River: FIELD
LOC.           541' FSL & 2371' FWL: LOCATION
PROV.                 Colorado: PROVINCE
CNTY.               Las Animas: COUNTRY
SRVC.                Patterson: SERVICE COMPANY
DATE.          Fri Aug 12 09:07:22 2005: LOG DATE
UWI.                071-08312 : UNIQUE WELL ID
~Curve Information Block
DEPT.FT            0 000 00 00: Depth
DCAL.in                       : CDL Caliper
RHOB.g/cc                     : CDL Bulk Density
RHOC.g/cc                     : CDL Density Correction
DPOR.pu                       : CDL Density Porosity
GR.GAPI                       : Gamma Ray
NPOR.pu                       : Neutron Porosity
~Parameter Information Block
~A  Depth       DCAL        RHOB        RHOC        DPOR         GR         NPOR    
# ...
   930.4000     11.5634      2.5158      0.0709      8.1360     97.5747     25.7759
   930.5000     11.5719      2.5144      0.0283      8.2161     97.8824     26.7886
   930.6000     11.5719      2.5205      0.0393      7.8493     97.7683     27.5346
   930.7000     11.5719      2.5255      0.0524      7.5449     98.2541     27.8397
   930.8000     11.6097      2.5205      0.0171      7.8479     98.8710     27.8010
   930.9000     11.6097      2.5072      0.0318      8.6526     98.4800     27.4139
   931.0000     11.6352      2.4991      0.0069      9.1469     96.5410     26.4754
   931.1000     11.6352      2.5049      0.0253      8.7913     94.7859     25.3198
   931.2000     11.6352      2.5107      0.0652      8.4408     94.5302     24.6019
   931.3000     11.6281      2.5012      0.0218      9.0191     95.6524     24.4133
   931.4000     11.6281      2.4861     -0.0171      9.9316     97.8051     24.7489
   931.5000     11.6282      2.4830      0.0005     10.1183     99.6043     25.4787
   931.6000     11.6282      2.4985      0.0169      9.1801     99.6227     25.8701
   931.7000     11.6282      2.5315      0.0407      7.1811     98.2856     25.9831
   931.8000     11.6152      2.5674      0.0919      5.0079     96.3885     26.3928
   931.9000     11.6152      2.5789      0.1288      4.3085     94.2650     26.7427
   932.0000     11.5701      2.5614      0.0484      5.3685     92.9057     26.7833
   932.1000     11.5701      2.5418      0.0525      6.5605     92.6059     26.6979
   932.2000     11.5701      2.5428      0.0368      6.4991     92.8699     26.6887
   932.3000     11.5405      2.5645      0.0928      5.1830     92.9909     26.6623
   932.4000     11.5405      2.5947      0.0774      3.3534     92.2553     26.3410
   932.5000     11.5469      2.6313      0.0724      1.1333     91.8407     25.9896
   932.6000     11.5469      2.6704      0.0993     -1.2360     92.3516     25.7491
   932.7000     11.5469      2.6935      0.0899     -2.6337     92.5124     25.4394
   932.8000     11.5749      2.7003      0.0322     -3.0475     91.0327     25.2522
   932.9000     11.5749      2.7026      0.0708     -3.1850     88.9223     25.1187
   933.0000     11.6013      2.6884      0.0842     -2.3293     89.5617     24.7273
   933.1000     11.6013      2.6488      0.0520      0.0703     91.3523     24.0205
   933.2000     11.6013      2.6075     -0.0196      2.5730     89.2558     23.7030
   933.3000     11.5778      2.5971     -0.0182      3.2084     84.4867     24.8819
   933.4000     11.5778      2.6156      0.0597      2.0875     81.6675     26.9118
   933.5000     11.5454      2.6254      0.0661      1.4920     82.5877     28.1641
   933.6000     11.5454      2.6058      0.0344      2.6806     86.6981     28.4280
   933.7000     11.5454      2.5767      0.0086      4.4420     90.9259     28.0492
   933.8000     11.5811      2.5623      0.0515      5.3153     91.8483     27.1398
   933.9000     11.5811      2.5643      0.0675      5.1930     89.4810     26.0746
   934.0000     11.5543      2.5720      0.0891      4.7267     85.5834     25.0345
   934.1000     11.5543      2.5779      0.1048      4.3674     83.1331     24.0072
   934.2000     11.5543      2.5846      0.0714      3.9631     84.5056     23.3517
   934.3000     11.5270      2.5934      0.1149      3.4313     87.3505     23.4446
   934.4000     11.5270      2.5969      0.0994      3.2187     89.2557     24.1641
   934.5000     11.4969      2.5954      0.1099      3.3075     90.6529     24.7490
   934.6000     11.4969      2.5946      0.0959      3.3593     91.1722     24.2685
   934.7000     11.4969      2.5953      0.0758      3.3143     90.3104     23.2848
   934.8000     11.4948      2.6012      0.0735      2.9557     88.0949     23.3160
   934.9000     11.4948      2.6134      0.0740      2.2158     85.9926     24.8606
   935.0000     11.5724      2.6246      0.0976      1.5404     86.4625     26.9109
   935.1000     11.5724      2.6326      0.0811      1.0527     89.6706     27.9368
   935.2000     11.5724      2.6366      0.1099      0.8132     93.3679     27.4061
   935.3000     11.5833      2.6289      0.1012      1.2810     95.3239     25.9782
   935.4000     11.5833      2.6129      0.0595      2.2507     95.4839     24.5480
   935.5000     11.5755      2.6023      0.0493      2.8884     96.2954     23.4656
   935.6000     11.5755      2.5985      0.0672      3.1233     98.4881     23.1227
   935.7000     11.5755      2.5926      0.0744      3.4816     98.3503     23.7613
   935.8000     11.5735      2.5892      0.0324      3.6863     93.8752     24.9563
   935.9000     11.5735      2.6006      0.0255      2.9962     90.0420     25.9808
   936.0000     11.5759      2.6197      0.0904      1.8391     91.1804     26.5159
   936.1000     11.5759      2.6270      0.0817      1.3930     94.5743     26.6857
   936.2000     11.5759      2.6159      0.0850      2.0641     94.7991     25.8468
   936.3000     11.5763      2.5928      0.0624      3.4647     90.5078     23.9030
   936.4000     11.5763      2.5660      0.0658      5.0898     85.8181     22.4339
   936.5000     11.5695      2.5427      0.0189      6.5050     84.6317     22.5756
   936.6000     11.5695      2.5329     -0.0035      7.0959     85.7647     24.1501
   936.7000     11.5695      2.5420      0.0600      6.5432     86.0294     25.6453
   936.8000     11.5223      2.5645      0.0613      5.1834     85.2636     25.6014
   936.9000     11.5223      2.5928      0.0755      3.4654     86.4940     24.6099
   937.0000     11.5301      2.6160      0.1075      2.0596     90.3171     23.4612
   937.1000     11.5301      2.6162      0.1346      2.0472     94.0613     22.4662
   937.2000     11.5301      2.5900      0.0928      3.6340     95.3290     22.3829
   937.3000     11.4893      2.5605      0.0335      5.4221     94.6372     23.2491
   937.4000     11.4893      2.5473      0.0558      6.2257     95.2435     24.1046
   937.5000     11.4587      2.5465      0.0563      6.2751     97.6756     24.2359
   937.6000     11.4587      2.5497      0.0546      6.0785     98.8489     24.0041
   937.7000     11.4587      2.5536      0.0619      5.8437     96.5186     24.1371
   937.8000     11.5651      2.5612      0.0158      5.3846     92.6664     24.4714
   937.9000     11.5651      2.5850      0.0019      3.9409     90.2938     24.2642
   938.0000     11.5736      2.6252      0.0950      1.5025     88.6018     23.5907
   938.1000     11.5736      2.6617      0.1029     -0.7101     86.1043     23.0978
   938.2000     11.5736      2.6835      0.0876     -2.0332     83.1656     23.1113
   938.3000     11.5594      2.6929      0.1073     -2.5971     81.1657     23.4727
   938.4000     11.5594      2.6871      0.0953     -2.2475     81.4133     23.9199
   938.5000     11.4800      2.6694      0.0227     -1.1759     83.6812     24.5567
   938.6000     11.4800      2.6559      0.0160     -0.3553     87.1857     25.0016
   938.7000     11.4800      2.6521      0.0447     -0.1244     91.2093     24.3855
   938.8000     11.5479      2.6448      0.0189      0.3153     94.1974     23.0921
   938.9000     11.5479      2.6269     -0.0107      1.3984     93.3460     22.2453
   939.0000     11.6058      2.6076      0.0032      2.5675     88.2963     22.4376
   939.1000     11.6058      2.5941      0.0191      3.3880     83.7069     23.4556
   939.2000     11.6058      2.5851      0.0472      3.9312     83.1713     23.9974
   939.3000     11.6024      2.5817      0.0246      4.1388     84.8729     23.5044
   939.4000     11.6024      2.5842      0.0565      3.9900     85.6066     23.1730
   939.5000     11.5658      2.5869      0.0187      3.8246     84.6068     23.8766
   939.6000     11.5658      2.5877      0.0252      3.7768     82.5822     25.1381
   939.7000     11.5658      2.5890      0.0085      3.6951     80.2977     25.8665
   939.8000     11.6181      2.5908      0.0204      3.5891     79.4679     25.8484
   939.9000     11.6181      2.5912      0.0301      3.5662     81.9859     25.8801
