~Version Information
VERS.                      2.0: CWLS Log ASCII Standard - VERSION 2.0
WRAP.                       NO: One line per depth step
~Well Information Block
STRT.FT               946.8000: 
STOP.FT              2134.5000: 
STEP.FT                 0.1000: 
NULL.                -999.2500: 
COMP.          Petrogulf Corporation: COMPANY
WELL.             Valejo 8-12R: WELL
FLD.           Purgatorie River: FIELD
LOC.           1351'' FNL & 1562' FWL: LOCATION
CNTY.               Las Animas: COUNTY
SRVC.                         : SERVICE COMPANY
DATE.          Wed Apr 28 13:22:45 2004: LOG DATE
UWI.           05 071 08038 00: UNIQUE WELL ID
STAT.                 Colorado: STATE
~Curve Information Block
DEPT.FT            0 000 00 00: Depth
DCAL.in                       : CDL Caliper
RHOB.g/cc                     : CDL Bulk Density
RHOC.g/cc                     : CDL Density Correction
DPOR.pu                       : CDL Density Porosity
NPOR.pu                       : Neutron Porosity
GR.GAPI                       : Gamma Ray
~Parameter Information Block
~A  Depth       DCAL        RHOB        RHOC        DPOR        NPOR         GR     
# ...
  1945.2000      8.1688      2.2763      0.0668     22.6484     32.4022    148.5948
  1945.3000      8.1687      2.3026      0.0691     21.0526     31.7273    154.0534
  1945.4000      8.1687      2.3546      0.1001     17.9050     31.4169    157.8848
  1945.5000      8.1683      2.4152      0.1732     14.2274     31.4386    159.3370
  1945.6000      8.1683      2.4590      0.2203     11.5731     31.4098    153.9229
  1945.7000      8.1683      2.4790      0.2028     10.3630     31.0249    140.1116
  1945.8000      8.1706      2.4914      0.2061      9.6142     30.2112    128.8013
  1945.9000      8.1706      2.5050      0.2685      8.7884     29.3871    129.8958
  1946.0000      8.2069      2.5193      0.2511      7.9240     28.6921    137.1964
  1946.1000      8.2069      2.5341      0.2404      7.0252     28.2820    140.0327
  1946.2000      8.2069      2.5435      0.1521      6.4535     28.3984    138.3300
  1946.3000      8.2205      2.5405      0.1596      6.6380     28.6070    136.4876
  1946.4000      8.2205      2.5270      0.1272      7.4535     28.5749    135.0100
  1946.5000      7.9736      2.5149      0.0981      8.1907     28.5693    133.6472
  1946.6000      7.9736      2.5098      0.0846      8.4958     28.7570    138.1013
  1946.7000      7.9736      2.5087      0.0533      8.5618     28.9261    146.4423
  1946.8000      7.9369      2.5122      0.0036      8.3521     29.0207    145.6264
  1946.9000      7.9369      2.5197      0.0771      7.8992     29.0878    133.6622
  1947.0000      7.9336      2.5244      0.0580      7.6097     29.2232    123.9098
  1947.1000      7.9336      2.5285      0.0659      7.3617     29.4991    124.6978
  1947.2000      7.9336      2.5381      0.0967      6.7835     29.5996    130.5872
  1947.3000      7.9433      2.5522      0.1008      5.9296     29.4277    133.5174
  1947.4000      7.9433      2.5640      0.1450      5.2110     29.1171    134.6351
  1947.5000      7.9413      2.5666      0.1601      5.0530     28.6695    138.2356
  1947.6000      7.9413      2.5598      0.1204      5.4682     28.2073    141.5216
  1947.7000      7.9413      2.5532      0.0516      5.8656     27.8942    138.6696
  1947.8000      7.9427      2.5569      0.0532      5.6430     27.6678    130.8062
  1947.9000      7.9427      2.5631      0.1206      5.2696     27.1871    124.1326
  1948.0000      7.9378      2.5614      0.0657      5.3702     26.3301    120.1565
  1948.1000      7.9378      2.5633      0.0612      5.2538     25.4273    116.8225
  1948.2000      7.9378      2.5779      0.0949      4.3699     24.6798    114.4086
  1948.3000      7.9326      2.5879      0.1443      3.7636     24.1597    115.3666
  1948.4000      7.9326      2.5797      0.1225      4.2600     23.9173    116.9569
  1948.5000      7.9043      2.5704      0.0937      4.8270     23.7560    116.0222
  1948.6000      7.9043      2.5755      0.0830      4.5178     23.2017    114.3095
  1948.7000      7.9043      2.5925      0.0693      3.4871     22.3120    112.2659
  1948.8000      7.8962      2.6202      0.0701      1.8046     21.6728    111.1520
  1948.9000      7.8962      2.6576      0.0851     -0.4610     21.3907    110.0212
  1949.0000      7.8693      2.6930      0.1333     -2.6069     21.1473    104.3969
  1949.1000      7.8693      2.7042      0.1503     -3.2854     20.6850     95.9235
  1949.2000      7.8693      2.6814      0.1330     -1.9052     20.0483     91.2065
  1949.3000      7.8635      2.6445      0.0734      0.3356     19.7111     92.3307
  1949.4000      7.8635      2.6198      0.0543      1.8303     20.0524     95.9510
  1949.5000      7.8801      2.6100      0.0798      2.4271     20.8272    100.3787
  1949.6000      7.8801      2.5979      0.0366      3.1599     21.5230    103.4039
  1949.7000      7.8801      2.5824      0.0176      4.0997     22.2815    102.3281
  1949.8000      7.8890      2.5802      0.0266      4.2281     23.3974    101.1360
  1949.9000      7.8890      2.5923      0.0430      3.4991     24.4715    103.8149
  1950.0000      7.9121      2.6033      0.0542      2.8296     25.0017    109.2815
  1950.1000      7.9121      2.6051      0.0700      2.7199     25.0155    116.2952
  1950.2000      7.9121      2.6005      0.0704      2.9980     24.8558    122.7410
  1950.3000      7.9261      2.5969      0.0562      3.2201     25.0422    126.1442
  1950.4000      7.9261      2.5884      0.0927      3.7335     25.8658    125.5155
  1950.5000      7.9342      2.5635      0.0781      5.2444     26.7682    122.0541
  1950.6000      7.9342      2.5355      0.0388      6.9411     26.9708    119.1358
  1950.7000      7.9342      2.5238      0.0569      7.6500     26.4895    121.3460
  1950.8000      7.9383      2.5203      0.0737      7.8588     26.0453    126.1677
  1950.9000      7.9383      2.5150      0.0579      8.1835     25.9308    122.6246
  1951.0000      7.9440      2.5129      0.0714      8.3072     25.8030    111.3580
  1951.1000      7.9440      2.5115      0.0769      8.3915     25.4367    103.1713
  1951.2000      7.9440      2.4939      0.0565      9.4621     25.2740     99.5467
  1951.3000      7.9510      2.4353      0.1009     13.0131     26.4627     98.3503
  1951.4000      7.9510      2.3258     -0.0056     19.6469     28.9876     97.8931
  1951.5000      7.9506      2.1918     -0.0070     27.7685     31.0953     94.8840
  1951.6000      7.9506      2.0661     -0.0896     35.3908     31.7806     90.6641
  1951.7000      7.9506      1.9653     -0.1032     41.4992     31.6210     87.9612
  1951.8000      7.9452      1.8925     -0.1043     45.9121     31.5008     87.9025
  1951.9000      7.9452      1.8445     -0.0836     48.8181     31.6357     89.1957
  1952.0000      7.9818      1.8210     -0.0600     50.2450     31.6253     89.1197
  1952.1000      7.9818      1.8298     -0.0459     49.7110     31.3849     89.0563
  1952.2000      7.9818      1.8795      0.0563     46.6984     31.2403     89.3654
  1952.3000      8.0970      1.9598      0.1903     41.8275     30.7945     88.4034
  1952.4000      8.0970      2.0530      0.2345     36.1837     29.6574     88.7763
  1952.5000      8.2584      2.1510      0.2511     30.2450     28.5922     91.6091
  1952.6000      8.2584      2.2455      0.2004     24.5138     28.0769     97.5517
  1952.7000      8.2584      2.3295      0.1948     19.4223     27.8395    107.1978
  1952.8000      8.1554      2.4072      0.1423     14.7180     27.4575    116.0392
  1952.9000      8.1554      2.4819      0.1170     10.1863     26.5022    123.0399
  1953.0000      7.9531      2.5398      0.1242      6.6805     25.3261    130.9608
  1953.1000      7.9531      2.5678      0.1013      4.9846     24.6480    135.0243
  1953.2000      7.9531      2.5751      0.0878      4.5413     24.4078    132.3806
  1953.3000      7.9372      2.5744      0.0474      4.5816     24.1138    125.9759
  1953.4000      7.9372      2.5710      0.0371      4.7859     23.7006    117.0884
  1953.5000      7.9310      2.5671      0.0631      5.0217     23.7168    109.6777
  1953.6000      7.9310      2.5589      0.0311      5.5202     24.2092    110.3833
  1953.7000      7.9310      2.5475      0.0291      6.2139     24.4274    117.8746
  1953.8000      7.9309      2.5446      0.0627      6.3885     24.2652    124.6364
  1953.9000      7.9309      2.5580      0.0358      5.5742     24.1789    123.7637
  1954.0000      7.9343      2.5826      0.0634      4.0829     24.2692    114.2420
  1954.1000      7.9343      2.6028      0.0622      2.8623     24.4008    106.1058
  1954.2000      7.9343      2.6025      0.0739      2.8776     24.5157    108.4904
  1954.3000      7.9470      2.5822      0.0502      4.1106     24.6477    115.7902
  1954.4000      7.9470      2.5637      0.0416      5.2302     24.7044    117.9080
  1954.5000      7.9650      2.5645      0.0323      5.1802     24.4289    113.5670
  1954.6000      7.9650      2.5820      0.0329      4.1223     24.0571    106.1906
  1954.7000      7.9650      2.6019      0.0814      2.9144     23.8692     97.8298
