~Version Information
VERS.                      2.0: CWLS Log ASCII Standard - VERSION 2.0
WRAP.                       NO: One line per depth step
~Well Information Block
STRT.FT               660.8000: 
STOP.FT              2375.1000: 
STEP.FT                 0.1000: 
NULL.                -999.2500: 
COMP.          Petrogulf Corporation: COMPANY
WELL.             State 16-34V: WELL
FLD.           Purgatorie River: FIELD
LOC.           1146' FSL & 1393' FEL: LOCATION
CNTY.               Las Animas: COUNTY
SRVC.                         : SERVICE COMPANY
DATE.          Sat Jun 07 20:51:20 2003: LOG DATE
UWI.           05 071 07724 00: UNIQUE WELL ID
STAT.                 Colorado: STATE
~Curve Information Block
DEPT.FT            0 000 00 00: Depth
DCAL.in                       : Caliper from Density Tool
RHOB.g/cc                     : Bulk Density
RHOC.g/cc                     : Density Correction
DPOR.pu                       : Density Porosity
GR.GAPI                       : Gamma Ray
NPOR.pu                       : Neutron Porosity
~Parameter Information Block
~A  Depth       DCAL        RHOB        RHOC        DPOR         GR         NPOR    
# ...
  2360.0000      7.8510      2.5339      0.0633      7.0373     58.3076   -999.2500
  2360.1000      7.8510      2.5339      0.0633      7.0373     57.6734   -999.2500
  2360.2000      7.8510      2.5339      0.0633      7.0373     57.1740   -999.2500
  2360.3000      7.8527      2.5376      0.0664      6.8134     56.7984   -999.2500
  2360.4000      7.8527      2.5376      0.0664      6.8134     56.5338   -999.2500
  2360.5000      7.8714      2.5393      0.0667      6.7078     56.3634   -999.2500
  2360.6000      7.8714      2.5393      0.0667      6.7078     56.2703   -999.2500
  2360.7000      7.8714      2.5393      0.0667      6.7078     56.2364   -999.2500
  2360.8000      7.8970      2.5411      0.0646      6.6010     56.2423   -999.2500
  2360.9000      7.8970      2.5411      0.0646      6.6010     56.2696   -999.2500
  2361.0000      7.9084      2.5421      0.0622      6.5398     56.3011   -999.2500
  2361.1000      7.9084      2.5421      0.0622      6.5398     56.3246   -999.2500
  2361.2000      7.9084      2.5421      0.0622      6.5398     56.3352   -999.2500
  2361.3000      7.9123      2.5441      0.0589      6.4211     56.3359   -999.2500
  2361.4000      7.9123      2.5441      0.0589      6.4211     56.3401   -999.2500
  2361.5000      7.8967      2.5461      0.0580      6.2995     56.3691   -999.2500
  2361.6000      7.8967      2.5461      0.0580      6.2995     56.4477   -999.2500
  2361.7000      7.8967      2.5461      0.0580      6.2995     56.6026   -999.2500
  2361.8000      7.9046      2.5509      0.0595      6.0055     56.8520   -999.2500
  2361.9000      7.9046      2.5509      0.0595      6.0055     57.2069   -999.2500
  2362.0000      7.9224      2.5557      0.0624      5.7164     57.6640   -999.2500
  2362.1000      7.9224      2.5557      0.0624      5.7164     58.2057   -999.2500
  2362.2000      7.9224      2.5557      0.0624      5.7164     58.8005   -999.2500
  2362.3000      7.9137      2.5648      0.0685      5.1661     59.4038   -999.2500
  2362.4000      7.9137      2.5648      0.0685      5.1661     59.9610   -999.2500
  2362.5000      7.8960      2.5712      0.0726      4.7781     60.4077   -999.2500
  2362.6000      7.8960      2.5712      0.0726      4.7781     60.6719   -999.2500
  2362.7000      7.8960      2.5712      0.0726      4.7781     60.6744   -999.2500
  2362.8000      7.8712      2.5791      0.0764      4.2993     60.3303   -999.2500
  2362.9000      7.8712      2.5791      0.0764      4.2993     59.5535   -999.2500
  2363.0000      7.8712      2.5823      0.0767      4.1026     58.2613   -999.2500
  2363.1000      7.8712      2.5823      0.0767      4.1026     56.3843   -999.2500
  2363.2000      7.8712      2.5823      0.0767      4.1026     53.8763   -999.2500
  2363.3000      7.8794      2.5844      0.0741      3.9775     50.7253   -999.2500
  2363.4000      7.8794      2.5844      0.0741      3.9775     46.9630   -999.2500
  2363.5000      7.8918      2.5849      0.0714      3.9484     42.6700   -999.2500
  2363.6000      7.8918      2.5849      0.0714      3.9484     37.9732   -999.2500
  2363.7000      7.8918      2.5849      0.0714      3.9484     33.0385   -999.2500
  2363.8000      7.8748      2.5859      0.0673      3.8845     28.0545   -999.2500
  2363.9000      7.8748      2.5859      0.0673      3.8845     23.2125   -999.2500
  2364.0000      7.8382      2.5872      0.0652      3.8037     18.6873   -999.2500
  2364.1000      7.8382      2.5872      0.0652      3.8037     14.6180   -999.2500
  2364.2000      7.8382      2.5872      0.0652      3.8037     11.0976   -999.2500
  2364.3000      7.8391      2.5901      0.0635      3.6307      8.1676   -999.2500
  2364.4000      7.8391      2.5901      0.0635      3.6307      5.8220   -999.2500
  2364.5000      7.8554      2.5924      0.0634      3.4894      4.0157   -999.2500
  2364.6000      7.8554      2.5924      0.0634      3.4894      2.6782   -999.2500
  2364.7000      7.8554      2.5924      0.0634      3.4894      1.7259   -999.2500
  2364.8000      7.8513      2.5963      0.0653      3.2527      1.0737   -999.2500
  2364.9000      7.8513      2.5963      0.0653      3.2527      0.6447   -999.2500
  2365.0000      7.8087      2.5988      0.0681      3.1005      0.3731   -999.2500
  2365.1000      7.8087      2.5988      0.0681      3.1005      0.2080   -999.2500
  2365.2000      7.8087      2.5988      0.0681      3.1005      0.1115   -999.2500
  2365.3000      7.7903      2.6013      0.0742      2.9543      0.0572   -999.2500
  2365.4000      7.7903      2.6013      0.0742      2.9543      0.0280   -999.2500
  2365.5000      7.7572      2.6011      0.0788      2.9638      0.0129   -999.2500
  2365.6000      7.7572      2.6011      0.0788      2.9638      0.0054   -999.2500
  2365.7000      7.7572      2.6011      0.0788      2.9638      0.0019   -999.2500
  2365.8000      7.7055      2.5970      0.0849      3.2118      0.0000   -999.2500
  2365.9000      7.7055      2.5970      0.0849      3.2118   -999.2500   -999.2500
  2366.0000      7.6671      2.5913      0.0872      3.5551   -999.2500   -999.2500
  2366.1000      7.6671      2.5913      0.0872      3.5551   -999.2500   -999.2500
  2366.2000      7.6671      2.5913      0.0872      3.5551   -999.2500   -999.2500
  2366.3000      7.6479      2.5787      0.0875      4.3192   -999.2500   -999.2500
  2366.4000      7.6479      2.5787      0.0875      4.3192   -999.2500   -999.2500
  2366.5000      7.6424      2.5685      0.0857      4.9423   -999.2500   -999.2500
  2366.6000      7.6424      2.5685      0.0857      4.9423   -999.2500   -999.2500
  2366.7000      7.6424      2.5685      0.0857      4.9423   -999.2500   -999.2500
  2366.8000      7.6421      2.5528      0.0815      5.8897   -999.2500   -999.2500
  2366.9000      7.6421      2.5528      0.0815      5.8897   -999.2500   -999.2500
  2367.0000      7.7125      2.5440      0.0787      6.4217   -999.2500   -999.2500
  2367.1000      7.7125      2.5440      0.0787      6.4217   -999.2500   -999.2500
  2367.2000      7.7125      2.5440      0.0787      6.4217   -999.2500   -999.2500
  2367.3000      7.7605      2.5357      0.0757      6.9274   -999.2500   -999.2500
  2367.4000      7.7605      2.5357      0.0757      6.9274   -999.2500   -999.2500
  2367.5000      7.7218      2.5338      0.0746      7.0426   -999.2500   -999.2500
  2367.6000      7.7218      2.5338      0.0746      7.0426   -999.2500   -999.2500
  2367.7000      7.7218      2.5338      0.0746      7.0426   -999.2500   -999.2500
  2367.8000      7.7405      2.5354      0.0739      6.9471   -999.2500   -999.2500
  2367.9000      7.7405      2.5354      0.0739      6.9471   -999.2500   -999.2500
  2368.0000      7.8367      2.5380      0.0737      6.7860   -999.2500   -999.2500
  2368.1000      7.8367      2.5380      0.0737      6.7860   -999.2500   -999.2500
  2368.2000      7.8367      2.5380      0.0737      6.7860   -999.2500   -999.2500
  2368.3000      7.9112      2.5420      0.0729      6.5453   -999.2500   -999.2500
  2368.4000      7.9112      2.5420      0.0729      6.5453   -999.2500   -999.2500
  2368.5000      7.9177      2.5437      0.0717      6.4417   -999.2500   -999.2500
  2368.6000      7.9177      2.5437      0.0717      6.4417   -999.2500   -999.2500
  2368.7000      7.9177      2.5437      0.0717      6.4417   -999.2500   -999.2500
  2368.8000      7.8773      2.5447      0.0685      6.3844   -999.2500   -999.2500
  2368.9000      7.8773      2.5447      0.0685      6.3844   -999.2500   -999.2500
  2369.0000      7.9094      2.5449      0.0656      6.3712   -999.2500   -999.2500
  2369.1000      7.9094      2.5449      0.0656      6.3712   -999.2500   -999.2500
  2369.2000      7.9094      2.5449      0.0656      6.3712   -999.2500   -999.2500
  2369.3000      7.9975      2.5465      0.0615      6.2756   -999.2500   -999.2500
  2369.4000      7.9975      2.5465      0.0615      6.2756   -999.2500   -999.2500
  2369.5000      8.0169      2.5494      0.0601      6.0952   -999.2500   -999.2500
