~Version Information
VERS.                      2.0: CWLS Log ASCII Standard - VERSION 2.0
WRAP.                       NO: One line per depth step
~Well Information Block
STRT.FT               765.6000: 
STOP.FT              2431.0000: 
STEP.FT                 0.1000: 
NULL.                -999.2500: 
COMP.          Petrogulf Corporation: COMPANY
WELL.             Norton 9-14V: WELL
FLD.           Purgatorie River: FIELD
LOC.           230' FSL & 225' FWL: LOCATION
CNTY.               Las Animas: COUNTY
SRVC.                         : SERVICE COMPANY
DATE.          Thu Oct 28 06:20:25 2004: LOG DATE
UWI.           05 071 07891 00: UNIQUE WELL ID
STAT.                 Colorado: STATE
~Curve Information Block
DEPT.FT            0 000 00 00: Depth
DCAL.in                       : CDL Caliper
RHOB.g/cc                     : CDL Bulk Density
RHOC.g/cc                     : CDL Density Correction
DPOR.pu                       : CDL Density Porosity
GR.GAPI                       : Gamma Ray
NPOR.pu                       : Neutron Porosity
~Parameter Information Block
~A  Depth       DCAL        RHOB        RHOC        DPOR         GR         NPOR    
# ...
  1984.8000      8.3926      2.5191      0.4740      7.9329    157.9968     18.2122
  1984.9000      8.3926      2.5620      0.4801      5.3313    149.4185     19.0888
  1985.0000      8.5173      2.5736      0.4224      4.6275    140.8776     20.1011
  1985.1000      8.5173      2.5855      0.3217      3.9064    138.3978     21.2444
  1985.2000      8.5173      2.6375      0.3922      0.7583    143.4959     22.6595
  1985.3000      8.5093      2.7070      0.4649     -3.4563    149.1588     24.0287
  1985.4000      8.5093      2.7366      0.4818     -5.2501    145.5134     24.9714
  1985.5000      8.5040      2.7239      0.3164     -4.4763    138.1032     25.6027
  1985.6000      8.5040      2.7240      0.2742     -4.4840    138.3580     26.1867
  1985.7000      8.5040      2.7436      0.4003     -5.6743    144.4283     26.7543
  1985.8000      8.2821      2.7253      0.3157     -4.5608    147.4803     27.0498
  1985.9000      8.2821      2.6492      0.1426      0.0477    145.4495     26.8318
  1986.0000      8.1329      2.5590      0.0087      5.5169    143.1694     26.3499
  1986.1000      8.1329      2.4984      0.0459      9.1908    142.6770     25.9550
  1986.2000      8.1329      2.4804     -0.0087     10.2781    142.2604     25.4157
  1986.3000      8.0420      2.5037     -0.0177      8.8691    141.7767     24.6485
  1986.4000      8.0420      2.5467      0.0392      6.2578    141.9075     23.9676
  1986.5000      8.0346      2.5756      0.0679      4.5102    141.5960     23.4124
  1986.6000      8.0346      2.5760      0.0597      4.4876    137.4874     23.0258
  1986.7000      8.0346      2.5571      0.0540      5.6303    127.6291     22.7250
  1986.8000      8.0324      2.5320      0.0280      7.1517    119.1223     22.1408
  1986.9000      8.0324      2.5103      0.0576      8.4666    119.8700     21.3993
  1987.0000      8.0326      2.4978      0.0338      9.2229    126.8633     20.8586
  1987.1000      8.0326      2.4904      0.0640      9.6706    133.3864     20.4551
  1987.2000      8.0326      2.4746      0.0886     10.6291    136.2620     20.1096
  1987.3000      8.0273      2.4499      0.0354     12.1286    136.9603     20.0048
  1987.4000      8.0273      2.4327      0.0537     13.1709    138.0931     19.9839
  1987.5000      8.0286      2.4189      0.0865     14.0051    142.4866     19.6511
  1987.6000      8.0286      2.3858      0.0050     16.0105    150.1338     19.2063
  1987.7000      8.0286      2.3303      0.0638     19.3771    156.6856     19.1708
  1987.8000      8.0299      2.2714      0.0563     22.9456    159.4737     19.3664
  1987.9000      8.0299      2.2283      0.0961     25.5568    156.5889     19.3828
  1988.0000      8.0359      2.1962      0.0671     27.5033    150.6767     19.2515
  1988.1000      8.0359      2.1544      0.1346     30.0381    146.1565     18.9830
  1988.2000      8.0359      2.1032      0.0408     33.1387    141.8361     18.6388
  1988.3000      8.0775      2.0639      0.0924     35.5236    135.7352     18.5729
  1988.4000      8.0775      2.0352      0.1008     37.2586    130.1312     18.4811
  1988.5000      8.0956      1.9919      0.1593     39.8840    129.4774     17.8209
  1988.6000      8.0956      1.9316      0.0736     43.5390    132.5139     16.8488
  1988.7000      8.0956      1.9110      0.0743     44.7884    131.5264     16.1416
  1988.8000      8.0988      1.9761      0.3386     40.8425    125.7255     15.9613
  1988.9000      8.0988      2.0947      0.4374     33.6566    121.4240     15.9837
  1989.0000      8.2027      2.2310      0.4980     25.3965    120.5713     15.8042
  1989.1000      8.2027      2.3847      0.5605     16.0774    125.3516     15.6276
  1989.2000      8.2027      2.5300      0.6679      7.2742    136.2838     15.7690
  1989.3000      8.8210      2.6166      0.7106      2.0226    141.0583     16.2267
  1989.4000      8.8210      2.6395      0.5873      0.6369    131.0695     16.9403
  1989.5000      8.9690      2.6382      0.4674      0.7153    119.1655     17.9622
  1989.6000      8.9690      2.6286      0.4982      1.2955    117.0018     19.2115
  1989.7000      8.9690      2.5961      0.3949      3.2674    121.9145     20.2158
  1989.8000      8.5674      2.5487      0.2522      6.1367    127.8727     20.6671
  1989.9000      8.5674      2.5161      0.2378      8.1148    130.1370     20.7922
  1990.0000      8.2164      2.5098      0.2317      8.4978    130.5195     20.7188
  1990.1000      8.2164      2.5198      0.2668      7.8903    135.9281     20.5115
  1990.2000      8.2164      2.5322      0.2816      7.1412    146.0594     20.3512
  1990.3000      8.1528      2.5387      0.2535      6.7473    152.4661     20.3730
  1990.4000      8.1528      2.5347      0.2755      6.9896    149.9145     20.6091
  1990.5000      8.1540      2.5215      0.2110      7.7876    143.8106     20.9030
  1990.6000      8.1540      2.5126      0.1715      8.3277    143.2426     20.9402
  1990.7000      8.1540      2.5148      0.1774      8.1909    146.2255     20.7427
  1990.8000      8.0938      2.5181      0.1376      7.9938    145.2968     20.7919
  1990.9000      8.0938      2.5132      0.1620      8.2926    140.6620     21.1137
  1991.0000      8.0568      2.4992      0.1205      9.1395    136.0587     21.3499
  1991.1000      8.0568      2.4823      0.0748     10.1617    133.3427     21.2665
  1991.2000      8.0568      2.4683      0.0964     11.0094    134.3613     20.9235
  1991.3000      8.0456      2.4554      0.0472     11.7955    140.6174     20.5453
  1991.4000      8.0456      2.4439      0.0267     12.4914    147.3964     20.4727
  1991.5000      8.0366      2.4399      0.0258     12.7331    147.0566     20.8840
  1991.6000      8.0366      2.4486      0.0373     12.2049    144.6399     21.2565
  1991.7000      8.0366      2.4609      0.0653     11.4585    149.7616     21.2357
  1991.8000      8.0361      2.4543      0.0429     11.8602    157.4571     21.0478
  1991.9000      8.0361      2.4270      0.0236     13.5129    155.5504     20.7973
  1992.0000      8.0365      2.4026      0.0333     14.9959    144.2137     20.5867
  1992.1000      8.0365      2.3967      0.0468     15.3486    134.8618     20.7104
  1992.2000      8.0365      2.4073      0.0710     14.7065    132.0176     21.1847
  1992.3000      8.0352      2.4259      0.0538     13.5841    132.4128     21.7572
  1992.4000      8.0352      2.4480      0.0619     12.2424    135.3830     22.2036
  1992.5000      8.0324      2.4683      0.0809     11.0138    144.7166     22.2418
  1992.6000      8.0324      2.4792      0.0926     10.3530    155.9667     21.9785
  1992.7000      8.0324      2.4820      0.0456     10.1810    159.1390     22.0622
  1992.8000      8.0352      2.4849      0.0411     10.0033    155.6924     22.7218
  1992.9000      8.0352      2.4957      0.0462      9.3535    150.5628     23.3037
  1993.0000      8.0471      2.5158      0.0151      8.1355    141.7953     23.3003
  1993.1000      8.0471      2.5380      0.0820      6.7878    131.4662     23.2206
  1993.2000      8.0471      2.5556      0.0541      5.7227    129.4508     23.5035
  1993.3000      8.0699      2.5680      0.0285      4.9700    138.1931     23.5093
  1993.4000      8.0699      2.5661      0.0670      5.0864    148.5148     22.6542
  1993.5000      8.0943      2.5433     -0.0202      6.4651    152.8000     21.4306
  1993.6000      8.0943      2.5118      0.0113      8.3739    150.9944     20.4509
  1993.7000      8.0943      2.4785     -0.0213     10.3939    144.7826     19.8780
  1993.8000      8.1122      2.4477     -0.0206     12.2612    137.5732     19.3737
  1993.9000      8.1122      2.4240      0.0332     13.6947    132.0858     18.7258
  1994.0000      8.1558      2.4075      0.0126     14.6994    127.5191     18.3486
  1994.1000      8.1558      2.4057      0.0344     14.8059    126.9499     18.4048
  1994.2000      8.1558      2.4231      0.0093     13.7532    131.9711     18.5497
  1994.3000      8.1756      2.4486      0.0527     12.2052    135.4566     18.6793
