~Version Information
 VERS.                                  2.0 : CWLS LAS VERSION
 WRAP.                                   NO : WRAPING MODE
 SWARE .                 MController 2.5.0N : SOFTWARE VERSION
~Well Information
 WELL.                          Border 21-3 : WELL
 COMP.              Pioneer Natural Resouce : COMPANY
 FLD.                 NE/NW Sec 3 T35S R65W : FIELD
 LOC.                      Purgatiore River : LOCATION
 DATE.                             12/09/04 : DATE(S) LOGGED
 SRVC.       Blanco Geological Services LLC : SERVICE COMPANY
 STAT.                                   CO : STATE
 CNTY.                           Las Animas : COUNTY
 CTRY.                                  USA : COUNTRY
 API.                          05-071-08169 : API NUMBER
 STRT.FT                             250.00 : START DEPTH
 STOP.FT                            1525.00 : STOP DEPTH
 STEP.FT                               1.00 : DEPTH INCREMENT
 NULL.                                -9999 : NULL VALUE
~Curve information
 DEPTH.FT                                   :
 ROP.MIN/FT                                 :
 GAS.UNITS                                  :
~ASCII Log data
# ...
       450.0         0.20          2.8 
       451.0         0.13          2.5 
       452.0         0.17          3.1 
       453.0         0.17          3.1 
       454.0         0.15          2.9 
       455.0         0.13          3.0 
       456.0         0.13          3.3 
       457.0         0.13          3.3 
       458.0         0.13          3.3 
       459.0         0.20          3.2 
       460.0         0.13          3.2 
       461.0         0.20          3.0 
       462.0         0.17          3.0 
       463.0         0.17          3.0 
       464.0         0.17          3.5 
       465.0         0.17          3.1 
       466.0         0.17          3.1 
       467.0         0.13          3.0 
       468.0         0.20          3.4 
       469.0         0.23          3.4 
       470.0         0.20          3.4 
       471.0         0.20          3.7 
       472.0         0.23          3.6 
       473.0         0.18          3.8 
       474.0         0.17          5.1 
       475.0         0.17          4.6 
       476.0         1.87          4.7 
       477.0         0.13          3.4 
       478.0         0.10          3.4 
       479.0         0.23          3.2 
       480.0         0.20          3.2 
       481.0         0.27          3.7 
       482.0         0.13          3.2 
       483.0         0.18          3.2 
       484.0         0.23          3.4 
       485.0         0.20          3.2 
       486.0         0.20          3.4 
       487.0         0.20          3.3 
       488.0         0.17          3.5 
       489.0         0.23          3.6 
       490.0         0.23          3.5 
       491.0         0.23          3.1 
       492.0         0.17          3.4 
       493.0         0.20          3.1 
       494.0         0.20          3.3 
       495.0         0.20          3.3 
       496.0         0.17          3.3 
       497.0         0.20          3.1 
       498.0         0.17          3.5 
       499.0         0.22          3.9 
       500.0         0.17          5.2 
       501.0         0.20          6.7 
       502.0         0.17          6.8 
       503.0         0.20          7.6 
       504.0         0.23          8.6 
       505.0         0.20          7.1 
       506.0         1.83          6.8 
       507.0         0.52          3.1 
       508.0         0.27          3.1 
       509.0         0.17          3.3 
       510.0         0.17          3.1 
       511.0         0.30          3.0 
       512.0         0.30          3.1 
       513.0         0.27          3.2 
       514.0         0.17          2.9 
       515.0         0.23          3.1 
       516.0         0.30          3.1 
       517.0         0.17          3.1 
       518.0         0.20          2.8 
       519.0         0.17          2.8 
       520.0         0.17          3.2 
       521.0         0.17          3.2 
       522.0         0.18          3.2 
       523.0         0.17          3.4 
       524.0         0.20          3.2 
       525.0         0.17          3.6 
       526.0         0.20          3.4 
       527.0         0.17          3.4 
       528.0         0.10          3.6 
       529.0         0.13          3.9 
       530.0         0.13          3.9 
       531.0         0.20          5.1 
       532.0         0.20          5.2 
       533.0         0.17          4.4 
       534.0         0.17          3.8 
       535.0         0.20          3.9 
       536.0         1.62          3.8 
       537.0         0.43          3.9 
       538.0         0.23          3.8 
       539.0         0.23          3.7 
       540.0         0.23          3.5 
       541.0         0.20          3.7 
       542.0         0.20          3.6 
       543.0         0.17          3.5 
       544.0         0.20          3.3 
       545.0         0.17          3.3 
       546.0         0.17          3.4 
       547.0         0.20          3.5 
       548.0         0.17          3.6 
       549.0         0.22          3.3 
       550.0         0.20          3.3 
       551.0         0.20          3.0 
       552.0         0.20          3.2 
       553.0         0.20          3.2 
       554.0         0.23          3.2 
       555.0         0.20          3.1 
       556.0         0.17          3.6 
       557.0         0.20          4.0 
       558.0         0.20          3.5 
       559.0         0.20          3.8 
       560.0         0.20          3.5 
       561.0         0.20          5.2 
       562.0         0.17          5.1 
       563.0         0.20          4.8 
       564.0         0.20          4.6 
       565.0         0.17          4.0 
       566.0         1.45          3.9 
       567.0         0.17          3.3 
       568.0         0.10          3.3 
       569.0         0.30          3.5 
       570.0         0.27          3.5 
       571.0         0.23          3.7 
       572.0         0.20          3.7 
       573.0         0.20          3.6 
       574.0         0.17          3.9 
       575.0         0.17          3.9 
       576.0         0.22          3.7 
       577.0         0.17          3.7 
       578.0         0.17          3.8 
       579.0         0.20          3.8 
       580.0         0.17          3.9 
       581.0         0.20          3.7 
       582.0         0.20          3.5 
       583.0         0.17          3.5 
       584.0         0.20          4.0 
       585.0         0.20          3.6 
       586.0         0.17          3.6 
       587.0         0.20          3.6 
       588.0         0.20          3.7 
       589.0         0.17          3.7 
       590.0         0.20          3.5 
       591.0         0.17          4.4 
       592.0         0.17          4.4 
       593.0         0.17          4.9 
       594.0         0.17          4.4 
       595.0         0.18          4.1 
       596.0         1.33          4.2 
       597.0         0.43          4.0 
       598.0         0.07          3.6 
       599.0         0.30          3.7 
       600.0         0.23          3.2 
       601.0         0.23          3.3 
       602.0         0.17          3.2 
       603.0         0.17          3.2 
       604.0         0.17          3.3 
       605.0         0.12          3.1 
       606.0         0.10          3.1 
       607.0         0.23          3.3 
       608.0         0.23          3.3 
       609.0         0.23          3.3 
       610.0         0.53          3.3 
       611.0         0.30          3.7 
       612.0         0.20          3.3 
       613.0         0.23          4.0 
       614.0         0.20          3.4 
       615.0         0.20          3.6 
       616.0         0.23          3.5 
       617.0         0.23          3.5 
       618.0         0.20          3.5 
       619.0         0.25          3.5 
       620.0         0.23          4.1 
       621.0         0.20          4.8 
       622.0         0.23          5.8 
       623.0         0.17          5.4 
       624.0         0.17          5.0 
       625.0         0.13          4.3 
       626.0         1.83          4.5 
       627.0         0.45          3.9 
       628.0         0.20          3.9 
       629.0         0.20          4.1 
       630.0         0.23          3.8 
       631.0         0.23          4.0 
       632.0         0.17          3.7 
       633.0         0.23          3.9 
       634.0         0.23          3.9 
       635.0         0.20          3.7 
       636.0         0.20          4.0 
       637.0         0.17          4.0 
       638.0         0.20          3.8 
       639.0         0.20          5.3 
       640.0         0.20         15.8 
       641.0         0.17         15.8 
       642.0         0.13         16.8 
       643.0         0.17         16.8 
       644.0         0.15         16.5 
       645.0         0.20         14.6 
       646.0         0.20         18.9 
       647.0         0.23         25.5 
       648.0         0.23         27.4 
       649.0         0.20         29.9 
