~Version Information
VERS.                      2.0: CWLS Log ASCII Standard - VERSION 2.0
WRAP.                       NO: One line per depth step
~Well Information Block
STRT.FT               250.0000: 
STOP.FT              1687.7000: 
STEP.FT                 0.1000: 
NULL.                -999.2500: 
COMP.          Pioneer Natural Resources: COMPANY
WELL.          Moneypenny 31-36: WELL
FLD.           Purgatoire River: FIELD
LOC.           280' FNL & 1976' FEL: LOCATION
PROV.                 Colorado: PROVINCE
CNTY.               Las Animas: COUNTRY
SRVC.                Patterson: SERVICE COMPANY
DATE.          Fri Oct 01 13:54:40 2004: LOG DATE
UWI.           05 071 08183 00: UNIQUE WELL ID
~Curve Information Block
DEPT.FT            0 000 00 00: Depth
DCAL.in                       : CDL Caliper
RHOB.g/cc                     : CDL Bulk Density
RHOC.g/cc                     : CDL Density Correction
DPOR.pu                       : CDL Density Porosity
NPOR.pu                       : Neutron Porosity
GR.GAPI                       : Gamma Ray
~Parameter Information Block
~A  Depth       DCAL        RHOB        RHOC        DPOR        NPOR         GR     
# ...
  1469.2000      7.9795      2.4782      0.0158     10.4097     22.2594    133.9330
  1469.3000      7.9788      2.4702      0.0232     10.8971     22.0173    135.5431
  1469.4000      7.9788      2.4607      0.0558     11.4746     21.8234    132.7424
  1469.5000      7.9799      2.4572     -0.0179     11.6876     21.9379    127.7735
  1469.6000      7.9799      2.4696      0.0291     10.9359     22.1207    124.1411
  1469.7000      7.9799      2.4818      0.0621     10.1962     21.9188    121.3738
  1469.8000      7.9815      2.4821      0.0412     10.1756     21.3361    118.7163
  1469.9000      7.9815      2.4837      0.0128     10.0771     20.9412    120.5499
  1470.0000      7.9811      2.4941      0.0467      9.4480     21.0517    125.7053
  1470.1000      7.9811      2.5036      0.0561      8.8741     21.4940    127.0655
  1470.2000      7.9811      2.5025      0.0653      8.9398     22.0120    124.5954
  1470.3000      7.9803      2.4880      0.0593      9.8154     22.1557    124.7257
  1470.4000      7.9803      2.4685     -0.0105     11.0024     21.6560    129.7327
  1470.5000      7.9814      2.4580      0.0185     11.6348     21.0305    134.9695
  1470.6000      7.9814      2.4591      0.0281     11.5682     20.8469    135.1006
  1470.7000      7.9814      2.4663      0.0209     11.1332     20.8951    130.8776
  1470.8000      7.9826      2.4698      0.0594     10.9187     20.8517    128.9537
  1470.9000      7.9826      2.4621      0.0447     11.3869     20.8984    129.8689
  1471.0000      7.9821      2.4575     -0.0071     11.6694     21.0159    128.0626
  1471.1000      7.9821      2.4680      0.0748     11.0304     21.0055    126.2276
  1471.2000      7.9821      2.4761      0.0634     10.5372     20.7317    128.2670
  1471.3000      7.9817      2.4715      0.0187     10.8181     20.1995    129.8472
  1471.4000      7.9817      2.4699      0.0335     10.9147     19.8162    127.8697
  1471.5000      7.9825      2.4758      0.0892     10.5562     19.8623    129.6237
  1471.6000      7.9825      2.4738      0.0968     10.6801     20.1925    139.5339
  1471.7000      7.9825      2.4613      0.0606     11.4359     20.5495    145.0304
  1471.8000      7.9836      2.4497      0.0501     12.1414     20.8652    137.1540
  1471.9000      7.9836      2.4416      0.0599     12.6304     21.1717    128.1881
  1472.0000      7.9846      2.4430      0.0288     12.5461     21.2194    126.7560
  1472.1000      7.9846      2.4656      0.0770     11.1768     20.7681    125.0909
  1472.2000      7.9846      2.4927      0.1043      9.5357     19.9420    118.8610
  1472.3000      7.9848      2.4933      0.0804      9.4963     19.3330    111.4841
  1472.4000      7.9848      2.4706      0.0358     10.8701     19.2941    107.7645
  1472.5000      7.9852      2.4520      0.0265     12.0030     19.4091    111.7477
  1472.6000      7.9852      2.4468      0.0419     12.3161     19.5637    121.9126
  1472.7000      7.9852      2.4496      0.0162     12.1472     20.0233    132.1955
  1472.8000      7.9845      2.4568      0.0494     11.7118     20.4365    140.9412
  1472.9000      7.9845      2.4624      0.0569     11.3702     20.3909    146.6850
  1473.0000      7.9823      2.4553      0.0789     11.8016     20.0761    142.1623
  1473.1000      7.9823      2.4370      0.0027     12.9109     19.7441    128.4819
  1473.2000      7.9823      2.4271      0.0203     13.5076     19.5520    121.6144
  1473.3000      7.9818      2.4277      0.0724     13.4720     19.5333    127.7978
  1473.4000      7.9818      2.4258      0.0161     13.5882     19.4278    135.7929
  1473.5000      7.9836      2.4228      0.0177     13.7684     19.2643    137.3887
  1473.6000      7.9836      2.4249      0.0260     13.6396     19.3214    135.1662
  1473.7000      7.9836      2.4357      0.0279     12.9901     19.3791    133.9909
  1473.8000      7.9843      2.4487      0.0689     12.2014     19.3093    134.6048
  1473.9000      7.9843      2.4511      0.0309     12.0556     19.4112    134.0597
  1474.0000      7.9848      2.4429      0.0367     12.5524     19.6890    131.4441
  1474.1000      7.9848      2.4299      0.0469     13.3405     20.0298    130.9256
  1474.2000      7.9848      2.4202      0.0302     13.9257     20.2367    136.5977
  1474.3000      7.9846      2.4239      0.0063     13.7043     19.8869    143.8323
  1474.4000      7.9846      2.4354      0.0700     13.0076     19.1988    145.8112
  1474.5000      7.9819      2.4395      0.0381     12.7572     18.8309    145.8993
  1474.6000      7.9819      2.4379      0.0253     12.8528     18.9332    146.3795
  1474.7000      7.9819      2.4385      0.0664     12.8212     19.0390    143.1619
  1474.8000      7.9804      2.4422      0.0242     12.5941     18.6911    137.2688
  1474.9000      7.9804      2.4470      0.0523     12.3020     18.0966    134.2475
  1475.0000      7.9825      2.4425      0.0181     12.5752     17.8420    131.9460
  1475.1000      7.9825      2.4210      0.0309     13.8760     18.1808    126.2510
  1475.2000      7.9825      2.3937     -0.0196     15.5345     18.7618    122.1362
  1475.3000      7.9852      2.3837      0.0051     16.1416     19.0143    122.6836
  1475.4000      7.9852      2.4031      0.0067     14.9622     19.0145    121.8215
  1475.5000      7.9833      2.4427      0.0554     12.5608     19.1393    119.3293
  1475.6000      7.9833      2.4772      0.0637     10.4719     19.3091    119.4644
  1475.7000      7.9833      2.4860      0.1073      9.9409     19.4846    120.1771
  1475.8000      7.9781      2.4741      0.0579     10.6580     19.5218    121.7176
  1475.9000      7.9781      2.4611      0.0551     11.4513     18.9644    126.6021
  1476.0000      7.9703      2.4530      0.0831     11.9379     18.0866    134.0637
  1476.1000      7.9703      2.4469      0.0406     12.3090     17.7288    140.9835
  1476.2000      7.9703      2.4419      0.0905     12.6135     17.9519    143.7365
  1476.3000      7.9618      2.4403      0.0560     12.7100     18.0917    142.2747
  1476.4000      7.9618      2.4472      0.0758     12.2881     17.8791    136.1776
  1476.5000      7.9587      2.4612      0.1002     11.4434     17.7389    126.7228
  1476.6000      7.9587      2.4718      0.0931     10.8016     17.9389    118.1290
  1476.7000      7.9587      2.4652      0.1037     11.2023     18.3734    110.2818
  1476.8000      7.9582      2.4454      0.0183     12.3983     18.9043    104.4796
  1476.9000      7.9582      2.4390      0.0450     12.7856     19.2512    101.7548
  1477.0000      7.9573      2.4497      0.0950     12.1388     19.1806    101.0184
  1477.1000      7.9573      2.4564      0.0748     11.7345     18.8602    103.7545
  1477.2000      7.9573      2.4554      0.0581     11.7922     18.5308    106.5155
  1477.3000      7.9578      2.4537      0.0637     11.8941     18.2212    106.3024
  1477.4000      7.9578      2.4495      0.0357     12.1537     18.0130    106.7176
  1477.5000      7.9597      2.4380      0.0537     12.8487     18.1570    105.8190
  1477.6000      7.9597      2.4204      0.0340     13.9132     18.6193     98.5774
  1477.7000      7.9597      2.4054      0.0223     14.8256     18.8999     89.7757
  1477.8000      7.9617      2.3963      0.0523     15.3756     18.7179     90.7516
  1477.9000      7.9617      2.3978      0.0151     15.2863     18.5585    100.5191
  1478.0000      7.9624      2.4196      0.0575     13.9611     18.8334    105.2708
  1478.1000      7.9624      2.4512      0.0946     12.0487     19.0595    100.1229
  1478.2000      7.9624      2.4700      0.0899     10.9113     18.7136     93.7432
  1478.3000      7.9623      2.4713      0.0872     10.8309     18.1155     93.0658
  1478.4000      7.9623      2.4674      0.0518     11.0687     17.8920     98.3048
  1478.5000      7.9609      2.4702      0.0483     10.8984     18.1680    105.8741
  1478.6000      7.9609      2.4734      0.1084     10.7000     18.5948    110.7951
  1478.7000      7.9609      2.4639      0.0741     11.2813     18.8655    110.9280
