~Version Information
VERS.                      2.0: CWLS Log ASCII Standard - VERSION 2.0
WRAP.                       NO: One line per depth step
~Well Information Block
STRT.FT               870.0000: 
STOP.FT              2519.5000: 
STEP.FT                 0.2500: 
NULL.                -999.2500: 
COMP.          Pioneer Natural Resources: COMPANY
WELL.              Tiaga 23-14: WELL
FLD.           Purgatoire River: FIELD
LOC.           2168' FSL & 2030' FWL: LOCATION
PROV.                 Colorado: PROVINCE
CNTY.               Las Animas: COUNTRY
SRVC.                         : SERVICE COMPANY
DATE.          Sat May 07 08:44:43 2005: LOG DATE
UWI.           05 071 08329 00: UNIQUE WELL ID
~Curve Information Block
DEPT.FT            0 000 00 00: Depth
LTEN.lb                       : Surface Line Tension
SN.Ohm-m                      : IEL Short Normal
SP.mV                         : IEL Spontaneous Potential
DIR.Ohm-m                     : IEL Induction Resistivity
GR.GAPI                       : Gamma Ray
~Parameter Information Block
~A  Depth       LTEN         SN          SP         DIR          GR     
   870.0000    594.8191   2000.0000   2000.0000      9.6121    119.2747
   870.2500    594.9321   2000.0000   2000.0000      9.5126    121.1569
   870.5000    594.3024   2000.0000   2000.0000      9.4223    124.6251
   870.7500    592.9010   2000.0000   2000.0000      9.3514    127.1848
   871.0000    590.9014   2000.0000   2000.0000      9.3081    131.1722
   871.2500    588.6609   2000.0000   2000.0000      9.2965    133.5701
   871.5000    586.5577   2000.0000   2000.0000      9.3114    135.8846
   871.7500    584.8250   2000.0000   2000.0000      9.3379    136.2781
   872.0000    583.5239   2000.0000   2000.0000      9.3570    135.3533
   872.2500    582.6891   2000.0000   2000.0000      9.3561    134.0141
   872.5000    582.5035   2000.0000   2000.0000      9.3367    131.3511
   872.7500    583.2949   2000.0000   2000.0000      9.3124    129.3684
   873.0000    585.2806   2000.0000   2000.0000      9.2992    126.3964
   873.2500    588.2802   2000.0000   2000.0000      9.3066    124.4241
   873.5000    591.7096   2000.0000   2000.0000      9.3328    121.3310
   873.7500    594.8864   2000.0000   2000.0000      9.3666    119.2052
   874.0000    597.3030   2000.0000   2000.0000      9.3918    116.1868
   874.2500    598.6632   2000.0000   2000.0000      9.3929    114.3915
   874.5000    598.8165   2000.0000   2000.0000      9.3621    112.0465
   874.7500    597.8472   2000.0000   2000.0000      9.3012    110.8550
   875.0000    596.1942   2000.0000   2000.0000      9.2188    110.3435
   875.2500    594.5046   2000.0000   2000.0000      9.1221    111.2649
   875.5000    593.2229   2000.0000   2000.0000      9.0116    114.3560
   875.7500    592.3358   2000.0000   2000.0000      8.8834    116.8935
   876.0000    591.5063   2000.0000   2000.0000      8.7349    120.2676
   876.2500    590.4399   2000.0000   2000.0000      8.5678    121.9913
   876.5000    589.1274   2000.0000   2000.0000      8.3867    124.0203
   876.7500    587.8180   2000.0000   2000.0000      8.1959    125.2421
   877.0000    586.8112   2000.0000   2000.0000      8.0012    127.1396
   877.2500    586.3053   2000.0000   2000.0000      7.8134    128.4769
   877.5000    586.3977   2000.0000   2000.0000      7.6521    130.5010
   877.7500    587.1342   2000.0000   2000.0000      7.5429    131.7329
   878.0000    588.4909   2000.0000   2000.0000      7.5115    132.8934
   878.2500    590.3514   2000.0000   2000.0000      7.5743    132.7245
   878.5000    592.5234   2000.0000   2000.0000      7.7329    130.0790
   878.7500    594.7664   2000.0000   2000.0000      7.9692    126.2391
   879.0000    596.7869   2000.0000   2000.0000      8.2465    117.2602
   879.2500    598.2495   2000.0000   2000.0000      8.5164    109.8616
   879.5000    598.8459   2000.0000   2000.0000      8.7346     99.1073
   879.7500    598.4410   2000.0000   2000.0000      8.8770     93.5579
   880.0000    597.1843   2000.0000   2000.0000      8.9455     88.5801
   880.2500    595.4832   2000.0000   2000.0000      8.9603     87.1065
   880.5000    593.8217   2000.0000   2000.0000      8.9443     86.2891
   880.7500    592.5424   2000.0000   2000.0000      8.9132     85.8736
   881.0000    591.7217   2000.0000   2000.0000      8.8727     84.3678
   881.2500    591.2186   2000.0000   2000.0000      8.8257     82.3870
   881.5000    590.8425   2000.0000   2000.0000      8.7815     77.8915
   881.7500    590.5364   2000.0000   2000.0000      8.7585     74.2366
   882.0000    590.4518   2000.0000   2000.0000      8.7751     68.7318
   882.2500    590.8198   2000.0000   2000.0000      8.8339     65.4644
   882.5000    591.6770   2000.0000   2000.0000      8.9128     61.2644
   882.7500    592.7427   2000.0000   2000.0000      8.9728     58.8053
   883.0000    593.6293   2000.0000   2000.0000      8.9798     55.6322
   883.2500    594.1614   2000.0000   2000.0000      8.9237     53.9825
   883.5000    594.4594   2000.0000   2000.0000      8.8205     52.2010
   883.7500    594.7790   2000.0000   2000.0000      8.7029     51.3403
   884.0000    595.3442   2000.0000   2000.0000      8.6132     50.5210
   884.2500    596.2481   2000.0000   2000.0000      8.6010     50.4113
   884.5000    597.3708   2000.0000   2000.0000      8.7145     50.7906
   884.7500    598.3389   2000.0000   2000.0000      8.9748     51.0433
   885.0000    598.6418   2000.0000   2000.0000      9.3356     50.8827
   885.2500    597.8773   2000.0000   2000.0000      9.6528     50.4223
   885.5000    595.9392   2000.0000   2000.0000      9.7246     49.5124
   885.7500    593.0574   2000.0000   2000.0000      9.4373     48.8796
   886.0000    589.7839   2000.0000   2000.0000      8.8757     48.0287
   886.2500    586.8853   2000.0000   2000.0000      8.2403     47.7157
   886.5000    585.0269   2000.0000   2000.0000      7.6979     48.1172
   886.7500    584.4519   2000.0000   2000.0000      7.3398     45.9668
   887.0000    585.0061   2000.0000   2000.0000      7.2302     48.2133
   887.2500    586.4044   2000.0000   2000.0000      7.4786     49.8749
   887.5000    588.3832   2000.0000   2000.0000      8.3177     52.0844
   887.7500    590.6778   2000.0000   2000.0000     10.2358     53.3347
   888.0000    593.0195   2000.0000   2000.0000     14.1995     55.2205
   888.2500    595.1839   2000.0000   2000.0000     21.2184     56.7350
   888.5000    597.0153   2000.0000   2000.0000     26.9228     59.6210
   888.7500    598.3893   2000.0000   2000.0000     22.1037     57.7438
   889.0000    599.2017   2000.0000   2000.0000     14.5958     62.3863
   889.2500    599.3929   2000.0000   2000.0000     10.3296     67.3368
   889.5000    598.9626   2000.0000   2000.0000      8.4911     79.8273
   889.7500    597.9695   2000.0000   2000.0000      8.0810     85.4534
   890.0000    596.5986   2000.0000   2000.0000      8.6750    107.3395
   890.2500    595.2025   2000.0000   2000.0000     10.0338    122.8843
   890.5000    594.1367   2000.0000   2000.0000     11.3792    143.3059
   890.7500    593.4806   2000.0000   2000.0000     10.8525    141.0319
   891.0000    592.9745   2000.0000   2000.0000      8.0992    149.6037
   891.2500    592.2559   2000.0000   2000.0000      5.3529    152.8206
   891.5000    591.1533   2000.0000   2000.0000      3.6530    155.7360
   891.7500    589.7755   2000.0000   2000.0000      2.7856    143.0792
   892.0000    588.4092   2000.0000   2000.0000      2.4427    142.0051
   892.2500    587.3760   2000.0000   2000.0000      2.4797    138.7488
   892.5000    586.9697   2000.0000   2000.0000      2.9042    129.4347
   892.7500    587.4453   2000.0000   2000.0000      3.8984    120.8174
   893.0000    588.9581   2000.0000   2000.0000      6.0080    106.0841
   893.2500    591.4338   2000.0000   2000.0000     11.0935     96.0736
   893.5000    594.5076   2000.0000   2000.0000     31.4832     82.2291
   893.7500    597.6105   2000.0000   2000.0000 100000.0000     74.6347
   894.0000    600.0791   2000.0000   2000.0000 100000.0000     67.1720
   894.2500    601.2551   2000.0000   2000.0000 100000.0000     65.3911
   894.5000    600.7801   2000.0000   2000.0000 100000.0000     67.4913
   894.7500    598.9761   2000.0000   2000.0000 100000.0000     71.4560
   895.0000    596.7524   2000.0000   2000.0000    312.3480     79.5580
   895.2500    594.9151   2000.0000   2000.0000     29.2753     85.3699
   895.5000    593.6180   2000.0000   2000.0000     16.6735     93.2953
   895.7500    592.5235   2000.0000   2000.0000     12.9244     97.4014
   896.0000    591.3322   2000.0000   2000.0000     11.4646    100.7393
   896.2500    590.0844   2000.0000   2000.0000     10.8635    100.6314
   896.5000    589.1009   2000.0000   2000.0000     10.6465     97.2192
   896.7500    588.7259   2000.0000   2000.0000     10.6533     93.6936
   897.0000    589.1154   2000.0000   2000.0000     10.8485     88.6576
   897.2500    590.2606   2000.0000   2000.0000     11.2407     86.3625
   897.5000    592.1136   2000.0000   2000.0000     11.8495     84.8061
   897.7500    594.5262   2000.0000   2000.0000     12.6816     84.6084
