~Version Information
 VERS.                                  2.0 : CWLS LAS VERSION
 WRAP.                                   NO : WRAPING MODE
 SWARE .                 MController 2.5.0N : SOFTWARE VERSION
~Well Information
 WELL.                   Uintah 21-27 Tr CH : WELL
 COMP.    Pioneer Natural Resources USA Inc : COMPANY
 FLD.                      Purgatoire River : FIELD
 LOC.                NE/NW Sec 27 T33S R67W : LOCATION
 DATE.                         5/14-16/2005 : DATE(S) LOGGED
 SRVC.       Blanco Geological Services LLC : SERVICE COMPANY
 STAT.                                   CO : STATE
 CNTY.                           Las Animas : COUNTY
 CTRY.                                  USA : COUNTRY
 API.                       05-071-08311-00 : API NUMBER
 STRT.FT                             394.00 : START DEPTH
 STOP.FT                            1538.00 : STOP DEPTH
 STEP.FT                               1.00 : DEPTH INCREMENT
 NULL.                                -9999 : NULL VALUE
~Curve information
 DEPTH.FT                                   :
 ROP.MIN/FT                                 :
 GAS.UNITS                                  :
~ASCII Log data
# ...
       994.0         0.43        623.4 
       995.0         0.40        548.7 
       996.0         0.23        545.7 
       997.0         0.23        538.9 
       998.0         0.37        525.2 
       999.0         0.30        501.6 
      1000.0         0.23        490.9 
      1001.0         0.20        492.0 
      1002.0         0.17        489.2 
      1003.0         0.13        486.1 
      1004.0         0.13        482.8 
      1005.0         0.25        478.0 
      1006.0         0.20        470.1 
      1007.0         0.30        471.3 
      1008.0         0.23        474.1 
      1009.0         0.23        474.6 
      1010.0         0.27        474.9 
      1011.0         0.27        471.0 
      1012.0         0.30        467.6 
      1013.0         0.30        465.6 
      1014.0         0.23        464.5 
      1015.0         0.43        462.3 
      1016.0         2.22        441.8 
      1017.0         0.40       1146.5 
      1018.0         0.33       1138.1 
      1019.0         0.30       1037.3 
      1020.0         0.27        902.5 
      1021.0         0.28        786.5 
      1022.0         0.33        691.4 
      1023.0         0.47        616.4 
      1024.0         0.40        565.9 
      1025.0         0.30        524.3 
      1026.0         0.23        499.0 
      1027.0         0.20        488.4 
      1028.0         0.30        481.9 
      1029.0         0.37        474.1 
      1030.0         0.30        461.4 
      1031.0         0.28        457.2 
      1032.0         0.43        457.8 
      1033.0         0.30        468.2 
      1034.0         0.20        472.1 
      1035.0         0.17        475.5 
      1036.0         0.13        477.4 
      1037.0         0.20        478.0 
      1038.0         0.30        480.0 
      1039.0         0.13        478.3 
      1040.0         0.17        479.4 
      1041.0         0.27        477.7 
      1042.0         0.33        468.7 
      1043.0         0.30        469.0 
      1044.0         0.32        467.0 
      1045.0         0.23        465.9 
      1046.0         2.07        462.8 
      1047.0         0.88        458.8 
      1048.0         0.33       1256.8 
      1049.0         0.30       1249.8 
      1050.0         0.30       1130.5 
      1051.0         0.23        974.4 
      1052.0         0.27        851.7 
      1053.0         0.23        734.6 
      1054.0         0.33        656.6 
      1055.0         0.33        597.6 
      1056.0         0.33        563.3 
      1057.0         0.27        542.8 
      1058.0         0.32        527.7 
      1059.0         0.23        509.4 
      1060.0         0.20        500.7 
      1061.0         0.37        491.7 
      1062.0         0.30        477.1 
      1063.0         0.17        469.0 
      1064.0         0.20        463.1 
      1065.0         0.20        455.2 
      1066.0         0.33        444.6 
      1067.0         0.30        451.0 
      1068.0         0.23        455.0 
      1069.0         0.20        455.0 
      1070.0         0.33        451.9 
      1071.0         0.42        457.5 
      1072.0         0.27        464.2 
      1073.0         0.17        465.6 
      1074.0         0.13        464.2 
      1075.0         0.20        460.3 
      1076.0         2.72        455.0 
      1077.0         0.37        448.8 
      1078.0         0.40       1209.7 
      1079.0         0.23       1170.6 
      1080.0         0.27       1081.1 
      1081.0         0.23        958.7 
      1082.0         0.23        849.7 
      1083.0         0.20        751.2 
      1084.0         0.30        681.5 
      1085.0         0.33        614.7 
      1086.0         0.32        572.3 
      1087.0         0.27        553.2 
      1088.0         0.33        539.8 
      1089.0         0.27        519.3 
      1090.0         0.27        502.7 
      1091.0         0.20        493.4 
      1092.0         0.23        485.6 
      1093.0         0.27        478.8 
      1094.0         0.23        472.7 
      1095.0         0.23        471.0 
      1096.0         0.23        466.2 
      1097.0         0.27        465.4 
      1098.0         0.25        464.2 
      1099.0         0.23        461.4 
      1100.0         0.27        459.2 
      1101.0         0.23        454.1 
      1102.0         0.23        451.9 
      1103.0         0.23        452.4 
      1104.0         0.27        451.3 
      1105.0         0.23        449.9 
      1106.0         3.42        461.8 
      1107.0         0.38       1418.8 
      1108.0         0.33       1413.5 
      1109.0         0.30       1206.3 
      1110.0         0.23       1003.9 
      1111.0         0.27        896.6 
      1112.0         0.27        788.2 
      1113.0         0.30        655.7 
      1114.0         0.27        601.0 
      1115.0         0.27        574.6 
      1116.0         0.23        554.4 
      1117.0         0.23        540.6 
      1118.0         0.25        526.8 
      1119.0         0.23        514.8 
      1120.0         0.23        503.5 
      1121.0         0.27        492.3 
      1122.0         0.23        477.4 
      1123.0         0.27        465.9 
      1124.0         0.27        453.8 
      1125.0         0.23        449.9 
      1126.0         0.23        447.4 
      1127.0         0.27        445.7 
      1128.0         0.23        443.2 
      1129.0         0.27        440.0 
      1130.0         0.25        135.2 
      1131.0         0.23        133.3 
      1132.0         0.27        132.0 
      1133.0         0.27        130.7 
      1134.0         0.27        130.5 
      1135.0         0.20        130.8 
      1136.0         3.75       1403.7 
      1137.0         0.20       1658.9 
      1138.0         0.37       1719.2 
      1139.0         0.32       1582.8 
      1140.0         0.30       1287.7 
      1141.0         0.23       1049.9 
      1142.0         0.30        902.2 
      1143.0         0.30        709.6 
      1144.0         0.33        616.7 
      1145.0         0.27        560.5 
      1146.0         0.23        532.2 
      1147.0         0.27        517.0 
      1148.0         0.22        440.0 
      1149.0         0.23        178.3 
      1150.0         0.27        167.6 
      1151.0         0.27        157.5 
      1152.0         0.27        151.6 
      1153.0         0.23        147.3 
      1154.0         0.23        144.9 
      1155.0         0.13        142.9 
      1156.0         0.20        142.1 
      1157.0         0.37        140.3 
      1158.0         0.33        134.3 
      1159.0         0.20        131.0 
      1160.0         0.20        131.6 
      1161.0         0.20        133.0 
      1162.0         0.25        134.0 
      1163.0         0.23        133.9 
      1164.0         0.43        132.3 
      1165.0         0.37        126.7 
      1166.0         5.10       2053.1 
      1167.0         0.37       1609.2 
      1168.0         0.40       1177.4 
      1169.0         0.40        851.7 
      1170.0         0.40        647.9 
      1171.0         0.37        545.7 
      1172.0         0.35        497.9 
      1173.0         0.40        474.9 
      1174.0         0.33        460.0 
      1175.0         0.23        446.8 
      1176.0         0.30        440.1 
      1177.0         0.27        148.4 
      1178.0         0.27        140.5 
      1179.0         0.37        135.3 
      1180.0         0.37        132.3 
      1181.0         0.30        134.3 
      1182.0         0.35        134.5 
      1183.0         0.30        133.8 
      1184.0         0.33        131.3 
      1185.0         0.33        129.3 
      1186.0         0.27        129.7 
      1187.0         0.23        129.8 
      1188.0         0.40        129.6 
      1189.0         0.27        128.5 
      1190.0         0.37        138.4 
      1191.0         0.23        144.8 
      1192.0         0.32        147.9 
      1193.0         0.23        147.9 
