~Version Information
VERS.                      2.0: CWLS Log ASCII Standard - VERSION 2.0
WRAP.                       NO: One line per depth step
~Well Information Block
STRT.FT               521.6000: 
STOP.FT              1490.2000: 
STEP.FT                 0.1000: 
NULL.                -999.2500: 
COMP.          Petrogulf Corporation: COMPANY
WELL.          Robinson 15-11R: WELL
FLD.           Purgatorie River: FIELD
LOC.           324' FNL & 570' FWL: LOCATION
CNTY.               Las Animas: COUNTY
SRVC.                         : SERVICE COMPANY
DATE.          Sat Nov 06 22:43:15 2004: LOG DATE
UWI.           05 071 08029 00: UNIQUE WELL ID
STAT.                 Colorado: STATE
~Curve Information Block
DEPT.FT            0 000 00 00: Depth
DCAL.in                       : CDL Caliper
RHOB.g/cc                     : CDL Bulk Density
RHOC.g/cc                     : CDL Density Correction
DPOR.pu                       : CDL Density Porosity
GR.GAPI                       : Gamma Ray
NPOR.pu                       : Neutron Porosity
~Parameter Information Block
~A  Depth       DCAL        RHOB        RHOC        DPOR         GR         NPOR    
# ...
  1289.6000      7.9118      2.6020      0.0406      2.9101     88.5928     23.4383
  1289.7000      7.9118      2.6142      0.0502      2.1724     86.1840     22.9900
  1289.8000      7.8701      2.6197      0.0427      1.8365     85.7436     22.3908
  1289.9000      7.8701      2.6116      0.0554      2.3248     85.0984     21.5984
  1290.0000      7.8859      2.5983      0.0635      3.1320     83.4739     21.1133
  1290.1000      7.8859      2.5837      0.0238      4.0205     83.9104     21.1374
  1290.2000      7.8859      2.5601      0.0534      5.4514     86.5011     21.2383
  1290.3000      7.8888      2.5327     -0.0028      7.1084     89.1528     21.2745
  1290.4000      7.8888      2.5219      0.0454      7.7645     92.0937     21.3596
  1290.5000      7.8664      2.5324      0.0115      7.1267     93.5480     21.2953
  1290.6000      7.8664      2.5482      0.0292      6.1703     91.6377     21.2776
  1290.7000      7.8664      2.5500      0.0736      6.0582     91.5276     21.4696
  1290.8000      7.8720      2.5383      0.0200      6.7693     95.9938     21.4959
  1290.9000      7.8720      2.5319      0.0720      7.1567    101.4139     21.3929
  1291.0000      7.8282      2.5436      0.0566      6.4467    104.6114     21.4079
  1291.1000      7.8282      2.5709      0.1223      4.7939    104.7033     21.4848
  1291.2000      7.8282      2.5946      0.1582      3.3546    104.9720     21.5328
  1291.3000      7.8288      2.6019      0.1443      2.9155    108.6651     21.5099
  1291.4000      7.8288      2.6011      0.1864      2.9649    112.3567     21.5782
  1291.5000      7.8183      2.5995      0.1620      3.0586    111.4433     22.0177
  1291.6000      7.8183      2.5937      0.1558      3.4101    109.6236     22.6357
  1291.7000      7.8183      2.5871      0.1094      3.8130    113.9517     22.8675
  1291.8000      7.8343      2.5932      0.0646      3.4396    123.7444     22.7193
  1291.9000      7.8343      2.6028      0.1246      2.8588    133.7470     22.8371
  1292.0000      7.8921      2.5899      0.0967      3.6427    140.4657     23.4648
  1292.1000      7.8921      2.5620      0.0572      5.3329    145.2928     24.2113
  1292.2000      7.8921      2.5478      0.0566      6.1969    151.2882     24.5797
  1292.3000      7.8957      2.5536      0.0529      5.8428    155.7145     24.5166
  1292.4000      7.8957      2.5618      0.0869      5.3440    154.9424     24.4833
  1292.5000      7.8857      2.5540      0.0552      5.8166    152.5596     24.6259
  1292.6000      7.8857      2.5368      0.0513      6.8626    150.7788     24.8646
  1292.7000      7.8857      2.5269      0.0616      7.4604    146.7682     25.2178
  1292.8000      7.9217      2.5133      0.1204      8.2856    142.5020     25.3738
  1292.9000      7.9217      2.4867     -0.0143      9.8941    144.7335     25.1574
  1293.0000      7.9080      2.4732      0.0146     10.7143    156.7162     25.0418
  1293.1000      7.9080      2.4760      0.0681     10.5432    171.3250     25.1716
  1293.2000      7.9080      2.4707      0.0249     10.8660    176.6788     25.2206
  1293.3000      7.9339      2.4609     -0.0201     11.4586    171.1788     25.3477
  1293.4000      7.9339      2.4635      0.0331     11.3031    163.2165     25.6091
  1293.5000      7.9205      2.4701      0.0090     10.9009    161.5005     25.6036
  1293.6000      7.9205      2.4680      0.0149     11.0317    165.7862     25.1300
  1293.7000      7.9205      2.4633      0.0217     11.3138    167.8585     24.3453
  1293.8000      7.8840      2.4620      0.0677     11.3924    165.3804     23.6572
  1293.9000      7.8840      2.4618      0.0317     11.4037    162.4008     23.4911
  1294.0000      7.9215      2.4633      0.0569     11.3175    161.2851     23.9956
  1294.1000      7.9215      2.4632      0.0486     11.3236    164.9633     24.5151
  1294.2000      7.9215      2.4596      0.0491     11.5383    171.6845     24.3623
  1294.3000      7.9195      2.4561      0.0648     11.7525    170.2417     23.7791
  1294.4000      7.9195      2.4504      0.0392     12.0947    159.4321     23.2253
  1294.5000      7.9006      2.4363      0.0809     12.9529    152.7023     22.8428
  1294.6000      7.9006      2.4114      0.0695     14.4617    153.7066     22.7528
  1294.7000      7.9006      2.3865      0.0456     15.9693    152.4425     22.8302
  1294.8000      7.9317      2.3804      0.0040     16.3420    144.4221     22.8389
  1294.9000      7.9317      2.3989      0.0533     15.2176    137.1372     22.8780
  1295.0000      7.9301      2.4309      0.0682     13.2814    136.8832     23.0365
  1295.1000      7.9301      2.4610      0.1190     11.4556    138.7608     23.1912
  1295.2000      7.9301      2.4844      0.0744     10.0366    135.7634     23.4542
  1295.3000      7.9489      2.5006      0.1647      9.0569    131.1201     24.0252
  1295.4000      7.9489      2.5030      0.1364      8.9093    128.9752     24.4638
  1295.5000      7.9268      2.4935      0.1572      9.4850    124.6930     24.2948
  1295.6000      7.9268      2.4793      0.1753     10.3469    117.8092     23.9018
  1295.7000      7.9268      2.4615      0.1237     11.4239    118.0004     24.0130
  1295.8000      7.9217      2.4408      0.1093     12.6778    128.0724     24.4198
  1295.9000      7.9217      2.4257      0.0635     13.5917    139.7097     24.1375
  1296.0000      7.9019      2.4290      0.0744     13.3951    146.0362     23.2988
  1296.1000      7.9019      2.4485      0.1456     12.2134    146.2295     22.9418
  1296.2000      7.9019      2.4713      0.1521     10.8331    142.0727     23.2545
  1296.3000      7.8928      2.5030      0.1541      8.9120    136.1753     23.4916
  1296.4000      7.8928      2.5517      0.2498      5.9556    132.1945     23.1912
  1296.5000      7.9100      2.5964      0.2872      3.2477    132.1939     22.7306
  1296.6000      7.9100      2.6145      0.2892      2.1539    133.9321     22.4515
  1296.7000      7.9100      2.6082      0.2756      2.5331    132.6014     22.2624
  1296.8000      7.8822      2.5849      0.2256      3.9468    128.1774     22.2640
  1296.9000      7.8822      2.5452      0.2175      6.3489    127.0289     22.6192
  1297.0000      7.8986      2.4970      0.1841      9.2733    128.7695     23.2265
  1297.1000      7.8986      2.4596      0.1360     11.5388    128.0455     23.5225
  1297.2000      7.8986      2.4477      0.0724     12.2620    129.5415     23.0368
  1297.3000      7.9096      2.4572      0.0897     11.6838    137.3811     22.4020
  1297.4000      7.9096      2.4671      0.1099     11.0842    143.1085     22.4872
  1297.5000      7.9047      2.4648      0.0817     11.2249    142.7717     23.0675
  1297.6000      7.9047      2.4612      0.0690     11.4396    143.2855     23.4400
  1297.7000      7.9047      2.4654      0.1326     11.1884    145.6811     23.4279
  1297.8000      7.9006      2.4733      0.0828     10.7121    143.9428     23.0521
  1297.9000      7.9006      2.4897      0.0899      9.7173    138.5048     22.6051
  1298.0000      7.8993      2.5163      0.1084      8.1037    134.3384     22.7010
  1298.1000      7.8993      2.5387      0.1057      6.7459    130.5025     23.3314
  1298.2000      7.8993      2.5581      0.0743      5.5689    126.4218     23.9393
  1298.3000      7.9180      2.5778      0.1659      4.3751    125.6479     24.0523
  1298.4000      7.9180      2.5745      0.1796      4.5782    126.0914     23.5798
  1298.5000      7.9546      2.5496      0.0518      6.0868    124.2313     23.0339
  1298.6000      7.9546      2.5318      0.1088      7.1661    122.5117     22.8462
  1298.7000      7.9546      2.5173      0.1108      8.0422    122.0016     22.7798
  1298.8000      7.9582      2.4863      0.0765      9.9222    120.6057     22.4976
  1298.9000      7.9582      2.4407      0.0552     12.6877    117.1102     21.9426
  1299.0000      7.9521      2.4025     -0.0240     15.0007    112.8795     21.1229
  1299.1000      7.9521      2.3857      0.0140     16.0196    111.9080     20.2756
