~Version Information
VERS.                      2.0: CWLS Log ASCII Standard - VERSION 2.0
WRAP.                       NO: One line per depth step
~Well Information Block
STRT.FT               360.0000: 
STOP.FT              2515.2000: 
STEP.FT                 0.1000: 
NULL.                -999.2500: 
COMP.          Pioneer Natural Resources: COMPANY
WELL.            Rancher 12-35: WELL
FLD.           Purgatoire River: FIELD
LOC.           2131' FNL & 297' FWL: LOCATION
PROV.                 Colorado: PROVINCE
CNTY.               Las Animas: COUNTRY
SRVC.                Patterson: SERVICE COMPANY
DATE.          Tue Oct 12 09:11:02 2004: LOG DATE
UWI.           05 071 08179 00: UNIQUE WELL ID
~Curve Information Block
DEPT.FT            0 000 00 00: Depth
DCAL.in                       : CDL Caliper
RHOB.g/cc                     : CDL Bulk Density
RHOC.g/cc                     : CDL Density Correction
DPOR.pu                       : CDL Density Porosity
NPOR.pu                       : Neutron Porosity
GR.GAPI                       : Gamma Ray
~Parameter Information Block
~A  Depth       DCAL        RHOB        RHOC        DPOR        NPOR         GR     
# ...
   638.4000      8.3933      2.5106      0.0120      8.4512     26.2118    113.5012
   638.5000      8.3925      2.4919     -0.0165      9.5822     25.0232    118.6675
   638.6000      8.3925      2.4859      0.0072      9.9469     24.6459    124.1890
   638.7000      8.3925      2.4903     -0.0038      9.6809     24.5884    125.4466
   638.8000      8.3916      2.4926     -0.0048      9.5408     24.5123    119.9086
   638.9000      8.3916      2.4905      0.0039      9.6642     24.6611    115.3587
   639.0000      8.3912      2.4936     -0.0405      9.4814     25.1114    119.2344
   639.1000      8.3912      2.5088      0.0316      8.5547     25.4277    124.6801
   639.2000      8.3912      2.5247      0.0189      7.5937     25.3315    123.0505
   639.3000      8.3906      2.5270      0.0339      7.4572     25.1610    118.9405
   639.4000      8.3906      2.5119      0.0175      8.3691     25.5004    118.4910
   639.5000      8.3852      2.4837      0.0036     10.0766     26.3401    120.1954
   639.6000      8.3852      2.4586     -0.0394     11.6023     26.9821    121.2999
   639.7000      8.3852      2.4581     -0.0391     11.6312     27.1304    123.0366
   639.8000      8.3712      2.4804      0.0232     10.2779     27.0709    126.4886
   639.9000      8.3712      2.5029      0.0281      8.9140     26.9406    127.7293
   640.0000      8.3447      2.5122      0.0334      8.3488     26.5910    123.2521
   640.1000      8.3447      2.5081      0.0008      8.6021     26.1995    117.4399
   640.2000      8.3447      2.4962     -0.0122      9.3233     26.0634    116.5974
   640.3000      8.3121      2.4778      0.0137     10.4385     25.9265    119.2270
   640.4000      8.3121      2.4530     -0.0394     11.9402     25.7809    120.5238
   640.5000      8.2961      2.4311     -0.0434     13.2652     25.8364    120.6433
   640.6000      8.2961      2.4202      0.0065     13.9249     25.4615    119.9957
   640.7000      8.2961      2.4280     -0.0210     13.4520     24.5750    118.6099
   640.8000      8.2925      2.4658     -0.0158     11.1631     24.0848    118.5495
   640.9000      8.2925      2.5252      0.0403      7.5609     24.1573    118.4475
   641.0000      8.2840      2.5729      0.0922      4.6739     24.5315    114.9120
   641.1000      8.2840      2.5866      0.0820      3.8402     25.3407    107.9528
   641.2000      8.2840      2.5778      0.0743      4.3745     26.0645    102.1009
   641.3000      8.2654      2.5671      0.0910      5.0253     25.9751     98.7916
   641.4000      8.2654      2.5631      0.0869      5.2659     25.6736     95.1926
   641.5000      8.2421      2.5709      0.0922      4.7947     25.9531     91.4369
   641.6000      8.2421      2.5910      0.1388      3.5755     26.5217     92.5299
   641.7000      8.2421      2.6110      0.1115      2.3654     26.9491    100.9080
   641.8000      8.2235      2.6173      0.0998      1.9797     27.5314    111.4571
   641.9000      8.2235      2.6016      0.0658      2.9357     28.2281    114.7974
   642.0000      8.2146      2.5735      0.0556      4.6341     28.5442    108.1750
   642.1000      8.2146      2.5624     -0.0141      5.3067     28.3003    100.8092
   642.2000      8.2146      2.5761      0.1065      4.4801     27.4711    100.8202
   642.3000      8.2208      2.5860      0.1003      3.8798     26.1958    107.0679
   642.4000      8.2208      2.5750      0.0908      4.5446     24.6516    112.8104
   642.5000      8.2278      2.5596      0.0357      5.4812     23.2710    111.6642
   642.6000      8.2278      2.5612      0.0085      5.3795     22.4989    104.3470
   642.7000      8.2278      2.5715      0.0682      4.7571     21.9293     98.7311
   642.8000      8.2294      2.5663      0.0501      5.0734     21.1545     98.4007
   642.9000      8.2294      2.5501      0.0019      6.0574     20.5665     99.4921
   643.0000      8.2299      2.5455      0.0020      6.3311     20.4348     97.9595
   643.1000      8.2299      2.5562      0.0243      5.6837     20.4878     93.8555
   643.2000      8.2299      2.5705      0.0157      4.8210     20.4771     88.1551
   643.3000      8.2303      2.5823      0.0288      4.1038     20.3725     82.7576
   643.4000      8.2303      2.5946      0.0047      3.3587     20.2205     81.6838
   643.5000      8.2320      2.6020      0.0692      2.9092     20.1476     85.1346
   643.6000      8.2320      2.5923      0.0141      3.4973     20.2080     88.3855
   643.7000      8.2320      2.5732      0.0307      4.6554     20.3808     89.1873
   643.8000      8.2327      2.5656      0.0096      5.1174     20.4453     89.3248
   643.9000      8.2327      2.5742      0.0126      4.5965     20.0011     89.4795
   644.0000      8.2317      2.5802      0.0246      4.2282     19.1566     89.1363
   644.1000      8.2317      2.5671      0.0411      5.0255     18.5249     87.8447
   644.2000      8.2317      2.5422     -0.0030      6.5343     18.6314     84.2464
   644.3000      8.2319      2.5268     -0.0394      7.4667     19.1729     78.4047
   644.4000      8.2319      2.5307     -0.0336      7.2316     19.2416     73.6235
   644.5000      8.2337      2.5504     -0.0303      6.0353     18.7874     71.0276
   644.6000      8.2337      2.5754     -0.0375      4.5211     18.4530     69.4809
   644.7000      8.2337      2.5855      0.0198      3.9076     18.4520     67.7338
   644.8000      8.2341      2.5730      0.0147      4.6690     18.6173     65.5150
   644.9000      8.2341      2.5678     -0.0565      4.9835     18.5992     64.9492
   645.0000      8.2337      2.5929      0.0167      3.4598     18.3757     66.3233
   645.1000      8.2337      2.6245      0.0039      1.5451     18.5748     67.0126
   645.2000      8.2337      2.6287      0.0462      1.2925     19.3283     65.6368
   645.3000      8.2328      2.5993     -0.0074      3.0744     20.1015     62.6447
   645.4000      8.2328      2.5659     -0.0413      5.0981     20.9029     59.3177
   645.5000      8.2305      2.5625     -0.0498      5.3022     21.8319     57.2797
   645.6000      8.2305      2.5848      0.0087      3.9512     22.2476     57.3764
   645.7000      8.2305      2.5958      0.0111      3.2846     21.8790     58.4813
   645.8000      8.2294      2.5767     -0.0137      4.4404     21.4621     58.6994
   645.9000      8.2294      2.5512     -0.0224      5.9850     21.5549     58.7601
   646.0000      8.2318      2.5501     -0.0523      6.0555     21.8331     60.4535
   646.1000      8.2318      2.5668      0.0211      5.0439     21.9307     63.6545
   646.2000      8.2318      2.5664      0.0215      5.0673     22.2044     67.0701
   646.3000      8.2357      2.5437      0.0030      6.4403     23.1053     72.1890
   646.4000      8.2357      2.5256      0.0056      7.5392     24.3670     79.0756
   646.5000      8.2365      2.5242      0.0194      7.6266     25.4325     83.9339
   646.6000      8.2365      2.5324     -0.0075      7.1286     26.2000     86.1140
   646.7000      8.2365      2.5413      0.0071      6.5888     26.9288     88.8529
   646.8000      8.2342      2.5444      0.0183      6.4025     27.7259     94.5526
   646.9000      8.2342      2.5429      0.0149      6.4886     28.3616    102.0143
   647.0000      8.2363      2.5485      0.0169      6.1527     28.6255    108.0075
   647.1000      8.2363      2.5651      0.0303      5.1468     28.5708    109.8852
   647.2000      8.2363      2.5794      0.0494      4.2794     28.5524    110.5174
   647.3000      8.2464      2.5795     -0.0050      4.2699     29.1723    113.3708
   647.4000      8.2464      2.5677      0.0003      4.9887     30.2313    114.3194
   647.5000      8.2558      2.5511     -0.0400      5.9946     30.6762    111.7945
   647.6000      8.2558      2.5361     -0.0066      6.9016     30.3018    110.0272
   647.7000      8.2558      2.5369     -0.0622      6.8566     29.5913    109.9411
   647.8000      8.2595      2.5624      0.0214      5.3088     28.9078    113.1982
   647.9000      8.2595      2.5848      0.1290      3.9494     28.6970    122.4094
