~Version Information
VERS.                      2.0: CWLS Log ASCII Standard - VERSION 2.0
WRAP.                       NO: One line per depth step
~Well Information Block
STRT.FT               -14.5000: 
STOP.FT              2676.5000: 
STEP.FT                 0.1000: 
NULL.                -999.2500: 
COMP.          Petrogulf Corporation: COMPANY
WELL.          Latiluppe 8-13V: WELL
FLD.           Purgatorie River: FIELD
LOC.           1069' FWL & 1647' FSL: LOCATION
CNTY.               Las Animas: COUNTY
SRVC.                         : SERVICE COMPANY
DATE.          Tue Nov 18 16:12:50 2003: LOG DATE
UWI.                          : UNIQUE WELL ID
STAT.                 Colorado: STATE
~Curve Information Block
DEPT.FT            0 000 00 00: Depth
CCL.                          : Casing Collar Locator
TT3.usec                      : CBL 3' Travel Time
AMP3.mV                       : CBL 3' Amplitude
GR.GAPI                       : Gamma Ray
~Parameter Information Block
~A  Depth       CCL         TT3         AMP3         GR     
# ...
   159.7000      0.0000    797.8940     14.3735     69.1505
   159.8000      0.0000    811.6282     14.4837     61.2953
   159.9000      0.0000    811.6282     14.4837     61.2953
   160.0000      0.0000    816.6098     14.6083     54.2427
   160.1000      0.0000    816.6098     14.6083     54.2427
   160.2000      0.0000    816.6098     14.6083     54.2427
   160.3000      0.0000    799.5640     14.7344     49.3352
   160.4000      0.0000    799.5640     14.7344     49.3352
   160.5000      0.0000    763.5547     14.8105     47.0096
   160.6000      0.0000    763.5547     14.8105     47.0096
   160.7000      0.0000    763.5547     14.8105     47.0096
   160.8000      0.0000    729.7735     14.7234     46.5555
   160.9000      0.0000    729.7735     14.7234     46.5555
   161.0000      0.0000    720.2542     14.3232     46.8348
   161.1000      0.0000    720.2542     14.3232     46.8348
   161.2000      0.0000    720.2542     14.3232     46.8348
   161.3000      0.0000    739.6771     13.5447     47.0501
   161.4000      0.0000    739.6771     13.5447     47.0501
   161.5000      0.0000    776.3454     12.5270     47.0743
   161.6000      0.0000    776.3454     12.5270     47.0743
   161.7000      0.0000    776.3454     12.5270     47.0743
   161.8000      0.0000    817.2952     11.5489     47.3544
   161.9000      0.0000    817.2952     11.5489     47.3544
   162.0000      0.0000    856.6284     10.8140     48.2926
   162.1000      0.0000    856.6284     10.8140     48.2926
   162.2000      0.0000    856.6284     10.8140     48.2926
   162.3000      0.0000    891.1747     10.3421     49.4844
   162.4000      0.0000    891.1747     10.3421     49.4844
   162.5000      0.0000    915.3272     10.0622     49.8658
   162.6000      0.0000    915.3272     10.0622     49.8658
   162.7000      0.0000    915.3272     10.0622     49.8658
   162.8000      0.0000    924.0391      9.9181     48.8960
   162.9000      0.0000    924.0391      9.9181     48.8960
   163.0000      0.0000    919.3372      9.8638     47.3597
   163.1000     -2.0000    919.3372      9.8638     47.3597
   163.2000      0.0000    919.3372      9.8638     47.3597
   163.3000      2.0000    910.3771      9.8413     46.6803
   163.4000     -2.0000    910.3771      9.8413     46.6803
   163.5000      2.0000    903.5567      9.8174     47.5789
   163.6000      0.0000    903.5567      9.8174     47.5789
   163.7000     -2.0000    903.5567      9.8174     47.5789
   163.8000      0.0000    891.8641      9.8370     49.5375
   163.9000      0.0000    891.8641      9.8370     49.5375
   164.0000      0.0000    858.8830     10.0210     51.3604
   164.1000      0.0000    858.8830     10.0210     51.3604
   164.2000      0.0000    858.8830     10.0210     51.3604
   164.3000      0.0000    798.8376     10.4843     52.0665
   164.4000      0.0000    798.8376     10.4843     52.0665
   164.5000      0.0000    731.1040     11.2207     51.4066
   164.6000      0.0000    731.1040     11.2207     51.4066
   164.7000      0.0000    731.1040     11.2207     51.4066
   164.8000      0.0000    688.7452     12.0763     49.8095
   164.9000      0.0000    688.7452     12.0763     49.8095
   165.0000      0.0000    691.0823     12.8766     47.9895
   165.1000      0.0000    691.0823     12.8766     47.9895
   165.2000      0.0000    691.0823     12.8766     47.9895
   165.3000      0.0000    729.7450     13.5560     46.5163
   165.4000      0.0000    729.7450     13.5560     46.5163
   165.5000      0.0000    779.6911     14.1312     45.6155
   165.6000      0.0000    779.6911     14.1312     45.6155
   165.7000      0.0000    779.6911     14.1312     45.6155
   165.8000      0.0000    819.2298     14.6007     45.2900
   165.9000      0.0000    819.2298     14.6007     45.2900
   166.0000      0.0000    840.6085     14.9309     45.4397
   166.1000      0.0000    840.6085     14.9309     45.4397
   166.2000      0.0000    840.6085     14.9309     45.4397
   166.3000      0.0000    847.9612     15.1086     45.7619
   166.4000      0.0000    847.9612     15.1086     45.7619
   166.5000      0.0000    849.3322     15.1541     45.8599
   166.6000      0.0000    849.3322     15.1541     45.8599
   166.7000      0.0000    849.3322     15.1541     45.8599
   166.8000      0.0000    849.9785     15.0953     45.7282
   166.9000      0.0000    849.9785     15.0953     45.7282
   167.0000      0.0000    850.5684     14.9545     45.8716
   167.1000      0.0000    850.5684     14.9545     45.8716
   167.2000      0.0000    850.5684     14.9545     45.8716
   167.3000      0.0000    849.8807     14.7625     46.5979
   167.4000      0.0000    849.8807     14.7625     46.5979
   167.5000      0.0000    848.1757     14.5634     47.3296
   167.6000      0.0000    848.1757     14.5634     47.3296
   167.7000      0.0000    848.1757     14.5634     47.3296
   167.8000      0.0000    847.4238     14.3987     47.0316
   167.9000      0.0000    847.4238     14.3987     47.0316
   168.0000      0.0000    848.4998     14.2867     45.4028
   168.1000      0.0000    848.4998     14.2867     45.4028
   168.2000      0.0000    848.4998     14.2867     45.4028
   168.3000      0.0000    849.0095     14.2247     43.2893
   168.4000      0.0000    849.0095     14.2247     43.2893
   168.5000      0.0000    844.7719     14.2085     41.7965
   168.6000      0.0000    844.7719     14.2085     41.7965
   168.7000      0.0000    844.7719     14.2085     41.7965
   168.8000      0.0000    833.7271     14.2423     41.3183
   168.9000      0.0000    833.7271     14.2423     41.3183
   169.0000      0.0000    818.1987     14.3237     41.5528
   169.1000      0.0000    818.1987     14.3237     41.5528
   169.2000      0.0000    818.1987     14.3237     41.5528
   169.3000      0.0000    803.1240     14.4245     42.0724
   169.4000      0.0000    803.1240     14.4245     42.0724
   169.5000      0.0000    792.2808     14.5025     42.6211
   169.6000      0.0000    792.2808     14.5025     42.6211
   169.7000      0.0000    792.2808     14.5025     42.6211
   169.8000      0.0000    786.3022     14.5362     43.1414
   169.9000      0.0000    786.3022     14.5362     43.1414
   170.0000      0.0000    783.5648     14.5420     43.8684
   170.1000      0.0000    783.5648     14.5420     43.8684
   170.2000      0.0000    783.5648     14.5420     43.8684
   170.3000      0.0000    782.0441     14.5538     45.2597
   170.4000      0.0000    782.0441     14.5538     45.2597
   170.5000      0.0000    780.3038     14.5960     47.3619
   170.6000      0.0000    780.3038     14.5960     47.3619
   170.7000      0.0000    780.3038     14.5960     47.3619
   170.8000      0.0000    777.5764     14.6760     49.2409
   170.9000      0.0000    777.5764     14.6760     49.2409
   171.0000      0.0000    773.6734     14.7902     49.5581
   171.1000      0.0000    773.6734     14.7902     49.5581
   171.2000      0.0000    773.6734     14.7902     49.5581
   171.3000      0.0000    769.0601     14.9244     47.9399
   171.4000      0.0000    769.0601     14.9244     47.9399
   171.5000      0.0000    764.7560     15.0522     45.5012
   171.6000      0.0000    764.7560     15.0522     45.5012
   171.7000      0.0000    764.7560     15.0522     45.5012
   171.8000      0.0000    761.9271     15.1404     43.8184
   171.9000      0.0000    761.9271     15.1404     43.8184
   172.0000      0.0000    761.6524     15.1551     43.5980
   172.1000      0.0000    761.6524     15.1551     43.5980
   172.2000      0.0000    761.6524     15.1551     43.5980
   172.3000      0.0000    765.2286     15.0741     44.5099
   172.4000      0.0000    765.2286     15.0741     44.5099
   172.5000      0.0000    774.3078     14.9066     45.9592
   172.6000      0.0000    774.3078     14.9066     45.9592
   172.7000      0.0000    774.3078     14.9066     45.9592
   172.8000      0.0000    789.8959     14.6967     47.5170
   172.9000      0.0000    789.8959     14.6967     47.5170
   173.0000      0.0000    810.6198     14.4968     48.7006
