~Version Information
VERS.                      2.0: CWLS Log ASCII Standard - VERSION 2.0
WRAP.                       NO: One line per depth step
~Well Information Block
STRT.FT               700.0000: 
STOP.FT              1869.5000: 
STEP.FT                 0.2500: 
NULL.                -999.2500: 
COMP.          Petrogulf Corporation: COMPANY
WELL.             State 16-24R: WELL
FLD.           Purgatorie River: FIELD
LOC.           541' FSL & 2371' FWL: LOCATION
PROV.                 Colorado: PROVINCE
CNTY.               Las Animas: COUNTRY
SRVC.                Patterson: SERVICE COMPANY
DATE.          Fri Aug 12 09:07:22 2005: LOG DATE
UWI.                071-08312 : UNIQUE WELL ID
~Curve Information Block
DEPT.FT            0 000 00 00: Depth
SP.mV                         : DIL Spontaneous Potential
RILD.Ohm-m                    : DIL Deep Resistivity
RILM.Ohm-m                    : DIL Medium Resistivity
RLL3.Ohm-m                    : DIL Shallow Resistivity
GR.GAPI                       : Gamma Ray
~Parameter Information Block
~A  Depth        SP         RILD        RILM        RLL3         GR     
# ...
  1540.0000    143.8514     12.0820     14.1034     10.5181    129.2635
  1540.2500    146.3032     11.8030     13.5757     10.8276    112.5300
  1540.5000    149.3197     10.9343     13.5274     12.3312    109.2782
  1540.7500    151.7267     10.6202     13.0344     13.4204    111.2336
  1541.0000    153.0984     10.3133     12.8071     13.4415    118.3254
  1541.2500    153.9839     10.2535     12.5691     12.6648    125.1352
  1541.5000    156.9527      9.8216     12.2134     12.4676    134.2333
  1541.7500    156.4467     10.0729     12.0214     13.0698    123.9897
  1542.0000    157.1940     10.2127     11.8759     12.9539    129.2775
  1542.2500    158.2296     10.3998     12.1928     12.1291    130.0639
  1542.5000    159.9102     10.6569     12.9854     11.3155    119.5743
  1542.7500    160.6400     10.6588     13.6562     11.2091    107.6621
  1543.0000    162.7844     10.2943     14.7162     12.3435     95.2098
  1543.2500    165.2990     10.4232     16.0161     17.6198     82.7474
  1543.5000    169.0637     10.3010     16.8224     36.7736     77.8540
  1543.7500    174.5978      9.9319     16.9333     67.1990     82.4285
  1544.0000    179.4468      9.6909     16.0241     47.9515     98.9437
  1544.2500    184.3804      9.3844     15.2574     24.1222    105.8678
  1544.5000    187.5981      9.0405     13.8815     15.5069    129.2851
  1544.7500    191.3306      8.8219     12.6870     12.2047    135.2246
  1545.0000    192.3928      9.0449     11.4924     11.2075    141.6218
  1545.2500    193.9466      8.9426     10.9262     10.5567    137.4902
  1545.5000    193.6580      9.3337     10.3269      9.7739    140.0884
  1545.7500    192.7114      9.1001     10.0597      9.3572    144.1763
  1546.0000    190.6278      9.1917      9.9760      9.3678    142.6768
  1546.2500    189.4884      9.2772      9.8826      9.5517    150.7834
  1546.5000    188.2222      8.9818      9.9945      9.7288    136.4323
  1546.7500    188.4439      8.9786     10.5094      9.6400    126.1918
  1547.0000    186.1760      8.8834     10.6823      9.9453    108.8424
  1547.2500    186.6402      8.9433     11.1329     11.9338     99.1268
  1547.5000    186.0228      8.9141     11.7433     18.1342     91.7233
  1547.7500    185.5671      9.0120     12.3011     20.4057     95.4065
  1548.0000    185.8046      9.3914     12.8848     16.5461     95.1713
  1548.2500    185.3851      9.7374     13.4740     14.7813     88.9005
  1548.5000    185.6109     10.2197     14.2400     14.9355     94.9462
  1548.7500    184.4865     10.6621     14.7060     15.9498     91.7440
  1549.0000    183.4829     11.4125     15.9008     16.9625     91.7094
  1549.2500    183.4516     12.0195     16.0195     17.8771     94.5474
  1549.5000    183.2727     12.8030     17.2470     17.2036     95.1999
  1549.7500    182.8205     12.6144     17.7775     15.2469     95.6387
  1550.0000    182.4853     12.6245     18.0823     14.4916     99.5298
  1550.2500    180.7445     12.6202     18.9136     14.9915    104.2766
  1550.5000    182.0378     12.0720     18.7825     15.3787    100.9901
  1550.7500    180.6135     11.4594     18.5024     16.4524    106.7449
  1551.0000    179.2801     10.9775     17.5879     17.2013    105.3947
  1551.2500    178.7385     10.4960     16.5399     15.7751    109.0051
  1551.5000    178.4315      9.7226     15.4385     14.0632    113.2769
  1551.7500    176.8549      9.3539     13.7874     12.3188    127.7916
  1552.0000    178.2658      8.9609     12.7576     11.1082    132.3531
  1552.2500    178.1118      8.5685     11.6234     10.0868    128.9115
  1552.5000    177.7484      8.3490     10.9044      9.7134    131.7346
  1552.7500    178.4781      7.9541     10.1961      9.5993    135.4287
  1553.0000    178.7126      7.7341      9.7571      9.5419    140.1571
  1553.2500    178.1724      7.4037      9.0772      9.3884    135.6828
  1553.5000    178.1311      7.2363      8.8687      9.2215    130.6526
  1553.7500    177.5602      6.7758      8.4849      9.0572    139.2687
  1554.0000    177.8342      6.6093      8.2053      9.0220    142.5659
  1554.2500    177.5275      6.4498      8.0728      8.9742    144.2830
  1554.5000    177.5137      6.4571      7.9682      8.9017    137.6048
  1554.7500    176.4007      6.3291      7.8590      8.9297    141.0632
  1555.0000    174.6894      6.2387      7.7798      9.1737    139.8288
  1555.2500    174.3006      6.0380      7.9920      9.3776    138.7888
  1555.5000    173.3626      6.0902      7.8679      9.2382    138.3282
  1555.7500    171.2888      6.0793      7.9346      9.1457    128.6874
  1556.0000    171.1638      5.9275      7.8493      9.3310    121.4111
  1556.2500    170.3639      5.9613      7.8385      9.6082    129.2775
  1556.5000    168.3376      5.9352      7.8746     10.0494    125.8277
  1556.7500    166.5007      5.9021      7.8280      9.9151    120.1697
  1557.0000    169.7069      5.9186      7.8386      9.4516    121.6054
  1557.2500    169.0453      5.9043      7.7602      9.2641    135.9757
  1557.5000    167.7106      5.8187      7.7284      9.0985    139.1453
  1557.7500    166.0574      5.7535      7.6813      8.9448    139.9223
  1558.0000    165.8517      5.7800      7.5688      8.7886    131.9706
  1558.2500    164.3106      5.8096      7.4395      8.8109    138.3051
  1558.5000    163.1160      5.7878      7.3798      9.0088    141.0330
  1558.7500    161.4699      5.8866      7.4225      9.0620    142.1890
  1559.0000    160.5902      6.0019      7.4593      8.9194    142.1611
  1559.2500    158.5569      6.1064      7.3972      8.5729    140.0917
  1559.5000    156.9933      6.1925      7.4419      8.2652    134.8665
  1559.7500    155.0371      6.2712      7.7531      8.2536    129.6393
  1560.0000    152.7884      6.4784      7.9469      8.6348    125.7380
  1560.2500    150.4956      6.5725      8.3848      9.8618    121.7908
  1560.5000    149.1520      6.7460      8.7016     11.0302    105.6934
  1560.7500    148.0547      6.8440      9.1817     11.7448     96.1935
  1561.0000    146.9262      7.0102      9.5705     11.8973     98.6863
  1561.2500    146.2520      7.3314      9.9723     12.1681    101.1934
  1561.5000    145.0219      7.4659     10.4701     12.3331    100.0729
  1561.7500    143.6759      8.0251     10.6608     12.5503    100.5037
  1562.0000    141.9212      8.3831     11.0404     12.6823    104.0920
  1562.2500    139.9501      8.8626     11.3545     12.5801    115.2309
  1562.5000    139.0217      9.3313     11.7089     11.9605    107.1506
  1562.7500    136.9439      9.9142     12.0278     11.0547    102.4490
  1563.0000    137.3902     10.3046     12.7896     11.2648    100.7382
  1563.2500    135.9417     10.4161     13.5366     12.5971     95.9313
  1563.5000    135.5488     10.7373     14.3586     13.4408     90.9327
  1563.7500    134.2057     10.9629     15.3055     13.7979     91.6208
  1564.0000    133.3016     10.8499     15.9469     14.5620     95.6427
  1564.2500    132.4046     10.8694     16.7048     15.9782     88.9859
  1564.5000    132.7083     10.9056     17.3972     17.3685     80.6973
  1564.7500    132.0189     11.1858     17.9573     18.9386     81.5173
  1565.0000    131.5332     11.0796     17.6529     18.5797     84.1395
  1565.2500    131.5773     11.0704     17.8316     17.1837     81.7319
  1565.5000    130.4240     11.0503     17.2027     16.3122     89.2775
  1565.7500    132.6634     10.9045     16.7089     16.0134     91.9865
  1566.0000    133.8215     10.6949     15.8397     14.5524     87.9048
  1566.2500    136.6640     10.3259     14.7814     13.7615    106.9780
  1566.5000    137.2542      9.9221     13.8429     13.0507    110.8455
  1566.7500    138.5960      9.9276     12.9566     11.9465    125.0456
  1567.0000    138.6546      9.6070     12.4277     10.8164    123.6253
  1567.2500    139.6432      9.3357     11.6268     10.0990    126.4408
  1567.5000    139.6399      9.3150     11.2009      9.8547    128.8390
  1567.7500    139.8294      8.9689     11.0661      9.5931    128.2258
