~Version Information
VERS.                      2.0: CWLS Log ASCII Standard - VERSION 2.0
WRAP.                       NO: One line per depth step
~Well Information Block
STRT.FT               554.1000: 
STOP.FT              2173.5000: 
STEP.FT                 0.1000: 
NULL.                -999.2500: 
COMP.          Petrogulf Corporation: COMPANY
WELL.            Montoya 6-14R: WELL
FLD.           Purgatorie River: FIELD
LOC.           867' FSL & 751' FWL: LOCATION
CNTY.               Las Animas: COUNTY
SRVC.                         : SERVICE COMPANY
DATE.          Mon Nov 15 06:14:10 2004: LOG DATE
UWI.           05 071 08242 00: UNIQUE WELL ID
STAT.                 Colorado: STATE
~Curve Information Block
DEPT.FT            0 000 00 00: Depth
DCAL.in                       : CDL Caliper
RHOB.g/cc                     : CDL Bulk Density
RHOC.g/cc                     : CDL Density Correction
DPOR.pu                       : CDL Density Porosity
GR.GAPI                       : Gamma Ray
NPOR.pu                       : Neutron Porosity
~Parameter Information Block
~A  Depth       DCAL        RHOB        RHOC        DPOR         GR         NPOR    
# ...
  1629.3000      8.0305      2.5045      0.0822      8.8203    128.4636     30.6936
  1629.4000      8.0305      2.4967      0.1417      9.2917    129.7724     30.4081
  1629.5000      8.1216      2.4885      0.0962      9.7890    129.2848     30.9601
  1629.6000      8.1216      2.4720      0.0951     10.7896    125.3289     31.9443
  1629.7000      8.1216      2.4471      0.1053     12.2978    120.2468     32.9910
  1629.8000      8.2189      2.4107      0.1129     14.5041    118.9764     33.8733
  1629.9000      8.2189      2.3679      0.1244     17.0992    119.8840     34.1351
  1630.0000      8.2940      2.3273      0.1110     19.5558    119.2828     33.4684
  1630.1000      8.2940      2.2848      0.1134     22.1351    117.6304     32.5376
  1630.2000      8.2940      2.2375      0.0938     24.9995    115.5964     31.9463
  1630.3000      8.3861      2.2067      0.0399     26.8681    114.3770     31.5288
  1630.4000      8.3861      2.2128      0.1131     26.4991    117.2429     30.9679
  1630.5000      8.5513      2.2350      0.2202     25.1487    125.1128     30.2950
  1630.6000      8.5513      2.2390      0.2800     24.9084    134.4597     29.9990
  1630.7000      8.5513      2.2253      0.2742     25.7404    139.9570     30.1323
  1630.8000      8.7099      2.2108      0.3438     26.6178    138.5062     30.1488
  1630.9000      8.7099      2.2033      0.3095     27.0752    131.4213     29.8103
  1631.0000      8.7821      2.2105      0.3143     26.6338    124.2306     29.3325
  1631.1000      8.7821      2.2351      0.3193     25.1437    122.9443     28.8074
  1631.2000      8.7821      2.2704      0.3074     23.0068    129.4539     28.5121
  1631.3000      8.8582      2.3163      0.3410     20.2239    137.7833     29.1144
  1631.4000      8.8582      2.3772      0.3759     16.5339    138.6736     30.2913
  1631.5000      9.0543      2.4417      0.4455     12.6238    132.4296     31.0478
  1631.6000      9.0543      2.4912      0.4462      9.6254    127.4864     31.4557
  1631.7000      9.0543      2.5292      0.4014      7.3238    126.6120     31.7987
  1631.8000      9.2596      2.5747      0.3721      4.5609    125.1205     31.8314
  1631.9000      9.2596      2.6330      0.3611      1.0289    119.9749     31.8444
  1632.0000      9.2323      2.6956      0.3325     -2.7650    114.3540     31.8457
  1632.1000      9.2323      2.7437      0.4063     -5.6789    113.3244     31.3025
  1632.2000      9.2323      2.7454      0.4267     -5.7813    116.9515     30.1757
  1632.3000      8.9256      2.6877      0.3693     -2.2832    121.6305     28.8689
  1632.4000      8.9256      2.5934      0.2802      3.4281    122.8037     28.0342
  1632.5000      8.5539      2.4996      0.1357      9.1142    122.1307     28.1717
  1632.6000      8.5539      2.4382      0.0476     12.8351    123.3014     28.7349
  1632.7000      8.5539      2.4218      0.0318     13.8313    123.8442     28.6647
  1632.8000      8.3156      2.4352      0.0781     13.0166    123.2186     28.2905
  1632.9000      8.3156      2.4515      0.0702     12.0324    124.7156     28.7945
  1633.0000      8.2677      2.4600      0.1571     11.5145    127.7555     29.8221
  1633.1000      8.2677      2.4708      0.1932     10.8608    128.5408     30.1142
  1633.2000      8.2677      2.4938      0.2433      9.4655    126.7677     29.6669
  1633.3000      8.3212      2.5289      0.2735      7.3366    126.0144     29.3222
  1633.4000      8.3212      2.5713      0.2978      4.7725    127.4212     29.6773
  1633.5000      8.3499      2.6052      0.3012      2.7173    128.6545     30.6599
  1633.6000      8.3499      2.6094      0.2532      2.4576    129.8586     31.6263
  1633.7000      8.3499      2.5906      0.1634      3.6016    133.1454     32.0545
  1633.8000      8.3405      2.5793      0.1544      4.2826    137.0962     31.9633
  1633.9000      8.3405      2.5869      0.1958      3.8233    137.7688     31.3597
  1634.0000      8.3970      2.5942      0.2558      3.3798    134.9126     30.5933
  1634.1000      8.3970      2.5809      0.1539      4.1860    132.2749     30.2832
  1634.2000      8.3970      2.5498      0.1027      6.0720    132.7632     30.1983
  1634.3000      8.5172      2.5144      0.0910      8.2203    132.7901     29.8185
  1634.4000      8.5172      2.4779      0.0848     10.4286    128.9070     29.5672
  1634.5000      8.4954      2.4408      0.0072     12.6813    125.8760     30.1219
  1634.6000      8.4954      2.4088      0.0559     14.6185    124.9062     31.1714
  1634.7000      8.4954      2.3803      0.0200     16.3441    121.2318     31.6638
  1634.8000      8.3020      2.3550      0.0255     17.8758    116.8084     31.2019
  1634.9000      8.3020      2.3459      0.0210     18.4294    116.2397     30.4861
  1635.0000      8.1904      2.3572      0.0550     17.7480    117.0695     30.2426
  1635.1000      8.1904      2.3754      0.0969     16.6417    116.1630     30.4107
  1635.2000      8.1904      2.3879      0.0815     15.8860    116.8671     30.7470
  1635.3000      8.2093      2.3836      0.1515     16.1474    120.9956     31.2929
  1635.4000      8.2093      2.3515      0.1551     18.0938    125.1516     31.7811
  1635.5000      8.2234      2.2963      0.1855     21.4365    125.9478     31.6567
  1635.6000      8.2234      2.2411      0.1704     24.7796    123.1969     31.1429
  1635.7000      8.2234      2.2116      0.1402     26.5683    122.9758     30.8478
  1635.8000      8.2551      2.2133      0.1968     26.4650    128.5374     31.0533
  1635.9000      8.2551      2.2391      0.1704     24.9021    131.9890     31.5936
  1636.0000      8.4297      2.2884      0.2422     21.9158    124.7519     31.9980
  1636.1000      8.4297      2.3524      0.2928     18.0374    112.7665     32.0825
  1636.2000      8.4297      2.4098      0.4021     14.5599    108.0504     31.8317
  1636.3000      8.7071      2.4460      0.4158     12.3622    108.7588     31.4865
  1636.4000      8.7071      2.4616      0.4174     11.4162    106.9701     31.4096
  1636.5000      8.9012      2.4585      0.4150     11.6054    103.5283     31.4558
  1636.6000      8.9012      2.4406      0.3270     12.6923    100.3174     31.3533
  1636.7000      8.9012      2.4244      0.2232     13.6712     94.4359     31.2240
  1636.8000      8.8223      2.4279      0.1994     13.4620     88.3096     31.3047
  1636.9000      8.8223      2.4586      0.1716     11.6003     87.1584     31.5347
  1637.0000      8.5456      2.5053      0.2458      8.7691     89.5579     31.7470
  1637.1000      8.5456      2.5266      0.2851      7.4817     90.5251     31.8727
  1637.2000      8.5456      2.4952      0.1914      9.3811     90.9415     31.7811
  1637.3000      8.3849      2.4375      0.0966     12.8779     93.6032     31.1884
  1637.4000      8.3849      2.3793      0.1586     16.4043     95.6492     30.5400
  1637.5000      8.3793      2.3157      0.1472     20.2603     94.0924     30.8119
  1637.6000      8.3793      2.2560      0.0862     23.8807     90.8083     31.7930
  1637.7000      8.3793      2.2201      0.0498     26.0557     87.4705     32.3229
  1637.8000      8.5082      2.2120      0.0281     26.5466     84.8380     32.0542
  1637.9000      8.5082      2.2294      0.0322     25.4914     85.9021     31.6519
  1638.0000      8.7355      2.2742      0.0878     22.7734     88.9472     31.4376
  1638.1000      8.7355      2.3329      0.3009     19.2210     89.9998     31.3195
  1638.2000      8.7355      2.3726      0.3461     16.8120     89.6404     31.6303
  1638.3000      8.9982      2.3900      0.2738     15.7587     89.1026     32.4098
  1638.4000      8.9982      2.4119      0.2930     14.4314     87.3303     33.0658
  1638.5000      9.1012      2.4356      0.3270     12.9958     84.0539     33.2334
  1638.6000      9.1012      2.4212      0.2512     13.8685     83.0360     32.8683
  1638.7000      9.1012      2.3475      0.0794     18.3330     85.5660     32.3569
  1638.8000      8.8079      2.2381      0.0112     24.9622     87.9347     32.0365
