~Version Information
VERS.                      2.0: CWLS Log ASCII Standard - VERSION 2.0
WRAP.                       NO: One line per depth step
~Well Information Block
STRT.FT               185.5000: 
STOP.FT              2039.2500: 
STEP.FT                 0.2500: 
NULL.                -999.2500: 
COMP.          Petrogulf Corporation: COMPANY
WELL.            Montoya 7-12R: WELL
FLD.           Purgatorie River: FIELD
LOC.           1769' FNL & 658' FWL--: LOCATION
PROV.                       CO: PROVINCE
CNTY.               Las Animas: COUNTRY
SRVC.                         : SERVICE COMPANY
DATE.          Wed Feb 09 09:05:42 2005: LOG DATE
UWI.         005 071 08240  : UNIQUE WELL ID
~Curve Information Block
DEPT.FT            0 000 00 00: Depth
CCL.                          : Casing Collar Locator
CCLRT.                        : CCLRT
TT3.usec                      : CBL 3' Travel Time
AMP3.mV                       : CBL 3' Amplitude
GR.GAPI                       : Gamma Ray
~Parameter Information Block
~A  Depth       CCL        CCLRT        TT3         AMP3         GR     
# ...
  1529.5000      0.0000   -999.2500    663.1650      2.2916    111.7061
  1529.7500      0.0000   -999.2500    662.8021      2.2684    115.5281
  1530.0000      0.0000   -999.2500    658.5792      2.1794    123.9266
  1530.2500      0.0000   -999.2500    653.5389      2.0345    134.8472
  1530.5000      0.0000   -999.2500    651.2974      1.8731    144.7717
  1530.7500      0.0000   -999.2500    653.6401      1.7381    150.6946
  1531.0000      0.0000   -999.2500    659.6027      1.6556    151.5520
  1531.2500      0.0000   -999.2500    666.6959      1.6327    148.3405
  1531.5000      0.0000   -999.2500    672.7836      1.6641    143.2088
  1531.7500      0.0000   -999.2500    676.6506      1.7360    138.1502
  1532.0000      0.0000   -999.2500    677.4056      1.8231    133.9995
  1532.2500      0.0000   -999.2500    674.3511      1.8913    130.3662
  1532.5000      0.0000   -999.2500    667.9351      1.9136    126.6583
  1532.7500      0.0000   -999.2500    660.4726      1.8898    123.3230
  1533.0000      0.0000   -999.2500    655.2404      1.8491    121.7935
  1533.2500      0.0000   -999.2500    654.4568      1.8321    122.9622
  1533.5000      0.0000   -999.2500    658.0958      1.8623    125.9543
  1533.7500      0.0000   -999.2500    664.6788      1.9280    128.6452
  1534.0000      0.0000   -999.2500    672.9286      1.9921    129.0996
  1534.2500      0.0000   -999.2500    682.1752      2.0262    126.3325
  1534.5000      0.0000   -999.2500    691.3062      2.0323    120.1767
  1534.7500      0.0000   -999.2500    698.3514      2.0366    111.0947
  1535.0000      0.0000   -999.2500    701.7177      2.0716    100.3176
  1535.2500      0.0000   -999.2500    701.4368      2.1611     89.9797
  1535.5000      0.0000   -999.2500    698.8821      2.2988     82.8402
  1535.7500      0.0000   -999.2500    695.4385      2.4339     81.2300
  1536.0000      0.0000   -999.2500    691.5914      2.4987     85.6377
  1536.2500      0.0000   -999.2500    687.3192      2.4602     94.4426
  1536.5000      0.0000   -999.2500    683.1826      2.3441    105.2813
  1536.7500      0.0000   -999.2500    680.4927      2.2099    116.4773
  1537.0000      0.0000   -999.2500    680.1469      2.1125    127.3279
  1537.2500      0.0000   -999.2500    681.7579      2.0800    137.7705
  1537.5000      0.0000   -999.2500    684.2451      2.1154    148.0512
  1537.7500      0.0000   -999.2500    686.9003      2.2089    158.3328
  1538.0000      0.0000   -999.2500    689.5626      2.3422    168.3967
  1538.2500      0.0000   -999.2500    692.0831      2.4873    177.5851
  1538.5000      0.0000   -999.2500    693.9294      2.6120    184.6883
  1538.7500      0.0000   -999.2500    694.2589      2.6978    187.9979
  1539.0000      0.0000   -999.2500    692.3694      2.7541    186.1725
  1539.2500      0.0000   -999.2500    688.3522      2.8173    179.3148
  1539.5000      0.0000   -999.2500    683.4372      2.9388    169.1495
  1539.7500      0.0000   -999.2500    679.4276      3.1631    158.5183
  1540.0000      0.0000   -999.2500    677.5793      3.4999    150.4785
  1540.2500      0.0000   -999.2500    678.0538      3.9077    146.8353
  1540.5000      0.0000   -999.2500    680.4618      4.3079    147.0397
  1540.7500      0.0000   -999.2500    684.7731      4.6250    148.8438
  1541.0000      0.0000   -999.2500    691.6153      4.8237    150.2770
  1541.2500      0.0000   -999.2500    701.6559      4.9182    151.0750
  1541.5000      0.0000   -999.2500    714.6761      4.9569    152.2891
  1541.7500      0.0000   -999.2500    729.1948      4.9977    154.6932
  1542.0000      0.0000   -999.2500    742.9880      5.0853    157.8702
  1542.2500      0.0000   -999.2500    754.1609      5.2322    160.7066
  1542.5000      0.0000   -999.2500    761.9865      5.4157    162.3283
  1542.7500      0.0000   -999.2500    766.7430      5.5979    162.7319
  1543.0000      0.0000   -999.2500    768.7990      5.7484    163.0034
  1543.2500      0.0000   -999.2500    768.2026      5.8471    164.5536
  1543.5000      0.0000   -999.2500    764.9524      5.8778    167.6116
  1543.7500      0.0000   -999.2500    758.7867      5.8364    170.8228
  1544.0000      0.0000   -999.2500    748.9212      5.7391    172.5541
  1544.2500      0.0000   -999.2500    735.3504      5.6011    172.3679
  1544.5000      0.0000   -999.2500    720.5876      5.4115    171.4133
  1544.7500      0.0000   -999.2500    708.9244      5.1451    171.6637
  1545.0000      0.0000   -999.2500    703.3705      4.8042    174.2742
  1545.2500      0.0000   -999.2500    703.6492      4.4388    178.0521
  1545.5000      0.0000   -999.2500    707.2244      4.1222    179.8741
  1545.7500      0.0000   -999.2500    711.5837      3.9061    177.3457
  1546.0000      0.0000   -999.2500    715.2226      3.7918    171.2085
  1546.2500      0.0000   -999.2500    717.1859      3.7372    165.0203
  1546.5000      0.0000   -999.2500    716.5441      3.6922    162.4141
  1546.7500      0.0000   -999.2500    712.3860      3.6342    164.2603
  1547.0000      0.0000   -999.2500    704.3059      3.5742    168.0140
  1547.2500      0.0000   -999.2500    693.2975      3.5333    169.9072
  1547.5000      0.0000   -999.2500    682.0992      3.5208    168.1008
  1547.7500      0.0000   -999.2500    673.9929      3.5341    163.7479
  1548.0000      0.0000   -999.2500    670.9673      3.5670    159.1276
  1548.2500      0.0000   -999.2500    672.9548      3.6089    155.3119
  1548.5000      0.0000   -999.2500    678.2932      3.6369    151.7507
  1548.7500      0.0000   -999.2500    684.5710      3.6221    147.3001
  1549.0000      0.0000   -999.2500    689.5736      3.5483    141.0948
  1549.2500      0.0000   -999.2500    692.2092      3.4239    133.0274
  1549.5000      0.0000   -999.2500    692.7901      3.2770    124.1450
  1549.7500      0.0000   -999.2500    692.4313      3.1440    116.4024
  1550.0000      0.0000   -999.2500    692.1612      3.0585    111.6748
  1550.2500      0.0000   -999.2500    692.3690      3.0441    111.0560
  1550.5000      0.0000   -999.2500    692.6501      3.1090    114.9165
  1550.7500      0.0000   -999.2500    691.9385      3.2480    123.0704
  1551.0000      0.0000   -999.2500    689.0962      3.4540    134.7251
  1551.2500      0.0000   -999.2500    683.9882      3.7237    148.6364
  1551.5000      0.0000   -999.2500    678.2379      4.0446    163.4284
  1551.7500      0.0000   -999.2500    674.6226      4.3756    177.5002
  1552.0000      0.0000   -999.2500    675.2582      4.6546    188.8459
  1552.2500      0.0000   -999.2500    680.0863      4.8303    195.6973
  1552.5000      0.0000   -999.2500    687.0132      4.8831    197.5208
  1552.7500      0.0000   -999.2500    693.5131      4.8219    194.8792
  1553.0000      0.0000   -999.2500    698.0804      4.6757    188.1617
  1553.2500      0.0000   -999.2500    700.1718      4.4877    177.0227
  1553.5000      0.0000   -999.2500    699.2685      4.2948    161.5965
  1553.7500      0.0000   -999.2500    694.6208      4.1068    144.1575
  1554.0000      0.0000   -999.2500    685.9554      3.9143    129.0084
  1554.2500      0.0000   -999.2500    673.7095      3.7114    120.3068
  1554.5000      0.0000   -999.2500    658.3983      3.5067    119.7326
  1554.7500      0.0000   -999.2500    641.1062      3.3153    125.8010
  1555.0000      0.0000   -999.2500    625.6051      3.1497    134.8555
  1555.2500      0.0000   -999.2500    618.0088      3.0179    142.6521
  1555.5000      0.0000   -999.2500    621.7980      2.9204    145.8684
  1555.7500      0.0000   -999.2500    634.1196      2.8495    143.3454
  1556.0000      0.0000   -999.2500    648.6806      2.7950    136.5351
  1556.2500      0.0000   -999.2500    661.0154      2.7547    128.6325
  1556.5000      0.0000   -999.2500    669.9512      2.7340    122.7484
  1556.7500      0.0000   -999.2500    675.9022      2.7300    120.3251
  1557.0000      0.0000   -999.2500    679.4376      2.7186    120.6748
  1557.2500      0.0000   -999.2500    680.9811      2.6665    121.6138
