~Version Information
VERS.                      2.0: CWLS Log ASCII Standard - VERSION 2.0
WRAP.                       NO: One line per depth step
~Well Information Block
STRT.FT               806.0000: 
STOP.FT              1812.2000: 
STEP.FT                 0.1000: 
NULL.                -999.2500: 
COMP.          Pioneer Natural Resources: COMPANY
WELL.            Hill 33-22 Tr: WELL
FLD.           Purgatoire River: FIELD
LOC.           1573' FSL & 1585' FEL: LOCATION
PROV.                 Colorado: PROVINCE
CNTY.               Las Animas: COUNTRY
SRVC.                Patterson: SERVICE COMPANY
DATE.          Thu Apr 14 12:25:33 2005: LOG DATE
UWI.           05 071 08316 00: UNIQUE WELL ID
~Curve Information Block
DEPT.FT            0 000 00 00: Depth
DCAL.in                       : CDL Caliper
RHOB.g/cc                     : CDL Bulk Density
RHOC.g/cc                     : CDL Density Correction
DPOR.pu                       : CDL Density Porosity
GR.GAPI                       : Gamma Ray
NPOR.pu                       : Neutron Porosity
~Parameter Information Block
~A  Depth       DCAL        RHOB        RHOC        DPOR         GR         NPOR    
   806.0000      8.2263      1.6266     -0.7880     62.0250     77.7291     26.0096
   806.1000      8.2263      1.6404     -0.8007     61.1874     86.4728     25.7545
   806.2000      8.2263      1.6776     -0.6957     58.9358     99.6462     25.7218
   806.3000      8.2266      1.7360     -0.8590     55.3928    109.8793     26.0642
   806.4000      8.2266      1.8404     -0.7340     49.0653    118.2852     25.7498
   806.5000      8.2241      1.9823     -0.6645     40.4642    128.0788     24.5283
   806.6000      8.2241      2.1069     -0.5540     32.9123    134.4160     23.9484
   806.7000      8.2241      2.1772     -0.5676     28.6540    138.5068     24.8256
   806.8000      8.2270      2.2074     -0.6005     26.8248    146.8292     25.9187
   806.9000      8.2270      2.2265     -0.5428     25.6693    155.4513     26.0563
   807.0000      8.2335      2.2420     -0.4914     24.7249    156.5719     25.6619
   807.1000      8.2335      2.2437     -0.4719     24.6272    148.9197     25.5178
   807.2000      8.2335      2.2235     -0.4430     25.8479    138.3990     25.3873
   807.3000      8.2320      2.1942     -0.5107     27.6270    132.4868     24.3598
   807.4000      8.2320      2.1834     -0.5177     28.2812    134.3334     22.7875
   807.5000      8.2347      2.2044     -0.4933     27.0039    141.5825     22.2791
   807.6000      8.2347      2.2362     -0.4329     25.0806    146.4121     23.0783
   807.7000      8.2347      2.2420     -0.4192     24.7262    145.6608     24.3453
   807.8000      8.2337      2.2212     -0.5412     25.9889    144.8794     25.4517
   807.9000      8.2337      2.2091     -0.5071     26.7216    148.6683     25.6513
   808.0000      8.2325      2.2145     -0.4536     26.3930    155.1481     24.9373
   808.1000      8.2325      2.2247     -0.4854     25.7781    157.7215     24.1915
   808.2000      8.2325      2.2433     -0.4762     24.6493    150.2632     23.3461
   808.3000      8.2291      2.2736     -0.4546     22.8110    136.8619     22.2826
   808.4000      8.2291      2.3063     -0.4110     20.8314    127.0537     21.8555
   808.5000      8.2355      2.3497     -0.5203     18.1997    121.8418     22.1779
   808.6000      8.2355      2.4319     -0.4591     13.2181    115.7166     22.8119
   808.7000      8.2355      2.5313     -0.2746      7.1968    106.7258     23.3589
   808.8000      8.2380      2.5882     -0.3209      3.7466     98.5281     23.3103
   808.9000      8.2380      2.5885     -0.3425      3.7245     95.9104     22.7918
   809.0000      8.2256      2.5636     -0.3774      5.2370    101.1258     22.4052
   809.1000      8.2256      2.5361     -0.4050      6.9056    110.0923     22.7146
   809.2000      8.2256      2.5012     -0.3798      9.0171    118.1111     23.6298
   809.3000      8.2215      2.4598     -0.4374     11.5282    124.2522     24.0771
   809.4000      8.2215      2.4226     -0.4543     13.7801    124.7016     23.5163
   809.5000      8.2127      2.3616     -0.3167     17.4805    115.2707     22.6483
   809.6000      8.2127      2.2439     -0.4861     24.6133    101.5648     22.4117
   809.7000      8.2127      2.0988     -0.5493     33.4046     91.9840     22.6470
   809.8000      8.1969      1.9676     -0.6391     41.3556     84.7234     22.5929
   809.9000      8.1969      1.8618     -0.6543     47.7711     77.5842     22.3360
   810.0000      8.1991      1.7725     -0.6836     53.1812     73.5342     22.3077
   810.1000      8.1991      1.6854     -0.7439     58.4636     71.3683     22.8448
   810.2000      8.1991      1.6137     -0.8080     62.8032     68.3021     23.8791
   810.3000      8.1988      1.5797     -0.7447     64.8684     64.5583     24.6286
   810.4000      8.1988      1.5655     -0.7102     65.7272     61.5967     24.7471
   810.5000      8.1888      1.5367     -0.7378     67.4744     62.1845     24.5267
   810.6000      8.1888      1.4812     -0.8129     70.8342     64.9260     24.1802
   810.7000      8.1888      1.4169     -0.8776     74.7309     66.2626     24.2976
   810.8000      8.1831      1.3691     -0.8387     77.6282     65.8754     25.2469
   810.9000      8.1831      1.3479     -0.8493     78.9176     64.3525     25.8794
   811.0000      8.1878      1.3586     -0.8811     78.2651     63.0147     25.3959
   811.1000      8.1878      1.3991     -0.8020     75.8151     63.7046     24.7514
   811.2000      8.1878      1.4555     -0.8199     72.3928     67.1098     24.9240
   811.3000      8.1907      1.5166     -0.7868     68.6900     72.4499     25.9676
   811.4000      8.1907      1.5704     -0.7840     65.4314     77.2895     27.1178
   811.5000      8.1939      1.6122     -0.8077     62.8941     81.0092     27.4349
   811.6000      8.1939      1.6457     -0.7381     60.8685     84.8719     27.0740
   811.7000      8.1939      1.6715     -0.8050     59.3041     89.7128     26.7962
   811.8000      8.1999      1.6882     -0.7510     58.2902     94.7757     26.7287
   811.9000      8.1999      1.6957     -0.7680     57.8364     96.3758     26.6542
   812.0000      8.2083      1.7006     -0.7684     57.5378     93.1393     26.7016
   812.1000      8.2083      1.6987     -0.6720     57.6523     88.9771     26.9418
   812.2000      8.2083      1.6716     -0.6971     59.2994     91.4117     26.7568
   812.3000      8.2143      1.6284     -0.7866     61.9139    100.4213     25.7291
   812.4000      8.2143      1.6052     -0.7703     63.3195    106.1401     24.8059
   812.5000      8.2150      1.6109     -0.7414     62.9741    106.0624     24.7283
   812.6000      8.2150      1.6211     -0.6950     62.3569    107.1575     24.8223
   812.7000      8.2150      1.6396     -0.8632     61.2337    109.8839     24.6448
   812.8000      8.2179      1.7019     -0.6972     57.4599    111.7118     24.5422
   812.9000      8.2179      1.8061     -0.7165     51.1464    114.8637     24.5966
   813.0000      8.2167      1.9132     -0.6223     44.6534    119.5908     24.6157
   813.1000      8.2167      1.9826     -0.5528     40.4473    120.4612     24.4361
   813.2000      8.2167      2.0038     -0.5736     39.1632    116.5527     24.0757
   813.3000      8.2220      2.0119     -0.6999     38.6737    113.4251     23.5698
   813.4000      8.2220      2.0426     -0.6701     36.8149    114.6173     22.9711
   813.5000      8.2270      2.0908     -0.6074     33.8913    119.7139     22.5238
   813.6000      8.2270      2.1397     -0.5376     30.9255    126.5659     22.3638
   813.7000      8.2270      2.1755     -0.4884     28.7588    133.0448     22.6656
   813.8000      8.2351      2.1864     -0.4719     28.0980    137.8651     23.8673
   813.9000      8.2351      2.1792     -0.4670     28.5326    138.9617     25.6199
   814.0000      8.2368      2.1652     -0.4904     29.3838    135.8753     26.2003
   814.1000      8.2368      2.1432     -0.5030     30.7137    134.0008     24.8477
   814.2000      8.2368      2.1112     -0.5100     32.6570    134.4205     23.3025
   814.3000      8.2354      2.0759     -0.5059     34.7943    133.9820     23.1833
   814.4000      8.2354      2.0422     -0.6052     36.8354    133.3798     39.7445
   814.5000      8.2336      2.0041     -0.5548     39.1439    137.5095     40.0385
   814.6000      8.2336      1.9575     -0.6044     41.9692    147.0234     40.2250
   814.7000      8.2336      1.9183     -0.6171     44.3477    152.2920     40.3335
   814.8000      8.2328      1.9047     -0.6836     45.1669    145.2227     40.4416
   814.9000      8.2328      1.9106     -0.6056     44.8148    132.6625     40.5580
   815.0000      8.2353      1.9175     -0.6351     44.3962    124.5110     40.6148
   815.1000      8.2353      1.9238     -0.6603     44.0126    123.3674     40.6673
   815.2000      8.2353      1.9380     -0.6429     43.1526    128.1239     40.7007
   815.3000      8.2377      1.9576     -0.6189     41.9638    136.1943     40.6216
   815.4000      8.2377      1.9748     -0.6260     40.9235    142.8267     40.6028
   815.5000      8.2395      1.9862     -0.5588     40.2282    143.0622     40.8333
