~Version Information
VERS.                      2.0: CWLS Log ASCII Standard - VERSION 2.0
WRAP.                       NO: One line per depth step
~Well Information Block
STRT.FT               987.5000: 
STOP.FT              2426.0000: 
STEP.FT                 0.5000: 
NULL.                -999.2500: 
COMP.          Evergreen Operating Corporation: COMPANY
WELL.          McCullough 34-32: WELL
FLD.           Purgatorie River: FIELD
LOC.           261' FSL & 2098' FEL--: LOCATION
PROV.                 Colorado: PROVINCE
CNTY.               Las Animas: COUNTRY
SRVC.          Patterson Wireline: SERVICE COMPANY
DATE.          Mon May 17 13:38:56 2004: LOG DATE
UWI.           05-071-07953-00: UNIQUE WELL ID
~Curve Information Block
DEPT.FT            0 000 00 00: Depth
CCL.                          : Casing Collar Locator
TT3.usec                      : CBL 3' Travel Time
AMP3.mV                       : CBL 3' Amplitude
GR.GAPI                       : Gamma Ray
~Parameter Information Block
~A  Depth       CCL         TT3         AMP3         GR     
# ...
  1523.5000      0.0000    376.6051      9.8039    113.9937
  1524.0000      0.0000    459.0530      9.3075    113.7952
  1524.5000      0.0000    620.2836      9.6054    119.7996
  1525.0000      0.0000    746.3811      9.4653    123.0809
  1525.5000      0.0000    784.4098      8.7058    113.1058
  1526.0000      0.0000    788.1172      8.5252    100.5586
  1526.5000      0.0000    788.0781      8.8631     92.2074
  1527.0000      0.0000    788.2983      8.5371     88.0476
  1527.5000      0.0000    788.3928      7.5838     87.8973
  1528.0000      0.0000    788.7828      7.3404     89.4119
  1528.5000      0.0000    789.1345      7.9882     92.2017
  1529.0000      0.0000    788.0484      8.1152     93.1554
  1529.5000      0.0000    783.9163      7.5278     91.0677
  1530.0000      0.0000    776.7789      7.4281     89.0710
  1530.5000      0.0000    764.0933      7.3881     93.0628
  1531.0000      0.0000    739.5976      6.4409     98.5289
  1531.5000      0.0000    715.2372      5.6333    100.3949
  1532.0000      0.0000    704.0251      5.9240     96.7607
  1532.5000      0.0000    703.5705      6.1717     87.7171
  1533.0000      0.0000    709.6774      5.7548     79.9504
  1533.5000      0.0000    718.5349      5.8921     76.0363
  1534.0000      0.0000    730.4675      6.6071     81.0036
  1534.5000      0.0000    739.3768      6.7151     93.9818
  1535.0000      0.0000    746.7994      6.6807    103.2249
  1535.5000      0.0000    759.3076      7.3321    104.6676
  1536.0000      0.0000    759.2723      7.6625    103.5240
  1536.5000      0.0000    747.0450      7.3801    102.0084
  1537.0000      0.0000    735.6287      7.5717     95.8169
  1537.5000      0.0000    724.6526      7.7338     91.3523
  1538.0000      0.0000    711.8137      7.3323     88.2755
  1538.5000      0.0000    704.0435      7.4740     82.6619
  1539.0000      0.0000    701.1125      7.9823     78.3960
  1539.5000      0.0000    699.7885      7.6703     74.8044
  1540.0000      0.0000    699.6927      7.1148     70.3322
  1540.5000      0.0000    700.2945      7.4952     72.3589
  1541.0000      0.0000    701.0829      7.9676     78.8184
  1541.5000      0.0000    702.2755      7.7295     81.2336
  1542.0000      0.0000    705.8424      7.8759     84.7883
  1542.5000      0.0000    714.2828      8.3835     93.7642
  1543.0000      0.0000    725.7004      8.1728     97.4130
  1543.5000      0.0000    737.4377      7.9443     95.2984
  1544.0000      0.0000    736.0950      8.3759     94.8882
  1544.5000      0.0000    719.9652      8.4722     93.9045
  1545.0000      0.0000    721.5612      7.9463     90.3581
  1545.5000      0.0000    740.3176      7.8747     87.7701
  1546.0000      0.0000    737.7364      7.9763     86.9964
  1546.5000      0.0000    717.2938      7.7652     88.1890
  1547.0000      0.0000    706.3467      7.9232     92.5503
  1547.5000      0.0000    703.9979      7.6875     94.6185
  1548.0000      0.0000    703.1508      6.9546     95.7810
  1548.5000      0.0000    702.4549      6.8374     94.2942
  1549.0000      0.0000    699.8646      6.6174     87.8794
  1549.5000      0.0000    688.7490      5.6013     81.2790
  1550.0000      0.0000    683.8203      5.0973     79.8344
  1550.5000      0.0000    709.0528      5.3437     82.9158
  1551.0000     -5.0000    738.7405      5.2520     83.1616
  1551.5000      0.0000    746.1143      5.3647     84.8441
  1552.0000      0.0000    713.4703      6.1579     89.4758
  1552.5000      0.0000    673.1171      6.7428     91.4932
  1553.0000      0.0000    694.1928      7.1402     90.6560
  1553.5000      0.0000    718.3798      7.7047     93.1321
  1554.0000      0.0000    712.0585      7.8128     98.0568
  1554.5000      0.0000    704.3321      7.8940     95.9000
  1555.0000      0.0000    702.0234      8.1023     89.4914
  1555.5000      0.0000    701.1902      7.8718     86.2495
  1556.0000      0.0000    700.2433      7.2734     84.8348
  1556.5000      0.0000    696.5630      6.9214     83.9675
  1557.0000      0.0000    686.4985      7.3252     80.4338
  1557.5000      0.0000    679.0771      7.7772     76.5379
  1558.0000      0.0000    686.4158      7.7207     76.8251
  1558.5000      0.0000    697.1537      8.0707     79.7956
  1559.0000      0.0000    701.5295      8.5601     82.6368
  1559.5000      0.0000    702.8181      8.4757     86.9771
  1560.0000      0.0000    703.5323      8.4053     93.2446
  1560.5000      0.0000    703.9758      8.6269    100.1358
  1561.0000      0.0000    703.9977      8.5173    101.9552
  1561.5000      0.0000    703.7403      7.8785     96.9082
  1562.0000      0.0000    703.6718      7.3303     90.5924
  1562.5000      0.0000    703.8149      7.5799     83.7698
  1563.0000      0.0000    704.0141      8.3377     80.7242
  1563.5000      0.0000    704.1586      8.7689     81.8478
  1564.0000      0.0000    704.2006      8.8091     86.2040
  1564.5000      0.0000    704.0234      8.4371     96.5298
  1565.0000      0.0000    703.3405      7.3360    112.6462
  1565.5000      0.0000    702.5762      6.2743    123.8986
  1566.0000      0.0000    704.5267      6.4090    128.5471
  1566.5000      0.0000    714.8219      7.2608    126.0080
  1567.0000      0.0000    723.6631      7.4208    117.4752
  1567.5000      0.0000    715.0981      7.1146    109.8417
  1568.0000      0.0000    705.9850      6.9816    107.8883
  1568.5000      0.0000    713.9615      6.9934    109.0690
  1569.0000      0.0000    747.1909      7.2169    106.1419
  1569.5000      0.0000    787.1057      7.4791    100.3891
  1570.0000      0.0000    800.2529      7.7040     92.6800
  1570.5000      0.0000    787.4100      7.8738     81.5054
  1571.0000      0.0000    763.6808      7.9278     74.4109
  1571.5000      0.0000    744.9231      7.9069     73.8584
  1572.0000      0.0000    733.8077      7.8512     74.4597
  1572.5000      0.0000    725.1395      7.7607     77.5491
  1573.0000      0.0000    714.4553      7.7266     87.2871
  1573.5000      0.0000    704.7822      7.7685    100.0045
  1574.0000      0.0000    701.4927      7.9130     99.9680
  1574.5000      0.0000    704.6564      8.0930     88.2005
  1575.0000      0.0000    716.4761      8.1162     85.6508
  1575.5000      0.0000    730.4372      8.0661     92.1908
  1576.0000      0.0000    733.6925      8.0364     94.1294
  1576.5000      0.0000    729.5677      8.0374     88.0787
  1577.0000      0.0000    728.1583      8.0224     84.8185
  1577.5000      0.0000    730.2242      7.9968     86.7581
  1578.0000      0.0000    727.8185      8.0291     83.1700
  1578.5000      0.0000    714.7893      8.0432     76.2170
  1579.0000      0.0000    702.5818      7.9772     74.4117
  1579.5000      0.0000    698.3873      7.7820     79.3180
  1580.0000      0.0000    698.1459      7.5182     87.8725
  1580.5000      0.0000    698.6825      7.2460     90.7055
  1581.0000      0.0000    699.0432      7.0001     83.5636
  1581.5000      0.0000    699.2203      6.8365     72.9141
  1582.0000      0.0000    699.3824      6.8138     68.4950
  1582.5000      0.0000    699.3066      6.9099     67.8931
  1583.0000      0.0000    699.1657      7.0257     65.4043
  1583.5000      0.0000    699.2606      7.2269     65.7858
  1584.0000      0.0000    699.4191      7.3883     71.9128
  1584.5000      0.0000    699.4351      7.4301     76.5308
  1585.0000      0.0000    699.3041      7.4676     76.1367
  1585.5000      0.0000    698.9667      7.4736     74.6982
  1586.0000      0.0000    696.8439      7.5068     75.2547
  1586.5000      0.0000    686.1956      7.6957     76.0270
  1587.0000      0.0000    664.9606      7.9035     75.1885
  1587.5000      0.0000    651.2592      7.9229     73.9101
  1588.0000      0.0000    653.1008      7.8525     73.7263
  1588.5000      0.0000    655.3215      7.8262     71.6467
  1589.0000      0.0000    659.5933      7.8138     68.3346
  1589.5000      0.0000    676.1697      7.8185     67.0106
  1590.0000      0.0000    687.2966      7.8471     72.3039
