~Version Information
VERS.                      2.0: CWLS Log ASCII Standard - VERSION 2.0
WRAP.                       NO: One line per depth step
~Well Information Block
STRT.FT               390.0000: 
STOP.FT              2770.2500: 
STEP.FT                 0.2500: 
NULL.                -999.2500: 
COMP.          Pioneer Natural Resources: COMPANY
WELL.              Lynch 43-30: WELL
FLD.           Purgatoire River: FIELD
LOC.           1438' FSL & 429' FEL: LOCATION
PROV.                 Colorado: PROVINCE
CNTY.               Las Animas: COUNTRY
SRVC.                Patterson: SERVICE COMPANY
DATE.          Wed Oct 27 08:06:51 2004: LOG DATE
UWI.           05 071 08170 00: UNIQUE WELL ID
~Curve Information Block
DEPT.FT            0 000 00 00: Depth
DIR.Ohm-m                     : IEL Induction Resistivity
SN.Ohm-m                      : IEL Short Normal
SP.mV                         : IEL Spontaneous Potential
GR.GAPI                       : Gamma Ray
~Parameter Information Block
~A  Depth       DIR          SN          SP          GR     
# ...
  1495.5000     33.5556     62.0123    159.1632     65.7020
  1495.7500     30.9686     62.0421    159.0376     62.9573
  1496.0000     29.1093     61.8899    158.9433     59.2993
  1496.2500     28.2685     61.5632    158.8512     57.4649
  1496.5000     28.5652     61.0928    158.7490     55.4709
  1496.7500     30.0273     60.4894    158.6442     54.2320
  1497.0000     32.4575     59.7019    158.5630     52.0100
  1497.2500     34.9785     58.6282    158.5413     50.4108
  1497.5000     35.8309     57.1877    158.6094     48.5797
  1497.7500     33.8262     55.3937    158.7744     48.2460
  1498.0000     30.0325     53.3400    159.0087     49.9218
  1498.2500     26.3839     51.0904    159.2506     52.9782
  1498.5000     23.8456     48.5800    159.4193     61.1682
  1498.7500     22.4891     45.6501    159.4393     69.1948
  1499.0000     22.0626     42.2138    159.2642     84.6121
  1499.2500     22.2049     38.4080    158.8922     96.2105
  1499.5000     22.4181     34.5894    158.3649    112.7193
  1499.7500     22.1379     31.1808    157.7534    121.1595
  1500.0000     21.0995     28.4859    157.1355    127.8368
  1500.2500     19.5826     26.5909    156.5754    128.4663
  1500.5000     18.0993     25.3838    156.1110    125.9049
  1500.7500     16.9856     24.6456    155.7519    123.4424
  1501.0000     16.3371     24.1476    155.4855    120.6637
  1501.2500     16.1239     23.7159    155.2885    120.0467
  1501.5000     16.2711     23.2618    155.1375    121.1581
  1501.7500     16.6686     22.7791    155.0158    122.9963
  1502.0000     17.1614     22.3070    154.9150    126.7018
  1502.2500     17.5699     21.8740    154.8319    129.3113
  1502.5000     17.7554     21.4708    154.7649    132.3304
  1502.7500     17.6760     21.0661    154.7103    133.0535
  1503.0000     17.3802     20.6352    154.6620    131.5754
  1503.2500     16.9565     20.1724    154.6130    129.1698
  1503.5000     16.4877     19.6903    154.5575    125.0408
  1503.7500     16.0337     19.2169    154.4933    123.0525
  1504.0000     15.6353     18.7862    154.4218    122.1056
  1504.2500     15.3186     18.4216    154.3465    122.5189
  1504.5000     15.0955     18.1252    154.2713    123.7972
  1504.7500     14.9611     17.8845    154.1987    124.9817
  1505.0000     14.8936     17.6884    154.1293    127.6156
  1505.2500     14.8592     17.5384    154.0634    129.9455
  1505.5000     14.8223     17.4483    154.0020    133.6934
  1505.7500     14.7614     17.4373    153.9469    135.9729
  1506.0000     14.6861     17.5250    153.8987    138.8459
  1506.2500     14.6401     17.7279    153.8548    140.4265
  1506.5000     14.6843     18.0539    153.8091    141.9025
  1506.7500     14.8708     18.4966    153.7535    141.6092
  1507.0000     15.2228     19.0312    153.6826    138.1435
  1507.2500     15.7282     19.6199    153.5967    134.0237
  1507.5000     16.3436     20.2308    153.5038    127.2664
  1507.7500     17.0052     20.8623    153.4176    123.7620
  1508.0000     17.6478     21.5525    153.3531    120.7669
  1508.2500     18.2257     22.3610    153.3210    119.8004
  1508.5000     18.7233     23.3209    153.3235    118.9554
  1508.7500     19.1472     24.3815    153.3530    118.6649
  1509.0000     19.5038     25.3819    153.3939    118.8382
  1509.2500     19.7773     26.0922    153.4274    119.3898
  1509.5000     19.9244     26.3136    153.4386    120.6706
  1509.7500     19.8913     25.9721    153.4234    121.7705
  1510.0000     19.6464     25.1387    153.3971    123.9869
  1510.2500     19.2076     23.9760    153.3996    125.9634
  1510.5000     18.6399     22.6728    153.4933    129.5873
  1510.7500     18.0281     21.4029    153.7482    132.1585
  1511.0000     17.4467     20.3020    154.2126    135.2891
  1511.2500     16.9464     19.4500    154.8792    136.1861
  1511.5000     16.5557     18.8689    155.6644    135.0966
  1511.7500     16.2882     18.5453    156.4167    133.0630
  1512.0000     16.1482     18.4580    156.9577    129.5916
  1512.2500     16.1354     18.5977    157.1407    128.0121
  1512.5000     16.2503     18.9756    156.8999    127.7069
  1512.7500     16.5011     19.6309    156.2686    128.7657
  1513.0000     16.9068     20.6301    155.3599    131.3964
  1513.2500     17.4925     22.0461    154.3224    133.3272
  1513.5000     18.2764     23.9142    153.2925    135.5680
  1513.7500     19.2532     26.1890    152.3624    135.9600
  1514.0000     20.3795     28.7209    151.5717    133.9460
  1514.2500     21.5742     31.2777    150.9185    130.7930
  1514.5000     22.7414     33.6211    150.3798    124.2577
  1514.7500     23.8036     35.6015    149.9294    119.7267
  1515.0000     24.7234     37.1966    149.5500    114.8711
  1515.2500     25.4980     38.4681    149.2362    114.0358
  1515.5000     26.1400     39.4836    148.9916    117.0315
  1515.7500     26.6619     40.2674    148.8225    121.2635
  1516.0000     27.0697     40.8039    148.7318    128.6829
  1516.2500     27.3637     41.0743    148.7142    132.8092
  1516.5000     27.5431     41.0941    148.7557    135.9991
  1516.7500     27.6142     40.9194    148.8364    136.0867
  1517.0000     27.5959     40.6251    148.9353    134.6296
  1517.2500     27.5232     40.2871    149.0343    133.7024
  1517.5000     27.4440     39.9843    149.1217    133.4899
  1517.7500     27.4113     39.8043    149.1929    134.1129
  1518.0000     27.4738     39.8301    149.2498    135.2919
  1518.2500     27.6688     40.1099    149.2989    135.5245
  1518.5000     28.0228     40.6370    149.3483    134.1381
  1518.7500     28.5572     41.3581    149.4048    131.8667
  1519.0000     29.2974     42.2084    149.4715    126.3682
  1519.2500     30.2715     43.1552    149.5478    121.2754
  1519.5000     31.4842     44.2285    149.6308    111.9858
  1519.7500     32.8729     45.5128    149.7178    105.5480
  1520.0000     34.2870     47.0856    149.8071     97.0933
  1520.2500     35.5422     48.9354    149.8989     92.5174
  1520.5000     36.5386     50.9197    149.9935     86.6070
  1520.7500     37.3304     52.8089    150.0914     82.8862
  1521.0000     38.0640     54.3890    150.1930     77.3858
  1521.2500     38.8451     55.5510    150.3000     73.8016
  1521.5000     39.6506     56.3109    150.4163     68.8264
  1521.7500     40.3418     56.7630    150.5480     66.1330
  1522.0000     40.7616     57.0143    150.7014     63.8200
  1522.2500     40.8464     57.1448    150.8810     63.7669
  1522.5000     40.6636     57.2015    151.0869     65.7595
  1522.7500     40.3549     57.2084    151.3139     67.7983
  1523.0000     40.0460     57.1750    151.5528     70.2513
  1523.2500     39.7915     57.0992    151.7928     70.7915
  1523.5000     39.5701     56.9734    152.0250     69.9346
  1523.7500     39.3233     56.7935    152.2449     68.7988
  1524.0000     39.0169     56.5673    152.4534     67.4792
  1524.2500     38.6844     56.3119    152.6544     67.3975
  1524.5000     38.4088     56.0504    152.8523     68.6353
  1524.7500     38.2571     55.8127    153.0481     69.9824
  1525.0000     38.2293     55.6409    153.2367     71.7751
  1525.2500     38.2660     55.5838    153.4066     72.4032
  1525.5000     38.3023     55.6799    153.5428     72.4855
  1525.7500     38.3170     55.9427    153.6313     72.2021
  1526.0000     38.3386     56.3613    153.6641     71.4404
  1526.2500     38.4126     56.9034    153.6409     70.5958
  1526.5000     38.5588     57.5115    153.5682     68.7681
  1526.7500     38.7514     58.1045    153.4555     67.4075
  1527.0000     38.9389     58.6083    153.3122     65.7860
  1527.2500     39.0912     59.0018    153.1478     65.2362
  1527.5000     39.2349     59.3316    152.9735     65.1333
  1527.7500     39.4417     59.6804    152.8050     65.2698
  1528.0000     39.7750     60.1191    152.6624     65.3570
  1528.2500     40.2347     60.6774    152.5658     65.2836
  1528.5000     40.7401     61.3378    152.5296     65.1258
  1528.7500     41.1666     62.0437    152.5575     65.0757
