~Version Information
VERS.                      2.0: CWLS Log ASCII Standard - VERSION 2.0
WRAP.                       NO: One line per depth step
~Well Information Block
STRT.FT                -7.5000: 
STOP.FT              2304.7500: 
STEP.FT                 0.2500: 
NULL.                -999.2500: 
COMP.          Pioneer Natural Resources: COMPANY
WELL.          Foothills 12-36: WELL
FLD.           Purgatorie River: FIELD
LOC.           2450' FNL & 201' FWL--: LOCATION
PROV.                       CO: PROVINCE
CNTY.               Las Animas: COUNTRY
SRVC.          Patterson Wireline: SERVICE COMPANY
DATE.          Tue Apr 26 11:10:08 2005: LOG DATE
UWI.           05 071 08339 00: UNIQUE WELL ID
~Curve Information Block
DEPT.FT            0 000 00 00: Depth
CCL.                          : Casing Collar Locator
TT3.usec                      : CBL 3' Travel Time
AMP3.mV                       : CBL 3' Amplitude
GR.GAPI                       : Gamma Ray
~Parameter Information Block
~A  Depth       CCL         TT3         AMP3         GR     
# ...
  2270.5000      0.0000    419.5500      3.6513     75.3943
  2270.7500      0.0000    419.5568      3.6606     75.9947
  2271.0000      0.0000    419.5495      3.6373     79.4615
  2271.2500      0.0000    419.5499      3.6084     84.5476
  2271.5000      0.0000    419.5888      3.6086     88.5168
  2271.7500      0.0000    419.6877      3.6473     89.0100
  2272.0000      0.0000    419.8450      3.7049     85.8778
  2272.2500      0.0000    420.0272      3.7469     81.0742
  2272.5000      0.0000    420.1749      3.7425     76.9560
  2272.7500      0.0000    420.2374      3.6812     74.9367
  2273.0000      0.0000    420.2133      3.5861     75.4763
  2273.2500      0.0000    420.1570      3.5070     78.3988
  2273.5000      0.0000    420.1471      3.4809     82.7089
  2273.7500      0.0000    420.2354      3.4950     86.7865
  2274.0000      0.0000    420.4075      3.5141     89.4643
  2274.2500      0.0000    420.5905      3.5416     90.6973
  2274.5000      0.0000    420.7100      3.6151     90.8532
  2274.7500      0.0000    420.7365      3.7354     89.8170
  2275.0000      0.0000    420.6820      3.8415     87.3492
  2275.2500      0.0000    420.5811      3.8774     84.0772
  2275.5000      0.0000    420.4902      3.8527     81.4764
  2275.7500      0.0000    420.4836      3.8067     80.6960
  2276.0000      0.0000    420.6220      3.7380     81.6295
  2276.2500      0.0000    420.9297      3.6167     83.1067
  2276.5000      0.0000    421.5136      3.4548     83.9697
  2276.7500      0.0000    423.0244      3.3055     84.1609
  2277.0000      0.0000    427.5327      3.1873     84.7212
  2277.2500      0.0000    439.2458      3.0561     86.4557
  2277.5000      0.0000    463.4808      2.8708     88.6992
  2277.7500      0.0000    502.7515      2.6572     89.5803
  2278.0000      0.0000    552.1950      2.5030     87.4388
  2278.2500      0.0000    599.9462      2.5029     82.1529
  2278.5000      0.0000    634.0639      2.7005     75.4166
  2278.7500      0.0000    649.6170      3.0661     69.6148
  2279.0000      0.0000    649.4630      3.5138     66.1574
  2279.2500      0.0000    640.6332      3.9403     64.8750
  2279.5000     -2.0000    630.4427      4.2624     64.9329
  2279.7500     -2.0000    622.9756      4.4380     65.8974
  2280.0000      0.0000    618.0897      4.4608     67.7580
  2280.2500      0.0000    614.9999      4.3470     70.3842
  2280.5000      0.0000    614.8296      4.1366     73.5349
  2280.7500      0.0000    616.8784      3.8923     77.2841
  2281.0000      0.0000    615.4384      3.6740     81.7659
  2281.2500      0.0000    604.6238      3.5127     86.1901
  2281.5000      0.0000    585.2059      3.4143     88.7210
  2281.7500      0.0000    564.3131      3.3741     88.0018
  2282.0000      0.0000    550.2312      3.3775     84.6959
  2282.2500      0.0000    548.9551      3.4000     81.1396
  2282.5000      0.0000    561.0598      3.4168     79.3886
  2282.7500      0.0000    577.4980      3.4177     79.6365
  2283.0000      0.0000    581.9308      3.4114     80.6385
  2283.2500      0.0000    563.2030      3.4165     81.5584
  2283.5000      0.0000    525.6464      3.4431     82.9082
  2283.7500      0.0000    485.0739      3.4801     85.5715
  2284.0000      0.0000    455.9795      3.5009     89.5589
  2284.2500      0.0000    444.5190      3.4818     94.0667
  2284.5000      0.0000    451.0936      3.4077     98.1743
  2284.7500      0.0000    474.3496      3.2695    100.9436
  2285.0000      0.0000    510.7581      3.0703    101.2707
  2285.2500      0.0000    553.1819      2.8323     98.3655
  2285.5000      0.0000    593.5839      2.5819     92.5013
  2285.7500      0.0000    627.9233      2.3309     84.9957
  2286.0000      0.0000    657.2725      2.0899     77.3338
  2286.2500      0.0000    684.3010      1.8965     70.3698
  2286.5000     -2.0000    709.5607      1.8080     64.2715
  2286.7500      2.0000    731.1146      1.8534     58.8678
  2287.0000     -2.0000    746.5660      2.0023     53.9568
  2287.2500     -2.0000    754.3282      2.1934     49.5838
  2287.5000      2.0000    753.2144      2.3894     46.2028
  2287.7500      2.0000    742.1597      2.5934     44.5196
  2288.0000     -2.0000    720.5895      2.8287     45.2684
  2288.2500     -2.0000    688.0506      3.1491     49.2755
  2288.5000     -2.0000    643.6247      3.7068     57.4448
  2288.7500      0.0000    587.4467      4.8064     70.1471
  2289.0000      0.0000    523.3071      6.8409     86.3845
  2289.2500      0.0000    458.7464     10.1581    103.7383
  2289.5000      0.0000    401.9326     14.9301    119.4468
  2289.7500      0.0000    357.9065     20.9888    131.8060
  2290.0000      0.0000    326.9020     27.6676    140.4940
  2290.2500      0.0000    305.7916     33.9601    145.4651
  2290.5000      0.0000    291.0248     39.0687    145.4884
  2290.7500      0.0000    280.4914     42.7544    137.8226
  2291.0000      0.0000    273.5039     45.1002    119.9739
  2291.2500      0.0000    269.9597     46.1699     92.7776
  2291.5000      0.0000    269.7570     46.0330     61.7771
  2291.7500      0.0000    272.6623     44.8865     34.5198
  2292.0000      0.0000    278.7243     42.9705     15.8688
  2292.2500      0.0000    289.4749     40.4740      5.9126
  2292.5000      0.0000    309.7943     37.6142      1.7655
  2292.7500      0.0000    348.3148     34.6867      0.4189
  2293.0000      0.0000    412.9881     31.8897      0.0773
  2293.2500      0.0000    502.4277     29.1684      0.0104
  2293.5000      0.0000    601.6243     26.3363   -999.2500
  2293.7500      0.0000    690.0090     23.3043   -999.2500
  2294.0000      0.0000    755.7611     20.1324   -999.2500
  2294.2500      0.0000    801.3549     16.9653   -999.2500
  2294.5000      0.0000    835.8054     13.9842   -999.2500
  2294.7500      0.0000    863.5948     11.3439   -999.2500
  2295.0000      0.0000    881.0567      9.1142   -999.2500
  2295.2500      0.0000    881.9317      7.3095   -999.2500
  2295.5000      0.0000    864.6019      5.9562   -999.2500
  2295.7500      2.0000    832.3904      5.0792   -999.2500
  2296.0000      2.0000    786.0836      4.6187   -999.2500
  2296.2500      0.0000    717.2057      4.3769   -999.2500
  2296.5000      0.0000    612.6377      4.0777   -999.2500
  2296.7500      0.0000    470.8687      3.5338   -999.2500
  2297.0000      0.0000    313.5713      2.7836   -999.2500
  2297.2500      0.0000    175.5407      2.0386   -999.2500
  2297.5000      0.0000     80.8042      1.4907   -999.2500
  2297.7500      0.0000     30.1131      1.1859   -999.2500
  2298.0000      0.0000      8.9846      1.0561   -999.2500
  2298.2500      0.0000      2.1276      1.0134   -999.2500
  2298.5000      0.0000      0.3936      1.0025   -999.2500
  2298.7500      0.0000   -999.2500   -999.2500   -999.2500
  2299.0000      0.0000   -999.2500   -999.2500   -999.2500
  2299.2500      0.0000   -999.2500   -999.2500   -999.2500
  2299.5000      0.0000   -999.2500   -999.2500   -999.2500
  2299.7500      0.0000   -999.2500   -999.2500   -999.2500
  2300.0000      0.0000   -999.2500   -999.2500   -999.2500
  2300.2500      0.0000   -999.2500   -999.2500   -999.2500
  2300.5000      0.0000   -999.2500   -999.2500   -999.2500
  2300.7500      0.0000   -999.2500   -999.2500   -999.2500
  2301.0000      0.0000   -999.2500   -999.2500   -999.2500
  2301.2500      0.0000   -999.2500   -999.2500   -999.2500
  2301.5000      0.0000   -999.2500   -999.2500   -999.2500
  2301.7500      0.0000   -999.2500   -999.2500   -999.2500
  2302.0000      0.0000   -999.2500   -999.2500   -999.2500
  2302.2500      0.0000   -999.2500   -999.2500   -999.2500
  2302.5000      0.0000   -999.2500   -999.2500   -999.2500
  2302.7500      0.0000   -999.2500   -999.2500   -999.2500
  2303.0000      0.0000   -999.2500   -999.2500   -999.2500
  2303.2500      0.0000   -999.2500   -999.2500   -999.2500
  2303.5000      0.0000   -999.2500   -999.2500   -999.2500
  2303.7500      0.0000   -999.2500   -999.2500   -999.2500
