~Version Information
VERS.                      2.0: CWLS Log ASCII Standard - VERSION 2.0
WRAP.                       NO: One line per depth step
~Well Information Block
STRT.FT               840.0000: 
STOP.FT              2266.0000: 
STEP.FT                 0.1000: 
NULL.                -999.2500: 
COMP.          Pioneer Natural Resources: COMPANY
WELL.              Tonto 42-23: WELL
FLD.           Purgatoire River: FIELD
LOC.           2217' FNL & 423' FEL: LOCATION
PROV.                 Colorado: PROVINCE
CNTY.               Las Animas: COUNTRY
SRVC.                Patterson: SERVICE COMPANY
DATE.          Mon Apr 18 07:15:48 2005: LOG DATE
UWI.           05 071 08335 00: UNIQUE WELL ID
~Curve Information Block
DEPT.FT            0 000 00 00: Depth
DCAL.in                       : CDL Caliper
RHOB.g/cc                     : CDL Bulk Density
RHOC.g/cc                     : CDL Density Correction
DPOR.pu                       : CDL Density Porosity
GR.GAPI                       : Gamma Ray
NPOR.pu                       : Neutron Porosity
~Parameter Information Block
~A  Depth       DCAL        RHOB        RHOC        DPOR         GR         NPOR    
# ...
  1310.4000      8.2410      2.3604      0.0971     17.5487    118.7687     33.6578
  1310.5000      8.3505      2.3187      0.0741     20.0759    116.7329     33.9024
  1310.6000      8.3505      2.2859      0.0822     22.0663    111.8828     34.0998
  1310.7000      8.3505      2.2599      0.0631     23.6417    104.9099     34.2738
  1310.8000      8.3945      2.2385      0.0677     24.9390    100.0488     33.8469
  1310.9000      8.3945      2.2320      0.0759     25.3325    100.8531     33.0210
  1311.0000      8.3572      2.2477      0.1060     24.3812    103.9638     32.5202
  1311.1000      8.3572      2.2547      0.2247     23.9600    104.0143     32.8270
  1311.2000      8.3572      2.2091      0.1849     26.7203    101.1889     33.7389
  1311.3000      8.3971      2.1221      0.0830     31.9940     96.3656     34.0716
  1311.4000      8.3971      2.0346      0.1207     37.2970     92.4607     33.6455
  1311.5000      8.4938      1.9548      0.0851     42.1347     91.3727     33.2507
  1311.6000      8.4938      1.8768      0.0250     46.8631     88.2593     33.1046
  1311.7000      8.4938      1.8033     -0.0177     51.3169     81.1242     33.5136
  1311.8000      8.4541      1.7334     -0.0348     55.5532     73.3354     34.8489
  1311.9000      8.4541      1.6696     -0.0375     59.4168     64.9498     36.1071
  1312.0000      8.4308      1.6208     -0.0001     62.3732     56.0454     36.2514
  1312.1000      8.4308      1.5813      0.0631     64.7713     50.1894     35.8349
  1312.2000      8.4308      1.5381      0.0029     67.3865     47.5386     35.4876
  1312.3000      8.2731      1.4932      0.0143     70.1083     47.2211     35.3600
  1312.4000      8.2731      1.4476      0.0316     72.8745     48.5558     35.7146
  1312.5000      8.1678      1.3927     -0.0352     76.1974     48.9149     36.0809
  1312.6000      8.1678      1.3297     -0.1161     80.0179     46.9144     35.8088
  1312.7000      8.1678      1.2760     -0.0920     83.2725     43.0128     35.2885
  1312.8000      8.3239      1.2498     -0.0527     84.8628     40.3729     35.2631
  1312.9000      8.3239      1.2509      0.0050     84.7921     42.2468     35.6683
  1313.0000      8.4016      1.2660     -0.0130     83.8773     48.2950     35.7167
  1313.1000      8.4016      1.2864      0.0129     82.6423     55.3133     35.2735
  1313.2000      8.4016      1.3134     -0.0245     81.0058     58.7612     35.4247
  1313.3000      8.4157      1.3538      0.0122     78.5574     58.6180     36.6320
  1313.4000      8.4157      1.4142     -0.0150     74.8945     60.1980     37.5546
  1313.5000      8.4338      1.5082      0.0612     69.2026     65.8527     36.9255
  1313.6000      8.4338      1.6420      0.0937     61.0921     75.8982     35.1296
  1313.7000      8.4338      1.7936      0.1098     51.9060     88.8888     33.3922
  1313.8000      8.5149      1.9273      0.1766     43.8001     97.7079     32.6321
  1313.9000      8.5149      2.0415      0.1911     36.8807     98.6610     32.7121
  1314.0000      8.5381      2.1718      0.1959     28.9846     96.7537     32.9784
  1314.1000      8.5381      2.3201      0.2649     19.9911     96.2176     33.1154
  1314.2000      8.5381      2.4364      0.2133     12.9471     96.9009     32.7241
  1314.3000      8.3586      2.4897      0.1096      9.7142     99.4918     32.0441
  1314.4000      8.3586      2.4929      0.1197      9.5212    103.7260     31.4984
  1314.5000      8.1484      2.4641      0.0688     11.2673    106.3607     30.8275
  1314.6000      8.1484      2.4216      0.0194     13.8405    105.9405     30.1243
  1314.7000      8.1484      2.3908      0.0443     15.7079    106.1158     29.4490
  1314.8000      8.0223      2.3805      0.0099     16.3311    109.1924     28.2600
  1314.9000      8.0223      2.3825      0.0161     16.2147    112.3943     27.0784
  1315.0000      7.9936      2.3956      0.0103     15.4187    116.3119     27.1739
  1315.1000      7.9936      2.4272      0.0003     13.5047    122.7650     28.4986
  1315.2000      7.9936      2.4617      0.1282     11.4115    129.6144     29.9463
  1315.3000      8.0085      2.4746      0.0623     10.6312    132.7001     30.6179
  1315.4000      8.0085      2.4788      0.0518     10.3774    131.2000     30.4072
  1315.5000      8.0212      2.4914      0.0682      9.6119    128.5787     29.8551
  1315.6000      8.0212      2.4936      0.1093      9.4762    125.3053     29.3675
  1315.7000      8.0212      2.4687      0.0242     10.9901    123.1689     28.9441
  1315.8000      8.0267      2.4345      0.0235     13.0609    125.8038     28.5695
  1315.9000      8.0267      2.4197      0.0294     13.9589    130.2760     28.4417
  1316.0000      8.0154      2.4400     -0.0236     12.7279    133.6914     28.7858
  1316.1000      8.0154      2.4770      0.0830     10.4820    135.0065     28.8710
  1316.2000      8.0154      2.4957      0.0956      9.3504    132.6871     28.0899
  1316.3000      7.9739      2.5076      0.0580      8.6317    130.4081     26.9672
  1316.4000      7.9739      2.5388      0.1285      6.7383    131.7783     26.3497
  1316.5000      7.9395      2.5755      0.1608      4.5159    134.0828     26.9637
  1316.6000      7.9395      2.5946      0.1742      3.3572    135.0838     28.4032
  1316.7000      7.9395      2.5945      0.1621      3.3650    135.5058     29.5508
  1316.8000      7.9321      2.5900      0.1450      3.6350    134.0705     30.1440
  1316.9000      7.9321      2.5981      0.1160      3.1454    129.3099     30.1797
  1317.0000      7.9265      2.6218      0.1561      1.7099    123.1219     29.5739
  1317.1000      7.9265      2.6447      0.1443      0.3219    117.7733     28.4887
  1317.2000      7.9265      2.6424      0.1121      0.4631    111.9331     27.3085
  1317.3000      7.9299      2.6074      0.0860      2.5816    107.6704     26.4101
  1317.4000      7.9299      2.5715      0.0244      4.7565    109.9132     25.6351
  1317.5000      7.9842      2.5670      0.0437      5.0285    113.2392     25.0697
  1317.6000      7.9842      2.5759      0.1118      4.4879    108.4728     25.1942
  1317.7000      7.9842      2.5677      0.0581      4.9892     98.9655     25.4982
  1317.8000      7.9735      2.5515      0.0417      5.9703     92.1164     25.6128
  1317.9000      7.9735      2.5477      0.0118      6.1994     90.7259     25.8093
  1318.0000      7.9645      2.5638      0.0376      5.2238     94.0897     25.5118
  1318.1000      7.9645      2.5968      0.0992      3.2234     97.6217     23.9810
  1318.2000      7.9645      2.6304      0.0641      1.1878     97.1893     22.1225
  1318.3000      7.9462      2.6528      0.0603     -0.1718     92.3624     21.4968
  1318.4000      7.9462      2.6618      0.0583     -0.7172     86.3854     22.0284
  1318.5000      7.9180      2.6520      0.0468     -0.1209     84.7121     22.7710
  1318.6000      7.9180      2.6273      0.0537      1.3735     89.3904     23.5416
  1318.7000      7.9180      2.6086      0.0120      2.5111     95.4999     24.2607
  1318.8000      7.9446      2.6153      0.0215      2.1029     97.7232     24.6851
  1318.9000      7.9446      2.6440      0.0676      0.3625     96.0592     25.3067
  1319.0000      7.9456      2.6677      0.0944     -1.0731     92.9755     25.8460
  1319.1000      7.9456      2.6678      0.0084     -1.0778     91.9166     25.1381
  1319.2000      7.9456      2.6643      0.0085     -0.8688     92.5624     23.7433
  1319.3000      7.9351      2.6854      0.0090     -2.1451     92.6504     23.1954
  1319.4000      7.9351      2.7231      0.0738     -4.4332     94.5915     23.4101
  1319.5000      7.9307      2.7554      0.0813     -6.3852     97.0225     23.7773
  1319.6000      7.9307      2.7822      0.0926     -8.0118     94.8810     24.4884
  1319.7000      7.9307      2.8092      0.1165     -9.6479     91.8420     25.2113
  1319.8000      7.9302      2.8173      0.0833    -10.1366     92.7453     24.8303
  1319.9000      7.9302      2.7826      0.1016     -8.0365     96.7012     23.6219
