~Version Information
VERS.                      2.0: CWLS Log ASCII Standard - VERSION 2.0
WRAP.                       NO: One line per depth step
~Well Information Block
STRT.FT               675.0000: 
STOP.FT              2371.5000: 
STEP.FT                 0.1000: 
NULL.                -999.2500: 
COMP.          Pioneer Natural Resources: COMPANY
WELL.            Harrier 44-33: WELL
FLD.           Purgatoire River: FIELD
LOC.           456' FSL & 930' FEL: LOCATION
PROV.                 Colorado: PROVINCE
CNTY.               Las Animas: COUNTRY
SRVC.                Patterson: SERVICE COMPANY
DATE.          Mon Jun 20 10:36:59 2005: LOG DATE
UWI.           05 071 08398 00: UNIQUE WELL ID
~Curve Information Block
DEPT.FT            0 000 00 00: Depth
DCAL.in                       : CDL Caliper
RHOB.g/cc                     : CDL Bulk Density
RHOC.g/cc                     : CDL Density Correction
DPOR.pu                       : CDL Density Porosity
GR.GAPI                       : Gamma Ray
NPOR.pu                       : Neutron Porosity
~Parameter Information Block
~A  Depth       DCAL        RHOB        RHOC        DPOR         GR         NPOR    
# ...
  2239.8000      7.9403      2.5406      0.0947      6.6280     89.2854     25.8043
  2239.9000      7.9403      2.5248      0.0628      7.5900     95.2722     25.7582
  2240.0000      7.9414      2.5072      0.1318      8.6535    103.3768     25.6063
  2240.1000      7.9414      2.4825      0.0756     10.1519    109.4759     25.8149
  2240.2000      7.9414      2.4595      0.0061     11.5484    112.7294     26.3928
  2240.3000      7.9571      2.4492      0.0533     12.1723    113.4488     27.2320
  2240.4000      7.9571      2.4418      0.0367     12.6187    113.2395     27.9663
  2240.5000      8.0388      2.4248      0.0353     13.6459    116.0130     28.5646
  2240.6000      8.0388      2.3858      0.0518     16.0102    125.5769     29.4353
  2240.7000      8.0388      2.3222      0.0376     19.8683    136.3584     30.2804
  2240.8000      8.0719      2.2584      0.0159     23.7307    140.3324     30.0940
  2240.9000      8.0719      2.2086      0.0122     26.7498    138.7361     29.2616
  2241.0000      8.0757      2.1515      0.0204     30.2141    136.2990     29.1717
  2241.1000      8.0757      2.0667     -0.0343     35.3494    134.6181     29.6616
  2241.2000      8.0757      1.9680     -0.0035     41.3361    128.6841     29.9636
  2241.3000      8.0775      1.8869      0.0058     46.2473    114.9831     30.1392
  2241.4000      8.0775      1.8386      0.0449     49.1738    101.6269     30.4029
  2241.5000      8.1220      1.8132      0.0580     50.7181     97.3065     30.8587
  2241.6000      8.1220      1.7984      0.0420     51.6092     97.5850     31.3582
  2241.7000      8.1220      1.7939      0.1034     51.8867     93.3309     31.5063
  2241.8000      8.2723      1.7986      0.1925     51.6001     82.2486     31.5442
  2241.9000      8.2723      1.8121      0.1996     50.7825     70.3152     31.8208
  2242.0000      8.2889      1.8409      0.2025     49.0393     64.8289     32.3356
  2242.1000      8.2889      1.8764      0.2300     46.8858     67.8613     32.8229
  2242.2000      8.2889      1.8954      0.2351     45.7305     73.1891     32.7909
  2242.3000      8.1113      1.8971      0.1975     45.6286     73.8445     32.3914
  2242.4000      8.1113      1.9105      0.1400     44.8184     69.9967     32.2021
  2242.5000      8.2666      1.9572      0.1173     41.9862     67.8969     32.2307
  2242.6000      8.2666      2.0206      0.1361     38.1447     73.1022     32.4829
  2242.7000      8.2666      2.0622      0.1559     35.6249     81.9969     33.0316
  2242.8000      8.3094      2.0676      0.1208     35.2940     85.9272     33.6126
  2242.9000      8.3094      2.0576      0.0837     35.9036     85.5838     33.9424
  2243.0000      8.1375      2.0550      0.0788     36.0619     87.1255     33.9006
  2243.1000      8.1375      2.0686      0.0732     35.2360     90.1285     33.5388
  2243.2000      8.1375      2.0971      0.0836     33.5105     90.9785     32.9439
  2243.3000      8.0965      2.1287      0.0887     31.5956     91.4275     32.2183
  2243.4000      8.0965      2.1443      0.1019     30.6496     93.6523     31.5916
  2243.5000      8.0750      2.1263      0.0910     31.7375     95.8659     31.2791
  2243.6000      8.0750      2.0627      0.0905     35.5951     94.2465     31.2148
  2243.7000      8.0750      1.9524      0.0608     42.2791     88.5233     31.0088
  2243.8000      8.1215      1.8204      0.0108     50.2807     86.1702     30.5588
  2243.9000      8.1215      1.7059     -0.0575     57.2179     91.1908     30.1829
  2244.0000      8.1668      1.6285     -0.0347     61.9119     95.1406     30.0755
  2244.1000      8.1668      1.5758     -0.0615     65.1034     88.4342     30.4154
  2244.2000      8.1668      1.5261     -0.0578     68.1164     75.5250     31.4261
  2244.3000      8.3871      1.4765     -0.0021     71.1231     68.1043     32.9306
  2244.4000      8.3871      1.4419      0.0571     73.2166     67.0282     34.2416
  2244.5000      8.3982      1.4240      0.1306     74.3013     65.5241     34.7036
  2244.6000      8.3982      1.4119      0.0980     75.0343     61.0896     34.3390
  2244.7000      8.3982      1.4160      0.0601     74.7895     56.5489     33.7666
  2244.8000      8.2819      1.4631      0.0924     71.9324     54.4246     33.4664
  2244.9000      8.2819      1.5564      0.1390     66.2775     52.4739     33.0027
  2245.0000      8.0874      1.6592      0.2115     60.0489     49.2431     32.3304
  2245.1000      8.0874      1.7385      0.1710     55.2442     47.0564     32.0252
  2245.2000      8.0874      1.8041      0.1945     51.2669     47.9483     32.2414
  2245.3000      8.1839      1.8808      0.2208     46.6179     52.4023     32.9755
  2245.4000      8.1839      1.9784      0.2216     40.7023     58.4991     33.8115
  2245.5000      8.4338      2.0899      0.2187     33.9471     63.8882     33.8176
  2245.6000      8.4338      2.1919      0.2071     27.7616     66.6370     32.7399
  2245.7000      8.4338      2.2657      0.1536     23.2904     65.3315     31.7022
  2245.8000      8.3911      2.3187      0.1649     20.0816     64.4198     31.5720
  2245.9000      8.3911      2.3633      0.1860     17.3759     68.5613     31.9607
  2246.0000      8.0770      2.3982      0.1546     15.2585     74.8932     32.1030
  2246.1000      8.0770      2.4130      0.2155     14.3637     79.8348     31.7010
  2246.2000      8.0770      2.4062      0.0934     14.7732     85.5261     31.2023
  2246.3000      7.9778      2.3964      0.1382     15.3723     91.3910     31.0708
  2246.4000      7.9778      2.3940      0.1051     15.5142     93.6960     31.3627
  2246.5000      7.9653      2.3998      0.0996     15.1617     94.7457     32.0414
  2246.6000      7.9653      2.4162      0.1302     14.1715     98.3586     32.6005
  2246.7000      7.9653      2.4393      0.1199     12.7720    101.4553     32.3372
  2246.8000      7.9706      2.4618      0.0974     11.4040    103.2800     31.3661
  2246.9000      7.9706      2.4846      0.1634     10.0265    105.2965     30.0286
  2247.0000      7.9992      2.5082      0.1918      8.5950    104.3870     28.4107
  2247.1000      7.9992      2.5236      0.1770      7.6578    100.5589     27.5776
  2247.2000      7.9992      2.5178      0.2018      8.0146     97.2787     28.4181
  2247.3000      7.9427      2.4908      0.0928      9.6477     95.2366     29.3276
  2247.4000      7.9427      2.4627      0.1017     11.3541     92.7944     28.3565
  2247.5000      7.9303      2.4446      0.0799     12.4469     90.9858     26.4670
  2247.6000      7.9303      2.4294      0.1501     13.3707     92.2332     25.6087
  2247.7000      7.9303      2.4165      0.0671     14.1485     93.2468     25.7503
  2247.8000      7.9988      2.4229      0.0520     13.7632     92.0021     25.8863
  2247.9000      7.9988      2.4523      0.0701     11.9810     91.3299     26.0503
  2248.0000      7.9951      2.4832      0.1091     10.1075     92.8636     26.9423
  2248.1000      7.9951      2.5004      0.1404      9.0672     97.2892     28.1042
  2248.2000      7.9951      2.5116      0.1391      8.3907    102.7526     28.3288
  2248.3000      7.9887      2.5262      0.1614      7.5051    103.3223     27.7699
  2248.4000      7.9887      2.5411      0.1349      6.6030     99.1498     27.5244
  2248.5000      7.9174      2.5462      0.1639      6.2911     99.5435     28.1897
  2248.6000      7.9174      2.5365      0.1034      6.8759    105.4416     29.2197
  2248.7000      7.9174      2.5193      0.0757      7.9210    106.6599     29.6535
  2248.8000      7.8854      2.4998      0.0864      9.1012    101.2622     29.6950
  2248.9000      7.8854      2.4868      0.0169      9.8936     95.2040     29.8554
  2249.0000      7.9312      2.4919      0.0456      9.5812     91.9104     29.5509
  2249.1000      7.9312      2.4991      0.0964      9.1429     93.1677     28.3873
  2249.2000      7.9312      2.4868      0.0793      9.8881     96.5102     27.2692
  2249.3000      7.9459      2.4695      0.0309     10.9404     95.3960     26.7760
