~Version Information
VERS.                      2.0: CWLS Log ASCII Standard - VERSION 2.0
WRAP.                       NO: One line per depth step
~Well Information Block
STRT.FT               433.5000: 
STOP.FT              1880.2500: 
STEP.FT                 0.2500: 
NULL.                -999.2500: 
COMP.          Pioneer Natural Resources: COMPANY
WELL.           Buckhorn 12-21: WELL
FLD.           Purgatorie River: FIELD
LOC.           2450' FNL & 608' FWL--: LOCATION
PROV.                       CO: PROVINCE
CNTY.               Las Animas: COUNTRY
SRVC.                         : SERVICE COMPANY
DATE.          Fri Dec 03 14:13:08 2004: LOG DATE
UWI.          005 071 08129 : UNIQUE WELL ID
~Curve Information Block
DEPT.FT            0 000 00 00: Depth
NPOR.pu                       : Neutron Porosity
CCL.                          : Casing Collar Locator
TT3.usec                      : CBL 3' Travel Time
AMP3.mV                       : CBL 3' Amplitude
GR.GAPI                       : Gamma Ray
~Parameter Information Block
~A  Depth       NPOR        CCL         TT3         AMP3         GR     
# ...
   629.5000     28.5539      0.0000    307.0969     25.2451    114.3100
   629.7500     28.7159      0.0000    304.5420     25.6215    112.6262
   630.0000     28.7623      0.0000    299.7094     26.2028    108.2374
   630.2500     28.6678      0.0000    292.6601     27.1349    102.8159
   630.5000     28.5357      0.0000    284.6244     28.5486     98.0952
   630.7500     28.4796      0.0000    277.4164     30.4645     94.7765
   631.0000     28.5114      0.0000    272.2762     32.7430     92.6537
   631.2500     28.5569      0.0000    269.2980     35.1132     91.3209
   631.5000     28.5306      0.0000    267.8301     37.2749     90.5193
   631.7500     28.3794      0.0000    267.1610     39.0242     90.2068
   632.0000     28.1031      0.0000    266.8461     40.3382     90.5100
   632.2500     27.7629      0.0000    266.6707     41.3904     91.2683
   632.5000     27.4495      0.0000    266.5289     42.4858     91.4887
   632.7500     27.2290      0.0000    266.3693     43.9110     89.7714
   633.0000     27.1299      0.0000    266.1883     45.7615     85.8023
   633.2500     27.1587      0.0000    266.0148     47.8670     81.0492
   633.5000     27.2960      0.0000    265.8752     49.8722     77.3279
   633.7500     27.4661      0.0000    265.7738     51.3931     74.9669
   634.0000     27.5185      0.0000    265.7023     52.1350     73.0940
   634.2500     27.2743      0.0000    265.6595     51.9607     71.3614
   634.5000     26.6557      0.0000    265.6617     50.9459     70.3659
   634.7500     25.7996      0.0000    265.7293     49.3697     70.3260
   635.0000     24.9988      0.0000    265.8595     47.5829     70.2823
   635.2500     24.4906      0.0000    266.0140     45.8578     69.0403
   635.5000     24.3124      0.0000    266.1414     44.3509     66.4395
   635.7500     24.3602      0.0000    266.2115     43.1385     63.4638
   636.0000     24.5594      0.0000    266.2294     42.2155     61.3815
   636.2500     24.9685      0.0000    266.2262     41.4793     60.8035
   636.5000     25.7103      0.0000    266.2386     40.7868     61.2253
   636.7500     26.8115      0.0000    266.2835     40.0678     61.2921
   637.0000     28.1429      0.0000    266.3416     39.4050     59.6640
   637.2500     29.5037      0.0000    266.3664     39.0263     55.9725
   637.5000     30.7265      0.0000    266.3182     39.1898     51.2473
   637.7500     31.7206      0.0000    266.1938     40.0096     47.3935
   638.0000     32.4820      0.0000    266.0288     41.3535     45.9614
   638.2500     33.0810      0.0000    265.8720     42.9235     47.0786
   638.5000     33.6206      0.0000    265.7586     44.4370     49.3210
   638.7500     34.1847      0.0000    265.7039     45.7225     50.5882
   639.0000     34.7920      0.0000    265.7103     46.6811     49.4590
   639.2500     35.3667      0.0000    265.7634     47.2541     46.0600
   639.5000     35.7604      0.0000    265.8219     47.4920     41.6602
   639.7500     35.8584      0.0000    265.8305     47.6331     37.4452
   640.0000     35.7140      0.0000    265.7556     48.0569     33.8297
   640.2500     35.5589      0.0000    265.6064     49.1013     30.8361
   640.5000     35.6348      0.0000    265.4231     50.8547     28.6560
   640.7500     36.0054      0.0000    265.2490     53.0641     27.5492
   641.0000     36.5336      0.0000    265.1111     55.2631     27.3856
   641.2500     37.0003      0.0000    265.0158     57.0495     27.6219
   641.5000     37.2401      0.0000    264.9557     58.2801     27.7572
   641.7500     37.2291      0.0000    264.9215     59.0449     27.6455
   642.0000     37.0916      0.0000    264.9115     59.5189     27.4278
   642.2500     37.0098      0.0000    264.9328     59.8523     27.3347
   642.5000     37.0987      0.0000    264.9915     60.1426     27.5100
   642.7500     37.3497      0.0000    265.0769     60.4461     27.8167
   643.0000     37.6835      0.0000    265.1568     60.7915     27.8401
   643.2500     38.0503      0.0000    265.1954     61.1821     27.2317
   643.5000     38.4685      0.0000    265.1815     61.5873     26.0034
   643.7500     38.9556      0.0000    265.1371     61.9440     24.3633
   644.0000     39.4390      0.0000    265.0999     62.1741     22.4283
   644.2500     39.7726      0.0000    265.0974     62.2120     20.3088
   644.5000     39.8505      0.0000    265.1372     62.0311     18.3394
   644.7500     39.6937      0.0000    265.2139     61.6616     17.0168
   645.0000     39.4216      0.0000    265.3195     61.1795     16.7320
   645.2500     39.1353      0.0000    265.4437     60.6612     17.6583
   645.5000     38.8284      0.0000    265.5671     60.1510     19.8758
   645.7500     38.4267      0.0000    265.6609     59.6820     23.4868
   646.0000     37.9117      0.0000    265.6960     59.3149     28.4644
   646.2500     37.3477      0.0000    265.6605     59.1235     34.3691
   646.5000     36.7744      0.0000    265.5705     59.1340     40.4596
   646.7500     36.1561      0.0000    265.4720     59.2892     46.1937
   647.0000     35.4849      0.0000    265.4356     59.4545     51.4757
   647.2500     34.8763      0.0000    265.6297     59.4077     56.4110
   647.5000     34.4967      0.0000    266.4874     58.7979     60.9481
   647.7500     34.4127      0.0000    268.8616     57.1775     64.6792
   648.0000     34.5379      0.0000    273.7130     54.2841     66.9258
   648.2500     34.7219      0.0000    280.9717     50.4625     67.1780
   648.5000     34.8887      0.0000    288.4279     46.6753     65.4969
   648.7500     35.0940      0.0000    292.5752     43.7921     62.4317
   649.0000     35.4392      0.0000    291.4897     41.8885     58.6832
   649.2500     35.9242      0.0000    286.5951     40.4863     55.0688
   649.5000     36.4113      0.0000    281.0952     39.3229     52.6151
   649.7500     36.7500      0.0000    277.1936     38.5561     52.0807
   650.0000     36.9072      0.0000    275.1819     38.3434     53.1549
   650.2500     36.9559      0.0000    274.3848     38.5679     54.5191
   650.5000     36.9785     -2.0000    274.1838     38.9809     55.0001
   650.7500     37.0150      0.0000    274.2742     39.5340     54.4752
   651.0000     37.0856      0.0000    274.4350     40.5957     53.5627
   651.2500     37.2220      0.0000    274.3087     42.7502     52.7936
   651.5000     37.4582      0.0000    273.4833     46.1526     52.5058
   651.7500     37.7869      0.0000    271.8585     50.1354     53.3774
   652.0000     38.1335      0.0000    269.8303     53.7296     56.2775
   652.2500     38.3906      0.0000    268.0110     56.4903     61.1533
   652.5000     38.4956      0.0000    266.7772     58.5804     66.5746
   652.7500     38.4649      0.0000    266.1173     60.2521     71.0217
   653.0000     38.3395      0.0000    265.8107     61.5665     74.3126
   653.2500     38.1282      0.0000    265.6510     62.4959     77.2681
   653.5000     37.8426      0.0000    265.5376     63.0432     80.4442
   653.7500     37.5511      0.0000    265.4544     63.2610     83.7959
   654.0000     37.3351      0.0000    265.4135     63.2484     87.0936
   654.2500     37.1970      0.0000    265.4142     63.1364     89.9587
   654.5000     37.0641      0.0000    265.4404     63.0301     91.7641
   654.7500     36.8787      0.0000    265.4729     62.9713     92.1762
   655.0000     36.6341      0.0000    265.4941     62.9538     91.7481
   655.2500     36.3427      0.0000    265.4899     62.9678     91.4601
   655.5000     36.0463      0.0000    265.4580     63.0205     91.6971
   655.7500     35.8597      0.0000    265.4127     63.1222     92.0665
   656.0000     35.9181      0.0000    265.3738     63.2457     92.1433
   656.2500     36.2462      0.0000    265.3529     63.2889     91.9144
   656.5000     36.7171      0.0000    265.3523     63.0939     91.4765
   656.7500     37.1435      0.0000    265.3721     62.5529     90.8692
   657.0000     37.3889      0.0000    265.4111     61.7183     90.4892
   657.2500     37.4162      0.0000    265.4609     60.7832     91.1843
