~Version Information
VERS.                      2.0: CWLS Log ASCII Standard - VERSION 2.0
WRAP.                       NO: One line per depth step
~Well Information Block
STRT.FT               998.8000: 
STOP.FT              2235.5000: 
STEP.FT                 0.1000: 
NULL.                -999.2500: 
COMP.          Petrogulf Corporation: COMPANY
WELL.          Latiluppe 8-13R: WELL
FLD.           Purgatorie River: FIELD
LOC.           1495' FSL & 946' FWL: LOCATION
CNTY.               Las Animas: COUNTY
SRVC.                         : SERVICE COMPANY
DATE.          Wed Apr 21 10:46:16 2004: LOG DATE
UWI.           05 071 08035 00: UNIQUE WELL ID
STAT.                 Colorado: STATE
~Curve Information Block
DEPT.FT            0 000 00 00: Depth
DCAL.in                       : CDL Caliper
RHOB.g/cc                     : CDL Bulk Density
RHOC.g/cc                     : CDL Density Correction
DPOR.pu                       : CDL Density Porosity
NPOR.pu                       : Neutron Porosity
GR.GAPI                       : Gamma Ray
~Parameter Information Block
~A  Depth       DCAL        RHOB        RHOC        DPOR        NPOR         GR     
# ...
  1488.4000      7.7772      2.5444      0.1132      6.3986     25.5036    153.3199
  1488.5000      7.7784      2.5425      0.0902      6.5174     26.3638    151.9495
  1488.6000      7.7784      2.5288      0.0647      7.3464     26.4433    152.5092
  1488.7000      7.7784      2.4906      0.0946      9.6601     25.8244    150.6108
  1488.8000      7.7747      2.4157      0.0473     14.1994     25.2062    146.4589
  1488.9000      7.7747      2.3285     -0.0202     19.4868     24.8521    143.2493
  1489.0000      7.7740      2.2741     -0.0442     22.7811     24.6533    141.7519
  1489.1000      7.7740      2.2684     -0.0464     23.1271     24.4295    140.5258
  1489.2000      7.7740      2.3001     -0.0018     21.2077     24.1294    137.6189
  1489.3000      7.7768      2.3557      0.0223     17.8356     23.8046    135.8909
  1489.4000      7.7768      2.4095      0.1299     14.5732     23.4808    136.8788
  1489.5000      7.7755      2.4374      0.1370     12.8876     23.1283    136.6152
  1489.6000      7.7755      2.4612      0.1261     11.4439     22.7034    134.1332
  1489.7000      7.7755      2.5148      0.1874      8.1968     22.4699    130.8871
  1489.8000      7.7764      2.5807      0.3208      4.1983     22.8288    126.7226
  1489.9000      7.7764      2.6208      0.2560      1.7678     23.8093    123.2465
  1490.0000      7.7757      2.6317      0.1912      1.1075     25.0483    122.1890
  1490.1000      7.7757      2.6290      0.0711      1.2730     26.0603    123.6775
  1490.2000      7.7757      2.6206      0.0350      1.7795     26.5553    125.0233
  1490.3000      7.7744      2.6113      0.0012      2.3458     26.7683    123.3000
  1490.4000      7.7744      2.6052      0.0011      2.7180     27.1830    120.0472
  1490.5000      7.7786      2.6033     -0.0368      2.8307     27.5291    118.7828
  1490.6000      7.7786      2.5997     -0.0199      3.0512     27.2302    120.8759
  1490.7000      7.7786      2.5817      0.0258      4.1395     26.4948    124.1435
  1490.8000      7.7755      2.5469      0.0116      6.2482     25.9199    124.4034
  1490.9000      7.7755      2.5117      0.0060      8.3791     25.7516    122.4325
  1491.0000      7.7794      2.4924     -0.0080      9.5533     25.7169    125.5996
  1491.1000      7.7794      2.4886      0.0049      9.7803     25.4139    134.7811
  1491.2000      7.7794      2.4901      0.0507      9.6926     24.9119    140.2379
  1491.3000      7.7814      2.4924      0.0323      9.5533     24.4346    136.4090
  1491.4000      7.7814      2.4992      0.0703      9.1385     23.9761    126.6137
  1491.5000      7.7852      2.5107      0.1020      8.4410     23.7177    117.2560
  1491.6000      7.7852      2.5229      0.1147      7.7037     23.6070    113.7947
  1491.7000      7.7852      2.5320      0.1551      7.1511     23.5178    116.1424
  1491.8000      7.7760      2.5364      0.1244      6.8828     23.5386    122.2182
  1491.9000      7.7760      2.5355      0.1353      6.9400     23.6159    130.7152
  1492.0000      7.7772      2.5286      0.1317      7.3597     23.6445    133.4106
  1492.1000      7.7772      2.5268      0.0947      7.4685     23.4435    124.7105
  1492.2000      7.7772      2.5461      0.0910      6.2949     23.1046    112.0845
  1492.3000      7.7781      2.5811      0.1178      4.1764     22.9997    102.9196
  1492.4000      7.7781      2.6047      0.1602      2.7471     23.0021     98.3731
  1492.5000      7.7780      2.5986      0.1200      3.1144     22.5847     96.7641
  1492.6000      7.7780      2.5805      0.0941      4.2127     21.6222     94.3060
  1492.7000      7.7780      2.5889      0.0485      3.7044     20.7914     87.4195
  1492.8000      7.7805      2.6317      0.1386      1.1115     20.8608     75.9605
  1492.9000      7.7805      2.6762      0.1348     -1.5887     21.6726     63.2956
  1493.0000      7.7758      2.7025      0.0987     -3.1840     22.4322     53.9159
  1493.1000      7.7758      2.7211      0.0658     -4.3108     22.6561     50.7555
  1493.2000      7.7758      2.7359      0.0865     -5.2047     22.7120     51.9122
  1493.3000      7.7756      2.7346      0.0438     -5.1245     23.0707     53.0362
  1493.4000      7.7756      2.7175      0.0330     -4.0931     23.4859     53.0098
  1493.5000      7.7747      2.7039      0.0508     -3.2648     23.5706     51.1295
  1493.6000      7.7747      2.7064      0.0336     -3.4165     23.3639     47.7171
  1493.7000      7.7747      2.7136      0.0590     -3.8546     22.9887     47.6064
  1493.8000      7.7760      2.7077      0.0196     -3.4976     22.5155     50.4802
  1493.9000      7.7760      2.6901      0.0447     -2.4325     21.9795     50.3434
  1494.0000      7.7731      2.6690      0.0052     -1.1502     21.2663     46.1580
  1494.1000      7.7731      2.6491      0.0225      0.0543     20.3995     41.6343
  1494.2000      7.7731      2.6321      0.0164      1.0848     19.6655     38.8632
  1494.3000      7.7737      2.6191     -0.0108      1.8725     19.2314     38.5458
  1494.4000      7.7737      2.6113      0.0214      2.3472     18.9387     40.8182
  1494.5000      7.7763      2.6098     -0.0049      2.4373     18.6552     43.4238
  1494.6000      7.7763      2.6225     -0.0275      1.6688     18.7199     43.1260
  1494.7000      7.7763      2.6436      0.0468      0.3900     19.4050     41.0721
  1494.8000      7.7756      2.6440      0.0835      0.3644     20.2006     40.7536
  1494.9000      7.7756      2.6259     -0.0120      1.4613     20.4488     42.4042
  1495.0000      7.7726      2.6237      0.0451      1.5944     20.3496     44.8603
  1495.1000      7.7726      2.6352      0.0835      0.8947     20.7547     47.5204
  1495.2000      7.7726      2.6417      0.0320      0.5047     21.8945     49.5390
  1495.3000      7.7701      2.6472      0.0784      0.1708     22.9589     51.2406
  1495.4000      7.7701      2.6594      0.0189     -0.5698     23.3601     55.3416
  1495.5000      7.7718      2.6742      0.0769     -1.4690     23.6650     62.1450
  1495.6000      7.7718      2.6680      0.0948     -1.0908     24.2751     68.3273
  1495.7000      7.7718      2.6230      0.0946      1.6380     24.7991     74.3080
  1495.8000      7.7687      2.5642      0.0133      5.2023     25.1874     82.9795
  1495.9000      7.7687      2.5274      0.0593      7.4325     25.7478     91.2023
  1496.0000      7.7716      2.5078      0.0685      8.6154     26.3679     97.1066
  1496.1000      7.7716      2.4963     -0.0243      9.3154     26.4956    104.6028
  1496.2000      7.7716      2.5001      0.0599      9.0850     25.6781    111.7439
  1496.3000      7.7800      2.5045      0.0564      8.8160     24.2339    114.1706
  1496.4000      7.7800      2.4964      0.0546      9.3079     22.9160    114.1454
  1496.5000      7.8247      2.4883      0.0572      9.7970     21.9786    114.9580
  1496.6000      7.8247      2.4875      0.0800      9.8459     21.2852    117.8316
  1496.7000      7.8247      2.4824      0.1274     10.1587     20.9079    120.5382
  1496.8000      7.8329      2.4649      0.0900     11.2185     20.9282    119.7736
  1496.9000      7.8329      2.4503      0.0227     12.1053     21.1901    118.1301
  1497.0000      7.8337      2.4572      0.0364     11.6851     21.5736    118.5909
  1497.1000      7.8337      2.4744      0.1144     10.6427     22.0166    117.9104
  1497.2000      7.8337      2.4775      0.0598     10.4533     22.5039    114.8955
  1497.3000      7.8244      2.4698      0.0515     10.9184     23.2985    112.4636
  1497.4000      7.8244      2.4710      0.0550     10.8506     24.4710    112.8840
  1497.5000      7.8293      2.4872      0.0887      9.8653     25.3004    114.9634
  1497.6000      7.8293      2.5045      0.1299      8.8181     25.1356    116.0157
  1497.7000      7.8293      2.5061      0.1223      8.7224     24.3512    115.6575
  1497.8000      7.8394      2.4911      0.0921      9.6278     23.9426    116.8733
  1497.9000      7.8394      2.4738      0.0328     10.6785     24.3277    124.1671
