~Version Information
 VERS.                                  2.0 : CWLS LAS VERSION
 WRAP.                                   NO : WRAPING MODE
 SWARE .                 MController 2.5.0E : SOFTWARE VERSION
~Well Information
 WELL.                  McCullough 34-32 TR : WELL
 COMP.             Evergreen Operating Corp : COMPANY
 FLD.                      Purgatorie River : FIELD
 LOC.                SW/SE Sec 32 T32S R66W : LOCATION
 DATE.                           09/18/2004 : DATE(S) LOGGED
 SRVC.       Blanco Geological Services LLC : SERVICE COMPANY
 STAT.                                   CO : STATE
 CNTY.                            La Animas : COUNTY
 CTRY.                                  USA : COUNTRY
 API.                       05 071 08157-00 : API NUMBER
 STRT.FT                             521.00 : START DEPTH
 STOP.FT                            2000.00 : STOP DEPTH
 STEP.FT                               1.00 : DEPTH INCREMENT
 NULL.                                -9999 : NULL VALUE
~Curve information
 DEPTH.FT                                   :
 ROP.MIN/FT                                 :
 GAS.UNITS                                  :
~ASCII Log data
# ...
     1721.00        0.367          3.7 
     1722.00        0.400          4.2 
     1723.00        0.433          4.3 
     1724.00        0.200          4.2 
     1725.00        0.217          3.9 
     1726.00        0.267          3.8 
     1727.00        0.233          3.3 
     1728.00        0.233          2.6 
     1729.00        0.267          2.1 
     1730.00        0.200          1.6 
     1731.00        0.267          1.9 
     1732.00        0.233          1.8 
     1733.00        0.267          2.1 
     1734.00        0.267          3.6 
     1735.00        0.267          6.6 
     1736.00        4.267         39.5 
     1737.00        0.433          3.6 
     1738.00        0.300          3.8 
     1739.00        0.300          4.4 
     1740.00        0.367          3.7 
     1741.00        0.367          3.6 
     1742.00        0.367          3.6 
     1743.00        0.367          3.9 
     1744.00        0.467          2.2 
     1745.00        0.483          3.3 
     1746.00        0.400          3.3 
     1747.00        0.333          2.3 
     1748.00        0.333          2.9 
     1749.00        0.333          2.7 
     1750.00        0.300          3.2 
     1751.00        0.300          3.8 
     1752.00        0.333          5.2 
     1753.00        0.300          5.1 
     1754.00        0.300          4.8 
     1755.00        0.283          2.7 
     1756.00        0.300          2.6 
     1757.00        0.267          1.2 
     1758.00        0.300          1.8 
     1759.00        0.267          2.5 
     1760.00        0.267          3.4 
     1761.00        0.200          6.4 
     1762.00        0.233         11.8 
     1763.00        0.233         16.9 
     1764.00        0.233         26.6 
     1765.00        0.267         32.6 
     1766.00        2.950         36.0 
     1767.00        0.400          3.1 
     1768.00        0.367          3.6 
     1769.00        0.383          3.3 
     1770.00        0.300          3.1 
     1771.00        0.267          3.2 
     1772.00        0.333          2.9 
     1773.00        0.400          2.4 
     1774.00        0.400          2.7 
     1775.00        0.400          3.1 
     1776.00        0.233          3.1 
     1777.00        0.233          3.6 
     1778.00        0.267          3.2 
     1779.00        0.450          3.4 
     1780.00        0.267          3.5 
     1781.00        0.533          3.5 
     1782.00        0.400          3.6 
     1783.00        0.400          4.3 
     1784.00        0.333          3.0 
     1785.00        0.367          2.6 
     1786.00        0.267          1.6 
     1787.00        0.233          1.6 
     1788.00        0.233          1.8 
     1789.00        0.250          1.2 
     1790.00        0.300          2.0 
     1791.00        0.267          2.5 
     1792.00        0.267          3.3 
     1793.00        0.233          6.4 
     1794.00        0.233          8.2 
     1795.00        0.233         18.1 
     1796.00        3.650         56.1 
     1797.00        0.267          7.1 
     1798.00        0.433          5.0 
     1799.00        0.433          3.6 
     1800.00        0.417          4.7 
     1801.00        0.333          4.9 
     1802.00        0.400          3.8 
     1803.00        0.667          3.7 
     1804.00        0.367          4.0 
     1805.00        0.400          3.9 
     1806.00        0.333          3.3 
     1807.00        0.500          3.9 
     1808.00        0.267          3.3 
     1809.00        0.183          3.7 
     1810.00        0.200          3.7 
     1811.00        0.200          3.4 
     1812.00        0.200          4.4 
     1813.00        0.200          4.2 
     1814.00        0.267          2.8 
     1815.00        0.233          2.1 
     1816.00        0.233          2.1 
     1817.00        0.233          2.0 
     1818.00        0.200          1.5 
     1819.00        0.200          2.4 
     1820.00        0.200          2.2 
     1821.00        0.200          3.6 
     1822.00        0.200          5.8 
     1823.00        0.200          9.8 
     1824.00        0.200         16.0 
     1825.00        0.217         16.9 
     1826.00        2.967         37.9 
     1827.00        0.283          5.1 
     1828.00        0.467          4.0 
     1829.00        0.467          5.3 
     1830.00        0.333          6.1 
     1831.00        0.467          6.3 
     1832.00        0.400          5.8 
     1833.00        0.600          4.7 
     1834.00        0.367          3.2 
     1835.00        0.317          3.9 
     1836.00        0.400          3.6 
     1837.00        0.467          3.8 
     1838.00        0.500          3.5 
     1839.00        0.333          4.0 
     1840.00        0.300          4.0 
     1841.00        0.300          4.0 
     1842.00        0.300          4.1 
     1843.00        0.300          3.6 
     1844.00        0.267          4.0 
     1845.00        0.283          4.5 
     1846.00        0.300          5.5 
     1847.00        0.233          5.3 
     1848.00        0.333          4.8 
     1849.00        0.300          3.5 
     1850.00        0.300          2.5 
     1851.00        0.300          4.0 
     1852.00        0.300          5.6 
     1853.00        0.233          8.8 
     1854.00        0.167         14.0 
     1855.00        0.167         14.0 
     1856.00        2.950         47.7 
     1857.00        0.400          7.9 
     1858.00        0.433          5.3 
     1859.00        0.517          5.4 
     1860.00        0.467          4.9 
     1861.00        0.433          5.2 
     1862.00        0.467          4.8 
     1863.00        0.367          4.6 
     1864.00        0.533          4.6 
     1865.00        0.400          4.0 
     1866.00        0.417          4.4 
     1867.00        0.400          4.0 
     1868.00        0.400          4.5 
     1869.00        0.400          3.7 
     1870.00        0.433          4.5 
     1871.00        0.433          4.1 
     1872.00        0.400          4.1 
     1873.00        0.400          4.5 
     1874.00        0.383          4.4 
     1875.00        0.400          4.7 
     1876.00        0.400          4.9 
     1877.00        0.367          5.9 
     1878.00        0.400          4.4 
     1879.00        0.400          3.7 
     1880.00        0.567          3.5 
     1881.00        0.300          3.8 
     1882.00        0.167          5.0 
     1883.00        0.250          8.4 
     1884.00        0.167         11.1 
     1885.00        0.267         14.9 
     1886.00        3.650         44.6 
     1887.00        0.533          5.1 
     1888.00        0.400          5.0 
     1889.00        0.400          5.0 
     1890.00        0.367          5.2 
     1891.00        0.400          5.4 
     1892.00        0.300          4.8 
     1893.00        0.350          4.1 
     1894.00        0.333          4.3 
     1895.00        0.533          4.5 
     1896.00        0.533          5.1 
     1897.00        0.500          4.8 
     1898.00        0.500          4.5 
     1899.00        0.600         19.0 
     1900.00        0.650        132.8 
     1901.00        0.533        403.2 
     1902.00        0.300        478.7 
     1903.00        0.333       1388.2 
     1904.00        0.300       1745.0 
     1905.00        0.333       1861.6 
     1906.00        0.367       1920.2 
     1907.00        0.367       1897.3 
     1908.00        0.383       1713.7 
     1909.00        0.300       1260.2 
     1910.00        0.300       1180.4 
     1911.00        0.267       1171.3 
     1912.00        0.233       1235.6 
     1913.00        0.267       1394.0 
     1914.00        0.233       1631.8 
     1915.00        0.233       1947.9 
     1916.00        5.067       3580.2 
     1917.00        0.467       1327.6 
     1918.00        0.600       1279.1 
     1919.00        0.467       1151.4 
     1920.00        0.700       1111.0 
