~Version Information
VERS.                      2.0: CWLS Log ASCII Standard - VERSION 2.0
WRAP.                       NO: One line per depth step
~Well Information Block
STRT.FT               240.0000: 
STOP.FT              1453.0000: 
STEP.FT                 0.2500: 
NULL.                -999.2500: 
COMP.          Petrogulf Corporation: COMPANY
WELL.          Robinson 15-12R: WELL
FLD.           Purgatorie River: FIELD
LOC.           1752' FNL & 561' FWL: LOCATION
PROV.                 Colorado: PROVINCE
CNTY.               Las Animas: COUNTRY
SRVC.                Patterson: SERVICE COMPANY
DATE.          Tue Sep 13 15:11:42 2005: LOG DATE
UWI.                          : UNIQUE WELL ID
~Curve Information Block
DEPT.FT            0 000 00 00: Depth
SP.mV                         : DIL Spontaneous Potential
RILD.Ohm-m                    : DIL Deep Resistivity
RILM.Ohm-m                    : DIL Medium Resistivity
RLL3.Ohm-m                    : DIL Shallow Resistivity
GR.GAPI                       : Gamma Ray
~Parameter Information Block
~A  Depth        SP         RILD        RILM        RLL3         GR     
# ...
   324.0000   2000.0000      8.5810      8.2836   2000.0000    119.2139
   324.2500   2000.0000      8.6872      8.4940   2000.0000    122.2044
   324.5000   2000.0000      8.8833      8.7151   2000.0000    110.3195
   324.7500   2000.0000      9.1178      8.9319   2000.0000    117.2747
   325.0000   2000.0000      9.2215      9.3300   2000.0000    123.5138
   325.2500   2000.0000      9.6027      9.5657   2000.0000    133.6517
   325.5000   2000.0000     10.0879     10.4219   2000.0000    123.2787
   325.7500   2000.0000     10.4590     10.1798   2000.0000    119.0961
   326.0000   2000.0000     10.8414     10.6325   2000.0000    105.3925
   326.2500   2000.0000     11.2516     11.3135   2000.0000    106.5674
   326.5000   2000.0000     11.6787     11.8698   2000.0000    108.2819
   326.7500   2000.0000     12.5745     12.3675   2000.0000    111.5951
   327.0000   2000.0000     13.0665     13.0901   2000.0000    103.0810
   327.2500   2000.0000     13.8469     13.3775   2000.0000    109.0022
   327.5000   2000.0000     14.6204     14.2242   2000.0000    106.0449
   327.7500   2000.0000     15.8212     15.0824   2000.0000     99.5549
   328.0000   2000.0000     16.3983     16.6162   2000.0000     90.8962
   328.2500   2000.0000     17.3032     18.1672   2000.0000     74.0093
   328.5000   2000.0000     18.0579     19.5739   2000.0000     80.7323
   328.7500   2000.0000     18.2548     21.6113   2000.0000     74.9511
   329.0000   2000.0000     19.1915     22.4262   2000.0000     67.8530
   329.2500   2000.0000     19.8854     22.8927   2000.0000     62.8399
   329.5000   2000.0000     19.8482     23.6846   2000.0000     60.9705
   329.7500   2000.0000     21.1295     24.7522   2000.0000     59.3737
   330.0000   2000.0000     22.0635     25.5990   2000.0000     70.7879
   330.2500   2000.0000     23.3080     26.1215   2000.0000     76.4287
   330.5000   2000.0000     24.2002     24.8888   2000.0000     90.8609
   330.7500   2000.0000     24.1836     24.8224   2000.0000     94.8924
   331.0000   2000.0000     23.7576     25.0530   2000.0000     93.8725
   331.2500   2000.0000     24.0493     25.5230   2000.0000     86.3932
   331.5000   2000.0000     23.4306     25.0437   2000.0000     95.4415
   331.7500   2000.0000     23.4755     25.7740   2000.0000    102.2114
   332.0000   2000.0000     22.0054     25.4137   2000.0000     89.4499
   332.2500   2000.0000     22.2167     24.0326   2000.0000     96.4966
   332.5000   2000.0000     21.2670     22.1821   2000.0000    104.8681
   332.7500   2000.0000     20.3159     20.8146   2000.0000    100.8526
   333.0000   2000.0000     20.0812     20.4713   2000.0000     96.0970
   333.2500   2000.0000     19.9050     20.3089   2000.0000     94.1152
   333.5000   2000.0000     19.2959     19.0152   2000.0000     96.9739
   333.7500   2000.0000     18.6619     18.6170   2000.0000    109.4591
   334.0000   2000.0000     17.8779     17.9802   2000.0000    110.5564
   334.2500   2000.0000     17.4078     17.3973   2000.0000     98.7121
   334.5000   2000.0000     16.5450     16.9703   2000.0000    120.9107
   334.7500   2000.0000     15.4770     16.8744   2000.0000    110.0009
   335.0000   2000.0000     15.2183     16.0732   2000.0000    113.2238
   335.2500   2000.0000     14.4163     15.4244   2000.0000    109.5374
   335.5000   2000.0000     13.2826     14.3763   2000.0000    120.4343
   335.7500   2000.0000     12.6898     13.9022   2000.0000    119.6096
   336.0000   2000.0000     12.2912     12.9244   2000.0000    122.2115
   336.2500   2000.0000     11.7145     12.4116   2000.0000    116.2472
   336.5000   2000.0000     11.4917     11.7920   2000.0000    117.4080
   336.7500   2000.0000     10.8722     11.1235   2000.0000    109.9084
   337.0000   2000.0000     10.6379     10.4852   2000.0000    115.8726
   337.2500   2000.0000     10.2502      9.9143   2000.0000    108.2810
   337.5000   2000.0000     10.4228      9.4277   2000.0000    108.1552
   337.7500   2000.0000      9.7481      8.9483   2000.0000     96.7903
   338.0000   2000.0000      9.4141      8.5762   2000.0000    116.7616
   338.2500   2000.0000      9.5071      8.4637   2000.0000    116.7866
   338.5000   2000.0000      9.5340      8.3256   2000.0000    123.4399
   338.7500   2000.0000      9.4076      8.1789   2000.0000    104.4260
   339.0000   2000.0000      9.6102      8.1950   2000.0000    118.6449
   339.2500   2000.0000      9.8172      8.4031   2000.0000    124.8529
   339.5000   2000.0000     10.1057      8.4704   2000.0000    128.0032
   339.7500   2000.0000     10.5627      8.7336   2000.0000    133.5650
   340.0000   2000.0000     11.0556      9.2632   2000.0000    117.0912
   340.2500   2000.0000     11.9195      9.9564   2000.0000    113.4637
   340.5000   2000.0000     12.4908     11.1359   2000.0000     95.1518
   340.7500   2000.0000     13.3896     12.5310   2000.0000     74.6143
   341.0000   2000.0000     14.4395     14.8205   2000.0000     63.8950
   341.2500   2000.0000     15.6056     18.3398   2000.0000     41.6040
   341.5000   2000.0000     16.3271     19.0177   2000.0000     39.9935
   341.7500   2000.0000     18.3306     21.0990   2000.0000     39.5066
   342.0000   2000.0000     19.6465     23.3233   2000.0000     43.9695
   342.2500   2000.0000     20.8799     26.0966   2000.0000     36.1824
   342.5000   2000.0000     22.9142     30.7952   2000.0000     26.5417
   342.7500   2000.0000     25.9191     33.8032   2000.0000     24.5547
   343.0000   2000.0000     27.7284     37.0561   2000.0000     18.5529
   343.2500   2000.0000     29.4475     42.1255   2000.0000     27.6268
   343.5000   2000.0000     32.0521     41.4901   2000.0000     36.5100
   343.7500   2000.0000     31.3634     42.8031   2000.0000     52.6245
   344.0000   2000.0000     29.6191     40.8111   2000.0000     62.3634
   344.2500   2000.0000     29.5388     42.4137   2000.0000     65.4362
   344.5000   2000.0000     31.5988     39.8027   2000.0000     53.3129
   344.7500   2000.0000     31.9790     38.7138   2000.0000     51.2801
   345.0000   2000.0000     31.4108     40.5547   2000.0000     61.7617
   345.2500   2000.0000     28.9553     37.0265   2000.0000     69.6709
   345.5000   2000.0000     27.2659     33.9765   2000.0000    100.9545
   345.7500   2000.0000     26.8900     34.5132   2000.0000     94.7650
   346.0000   2000.0000     24.5254     35.0865   2000.0000     82.1022
   346.2500   2000.0000     24.9633     33.2422   2000.0000     90.7951
   346.5000   2000.0000     23.5991     31.0773   2000.0000     87.4855
   346.7500   2000.0000     23.0016     29.1089   2000.0000     88.6364
   347.0000   2000.0000     22.7733     27.2930   2000.0000    112.4491
   347.2500   2000.0000     22.5239     24.8399   2000.0000    122.0353
   347.5000   2000.0000     22.5699     23.6925   2000.0000    145.3819
   347.7500   2000.0000     21.9376     22.9373   2000.0000    136.8043
   348.0000   2000.0000     21.4028     21.5491   2000.0000    121.3475
   348.2500   2000.0000     21.5618     20.2747   2000.0000    126.3401
   348.5000   2000.0000     22.0255     19.9113   2000.0000    132.2715
   348.7500   2000.0000     21.0964     19.3955   2000.0000    124.4045
   349.0000   2000.0000     20.8945     19.3511   2000.0000    122.0340
   349.2500   2000.0000     20.5749     19.5197   2000.0000    122.3655
   349.5000   2000.0000     20.4789     19.2879   2000.0000    126.2917
   349.7500   2000.0000     19.9459     19.8212   2000.0000    111.8547
   350.0000   2000.0000     19.4168     19.1747   2000.0000     90.0853
   350.2500   2000.0000     19.7955     19.1314   2000.0000    100.4400
   350.5000   2000.0000     20.0309     19.1110   2000.0000    111.1803
   350.7500   2000.0000     20.3275     18.6331   2000.0000     99.7019
   351.0000   2000.0000     19.9824     18.8248   2000.0000    131.3663
   351.2500   2000.0000     20.2336     18.8840   2000.0000    143.0214
   351.5000   2000.0000     19.7645     19.1420   2000.0000    127.4532
   351.7500   2000.0000     19.7122     19.1879   2000.0000    116.6052
