~Version Information
VERS.                      2.0: CWLS Log ASCII Standard - VERSION 2.0
WRAP.                       NO: One line per depth step
~Well Information Block
STRT.FT               752.0000: 
STOP.FT              2474.2000: 
STEP.FT                 0.1000: 
NULL.                -999.2500: 
COMP.          Petrogulf Corporation: COMPANY
WELL.            Montoya 7-14V: WELL
FLD.           Purgatorie River: FIELD
LOC.           535' FSL & 491' FWL: LOCATION
CNTY.               Las Animas: COUNTY
SRVC.                         : SERVICE COMPANY
DATE.          Mon Aug 23 10:41:01 2004: LOG DATE
UWI.           05 071 08019 00: UNIQUE WELL ID
STAT.                 Colorado: STATE
~Curve Information Block
DEPT.FT            0 000 00 00: Depth
DCAL.in                       : CDL Caliper
RHOB.g/cc                     : CDL Bulk Density
RHOC.g/cc                     : CDL Density Correction
DPOR.pu                       : CDL Density Porosity
GR.GAPI                       : Gamma Ray
NPOR.pu                       : Neutron Porosity
~Parameter Information Block
~A  Depth       DCAL        RHOB        RHOC        DPOR         GR         NPOR    
# ...
  1097.6000      8.0683      2.4666      0.0151     11.1144     61.8373     15.2909
  1097.7000      8.0683      2.4831      0.0648     10.1128     56.0210     15.4105
  1097.8000      8.0691      2.4949      0.0154      9.3990     51.4060     15.7275
  1097.9000      8.0691      2.5034      0.0560      8.8874     51.2858     16.2225
  1098.0000      8.0703      2.5083      0.0430      8.5863     54.9242     16.4611
  1098.1000      8.0703      2.5049      0.0049      8.7931     57.9152     16.0548
  1098.2000      8.0703      2.4932      0.0339      9.5053     57.5951     15.4588
  1098.3000      8.0681      2.4806     -0.0099     10.2640     54.3243     15.1177
  1098.4000      8.0681      2.4747      0.0136     10.6255     51.2472     15.2385
  1098.5000      8.0664      2.4759      0.0281     10.5518     53.0963     15.8094
  1098.6000      8.0664      2.4888      0.0329      9.7702     60.3060     16.1877
  1098.7000      8.0664      2.5107      0.0748      8.4443     66.3795     16.0201
  1098.8000      8.0663      2.5243      0.0462      7.6183     66.7691     15.7641
  1098.9000      8.0663      2.5213      0.0606      7.8017     61.3991     15.7199
  1099.0000      8.0610      2.5072      0.0647      8.6531     54.6221     15.7386
  1099.1000      8.0610      2.4967      0.0359      9.2933     52.5037     15.4812
  1099.2000      8.0610      2.5003      0.0568      9.0729     54.3584     14.9717
  1099.3000      8.0585      2.5096      0.0500      8.5086     56.0651     14.5629
  1099.4000      8.0585      2.5115      0.0624      8.3912     57.4720     14.2048
  1099.5000      8.0565      2.5069      0.0412      8.6723     58.5950     13.8517
  1099.6000      8.0565      2.5035      0.0334      8.8777     57.4318     13.7124
  1099.7000      8.0565      2.5000      0.0436      9.0932     54.8582     13.7305
  1099.8000      8.0585      2.4975     -0.0075      9.2404     53.9289     13.8184
  1099.9000      8.0585      2.5064      0.0103      8.7042     54.4010     13.8969
  1100.0000      8.0542      2.5210      0.0532      7.8202     54.3458     13.9388
  1100.1000      8.0542      2.5287      0.0326      7.3494     52.5842     14.2546
  1100.2000      8.0542      2.5309      0.0394      7.2187     51.5345     14.8195
  1100.3000      8.0537      2.5311      0.0410      7.2052     55.1139     14.9941
  1100.4000      8.0537      2.5290      0.0396      7.3313     60.5610     14.8463
  1100.5000      8.0524      2.5257      0.0464      7.5325     61.6702     14.8539
  1100.6000      8.0524      2.5204      0.0260      7.8559     57.5170     14.9037
  1100.7000      8.0524      2.5146     -0.0015      8.2062     52.2157     14.9364
  1100.8000      8.0529      2.5102      0.0273      8.4699     52.1178     15.0849
  1100.9000      8.0529      2.5063      0.0034      8.7107     58.1101     15.0881
  1101.0000      8.0529      2.5091      0.0025      8.5382     61.0600     14.8606
  1101.1000      8.0529      2.5230      0.0432      7.6959     57.5364     15.1411
  1101.2000      8.0529      2.5393      0.0366      6.7107     54.7058     16.1258
  1101.3000      8.0524      2.5461      0.0493      6.2948     54.6136     16.7762
  1101.4000      8.0524      2.5395      0.0324      6.6952     53.7539     16.5854
  1101.5000      8.0540      2.5304     -0.0176      7.2471     52.0128     15.8897
  1101.6000      8.0540      2.5248      0.0405      7.5867     52.2010     14.8272
  1101.7000      8.0540      2.5171      0.0419      8.0576     56.9417     13.9867
  1101.8000      8.0530      2.5112      0.0082      8.4130     63.8050     14.1757
  1101.9000      8.0530      2.5109      0.0680      8.4330     66.3358     14.9277
  1102.0000      8.0543      2.5084      0.0576      8.5805     62.8129     15.3364
  1102.1000      8.0543      2.5047      0.0417      8.8076     56.3744     15.5365
  1102.2000      8.0543      2.5043      0.0536      8.8332     51.5386     15.4185
  1102.3000      8.0523      2.4992      0.0422      9.1378     51.8878     14.7670
  1102.4000      8.0523      2.4861      0.0284      9.9305     56.0144     14.3170
  1102.5000      8.0543      2.4758      0.0117     10.5581     59.4844     14.5185
  1102.6000      8.0543      2.4718      0.0146     10.7976     58.4103     14.9854
  1102.7000      8.0543      2.4677      0.0123     11.0475     54.0510     15.3471
  1102.8000      8.0526      2.4676     -0.0286     11.0557     51.7456     15.2121
  1102.9000      8.0526      2.4782      0.0424     10.4149     52.0805     14.5918
  1103.0000      8.0481      2.4879      0.0257      9.8233     53.0471     14.2764
  1103.1000      8.0481      2.4839      0.0329     10.0652     54.2747     14.4443
  1103.2000      8.0481      2.4690      0.0115     10.9670     55.6538     14.8564
  1103.3000      8.0483      2.4580      0.0184     11.6392     57.2750     15.4429
  1103.4000      8.0483      2.4617     -0.0073     11.4109     56.9305     15.8325
  1103.5000      8.0445      2.4754      0.0341     10.5816     54.6451     15.9772
  1103.6000      8.0445      2.4829      0.0619     10.1282     53.7665     16.2057
  1103.7000      8.0445      2.4765      0.0069     10.5172     54.2724     16.4810
  1103.8000      8.0348      2.4605      0.0284     11.4866     57.1995     16.6973
  1103.9000      8.0348      2.4437      0.0198     12.5030     63.5648     17.0803
  1104.0000      8.0369      2.4422      0.0112     12.5969     69.3634     17.5547
  1104.1000      8.0369      2.4591      0.0329     11.5703     71.7711     17.9437
  1104.2000      8.0369      2.4760      0.0572     10.5431     71.2292     18.1693
  1104.3000      8.0270      2.4843      0.0479     10.0438     69.0937     17.8492
  1104.4000      8.0270      2.4883      0.0273      9.7993     67.3366     16.7971
  1104.5000      8.0247      2.4829      0.0794     10.1256     66.7858     15.6630
  1104.6000      8.0247      2.4654      0.0445     11.1873     66.0281     15.1253
  1104.7000      8.0247      2.4526      0.0360     11.9656     62.9204     15.0940
  1104.8000      8.0256      2.4575      0.0388     11.6685     58.2463     14.9812
  1104.9000      8.0256      2.4705      0.0668     10.8816     55.4312     14.7249
  1105.0000      8.0258      2.4738      0.0283     10.6807     54.9472     14.8059
  1105.1000      8.0258      2.4655      0.0207     11.1844     54.0250     15.2689
  1105.2000      8.0258      2.4529      0.0440     11.9449     52.5128     15.7139
  1105.3000      8.0256      2.4385      0.0321     12.8208     52.6789     15.9581
  1105.4000      8.0256      2.4261     -0.0041     13.5689     55.5895     16.1109
  1105.5000      8.0240      2.4209      0.0430     13.8822     58.9153     16.2099
  1105.6000      8.0240      2.4304     -0.0020     13.3116     59.5167     15.9760
  1105.7000      8.0240      2.4589      0.0679     11.5838     58.5111     15.4730
  1105.8000      8.0206      2.4883      0.0999      9.7975     59.6226     15.4783
  1105.9000      8.0206      2.5017      0.1024      8.9871     62.8678     16.0285
  1106.0000      8.0025      2.5115      0.0734      8.3947     64.1345     16.2813
  1106.1000      8.0025      2.5314      0.1302      7.1907     61.3518     16.1738
  1106.2000      8.0025      2.5462      0.1507      6.2927     58.8467     16.0140
  1106.3000      7.9991      2.5373      0.1239      6.8318     62.1425     15.9972
  1106.4000      7.9991      2.5164      0.0579      8.0993     67.7352     15.9961
  1106.5000      7.9858      2.5070      0.0832      8.6660     68.2741     15.9002
  1106.6000      7.9858      2.5065      0.0943      8.6944     64.5323     16.0611
  1106.7000      7.9858      2.5010      0.0650      9.0275     61.7790     16.1626
  1106.8000      7.9817      2.4860      0.0817      9.9420     61.6952     15.7988
  1106.9000      7.9817      2.4636      0.0490     11.2962     61.0361     15.5519
  1107.0000      8.0132      2.4484      0.0118     12.2166     58.1442     15.6140
  1107.1000      8.0132      2.4557      0.0157     11.7746     56.3694     15.3199
