~Version Information
VERS.                      2.0: CWLS Log ASCII Standard - VERSION 2.0
WRAP.                       NO: One line per depth step
~Well Information Block
STRT.FT               420.0000: 
STOP.FT              1527.5000: 
STEP.FT                 0.1000: 
NULL.                -999.2500: 
COMP.          Evergreen Operating Corporation: COMPANY
WELL.              Chase 21-10: WELL
FLD.           Purgatoire River: FIELD
LOC.           1122' FNL & 1544' FWL: LOCATION
PROV.                       CO: PROVINCE
CNTY.               Las Animas: COUNTRY
SRVC.                         : SERVICE COMPANY
DATE.          Tue May 25 08:18:37 2004: LOG DATE
UWI.           05 071 08006 00: UNIQUE WELL ID
~Curve Information Block
DEPT.FT            0 000 00 00: Depth
DCAL.in                       : CDL Caliper
RHOB.g/cc                     : CDL Bulk Density
RHOC.g/cc                     : CDL Density Correction
DPOR.pu                       : CDL Density Porosity
GR.GAPI                       : Gamma Ray
NPOR.pu                       : Neutron Porosity
~Parameter Information Block
~A  Depth       DCAL        RHOB        RHOC        DPOR         GR         NPOR    
# ...
  1293.6000      7.8992      2.5417      0.1310      6.5631     90.0953     45.0705
  1293.7000      7.8992      2.5530      0.1636      5.8785     93.5885     44.6636
  1293.8000      7.9204      2.5260      0.1067      7.5168     95.2362     44.7265
  1293.9000      7.9204      2.5111      0.0415      8.4200     93.5369     45.3660
  1294.0000      7.8859      2.5377      0.1053      6.8058     87.8760     45.9578
  1294.1000      7.8859      2.5751      0.0940      4.5379     80.3857     45.9499
  1294.2000      7.8859      2.5811      0.1132      4.1728     77.9894     45.6492
  1294.3000      7.8735      2.5434      0.1672      6.4626     85.9369     45.6508
  1294.4000      7.8735      2.4905      0.0252      9.6658     95.2129     45.7846
  1294.5000      7.8897      2.4700      0.0387     10.9079     93.8142     45.6726
  1294.6000      7.8897      2.4882      0.0782      9.8068     84.8709     45.4700
  1294.7000      7.8897      2.5167      0.1032      8.0799     77.1619     45.4145
  1294.8000      7.8917      2.5327      0.1470      7.1119     73.9768     45.4244
  1294.9000      7.8917      2.5322      0.1031      7.1414     73.9093     45.3378
  1295.0000      7.8627      2.5334      0.0380      7.0647     73.0084     45.1558
  1295.1000      7.8627      2.5417      0.1943      6.5658     69.9536     44.9539
  1295.2000      7.8627      2.5359      0.1408      6.9148     68.2285     44.8824
  1295.3000      7.8429      2.5167      0.0399      8.0796     71.2621     44.9864
  1295.4000      7.8429      2.4975      0.1456      9.2397     78.9256     45.0516
  1295.5000      7.8683      2.4816      0.0152     10.2045     87.1987     44.9185
  1295.6000      7.8683      2.4839      0.0362     10.0639     88.4887     44.6429
  1295.7000      7.8683      2.5110      0.1187      8.4212     79.3294     44.4531
  1295.8000      7.8680      2.5436      0.0690      6.4455     69.1104     44.4659
  1295.9000      7.8680      2.5545      0.1233      5.7894     69.0926     44.5570
  1296.0000      7.8759      2.5329      0.0898      7.0947     76.0483     44.5659
  1296.1000      7.8759      2.5058      0.0364      8.7392     80.9275     44.5433
  1296.2000      7.8759      2.5093      0.1073      8.5289     82.1375     44.4790
  1296.3000      7.8647      2.5447      0.1500      6.3848     79.9598     44.3844
  1296.4000      7.8647      2.5821      0.2347      4.1170     76.0491     44.5635
  1296.5000      7.8093      2.5967      0.1412      3.2288     75.0034     44.9509
  1296.6000      7.8093      2.5954      0.1539      3.3095     78.4517     45.1261
  1296.7000      7.8093      2.6032      0.0984      2.8351     80.6069     45.0520
  1296.8000      7.8073      2.6234      0.1932      1.6122     75.0450     44.9756
  1296.9000      7.8073      2.6320      0.1533      1.0889     67.6611     44.7089
  1297.0000      7.7696      2.6231      0.1480      1.6307     67.2180     44.0844
  1297.1000      7.7696      2.6089      0.1034      2.4892     68.4445     43.6396
  1297.2000      7.7696      2.5943      0.1152      3.3746     63.9638     43.5604
  1297.3000      7.7554      2.5856      0.0572      3.9011     57.9765     43.3140
  1297.4000      7.7554      2.5913      0.0774      3.5562     56.5850     42.8032
  1297.5000      7.7563      2.6015      0.0585      2.9386     58.2792     42.3626
  1297.6000      7.7563      2.6027      0.0978      2.8662     61.0440     41.9536
  1297.7000      7.7563      2.5905      0.1085      3.6080     67.6896     41.5494
  1297.8000      7.8362      2.5747      0.0389      4.5609     79.0887     41.5595
  1297.9000      7.8362      2.5712      0.0118      4.7728     87.8678     42.0626
  1298.0000      7.8365      2.5740      0.0641      4.6063     87.7868     42.4850
  1298.1000      7.8365      2.5533      0.1204      5.8608     84.6305     42.4230
  1298.2000      7.8365      2.5042      0.0245      8.8384     85.5420     42.3242
  1298.3000      7.8511      2.4679      0.0024     11.0376     89.0883     42.7764
  1298.4000      7.8511      2.4739      0.0754     10.6751     89.5889     43.5754
  1298.5000      7.8224      2.5031      0.0745      8.9001     85.9788     44.0680
  1298.6000      7.8224      2.5170      0.1589      8.0603     83.7680     44.0532
  1298.7000      7.8224      2.5063      0.0320      8.7076     87.4287     43.9714
  1298.8000      7.8090      2.4963      0.1300      9.3149     92.5050     44.0915
  1298.9000      7.8090      2.4986      0.0500      9.1730     93.0168     44.1467
  1299.0000      7.8061      2.5062      0.1315      8.7181     93.2233     43.9544
  1299.1000      7.8061      2.5095      0.1673      8.5174     99.5748     43.7095
  1299.2000      7.8061      2.5048      0.1250      8.8020    106.3454     43.8107
  1299.3000      7.8307      2.4993      0.0917      9.1326    104.4629     44.4433
  1299.4000      7.8307      2.4938      0.1290      9.4671     96.2076     45.1981
  1299.5000      7.9001      2.4784      0.0502     10.4003     91.1774     45.6217
  1299.6000      7.9001      2.4564      0.0991     11.7354     94.7747     45.7629
  1299.7000      7.9001      2.4441      0.0640     12.4774    101.1504     45.8052
  1299.8000      7.9078      2.4589      0.0927     11.5804     99.6442     45.7669
  1299.9000      7.9078      2.4911      0.1574      9.6309     91.2621     45.8182
  1300.0000      7.8809      2.5065      0.1607      8.6983     84.6177     45.9450
  1300.1000      7.8809      2.5051      0.0602      8.7824     80.9958     45.6229
  1300.2000      7.8809      2.5108      0.2001      8.4352     78.6988     44.8098
  1300.3000      7.8861      2.5235      0.1471      7.6663     78.2863     44.0664
  1300.4000      7.8861      2.5476      0.1341      6.2085     78.9001     43.8017
  1300.5000      7.8695      2.5796      0.2168      4.2637     79.5721     43.8019
  1300.6000      7.8695      2.5867      0.2211      3.8337     83.5000     43.5266
  1300.7000      7.8695      2.5729      0.0861      4.6720     93.4522     43.0556
  1300.8000      7.8913      2.5773      0.1042      4.4085    105.3550     42.7921
  1300.9000      7.8913      2.5947      0.1932      3.3527    112.5932     42.9489
  1301.0000      7.7919      2.5995      0.0999      3.0605    111.0422     43.6457
  1301.1000      7.7919      2.5956      0.1896      3.2999    104.1907     44.4749
  1301.2000      7.7919      2.5917      0.1779      3.5332     99.6724     44.8520
  1301.3000      7.7776      2.5850      0.1083      3.9394     93.7336     44.6547
  1301.4000      7.7776      2.5679      0.1593      4.9772     81.2252     44.1552
  1301.5000      7.7816      2.5483      0.0675      6.1619     70.5588     43.7873
  1301.6000      7.7816      2.5461      0.0794      6.3000     67.7168     43.7598
  1301.7000      7.7816      2.5560      0.0885      5.6996     65.4321     43.9845
  1301.8000      7.7686      2.5608      0.0985      5.4064     58.0931     44.3353
  1301.9000      7.7686      2.5615      0.1459      5.3630     51.0266     44.4643
  1302.0000      7.7766      2.5549      0.1673      5.7655     47.2022     43.9947
  1302.1000      7.7766      2.5386      0.0360      6.7540     43.4116     43.2957
  1302.2000      7.7766      2.5284      0.0734      7.3726     38.1933     42.9729
  1302.3000      7.9156      2.5237      0.0460      7.6553     35.5916     42.9524
  1302.4000      7.9156      2.5095      0.0989      8.5140     39.0811     42.9365
  1302.5000      7.9597      2.4806      0.0192     10.2654     43.7044     42.7341
  1302.6000      7.9597      2.4503      0.0029     12.1037     43.6467     42.2260
  1302.7000      7.9597      2.4340      0.0714     13.0916     40.7772     41.6042
  1302.8000      7.9927      2.4423     -0.0228     12.5893     40.8330     41.1816
  1302.9000      7.9927      2.4715      0.0977     10.8187     46.6400     40.9956
  1303.0000      8.0001      2.4866      0.1012      9.9039     52.4161     40.6691
  1303.1000      8.0001      2.4725     -0.0281     10.7590     50.7539     40.1076
