~Version Information
VERS.                      2.0: CWLS Log ASCII Standard - VERSION 2.0
WRAP.                       NO: One line per depth step
~Well Information Block
STRT.FT                -7.2500: 
STOP.FT              2610.0000: 
STEP.FT                 0.2500: 
NULL.                -999.2500: 
COMP.          Pioneer Natural Resources: COMPANY
WELL.              Wagner 13-9: WELL
FLD.           Purgatorie River: FIELD
LOC.           1819' FSL & 1111' FWL--: LOCATION
PROV.                       CO: PROVINCE
CNTY.               Las Animas: COUNTRY
SRVC.          Patterson Wireline: SERVICE COMPANY
DATE.          Wed May 18 09:08:26 2005: LOG DATE
UWI.           05 071 08302 00: UNIQUE WELL ID
~Curve Information Block
DEPT.FT            0 000 00 00: Depth
CCL.                          : Casing Collar Locator
TT3.usec                      : CBL 3' Travel Time
AMP3.mV                       : CBL 3' Amplitude
GR.GAPI                       : Gamma Ray
~Parameter Information Block
~A  Depth       CCL         TT3         AMP3         GR     
# ...
  1031.2500      0.0000    833.6895      5.5688     94.7900
  1031.5000      0.0000    837.1694      5.7866     90.0441
  1031.7500      0.0000    840.0452      5.8296     85.5471
  1032.0000      0.0000    842.9561      5.6785     82.2275
  1032.2500      0.0000    845.5115      5.3955     81.4147
  1032.5000      0.0000    846.1279      5.0880     83.9591
  1032.7500      0.0000    843.5726      4.8511     89.1577
  1033.0000      0.0000    838.2204      4.7242     94.8856
  1033.2500      0.0000    831.7166      4.6850     98.9955
  1033.5000      0.0000    825.9669      4.6841    100.7195
  1033.7500     -2.0000    822.5300      4.6856    100.9010
  1034.0000      0.0000    822.3354      4.6792    100.9020
  1034.2500      0.0000    825.3184      4.6584    101.2216
  1034.5000      0.0000    830.1147      4.5966    101.5295
  1034.7500      0.0000    834.4194      4.4572    102.2157
  1035.0000      0.0000    836.4235      4.2315    105.0682
  1035.2500      0.0000    836.3029      3.9655    111.5745
  1035.5000      0.0000    835.8476      3.7477    120.9655
  1035.7500      0.0000    836.2556      3.6600    130.5081
  1036.0000      0.0000    836.6700      3.7259    137.1865
  1036.2500      0.0000    835.3254      3.8950    138.7928
  1036.5000      0.0000    831.7771      4.0823    134.6280
  1036.7500      0.0000    827.4346      4.2265    126.2880
  1037.0000      0.0000    823.9704      4.3168    117.4517
  1037.2500      0.0000    821.4608      4.3761    111.8635
  1037.5000      0.0000    818.0536      4.4315    111.0289
  1037.7500      0.0000    811.6735      4.5057    113.7741
  1038.0000      0.0000    802.7047      4.6285    117.9244
  1038.2500      0.0000    794.6688      4.8352    122.1094
  1038.5000      0.0000    791.3061      5.1412    125.8629
  1038.7500      0.0000    793.0754      5.5173    128.4878
  1039.0000      0.0000    797.4056      5.8971    128.7564
  1039.2500      0.0000    802.0988      6.2048    126.0346
  1039.5000      0.0000    807.2257      6.3802    121.2501
  1039.7500      0.0000    813.5508      6.3929    116.3801
  1040.0000      0.0000    820.3041      6.2477    113.1224
  1040.2500      0.0000    825.4293      5.9834    112.1917
  1040.5000      0.0000    827.6365      5.6623    113.4641
  1040.7500      0.0000    827.4343      5.3548    116.3052
  1041.0000      0.0000    826.4850      5.1214    119.8914
  1041.2500      0.0000    826.6938      4.9897    123.4958
  1041.5000      0.0000    829.4866      4.9440    126.4015
  1041.7500      0.0000    834.8923      4.9370    127.6105
  1042.0000      0.0000    841.0554      4.9242    126.1587
  1042.2500      0.0000    844.8927      4.8981    122.0236
  1042.5000      0.0000    843.7216      4.8828    116.5866
  1042.7500      0.0000    836.9285      4.8950    111.9157
  1043.0000      0.0000    826.5305      4.9170    109.3482
  1043.2500      0.0000    815.7556      4.9135    108.5370
  1043.5000      0.0000    806.6871      4.8679    107.7575
  1043.7500      0.0000    799.5873      4.7960    105.2443
  1044.0000      0.0000    794.2946      4.7310    100.3443
  1044.2500      0.0000    790.9503      4.7020     93.4821
  1044.5000      0.0000    788.7035      4.7201     85.4926
  1044.7500      0.0000    784.9894      4.7704     77.4696
  1045.0000      0.0000    777.7370      4.8193     70.9768
  1045.2500      0.0000    768.4276      4.8420     67.7394
  1045.5000      0.0000    762.0004      4.8513     68.7520
  1045.7500      0.0000    763.1561      4.8881     73.5436
  1046.0000      0.0000    772.6375      4.9751     80.1947
  1046.2500      0.0000    786.7719      5.0869     86.2066
  1046.5000      0.0000    800.2928      5.1759     89.7622
  1046.7500      0.0000    809.7486      5.2212     90.5206
  1047.0000      0.0000    814.7646      5.2447     89.5629
  1047.2500      0.0000    816.8697      5.2803     88.8331
  1047.5000      0.0000    817.6926      5.3333     90.2118
  1047.7500      0.0000    818.0588      5.3761     94.3113
  1048.0000      0.0000    818.1124      5.3820    100.0710
  1048.2500      0.0000    817.8413      5.3540    105.8967
  1048.5000      0.0000    817.4357      5.3185    111.0901
  1048.7500      0.0000    817.2690      5.2973    116.0567
  1049.0000      0.0000    817.6927      5.2912    121.5008
  1049.2500      0.0000    819.0190      5.2831    127.4778
  1049.5000      0.0000    821.7040      5.2532    132.7802
  1049.7500      0.0000    826.2864      5.1954    135.3080
  1050.0000      0.0000    832.7711      5.1247    133.5313
  1050.2500      0.0000    840.0082      5.0633    127.6180
  1050.5000      0.0000    846.0164      5.0189    119.0698
  1050.7500      0.0000    849.2452      4.9828    109.8065
  1051.0000      0.0000    849.5069      4.9523    101.8197
  1051.2500      0.0000    847.7426      4.9393     96.9627
  1051.5000      0.0000    845.3207      4.9487     96.3685
  1051.7500      0.0000    843.6812      4.9614     99.9550
  1052.0000      0.0000    843.8640      4.9498    106.4832
  1052.2500      0.0000    845.5164      4.9067    114.2423
  1052.5000      0.0000    846.6258      4.8509    122.0959
  1052.7500      0.0000    845.1949      4.8103    129.8679
  1053.0000      0.0000    841.6612      4.7992    137.4656
  1053.2500      0.0000    839.2444      4.8066    143.7736
  1053.5000      0.0000    841.0925      4.8209    146.7648
  1053.7500      0.0000    846.8132      4.8651    144.9968
  1054.0000      0.0000    852.3829      4.9822    139.0894
  1054.2500      0.0000    853.6797      5.1718    131.3091
  1054.5000      0.0000    849.5051      5.3648    123.4106
  1054.7500      0.0000    841.3022      5.4779    115.4470
  1055.0000      0.0000    831.3287      5.4854    107.0905
  1055.2500      0.0000    821.7566      5.4279     99.4199
  1055.5000      0.0000    814.5076      5.3611     94.5653
  1055.7500      0.0000    810.7735      5.2998     93.6113
  1056.0000      0.0000    810.4009      5.2107     95.3474
  1056.2500      0.0000    811.8796      5.0592     97.3502
  1056.5000      0.0000    813.3306      4.8634     98.0430
  1056.7500      0.0000    813.9334      4.7033     97.3500
  1057.0000      0.0000    814.3495      4.6712     95.6886
  1057.2500      0.0000    815.6459      4.7958     93.2201
  1057.5000      0.0000    818.3482      5.0073     90.3219
  1057.7500      0.0000    822.4660      5.1862     87.9593
  1058.0000      0.0000    826.9833      5.2577     86.8395
  1058.2500      0.0000    828.5988      5.2396     86.4278
  1058.5000      0.0000    822.7375      5.2067     85.3644
  1058.7500      0.0000    808.0372      5.2231     82.9348
  1059.0000      0.0000    789.9134      5.3025     79.8247
  1059.2500      0.0000    778.0910      5.4036     77.2855
  1059.5000      0.0000    779.3671      5.4503     75.8739
  1059.7500      0.0000    792.6866      5.3847     75.5004
  1060.0000      0.0000    811.4404      5.2197     76.6494
  1060.2500      0.0000    829.3430      5.0341     80.9674
  1060.5000      0.0000    842.9010      4.9096     90.1022
  1060.7500      0.0000    849.9905      4.8790    103.7568
  1061.0000      0.0000    849.0495      4.9213    119.0747
  1061.2500      0.0000    839.8426      4.9762    132.3969
  1061.5000      0.0000    824.1232      4.9550    141.7892
  1061.7500      0.0000    806.5778      4.7823    147.7404
  1062.0000      0.0000    794.8477      4.4696    151.6837
  1062.2500      0.0000    794.7536      4.1448    154.4383
  1062.5000      0.0000    803.7053      3.9727    155.9673
  1062.7500      0.0000    811.9486      4.0277    155.8612
  1063.0000      0.0000    812.2678      4.2503    153.7907
  1063.2500      2.0000    806.8568      4.5151    150.0883
  1063.5000      0.0000    803.5875      4.7209    146.3802
  1063.7500     -2.0000    806.8226      4.8377    145.3420
  1064.0000      0.0000    812.7115      4.9249    149.0010
  1064.2500      0.0000    812.7390      5.1160    156.9016
  1064.5000      0.0000    801.1310      5.5232    166.2334
