~Version Information
VERS.                      2.0: CWLS Log ASCII Standard - VERSION 2.0
WRAP.                       NO: One line per depth step
~Well Information Block
STRT.FT              1727.9000: 
STOP.FT              1961.0000: 
STEP.FT                 0.1000: 
NULL.                -999.2500: 
COMP.          Petrogulf Corporation: COMPANY
WELL.              Royal 8-33R: WELL
FLD.           Purgatorie River: FIELD
LOC.           2401' FSL & 2270' FEL: LOCATION
CNTY.               Las Animas: COUNTY
SRVC.                         : SERVICE COMPANY
DATE.          Mon Apr 26 06:57:24 2004: LOG DATE
UWI.           05 071 08041 00: UNIQUE WELL ID
STAT.                 Colorado: STATE
~Curve Information Block
DEPT.FT            0 000 00 00: Depth
DCAL.in                       : CDL Caliper
RHOB.g/cc                     : CDL Bulk Density
RHOC.g/cc                     : CDL Density Correction
DPOR.pu                       : CDL Density Porosity
GR.GAPI                       : Gamma Ray
~Parameter Information Block
~A  Depth       DCAL        RHOB        RHOC        DPOR         GR     
# ...
  1907.1000      7.8839      2.1478      0.2131     30.4369     79.6582
  1907.2000      7.8839      2.1848      0.1330     28.1911    101.7845
  1907.3000      7.8856      2.2444      0.0556     24.5844    117.0388
  1907.4000      7.8856      2.3424      0.2043     18.6411    117.4262
  1907.5000      7.8636      2.4361      0.0954     12.9625    107.5382
  1907.6000      7.8636      2.4984      0.0984      9.1890    105.3440
  1907.7000      7.8636      2.5264      0.1395      7.4883    113.8457
  1907.8000      7.8531      2.5168      0.1081      8.0714    120.6605
  1907.9000      7.8531      2.4873      0.0703      9.8625    116.9525
  1908.0000      7.8668      2.4803     -0.0473     10.2838    104.8527
  1908.1000      7.8668      2.5102      0.0718      8.4700    100.1282
  1908.2000      7.8668      2.5433      0.1187      6.4637    108.4621
  1908.3000      7.8647      2.5578      0.0354      5.5903    114.3577
  1908.4000      7.8647      2.5549      0.1249      5.7640    106.3913
  1908.5000      7.8686      2.5368      0.0232      6.8626     98.1058
  1908.6000      7.8686      2.5217      0.0273      7.7763    107.0357
  1908.7000      7.8686      2.5253      0.0290      7.5593    122.8739
  1908.8000      7.8677      2.5312      0.0805      7.1992    124.3295
  1908.9000      7.8677      2.5152      0.0522      8.1687    113.9955
  1909.0000      7.8781      2.4954     -0.0119      9.3698    105.2752
  1909.1000      7.8781      2.5067      0.0571      8.6876    102.9871
  1909.2000      7.8781      2.5351      0.0963      6.9647    100.9171
  1909.3000      7.8788      2.5485      0.0970      6.1519     96.9783
  1909.4000      7.8788      2.5436      0.1013      6.4502     99.8571
  1909.5000      7.8800      2.5290      0.0414      7.3346    108.5525
  1909.6000      7.8800      2.5136      0.0296      8.2669    116.2991
  1909.7000      7.8800      2.5006     -0.0306      9.0535    122.7694
  1909.8000      7.8757      2.4799      0.0696     10.3086    122.0189
  1909.9000      7.8757      2.4590     -0.0005     11.5762    111.4897
  1910.0000      7.8771      2.4702      0.0505     10.8971    101.3717
  1910.1000      7.8771      2.5095      0.1134      8.5166     98.5974
  1910.2000      7.8771      2.5388      0.1166      6.7372     97.3886
  1910.3000      7.8711      2.5464      0.1085      6.2775     94.4112
  1910.4000      7.8711      2.5480      0.0827      6.1819     94.4069
  1910.5000      7.8745      2.5489      0.0597      6.1247    101.3466
  1910.6000      7.8745      2.5399      0.0628      6.6724    113.0865
  1910.7000      7.8745      2.5232      0.0220      7.6823    116.7564
  1910.8000      7.8784      2.5108      0.0621      8.4370    110.6758
  1910.9000      7.8784      2.4878      0.1550      9.8286    109.7445
  1911.0000      7.8832      2.4428     -0.0004     12.5557    118.7833
  1911.1000      7.8832      2.4106     -0.0032     14.5062    127.5917
  1911.2000      7.8832      2.4331     -0.0685     13.1467    125.0984
  1911.3000      7.8945      2.5046      0.0984      8.8132    113.4666
  1911.4000      7.8945      2.5802      0.1009      4.2285    108.3999
  1911.5000      7.8941      2.6216      0.2508      1.7197    116.5466
  1911.6000      7.8941      2.6095      0.1910      2.4528    126.1061
  1911.7000      7.8941      2.5675      0.1639      5.0017    128.5603
  1911.8000      7.8822      2.5424      0.1351      6.5191    128.2851
  1911.9000      7.8822      2.5340      0.1583      7.0308    124.1719
  1912.0000      7.8933      2.5161      0.0567      8.1142    113.2645
  1912.1000      7.8933      2.5007     -0.0093      9.0507    101.1695
  1912.2000      7.8933      2.5097      0.0245      8.5037     98.6456
  1912.3000      7.8896      2.5386      0.0927      6.7540    106.4086
  1912.4000      7.8896      2.5628      0.1193      5.2827    111.7474
  1912.5000      7.8922      2.5667      0.0815      5.0474    110.3898
  1912.6000      7.8922      2.5531      0.1070      5.8701    106.0773
  1912.7000      7.8922      2.5218      0.1024      7.7696     97.1409
  1912.8000      7.8942      2.4822      0.0334     10.1698     84.0114
  1912.9000      7.8942      2.4652     -0.0012     11.1981     78.3305
  1913.0000      7.8849      2.4883      0.0306      9.8013     91.1968
  1913.1000      7.8849      2.5355      0.0304      6.9399    111.4810
  1913.2000      7.8849      2.5715      0.1402      4.7552    114.7294
  1913.3000      7.8848      2.5758      0.1091      4.4998     98.7376
  1913.4000      7.8848      2.5614      0.1307      5.3695     90.4836
  1913.5000      7.8872      2.5554      0.0803      5.7341    104.8649
  1913.6000      7.8872      2.5680      0.0782      4.9673    123.1904
  1913.7000      7.8872      2.5834      0.0542      4.0366    126.8557
  1913.8000      7.8886      2.5946      0.1401      3.3593    124.8820
  1913.9000      7.8886      2.6030      0.0905      2.8464    120.0655
  1914.0000      7.8835      2.5914      0.1290      3.5519    103.0831
  1914.1000      7.8835      2.5563      0.0179      5.6803     88.3870
  1914.2000      7.8835      2.5393      0.0444      6.7113     88.6421
  1914.3000      7.8855      2.5728      0.0775      4.6787     87.2721
  1914.4000      7.8855      2.6189      0.1213      1.8832     77.0929
  1914.5000      7.8778      2.6117      0.1510      2.3242     77.9135
  1914.6000      7.8778      2.5463      0.0464      6.2873     95.5918
  1914.7000      7.8778      2.4851     -0.0536      9.9923    109.5665
  1914.8000      7.8804      2.4710      0.0539     10.8510    109.9276
  1914.9000      7.8804      2.4848      0.0660     10.0102    112.1671
  1915.0000      7.8732      2.4932      0.0829      9.5002    123.1607
  1915.1000      7.8732      2.4752      0.0749     10.5962    126.5059
  1915.2000      7.8732      2.4428     -0.0612     12.5588    113.6720
  1915.3000      7.8721      2.4478     -0.0360     12.2569     95.3875
  1915.4000      7.8721      2.5027      0.0398      8.9250     85.8211
  1915.5000      7.8720      2.5569      0.0214      5.6448     87.1966
  1915.6000      7.8720      2.5708      0.0581      4.7975     90.2661
  1915.7000      7.8720      2.5463      0.0895      6.2878     88.6400
  1915.8000      7.8694      2.5073      0.0564      8.6504     89.0265
  1915.9000      7.8694      2.4828      0.0261     10.1314     97.6262
  1916.0000      7.8573      2.4771      0.0740     10.4814    104.3442
  1916.1000      7.8573      2.4759     -0.0033     10.5501     98.4511
  1916.2000      7.8573      2.4801      0.0612     10.2986     88.7439
  1916.3000      7.8558      2.4994     -0.0074      9.1273     88.3699
  1916.4000      7.8558      2.5322      0.0792      7.1412     97.7444
  1916.5000      7.8627      2.5727      0.0478      4.6863    113.9774
  1916.6000      7.8627      2.6101      0.1515      2.4192    128.6355
  1916.7000      7.8627      2.6146      0.1527      2.1481    130.2112
  1916.8000      7.8579      2.5838      0.1253      4.0120    123.9961
  1916.9000      7.8579      2.5624      0.0235      5.3078    119.6813
  1917.0000      7.8574      2.5772      0.1192      4.4120    112.1931
  1917.1000      7.8574      2.6050      0.0680      2.7275     98.2791
  1917.2000      7.8574      2.6226      0.0699      1.6621     86.4802
  1917.3000      7.8593      2.6323      0.0699      1.0731     87.0211
  1917.4000      7.8593      2.6397      0.0741      0.6235     97.9798
  1917.5000      7.8589      2.6368      0.1680      0.7985    100.0690
  1917.6000      7.8589      2.6168      0.0749      2.0150     84.2633
  1917.7000      7.8589      2.5873     -0.0035      3.7982     65.4968
  1917.8000      7.8541      2.5502      0.0502      6.0462     59.1760
  1917.9000      7.8541      2.5108     -0.0245      8.4376     59.2765
  1918.0000      7.8557      2.4945     -0.0253      9.4254     54.9471
  1918.1000      7.8557      2.5101      0.0205      8.4795     54.4386
  1918.2000      7.8557      2.5373      0.0323      6.8291     65.4140
