
~Version Information
 VERS.                                  2.0 : CWLS LAS VERSION
 WRAP.                                   NO : WRAPING MODE
 SWARE .                 MController 2.5.0N : SOFTWARE VERSION
~Well Information
 WELL.                          Whinny 42-4 : WELL
 COMP.                                  N/A : COMPANY
 FLD.                      Purgatoire River : FIELD
 LOC.                SE/NE Sec 2 T33S  R67W : LOCATION
 DATE.                           8/19-20/05 : DATE(S) LOGGED
 SRVC.       BLANCO Geological Services LLC : SERVICE COMPANY
 STAT.                                   CO : STATE
 CNTY.                           Las Animas : COUNTY
 CTRY.                                  USA : COUNTRY
 API.                       05-071-08406-00 : API NUMBER
 STRT.FT                             574.00 : START DEPTH
 STOP.FT                            2360.00 : STOP DEPTH
 STEP.FT                               1.00 : DEPTH INCREMENT
 NULL.                                -9999 : NULL VALUE
~Curve information
 DEPTH.FT                                   :
 ROP.MIN/FT                                 :
 GAS.UNITS                                  :
~ASCII Log data
       574.0     -9999.00         16.3 
       575.0         0.83         15.1 
       576.0         0.13         15.5 
       577.0         0.13         15.6 
       578.0         1.62         16.0 
       579.0         0.07         15.2 
       580.0         0.23         14.6 
       581.0         0.07         15.2 
       582.0         0.07         15.8 
       583.0         0.17         15.3 
       584.0         0.07         15.7 
       585.0         0.07         16.5 
       586.0         0.10         15.5 
       587.0         0.20         15.8 
       588.0         1.68         15.5 
       589.0         1.10         15.4 
       590.0         0.07         15.3 
       591.0         0.10         15.1 
       592.0         0.10         15.9 
       593.0         0.27         14.7 
       594.0         0.13         15.9 
       595.0         0.10         14.8 
       596.0         0.07         14.8 
       597.0         0.57         15.5 
       598.0         0.13         16.2 
       599.0         0.17         14.9 
       600.0         0.18         15.1 
       601.0         0.13         16.2 
       602.0         0.17         15.5 
       603.0         0.13         15.0 
       604.0        18.75         15.2 
       605.0         0.27         16.0 
       606.0         0.27         14.6 
       607.0         0.28         14.9 
       608.0         0.27         16.2 
       609.0         0.53         16.0 
       610.0         0.27         16.2 
       611.0         0.53         15.3 
       612.0         0.27         15.9 
       613.0         0.53         14.7 
       614.0         0.53         16.0 
       615.0         0.33         11.9 
       616.0         0.28          8.5 
       617.0         0.60          5.2 
       618.0         0.53          5.7 
       619.0         0.53          6.0 
       620.0         0.80          4.5 
       621.0         0.82          6.7 
       622.0         0.17          7.6 
       623.0         0.80          8.1 
       624.0         0.80          6.3 
       625.0         0.53          7.1 
       626.0         0.53          6.7 
       627.0         0.27          6.9 
       628.0         0.55          7.1 
       629.0         0.63          6.4 
       630.0         0.60          6.9 
       631.0         0.27          7.0 
       632.0         0.27          7.2 
       633.0         0.53          7.6 
       634.0         0.50          8.0 
       635.0         0.45          6.9 
       636.0         0.80          6.6 
       637.0         0.13          6.1 
       638.0         0.23          7.0 
       639.0         0.23          6.7 
       640.0         0.50          7.1 
       641.0         0.80          6.8 
       642.0         0.82          7.7 
       643.0         0.80          7.4 
       644.0         0.27          7.0 
       645.0         0.27          6.9 
       646.0         0.27          6.8 
       647.0         0.53          7.6 
       648.0         0.53          7.4 
       649.0         0.28          7.5 
       650.0         0.53          6.9 
       651.0         0.80          8.0 
       652.0         0.53          6.9 
       653.0         0.53          7.0 
       654.0         0.53          7.1 
       655.0         0.72          7.3 
       656.0         0.80          6.7 
       657.0         0.53          6.3 
       658.0         0.33          6.4 
       659.0         0.17          6.8 
       660.0         0.40          7.4 
       661.0         0.17          8.3 
       662.0         0.33          7.0 
       663.0         0.48          7.0 
       664.0         0.53          7.0 
       665.0         0.53          6.8 
       666.0         0.53          6.7 
       667.0         0.27          7.1 
       668.0         0.27          6.3 
       669.0         0.53          7.4 
       670.0         0.55          7.3 
       671.0         0.53          7.1 
       672.0         0.27          7.2 
       673.0         0.53          7.8 
       674.0         0.53          8.1 
       675.0         0.53          7.7 
       676.0         0.27          7.4 
       677.0         0.27          8.2 
       678.0         0.55          7.3 
       679.0         0.53          7.9 
       680.0         0.77          8.5 
       681.0         0.80          7.4 
       682.0         0.53          7.4 
       683.0         0.55          7.5 
       684.0         0.57          7.5 
       685.0         0.53          8.3 
       686.0         0.53          7.7 
       687.0         0.53          7.8 
       688.0         0.27          8.3 
       689.0         0.53          8.5 
       690.0         0.38          8.1 
       691.0         0.53          9.3 
       692.0         0.20          7.9 
       693.0         0.57          8.0 
       694.0         0.53          8.1 
       695.0         0.53          8.3 
       696.0         0.27          8.3 
       697.0         0.55          9.0 
       698.0         0.53          8.3 
       699.0         0.27          8.2 
       700.0         0.27          8.2 
       701.0         0.53          8.3 
       702.0         0.53          7.8 
       703.0         0.27          8.2 
       704.0         0.53          8.2 
       705.0         0.27          8.8 
       706.0         0.32         12.2 
       707.0         0.27         12.5 
       708.0         0.53         10.7 
       709.0         0.43          9.0 
       710.0         0.53          8.5 
       711.0         0.27          9.1 
       712.0         0.27          8.5 
       713.0         0.53          8.1 
       714.0         0.28          9.0 
       715.0         0.53          8.0 
       716.0         0.53          8.2 
       717.0         0.53          7.2 
       718.0         0.53          7.4 
       719.0         0.53          7.6 
       720.0         0.53          7.4 
       721.0         0.28          7.1 
       722.0         0.27          7.4 
       723.0         0.53          7.4 
       724.0         0.53          7.5 
       725.0         0.27          8.6 
       726.0         0.53          8.5 
       727.0         0.27          7.4 
       728.0         0.57          8.0 
       729.0         0.42          8.1 
       730.0         0.40          7.7 
       731.0         0.37          8.5 
       732.0         0.50          7.9 
       733.0         0.37          8.3 
       734.0         0.40          8.9 
       735.0         0.20          8.2 
       736.0         0.17          8.3 
       737.0         0.03          8.9 
       738.0         0.50         10.2 
       739.0         0.22          9.0 
       740.0         0.07          9.4 
       741.0         0.13          9.4 
       742.0         0.17          9.6 
       743.0         0.43          9.1 
       744.0         0.27          9.3 
       745.0         0.17          8.3 
       746.0         0.10          8.5 
       747.0         0.40          8.5 
       748.0         0.30          8.0 
       749.0         0.13          8.5 
       750.0         0.27          8.5 
       751.0         0.13          8.6 
       752.0         0.17          9.6 
       753.0         0.62          9.8 
       754.0         0.30          8.8 
       755.0         0.60          9.2 
       756.0         0.30          9.0 
       757.0         0.70          9.1 
       758.0         0.30          9.0 
       759.0         0.47         11.3 
       760.0         0.27         40.1 
       761.0         0.48         92.6 
       762.0         0.17         99.3 
       763.0         0.10        102.1 
       764.0         0.53        105.7 
       765.0         0.20        106.6 
       766.0         0.30        100.1 
       767.0         0.50         98.1 
       768.0         0.23         95.1 
       769.0         0.30         90.8 
       770.0         0.10         89.0 
       771.0         0.47         78.6 
       772.0         0.25         75.3 
       773.0         0.40         70.3 
