~Version Information
 VERS.                                  2.0 : CWLS LAS VERSION
 WRAP.                                   NO : WRAPING MODE
 SWARE .                 MController 2.5.0J : SOFTWARE VERSION
~Well Information
 WELL.                         State 16-43R : WELL
 COMP.                Petrogulf Corporation : COMPANY
 FLD.                      Purgatoire River : FIELD
 LOC.                NE/SE Sec 16 T33S R67W : LOCATION
 DATE.                             08/09/05 : DATE(S) LOGGED
 SRVC.       BLANCO Geological Services LLC : SERVICE COMPANY
 STAT.                                   CO : STATE
 CNTY.                           Las Animas : COUNTY
 CTRY.                                  USA : COUNTRY
 API.                       05-071-08338-00 : API NUMBER
 STRT.FT                               0.00 : START DEPTH
 STOP.FT                            1565.00 : STOP DEPTH
 STEP.FT                               1.00 : DEPTH INCREMENT
 NULL.                                -9999 : NULL VALUE
~Curve information
 DEPTH.FT                                   :
 ROP.MIN/FT                                 :
 GAS.UNITS                                  :
~ASCII Log data
# ...
       200.0         0.33         10.5 
       201.0         0.10         10.9 
       202.0         0.13         10.8 
       203.0         0.23         10.3 
       204.0         0.17         10.5 
       205.0         0.23         11.2 
       206.0         1.25         11.3 
       207.0         0.27         11.2 
       208.0         0.23         11.1 
       209.0         0.23         11.0 
       210.0         0.27         11.1 
       211.0         0.23         10.9 
       212.0         0.23         10.7 
       213.0         0.30         11.1 
       214.0         0.23         10.9 
       215.0         0.23         10.7 
       216.0         0.28         11.2 
       217.0         0.33         11.2 
       218.0         0.33         11.6 
       219.0         0.23         11.3 
       220.0         0.27         11.0 
       221.0         0.23         10.8 
       222.0         0.27         11.5 
       223.0         0.33         11.7 
       224.0         0.30         11.8 
       225.0         0.30         11.8 
       226.0         0.27         11.7 
       227.0         0.32         11.7 
       228.0         0.30         11.6 
       229.0         0.27         11.4 
       230.0         0.23         11.4 
       231.0         0.30         11.3 
       232.0         0.27         11.5 
       233.0         0.27         10.6 
       234.0         0.30         11.1 
       235.0         0.27         11.1 
       236.0         1.52         11.4 
       237.0         0.30         11.2 
       238.0         0.27         11.4 
       239.0         0.30         11.3 
       240.0         0.27         11.0 
       241.0         0.27         10.7 
       242.0         0.27         11.2 
       243.0         0.27         11.0 
       244.0         0.23         11.1 
       245.0         0.27         11.2 
       246.0         0.28         11.1 
       247.0         0.27         10.6 
       248.0         0.23         10.7 
       249.0         0.27         11.1 
       250.0         0.27         11.3 
       251.0         0.23         11.1 
       252.0         0.23         10.7 
       253.0         0.27         11.2 
       254.0         0.27         11.0 
       255.0         0.23         11.0 
       256.0         0.23         11.0 
       257.0         0.23         10.7 
       258.0         0.30         10.9 
       259.0         0.28         10.8 
       260.0         0.50         10.7 
       261.0         0.30         10.8 
       262.0         0.23         11.0 
       263.0         0.23         11.3 
       264.0         0.23         10.6 
       265.0         0.23         11.0 
       266.0         1.13         11.3 
       267.0         0.22         11.2 
       268.0         0.23         11.1 
       269.0         0.20         11.7 
       270.0         0.23         11.6 
       271.0         0.17         11.8 
       272.0         0.13         11.5 
       273.0         0.30         11.9 
       274.0         0.30         11.9 
       275.0         0.17         12.4 
       276.0         0.20         13.0 
       277.0         0.20         13.1 
       278.0         0.17         13.7 
       279.0         0.20         13.4 
       280.0         0.20         14.3 
       281.0         0.27         14.2 
       282.0         0.20         14.4 
       283.0         0.25         14.3 
       284.0         0.17         13.6 
       285.0         0.23         14.4 
       286.0         0.27         13.8 
       287.0         0.23         14.1 
       288.0         0.30         14.2 
       289.0         0.33         13.9 
       290.0         0.33         13.1 
       291.0         0.23         13.1 
       292.0         0.27         13.3 
       293.0         0.23         12.5 
       294.0         0.23         13.0 
       295.0         0.27         13.0 
       296.0         0.92         12.9 
       297.0         0.20         12.9 
       298.0         0.20         14.2 
       299.0         0.13         14.0 
       300.0         0.30         14.4 
       301.0         0.10         14.5 
       302.0         0.10         14.6 
       303.0         0.27         15.0 
       304.0         0.17         15.0 
       305.0         0.27         15.3 
       306.0         0.23         14.7 
       307.0         0.23         15.5 
       308.0         0.25         15.2 
       309.0         0.27         15.5 
       310.0         0.23         15.4 
       311.0         0.27         15.0 
       312.0         0.27         14.9 
       313.0         0.27         14.9 
       314.0         0.20         14.9 
       315.0         0.23         14.9 
       316.0         0.20         14.9 
       317.0         0.20         14.3 
       318.0         0.20         14.5 
       319.0         0.23         14.8 
       320.0         0.20         14.0 
       321.0         0.20         14.0 
       322.0         0.17         13.0 
       323.0         0.22         13.4 
       324.0         0.17         13.2 
       325.0         0.20         12.7 
       326.0         1.37         13.5 
       327.0         0.17         14.0 
       328.0         0.30         15.2 
       329.0         0.37         17.2 
       330.0         0.40         19.8 
       331.0         0.45         16.1 
       332.0         0.37         12.0 
       333.0         0.23         11.8 
       334.0         0.20         12.3 
       335.0         0.37         12.2 
       336.0         0.30         13.0 
       337.0         0.23         13.3 
       338.0         0.17         13.3 
       339.0         0.20         13.7 
       340.0         0.23         13.8 
       341.0         0.17         14.2 
       342.0         0.20         14.5 
       343.0         0.13         17.5 
       344.0         0.17         19.8 
       345.0         0.32         22.4 
       346.0         0.20         20.1 
       347.0         0.30         17.3 
       348.0         0.33         17.5 
       349.0         0.23         21.7 
       350.0         0.27         27.5 
       351.0         0.27         34.3 
       352.0         0.30         69.4 
       353.0         0.27         71.0 
       354.0         0.27         59.9 
       355.0         0.20         48.4 
       356.0         1.12         43.7 
       357.0         0.27         31.1 
       358.0         0.20         31.0 
       359.0         0.30         30.8 
       360.0         0.33         30.9 
       361.0         0.30         30.1 
       362.0         0.27         29.8 
       363.0         0.28         30.1 
       364.0         0.17         30.2 
       365.0         0.17         30.7 
       366.0         0.13         30.5 
       367.0         0.13         30.7 
       368.0         0.17         30.9 
       369.0         0.23         31.2 
       370.0         0.33         31.3 
       371.0         0.30         31.2 
       372.0         0.30         31.8 
       373.0         0.27         37.5 
       374.0         0.27         48.5 
       375.0         0.27         60.2 
       376.0         0.27         67.6 
       377.0         0.28         73.4 
       378.0         0.23         75.8 
       379.0         0.37         75.8 
       380.0         0.37         74.2 
       381.0         0.27         78.9 
       382.0         0.23         83.1 
       383.0         0.27         87.2 
       384.0         0.23        141.5 
       385.0         0.20        275.3 
       386.0         1.22        285.0 
       387.0         0.20         90.8 
       388.0         0.17         86.0 
       389.0         0.37         83.7 
       390.0         0.30         83.0 
       391.0         0.30         83.2 
       392.0         0.30         91.0 
       393.0         0.23         94.1 
       394.0         0.23         96.5 
       395.0         0.23         95.6 
       396.0         0.30         89.2 
       397.0         0.23         83.3 
       398.0         0.25         83.4 
       399.0         0.23         83.7 
