~Version Information
 VERS.                                  2.0 : CWLS LAS VERSION
 WRAP.                                   NO : WRAPING MODE
 SWARE .                 MController 2.5.0J : SOFTWARE VERSION
~Well Information
 WELL.                      Peregrine 12-20 : WELL
 COMP.    Pioneer Natural Resources USA Inc : COMPANY
 FLD.                      Purgatoire River : FIELD
 LOC.               SW/NW Sec 20 T34S R65W  : LOCATION
 DATE.                             07/14/05 : DATE(S) LOGGED
 SRVC.       BLANCO Geological Services LLC : SERVICE COMPANY
 STAT.                                   CO : STATE
 CNTY.                           Las Animas : COUNTY
 CTRY.                                  USA : COUNTRY
 API.                       05-071-08428-00 : API NUMBER
 STRT.FT                             226.00 : START DEPTH
 STOP.FT                            1645.00 : STOP DEPTH
 STEP.FT                               1.00 : DEPTH INCREMENT
 NULL.                                -9999 : NULL VALUE
~Curve information
 DEPTH.FT                                   :
 ROP.MIN/FT                                 :
 GAS.UNITS                                  :
~ASCII Log data
# ...
       626.0         1.73         54.6 
       627.0         0.28         21.3 
       628.0         0.17         14.5 
       629.0         0.33         12.8 
       630.0         0.23         12.5 
       631.0         0.20         12.8 
       632.0         0.23         12.9 
       633.0         0.20         12.7 
       634.0         0.20         12.6 
       635.0         0.20         12.4 
       636.0         0.13         12.1 
       637.0         0.10         11.9 
       638.0         0.10         12.0 
       639.0         0.17         12.4 
       640.0         0.17         12.4 
       641.0         0.20         12.4 
       642.0         0.20         11.9 
       643.0         0.22         12.1 
       644.0         0.17         12.0 
       645.0         0.20         11.9 
       646.0         0.13         12.1 
       647.0         0.10         11.4 
       648.0         0.20         11.7 
       649.0         0.17         11.2 
       650.0         0.23         11.3 
       651.0         0.13         11.1 
       652.0         0.13         11.0 
       653.0         0.17         11.3 
       654.0         0.20         13.7 
       655.0         0.20         19.6 
       656.0         1.98         59.5 
       657.0         0.23         14.7 
       658.0         0.17         13.5 
       659.0         0.23         13.2 
       660.0         0.23         14.1 
       661.0         0.10         14.2 
       662.0         0.20         13.9 
       663.0         0.27         13.8 
       664.0         0.13         13.5 
       665.0         0.13         13.3 
       666.0         0.17         13.4 
       667.0         0.20         13.1 
       668.0         0.20         12.8 
       669.0         0.22         13.4 
       670.0         0.10         13.8 
       671.0         0.17         15.5 
       672.0         0.17         15.9 
       673.0         0.30         15.9 
       674.0         0.20         15.0 
       675.0         0.23         14.2 
       676.0         0.20         13.7 
       677.0         0.17         13.3 
       678.0         0.20         12.9 
       679.0         0.17         12.9 
       680.0         0.17         13.2 
       681.0         0.20         16.2 
       682.0         0.20         21.8 
       683.0         0.23         38.6 
       684.0         0.27         67.7 
       685.0         0.32         70.5 
       686.0         1.47         56.6 
       687.0         0.33         13.5 
       688.0         0.13         11.9 
       689.0         0.20         12.1 
       690.0         0.30         12.0 
       691.0         0.13         11.8 
       692.0         0.20         11.7 
       693.0         0.30         12.4 
       694.0         0.22         12.1 
       695.0         0.27         11.5 
       696.0         0.23         11.3 
       697.0         0.17         11.2 
       698.0         0.27         11.3 
       699.0         0.17         11.3 
       700.0         0.20         10.9 
       701.0         0.23         11.2 
       702.0         0.20         10.7 
       703.0         0.17         11.0 
       704.0         0.17         10.7 
       705.0         0.30         10.7 
       706.0         0.20         12.6 
       707.0         0.13         13.8 
       708.0         0.17         19.6 
       709.0         0.13         25.6 
       710.0         0.17         36.5 
       711.0         0.08         43.6 
       712.0         0.27         75.8 
       713.0         0.27         85.6 
       714.0         0.23         81.3 
       715.0         0.20         63.6 
       716.0         0.87         50.2 
       717.0         0.30         14.7 
       718.0         0.23         12.9 
       719.0         0.27         11.8 
       720.0         0.23         11.4 
       721.0         0.20         10.3 
       722.0         0.28         11.3 
       723.0         0.23         11.2 
       724.0         0.23         11.5 
       725.0         0.37         11.8 
       726.0         0.20         11.6 
       727.0         0.17         11.6 
       728.0         0.20         11.1 
       729.0         0.20         11.9 
       730.0         0.13         11.8 
       731.0         0.17         11.6 
       732.0         0.17         12.0 
       733.0         0.20         11.5 
       734.0         0.20         13.2 
       735.0         0.17         14.3 
       736.0         0.20         15.6 
       737.0         0.25         15.1 
       738.0         0.23         14.0 
       739.0         0.17         12.7 
       740.0         0.17         13.2 
       741.0         0.13         14.1 
       742.0         0.13         18.1 
       743.0         0.23         28.2 
       744.0         0.13         38.1 
       745.0         0.17         55.0 
       746.0         1.33         69.3 
       747.0         0.30         17.2 
       748.0         0.28         13.9 
       749.0         0.23         12.6 
       750.0         0.13         12.0 
       751.0         0.20         11.5 
       752.0         0.20         11.7 
       753.0         0.23         11.0 
       754.0         0.20         11.5 
       755.0         0.27         11.6 
       756.0         0.20         11.7 
       757.0         0.20         11.7 
       758.0         0.20         11.6 
       759.0         0.23         11.7 
       760.0         0.20         11.5 
       761.0         0.23         12.0 
       762.0         0.17         12.0 
       763.0         0.25         11.9 
       764.0         0.20         12.2 
       765.0         0.20         12.2 
       766.0         0.20         12.1 
       767.0         0.20         11.9 
       768.0         0.20         11.9 
       769.0         0.20         12.0 
       770.0         0.20         11.6 
       771.0         0.23         11.3 
       772.0         0.20         11.5 
       773.0         0.20         12.6 
       774.0         0.23         20.2 
       775.0         0.17         27.0 
       776.0         7.02         75.9 
       777.0         0.20         14.2 
       778.0         0.20         14.5 
       779.0         0.30         13.9 
       780.0         0.33         13.2 
       781.0         0.27         13.0 
       782.0         0.23         12.4 
       783.0         0.20         12.2 
       784.0         0.17         11.7 
       785.0         0.20         11.8 
       786.0         0.17         11.0 
       787.0         0.23         10.7 
       788.0         0.20         11.0 
       789.0         0.20         10.3 
       790.0         0.20         10.8 
       791.0         0.28         10.9 
       792.0         0.13         10.9 
       793.0         0.13         11.3 
       794.0         0.13         11.1 
       795.0         0.17         10.3 
       796.0         0.13         10.9 
       797.0         0.10         10.2 
       798.0         0.13         10.4 
       799.0         0.10         10.6 
       800.0         0.17         10.6 
       801.0         0.13         10.2 
       802.0         0.13         11.1 
       803.0         0.13         13.2 
       804.0         0.10         14.9 
       805.0         0.23         23.4 
       806.0         1.78         49.0 
       807.0         0.17         19.4 
       808.0         0.17         18.5 
       809.0         0.17         16.2 
       810.0         0.20         15.7 
       811.0         0.27         14.4 
       812.0         0.23         13.4 
       813.0         0.17         12.4 
       814.0         0.30         11.3 
       815.0         0.23         11.2 
       816.0         0.23         11.2 
       817.0         0.30         10.6 
       818.0         0.35         10.9 
       819.0         0.13         10.7 
       820.0         0.23         11.0 
       821.0         0.23         10.9 
       822.0         0.20         11.0 
       823.0         0.17         10.8 
       824.0         0.10         10.7 
       825.0         0.17         10.8 
