~Version Information
VERS.                      2.0: CWLS Log ASCII Standard - VERSION 2.0
WRAP.                       NO: One line per depth step
~Well Information Block
STRT.FT               420.0000: 
STOP.FT              1527.5000: 
STEP.FT                 0.1000: 
NULL.                -999.2500: 
COMP.          Evergreen Operating Corporation: COMPANY
WELL.              Chase 21-10: WELL
FLD.           Purgatoire River: FIELD
LOC.           1122' FNL & 1544' FWL: LOCATION
PROV.                       CO: PROVINCE
CNTY.               Las Animas: COUNTRY
SRVC.                         : SERVICE COMPANY
DATE.          Tue May 25 08:18:37 2004: LOG DATE
UWI.           05 071 08006 00: UNIQUE WELL ID
~Curve Information Block
DEPT.FT            0 000 00 00: Depth
DCAL.in                       : CDL Caliper
RHOB.g/cc                     : CDL Bulk Density
RHOC.g/cc                     : CDL Density Correction
DPOR.pu                       : CDL Density Porosity
GR.GAPI                       : Gamma Ray
NPOR.pu                       : Neutron Porosity
~Parameter Information Block
~A  Depth       DCAL        RHOB        RHOC        DPOR         GR         NPOR    
# ...
  1437.6000      7.8418      2.5190      0.1719      7.9369     52.0912     42.4317
  1437.7000      7.8418      2.5534      0.1482      5.8524     44.5086     42.4005
  1437.8000      7.8556      2.5902      0.1847      3.6236     43.4853     42.7795
  1437.9000      7.8556      2.6134      0.2224      2.2157     46.9990     43.1190
  1438.0000      7.8401      2.5968      0.2172      3.2248     51.5114     42.9803
  1438.1000      7.8401      2.5585      0.1469      5.5477     55.7335     42.4251
  1438.2000      7.8401      2.5323      0.1602      7.1345     58.7668     41.8506
  1438.3000      7.8036      2.5205      0.0759      7.8507     59.1145     41.5852
  1438.4000      7.8036      2.5316      0.0659      7.1753     57.8551     41.5982
  1438.5000      7.7370      2.5763      0.1507      4.4666     57.7044     41.6242
  1438.6000      7.7370      2.6163      0.1837      2.0416     62.5252     41.5515
  1438.7000      7.7370      2.6082      0.1417      2.5317     73.4496     41.5563
  1438.8000      7.7273      2.5713      0.0461      4.7717     84.3253     41.6475
  1438.9000      7.7273      2.5494      0.0273      6.0994     90.2683     41.6253
  1439.0000      7.7947      2.5409      0.1223      6.6145     91.3679     41.6171
  1439.1000      7.7947      2.5230      0.1050      7.6992     87.1157     41.6512
  1439.2000      7.7947      2.5102     -0.0086      8.4720     82.6343     41.5819
  1439.3000      7.7966      2.5259      0.0788      7.5204     85.6708     41.8063
  1439.4000      7.7966      2.5488      0.0803      6.1363     94.3751     42.5512
  1439.5000      7.7637      2.5525      0.0169      5.9099    100.0063     43.2365
  1439.6000      7.7637      2.5416      0.0626      6.5708    102.2719     43.6264
  1439.7000      7.7637      2.5272      0.0670      7.4450    105.8321     43.8206
  1439.8000      7.7342      2.5208      0.0709      7.8303    107.4439     43.6301
  1439.9000      7.7342      2.5296      0.0678      7.2962    104.0441     43.2747
  1440.0000      7.6680      2.5409      0.0725      6.6141     99.7541     43.2309
  1440.1000      7.6680      2.5365      0.0467      6.8799     97.0772     43.3523
  1440.2000      7.6680      2.5175      0.0453      8.0319     94.7918     43.4395
  1440.3000      7.7283      2.5027      0.0878      8.9245     88.7919     43.6994
  1440.4000      7.7283      2.5081      0.0693      8.6012     78.2317     44.0407
  1440.5000      7.8158      2.5209      0.1263      7.8261     68.8217     44.2065
  1440.6000      7.8158      2.5142      0.1110      8.2295     64.3496     44.1721
  1440.7000      7.8158      2.4895      0.0804      9.7284     62.4430     44.0553
  1440.8000      7.8705      2.4676      0.0481     11.0557     60.9091     43.7592
  1440.9000      7.8705      2.4706      0.0443     10.8721     59.6279     43.2747
  1441.0000      7.9304      2.5123      0.1069      8.3432     57.8587     42.7433
  1441.1000      7.9304      2.5799      0.1951      4.2481     55.7013     42.2081
  1441.2000      7.9304      2.6394      0.2634      0.6404     53.6277     41.9531
  1441.3000      7.9308      2.6668      0.2284     -1.0181     54.1320     41.9459
  1441.4000      7.9308      2.6666      0.1781     -1.0077     57.7851     41.7344
  1441.5000      7.7450      2.6482      0.2502      0.1067     57.0451     41.3738
  1441.6000      7.7450      2.6109      0.2156      2.3698     51.2581     41.0574
  1441.7000      7.7450      2.5763      0.1248      4.4689     50.0943     40.8344
  1441.8000      7.7396      2.5684      0.1533      4.9462     55.7044     40.7798
  1441.9000      7.7396      2.5774      0.0995      4.3999     61.0407     40.7170
  1442.0000      7.7793      2.5799      0.1236      4.2475     59.7136     40.5812
  1442.1000      7.7793      2.5573      0.0881      5.6212     52.8708     40.6679
  1442.2000      7.7793      2.5146      0.0861      8.2087     48.1088     41.0589
  1442.3000      7.7870      2.4754      0.0713     10.5799     48.3402     41.4675
  1442.4000      7.7870      2.4528      0.0439     11.9489     48.9945     41.7097
  1442.5000      7.8426      2.4588      0.0092     11.5850     49.9477     41.8910
  1442.6000      7.8426      2.5040      0.0403      8.8460     54.0771     42.2103
  1442.7000      7.8426      2.5539      0.2028      5.8220     58.8172     42.4715
  1442.8000      7.8091      2.5562      0.1341      5.6828     59.3137     42.3053
  1442.9000      7.8091      2.5247      0.0375      7.5968     54.9183     41.9319
  1443.0000      7.7760      2.5085      0.0539      8.5769     52.0488     41.8364
  1443.1000      7.7760      2.5103      0.1685      8.4654     55.1245     41.9688
  1443.2000      7.7760      2.5015      0.0307      9.0005     61.6202     41.8830
  1443.3000      7.7734      2.4795      0.0479     10.3336     66.6377     41.4124
  1443.4000      7.7734      2.4681     -0.0426     11.0226     66.2222     41.0180
  1443.5000      7.7851      2.4803      0.0478     10.2829     61.0288     40.9395
  1443.6000      7.7851      2.4858      0.0729      9.9486     57.7399     40.9291
  1443.7000      7.7851      2.4608     -0.0133     11.4681     59.6985     40.9045
  1443.8000      7.7639      2.4328      0.0082     13.1654     60.7730     41.1014
  1443.9000      7.7639      2.4299     -0.0027     13.3396     57.1510     41.5083
  1444.0000      7.8259      2.4387      0.0901     12.8044     53.1268     41.5670
  1444.1000      7.8259      2.4354      0.0594     13.0051     52.0259     41.2156
  1444.2000      7.8259      2.4315      0.0061     13.2421     52.3111     40.9504
  1444.3000      7.8658      2.4448     -0.0008     12.4390     51.3588     40.9408
  1444.4000      7.8658      2.4618      0.0817     11.4076     49.5784     41.0381
  1444.5000      7.8433      2.4682      0.0541     11.0178     49.0804     41.2385
  1444.6000      7.8433      2.4681      0.0745     11.0237     51.6699     41.7445
  1444.7000      7.8433      2.4619      0.1039     11.3990     61.2123     42.3742
  1444.8000      7.8304      2.4428      0.0315     12.5577     75.6622     42.7658
  1444.9000      7.8304      2.4206     -0.0336     13.9033     87.6033     42.8460
  1445.0000      7.8325      2.4175     -0.0210     14.0919     96.0440     42.5810
  1445.1000      7.8325      2.4358      0.0549     12.9832    102.9738     42.3538
  1445.2000      7.8325      2.4692      0.0299     10.9599    106.7861     42.6610
  1445.3000      7.8182      2.5145      0.1351      8.2148    104.6759     43.2233
  1445.4000      7.8182      2.5596      0.0978      5.4816     97.7950     43.4909
  1445.5000      7.8359      2.5896      0.1414      3.6604     91.0207     43.3920
  1445.6000      7.8359      2.5874      0.1462      3.7911     89.6787     43.3034
  1445.7000      7.8359      2.5516      0.0856      5.9648     94.4728     43.3564
  1445.8000      7.8761      2.5102      0.1036      8.4749     97.7376     43.3386
  1445.9000      7.8761      2.4906      0.0436      9.6585     91.7068     43.4192
  1446.0000      7.8472      2.4959      0.0625      9.3381     80.3416     43.8579
  1446.1000      7.8472      2.5196     -0.0334      7.9010     73.0440     44.2867
  1446.2000      7.8472      2.5543      0.0534      5.7970     71.5739     44.2806
  1446.3000      7.8660      2.5845      0.1086      3.9704     71.0186     44.0021
  1446.4000      7.8660      2.6022      0.1654      2.8972     68.5598     43.8148
  1446.5000      7.8649      2.6093      0.1279      2.4658     64.9290     43.5898
  1446.6000      7.8649      2.5962      0.2558      3.2590     59.9477     43.1392
  1446.7000      7.8649      2.5644      0.0692      5.1878     54.1155     42.7314
  1446.8000      7.8260      2.5420      0.0867      6.5476     52.5630     42.5030
  1446.9000      7.8260      2.5395      0.0263      6.6947     57.1962     42.3067
  1447.0000      7.7973      2.5493      0.0320      6.1019     62.7917     42.1651
  1447.1000      7.7973      2.5586      0.0529      5.5423     66.1104     42.2125
