~Version Information
VERS.                      2.0: CWLS Log ASCII Standard - VERSION 2.0
WRAP.                       NO: One line per depth step
~Well Information Block
STRT.FT               750.3000: 
STOP.FT              1254.0000: 
STEP.FT                 0.1000: 
NULL.                -999.2500: 
COMP.          Petrogulf Corporation: COMPANY
WELL.           Montoya 13-41V: WELL
FLD.           Purgatorie River: FIELD
LOC.           449' FNL & 891' FEL: LOCATION
CNTY.               Las Animas: COUNTY
SRVC.                         : SERVICE COMPANY
DATE.          Tue Aug 17 15:47:43 2004: LOG DATE
UWI.           05 071 08021 00: UNIQUE WELL ID
STAT.                 Colorado: STATE
~Curve Information Block
DEPT.FT            0 000 00 00: Depth
DCAL.in                       : CDL Caliper
RHOB.g/cc                     : CDL Bulk Density
RHOC.g/cc                     : CDL Density Correction
DPOR.pu                       : CDL Density Porosity
GR.GAPI                       : Gamma Ray
NPOR.pu                       : Neutron Porosity
~Parameter Information Block
~A  Depth       DCAL        RHOB        RHOC        DPOR         GR         NPOR    
# ...
   923.1000      8.2004      2.6032      0.1238      2.8379    109.1362     22.6325
   923.2000      8.2004      2.6030      0.1192      2.8485    114.3663     22.7526
   923.3000      8.1995      2.5850      0.0870      3.9411    115.0382     22.6570
   923.4000      8.1995      2.5645      0.0617      5.1813    113.7986     22.2583
   923.5000      8.1993      2.5513      0.1195      5.9822    112.3375     21.9975
   923.6000      8.1993      2.5409      0.0677      6.6106    110.3066     21.7697
   923.7000      8.1993      2.5356      0.0262      6.9350    109.0220     21.4775
   923.8000      8.2017      2.5489      0.0138      6.1282    107.3825     21.3950
   923.9000      8.2017      2.5821      0.0852      4.1123    102.3528     21.2611
   924.0000      8.2006      2.6118      0.1011      2.3166    100.2257     20.7038
   924.1000      8.2006      2.6201      0.0829      1.8102    107.4548     19.9561
   924.2000      8.2006      2.6142      0.0984      2.1705    116.4986     19.3621
   924.3000      8.1979      2.6065      0.1034      2.6388    116.8385     19.2137
   924.4000      8.1979      2.6033      0.0675      2.8286    111.7650     20.1410
   924.5000      8.1978      2.6017      0.0650      2.9300    109.9066     22.3408
   924.6000      8.1978      2.5944      0.0405      3.3673    107.0901     24.1759
   924.7000      8.1978      2.5894      0.0408      3.6700     98.8609     24.1229
   924.8000      8.2039      2.6039      0.0107      2.7958     96.0311     23.2918
   924.9000      8.2039      2.6306      0.0580      1.1778    103.5544     23.1568
   925.0000      8.2409      2.6446      0.0154      0.3246    110.8792     23.6674
   925.1000      8.2409      2.6463     -0.0226      0.2269    111.8249     24.2822
   925.2000      8.2409      2.6527      0.0084     -0.1631    109.3806     24.5272
   925.3000      8.2850      2.6694     -0.0105     -1.1737    106.0952     24.3002
   925.4000      8.2850      2.6837      0.0608     -2.0412    104.3189     24.2486
   925.5000      8.2900      2.6722      0.0357     -1.3474    108.0950     24.6204
   925.6000      8.2900      2.6331      0.0152      1.0239    114.7530     24.7510
   925.7000      8.2900      2.5964     -0.0453      3.2476    118.4118     24.8523
   925.8000      8.2901      2.5857     -0.0339      3.8997    118.5678     25.5840
   925.9000      8.2901      2.5929     -0.0252      3.4634    120.0895     26.5152
   926.0000      8.2978      2.6039     -0.0236      2.7963    126.5234     26.9402
   926.1000      8.2978      2.6134      0.0010      2.2192    132.2726     26.7175
   926.2000      8.2978      2.6150      0.0086      2.1189    128.8372     25.8184
   926.3000      8.3280      2.6096     -0.0084      2.4513    118.7439     24.7815
   926.4000      8.3280      2.6013      0.0313      2.9499    114.9314     24.4283
   926.5000      8.3323      2.5839      0.0383      4.0035    122.1420     24.5554
   926.6000      8.3323      2.5605     -0.0141      5.4214    126.0710     24.7379
   926.7000      8.3323      2.5512     -0.0054      5.9886    120.9484     24.8151
   926.8000      8.3592      2.5605      0.0093      5.4212    116.6388     24.5267
   926.9000      8.3592      2.5704     -0.0009      4.8225    115.1887     24.1254
   927.0000      8.4713      2.5731     -0.0226      4.6593    114.4311     24.3955
   927.1000      8.4713      2.5752      0.0330      4.5317    118.3061     25.4138
   927.2000      8.4713      2.5730      0.0480      4.6645    123.1081     26.3157
   927.3000      8.4961      2.5611      0.0660      5.3872    120.4355     26.8101
   927.4000      8.4961      2.5449      0.0381      6.3717    113.8539     27.1508
   927.5000      8.4330      2.5291      0.0660      7.3257    112.8230     27.2286
   927.6000      8.4330      2.5076      0.0769      8.6317    120.2140     26.9064
   927.7000      8.4330      2.4761      0.0087     10.5380    128.7609     26.4281
   927.8000      8.4366      2.4488     -0.0566     12.1923    131.5725     26.2942
   927.9000      8.4366      2.4403     -0.0376     12.7062    128.3344     26.7299
   928.0000      8.5455      2.4552      0.0021     11.8043    122.5029     27.4176
   928.1000      8.5455      2.4975      0.0398      9.2404    117.6038     27.8398
   928.2000      8.5455      2.5580      0.1384      5.5770    113.6750     28.0207
   928.3000      8.7212      2.6093      0.2086      2.4695    111.5602     28.2538
   928.4000      8.7212      2.6295      0.2118      1.2405    117.0999     28.3283
   928.5000      8.3418      2.6219      0.2234      1.7039    129.7468     28.1871
   928.6000      8.3418      2.6120      0.1338      2.3012    140.1530     28.1745
   928.7000      8.3418      2.6246      0.1223      1.5387    143.0047     28.4532
   928.8000      8.2669      2.6477      0.1667      0.1365    141.3422     28.8260
   928.9000      8.2669      2.6541      0.1035     -0.2455    138.6382     28.6223
   929.0000      8.2845      2.6411      0.1201      0.5378    134.0161     27.7585
   929.1000      8.2845      2.6223      0.0205      1.6778    126.9638     26.9746
   929.2000      8.2845      2.6130      0.0746      2.2412    121.1052     26.4873
   929.3000      8.2684      2.6223      0.1057      1.6791    119.2631     25.9295
   929.4000      8.2684      2.6474      0.1634      0.1593    120.1555     25.2461
   929.5000      8.2486      2.6670      0.2071     -1.0324    121.1337     24.8884
   929.6000      8.2486      2.6584      0.1775     -0.5102    118.9818     25.3226
   929.7000      8.2486      2.6299      0.0820      1.2204    114.5579     26.3216
   929.8000      8.2494      2.6152      0.0460      2.1084    113.5612     27.0101
   929.9000      8.2494      2.6233      0.0920      1.6157    115.1006     27.1047
   930.0000      8.3182      2.6284      0.0642      1.3081    113.7369     27.0915
   930.1000      8.3182      2.6207      0.0938      1.7743    111.7720     27.1939
   930.2000      8.3182      2.6143      0.0543      2.1640    115.3911     27.0863
   930.3000      8.3017      2.6119      0.0878      2.3110    120.0060     26.6091
   930.4000      8.3017      2.5988      0.0824      3.1040    118.0087     26.0449
   930.5000      8.3532      2.5723      0.0115      4.7106    114.1227     25.8930
   930.6000      8.3532      2.5453      0.0282      6.3442    114.1608     26.4597
   930.7000      8.3532      2.5254      0.0313      7.5516    114.2667     27.3537
   930.8000      8.2769      2.5200     -0.0599      7.8788    111.6488     27.7185
   930.9000      8.2769      2.5340     -0.0141      7.0309    111.0322     26.9764
   931.0000      8.2863      2.5540     -0.0235      5.8174    113.3737     25.6391
   931.1000      8.2863      2.5674     -0.0207      5.0065    112.1433     24.9718
   931.2000      8.2863      2.5728      0.0340      4.6799    108.1661     25.1928
   931.3000      8.2802      2.5755      0.0006      4.5138    104.4242     25.3685
   931.4000      8.2802      2.5814      0.0337      4.1576     99.7730     24.9162
   931.5000      8.2712      2.5791      0.0636      4.2983     95.9689     24.1990
   931.6000      8.2712      2.5600      0.0187      5.4534     95.9350     23.8019
   931.7000      8.2712      2.5389     -0.0043      6.7312     98.6734     23.6952
   931.8000      8.2413      2.5321     -0.0015      7.1449    102.9880     23.5276
   931.9000      8.2413      2.5414     -0.0000      6.5818    108.1968     23.6987
   932.0000      8.2321      2.5586     -0.0102      5.5394    110.3750     24.3921
   932.1000      8.2321      2.5752     -0.0235      4.5348    105.3082     24.6224
   932.2000      8.2321      2.5815      0.0209      4.1524     97.2743     24.1712
   932.3000      8.2413      2.5719      0.0140      4.7329     96.8281     23.7490
   932.4000      8.2413      2.5587     -0.0266      5.5353    105.4834     23.4370
   932.5000      8.2457      2.5575      0.0236      5.6089    112.9690     23.1261
   932.6000      8.2457      2.5676      0.0005      4.9943    111.2877     23.0521
