~Version Information
 VERS.                      2.0: CWLS Log ASCII Standard - VERSION 2.0
 WRAP.                       NO: One line per depth step
 ~Well Information Block
 STRT.FT              1969.0000: 
 STOP.FT              2129.7500: 
 STEP.FT                 0.2500: 
 NULL.                -999.2500: 
 COMP.          Petrogulf Corporation: COMPANY
 WELL.             State 16-43V: WELL
 FLD.           Purgatorie River: FIELD
 LOC.           2437' FSL & 734' FEL----: LOCATION
 CNTY.               Las Animas: COUNTY
 SRVC.                         : SERVICE COMPANY
 DATE.          Thu Dec 09 15:38:16 2004: LOG DATE
 UWI.                          : UNIQUE WELL ID
 STAT.                       CO: STATE
 PROV.                         :Province
 ~Curve Information Block
 DEPT.FT            0 000 00 00: Depth
 GR.GAPI                       : Gamma Ray
 CCL.                          : Casing Collar Locator
 TT3.usec                      : CBL 3' Travel Time
 AMP3.mV                       : CBL 3' Amplitude
 ~Parameter Information Block
 ~A  Depth        GR         CCL         TT3         AMP3    
# ...
  2002.5000     67.1811      0.0000    645.0866      4.8901
  2002.7500     65.4255      0.0000    661.6866      5.2729
  2003.0000     63.9198      0.0000    671.9173      5.6997
  2003.2500     63.2314      0.0000    679.4520      6.1444
  2003.5000     63.6359      0.0000    684.8726      6.5816
  2003.7500     64.9277      0.0000    688.1687      6.9872
  2004.0000     66.3873      0.0000    690.2023      7.3411
  2004.2500     67.2234      0.0000    691.7708      7.6325
  2004.5000     67.1871      0.0000    692.3987      7.8578
  2004.7500     66.7898      0.0000    690.8177      8.0168
  2005.0000     67.0757      0.0000    686.5551      8.1158
  2005.2500     68.9774      0.0000    680.7657      8.1749
  2005.5000     72.4308      0.0000    675.6325      8.2296
  2005.7500     76.0269      0.0000    673.2681      8.3176
  2006.0000     77.8308      0.0000    675.0454      8.4560
  2006.2500     76.7417      0.0000    681.0013      8.6236
  2006.5000     73.1005      0.0000    688.9615      8.7665
  2006.7500     68.1484      0.0000    694.8186      8.8287
  2007.0000     63.1370      0.0000    695.3182      8.7867
  2007.2500     58.9524      0.0000    691.1846      8.6617
  2007.5000     56.1560      0.0000    686.6597      8.4970
  2007.7500     54.9073      0.0000    685.5632      8.3261
  2008.0000     54.8611      0.0000    688.3033      8.1619
  2008.2500     55.5585      0.0000    692.5947      8.0105
  2008.5000     57.0413      0.0000    696.0970      7.8855
  2008.7500     59.7036      0.0000    698.0085      7.8067
  2009.0000     63.3552      0.0000    698.8677      7.7889
  2009.2500     66.8097      0.0000    699.6540      7.8395
  2009.5000     68.7568      0.0000    701.0394      7.9626
  2009.7500     68.9541      0.0000    702.9254      8.1557
  2010.0000     68.4803      0.0000    704.5175      8.3928
  2010.2500     68.8040      0.0000    705.4280      8.6186
  2010.5000     70.4702      0.0000    707.2806      8.7735
  2010.7500     72.5729      0.0000    714.0889      8.8215
  2011.0000     73.4943      0.0000    730.3303      8.7477
  2011.2500     72.1529      0.0000    757.6580      8.5413
  2011.5000     68.6487      0.0000    792.4806      8.1979
  2011.7500     64.1375      0.0000    826.4206      7.7368
  2012.0000     60.3556      0.0000    849.4846      7.1977
  2012.2500     58.9455      0.0000    853.9467      6.6129
  2012.5000     60.6912      0.0000    837.8614      5.9889
  2012.7500     65.1779      0.0000    807.3085      5.3305
  2013.0000     71.2045      0.0000    774.2163      4.6879
  2013.2500     77.6358      0.0000    749.0203      4.1557
  2013.5000     83.9329      0.0000    734.8829      3.7951
  2013.7500     89.7101      0.0000    729.9537      3.5680
  2014.0000     93.7107      0.0000    733.3574      3.3790
  2014.2500     93.7648      0.0000    746.0313      3.1733
  2014.5000     88.6007      0.0000    766.0815      2.9687
  2014.7500     79.6758      0.0000    786.5067      2.8076
  2015.0000     70.5004     -2.0000    798.7311      2.7098
  2015.2500     64.0336      0.0000    797.4088      2.6704
  2015.5000     61.0505      2.0000    781.8430      2.6793
  2015.7500     60.8006      0.0000    754.9251      2.7323
  2016.0000     62.3967      0.0000    722.4601      2.8225
  2016.2500     65.1076      0.0000    692.2794      2.9254
  2016.5000     67.8288      0.0000    670.8763      2.9996
  2016.7500     69.2301      0.0000    659.4861      3.0147
  2017.0000     68.7800      0.0000    654.0388      2.9759
  2017.2500     67.4416      0.0000    649.2440      2.9101
  2017.5000     67.3083      0.0000    642.8698      2.8360
  2017.7500     70.5113      0.0000    636.7225      2.7580
  2018.0000     77.8439      0.0000    633.9913      2.6810
  2018.2500     87.7550      0.0000    635.6320      2.6151
  2018.5000     96.8932      0.0000    639.4747      2.5664
  2018.7500    102.3430      0.0000    642.9886      2.5351
  2019.0000    103.7053      0.0000    646.0168      2.5198
  2019.2500    103.1911      0.0000    649.8768      2.5192
  2019.5000    103.9447      0.0000    654.1797      2.5297
  2019.7500    108.1793      0.0000    655.8332      2.5460
  2020.0000    116.2431      0.0000    651.8287      2.5643
  2020.2500    126.7501      0.0000    642.7520      2.5858
  2020.5000    137.2087      0.0000    633.0183      2.6197
  2020.7500    144.8453      0.0000    627.4648      2.6777
  2021.0000    147.7091      0.0000    627.8672      2.7596
  2021.2500    145.4722      0.0000    632.4561      2.8453
  2021.5000    139.2196      0.0000    638.1071      2.9049
  2021.7500    130.8822      0.0000    642.7317      2.9194
  2022.0000    123.0754      0.0000    646.2737      2.8929
  2022.2500    118.6620      0.0000    650.1122      2.8479
  2022.5000    119.3577      0.0000    655.2946      2.8065
  2022.7500    124.4488      0.0000    660.5693      2.7736
  2023.0000    131.0321      0.0000    662.5304      2.7375
  2023.2500    135.5178      0.0000    658.8413      2.6859
  2023.5000    135.2397      0.0000    651.1514      2.6206
  2023.7500    129.5719      0.0000    643.7275      2.5569
  2024.0000    120.2732      0.0000    639.4174      2.5116
  2024.2500    110.5684      0.0000    637.9011      2.4895
  2024.5000    103.0551      0.0000    637.5834      2.4792
  2024.7500     98.0956      0.0000    638.2501      2.4672
  2025.0000     94.5668      0.0000    641.6010      2.4560
  2025.2500     92.0516      0.0000    649.4819      2.4673
  2025.5000     91.3861      0.0000    661.4816      2.5234
  2025.7500     92.8317      0.0000    673.7644      2.6255
  2026.0000     94.7766      0.0000    680.3276      2.7481
  2026.2500     95.0414      0.0000    676.4546      2.8561
  2026.5000     92.9556      0.0000    662.1002      2.9326
  2026.7500     89.5552      0.0000    642.1925      2.9930
  2027.0000     86.2653      0.0000    623.5750      3.0717
  2027.2500     84.0201      0.0000    611.3596      3.1935
  2027.5000     83.1567      0.0000    607.1507      3.3598
  2027.7500     83.2557      0.0000    609.6093      3.5588
  2028.0000     83.0743      0.0000    616.5931      3.7827
  2028.2500     81.3691      0.0000    627.1568      4.0312
  2028.5000     78.1708      0.0000    641.4410      4.3029
  2028.7500     75.0480      0.0000    658.4613      4.5969
  2029.0000     73.9351      0.0000    674.6063      4.9261
  2029.2500     75.6917      0.0000    685.3736      5.3166
  2029.5000     79.7192      0.0000    688.8790      5.7825
  2029.7500     84.7685      0.0000    687.2012      6.3018
  2030.0000     89.8106      0.0000    684.1985      6.8243
  2030.2500     93.9516      0.0000    682.3605      7.3075
  2030.5000     95.9835      0.0000    681.7417      7.7385
  2030.7500     94.8548      0.0000    681.4151      8.1243
  2031.0000     90.9250      0.0000    681.2137      8.4739
  2031.2500     86.4238      0.0000    681.6421      8.7956
  2031.5000     84.2877      0.0000    682.8018      9.0903
  2031.7500     86.1709      0.0000    684.6371      9.3234
  2032.0000     91.2072      0.0000    688.1760      9.4202
  2032.2500     96.5787      0.0000    694.8347      9.3184
  2032.5000     99.5097      0.0000    703.5758      9.0264
  2032.7500     99.1989      0.0000    710.5319      8.6200
  2033.0000     97.1326      0.0000    713.3628      8.1881
  2033.2500     95.4630      0.0000    714.7184      7.7875
  2033.5000     95.1084      0.0000    718.9948      7.4395
  2033.7500     95.5009      0.0000    725.9313      7.1541
  2034.0000     95.6149      0.0000    729.4495      6.9501
  2034.2500     94.6162      0.0000    723.4960      6.8511
  2034.5000     91.9159      0.0000    708.8901      6.8649
  2034.7500     87.5167      0.0000    694.4545      6.9599
  2035.0000     82.4043      0.0000    690.5474      7.0573
  2035.2500     78.0324      0.0000    700.0791      7.0558
  2035.5000     75.3029      0.0000    715.6228      6.8811
  2035.7500     74.3873      0.0000    725.6642      6.5257
