~Version Information
 VERS.                                  2.0 : CWLS LAS VERSION
 WRAP.                                   NO : WRAPING MODE
 SWARE .                  MController 2.5.1 : SOFTWARE VERSION
~Well Information
 WELL.                 Big Cat Federal 44-1 : WELL
 COMP.  Pioneer Natural Resources USA, Inc. : COMPANY
 FLD.                      Purgatoire River : FIELD
 LOC.               SE/SE Sec.1, T34S, R66W : LOCATION
 DATE.                04/23/2006-04/23/2006 : DATE(S) LOGGED
 SRVC.                  Entrada GeoSciences : SERVICE COMPANY
 STAT.                             Colorado : STATE
 CNTY.                           Las Animas : COUNTY
 CTRY.                        United States : COUNTRY
 API.                          071-08042-00 : API NUMBER
 STRT.FT                             266.00 : START DEPTH
 STOP.FT                            1570.00 : STOP DEPTH
 STEP.FT                               1.00 : DEPTH INCREMENT
 NULL.                                -9999 : NULL VALUE
~Curve information
 DEPTH.FT                                   :
 ROP.MIN/FT                                 :
 GAS.UNITS                                  :
~ASCII Log data
# ...
     1266.00         0.43         67.5 
     1267.00         0.27         60.3 
     1268.00         0.30         52.1 
     1269.00         0.23         46.6 
     1270.00         0.37         40.1 
     1271.00         0.27         40.5 
     1272.00         0.55         52.2 
     1273.00         0.33         83.1 
     1274.00         0.27        111.6 
     1275.00         0.27        139.0 
     1276.00         0.30        169.4 
     1277.00         0.23        183.9 
     1278.00         0.20        186.8 
     1279.00         0.27        186.0 
     1280.00         0.17        183.8 
     1281.00         0.27        178.3 
     1282.00         0.17        174.9 
     1283.00         0.27        168.7 
     1284.00         0.22        164.5 
     1285.00         0.43        162.6 
     1286.00         0.40        152.6 
     1287.00         0.37        142.6 
     1288.00         0.40        133.0 
     1289.00         0.40        119.8 
     1290.00         0.43        109.8 
     1291.00         0.37        108.5 
     1292.00         0.37        109.9 
     1293.00         0.52        113.8 
     1294.00         0.30        132.2 
     1295.00         0.37        156.5 
     1296.00         0.28        173.2 
     1297.00         0.27        188.9 
     1298.00         0.33        207.6 
     1299.00         0.30        224.3 
     1300.00         0.30        242.5 
     1301.00         0.40        267.7 
     1302.00         0.20        283.7 
     1303.00         0.27        306.5 
     1304.00         0.30        336.3 
     1305.00         0.27        374.5 
     1306.00         0.30        460.9 
     1307.00         0.28        177.4 
     1308.00         0.30        572.4 
     1309.00         0.23        927.7 
     1310.00         0.37        489.7 
     1311.00         0.27        869.0 
     1312.00         0.43        399.2 
     1313.00         0.23        635.6 
     1314.00         0.30        894.3 
     1315.00         0.33        132.6 
     1316.00         0.30        285.8 
     1317.00         0.27        387.8 
     1318.00         0.32        477.7 
     1319.00         0.33        545.8 
     1320.00         0.30        602.1 
     1321.00         0.27        632.5 
     1322.00         0.27        671.5 
     1323.00         0.92        862.1 
     1324.00         0.27        895.4 
     1325.00         0.40        959.0 
     1326.00         0.30        808.0 
     1327.00         0.27        549.2 
     1328.00         0.27        106.5 
     1329.00         0.33        191.5 
     1330.00         0.27        249.1 
     1331.00         0.40        343.8 
     1332.00         0.27        395.3 
     1333.00         0.28        430.1 
     1334.00         0.47        498.6 
     1335.00         0.30        509.1 
     1336.00         0.27        530.9 
     1337.00         0.33        566.7 
     1338.00         0.27        573.1 
     1339.00         0.40        590.7 
     1340.00         0.40        594.8 
     1341.00         0.30        587.5 
     1342.00         0.33        565.4 
     1343.00         0.42        546.2 
     1344.00         0.27        531.8 
     1345.00         0.37        504.3 
     1346.00         0.43        488.0 
     1347.00         0.27        483.9 
     1348.00         0.50        481.3 
     1349.00         0.27        467.9 
     1350.00         0.27        462.8 
     1351.00         0.40        468.8 
     1352.00         0.27        481.6 
     1353.00         0.35        553.6 
     1354.00         0.27        576.3 
     1355.00         0.17        579.2 
     1356.00         0.27        584.0 
     1357.00         0.27        591.6 
     1358.00         0.27        594.5 
     1359.00         0.27        594.8 
     1360.00         0.27        603.8 
     1361.00         0.28        601.6 
     1362.00         0.40        608.3 
     1363.00         0.40        604.1 
     1364.00         0.27        615.3 
     1365.00         0.27        609.2 
     1366.00         0.30        511.8 
     1367.00         0.27        619.8 
     1368.00         0.27        614.3 
     1369.00         0.37        621.7 
     1370.00         0.33        625.9 
     1371.00         0.27        622.3 
     1372.00         0.28        632.3 
     1373.00         0.40        614.3 
     1374.00         0.43        621.4 
     1375.00         0.37        616.9 
     1376.00         0.43        625.5 
     1377.00         0.27        623.3 
     1378.00         0.43        632.6 
     1379.00         0.33        633.9 
     1380.00         0.23        631.0 
     1381.00         0.42        629.7 
     1382.00         0.53        629.4 
     1383.00         0.43        631.0 
     1384.00         0.20        632.9 
     1385.00         0.27        630.0 
     1386.00         0.33        633.2 
     1387.00         0.32        637.1 
     1388.00         0.27        633.2 
     1389.00         0.23        637.1 
     1390.00         0.27        644.7 
     1391.00         0.37        646.7 
     1392.00         0.27        641.2 
     1393.00         0.30        643.1 
     1394.00         0.27        642.5 
     1395.00         0.27        636.7 
     1396.00         0.27        639.6 
     1397.00         0.27        640.3 
     1398.00         0.17        639.3 
     1399.00         0.27        640.6 
     1400.00         0.28        642.2 
     1401.00         0.30        641.5 
     1402.00         0.27        642.8 
     1403.00         0.27        640.6 
     1404.00         0.30        124.8 
     1405.00         0.27        430.3 
     1406.00         0.27        647.5 
     1407.00         0.27        400.0 
     1408.00         0.27        317.7 
     1409.00         0.37        312.7 
     1410.00         0.62        313.3 
     1411.00         0.17        213.1 
     1412.00         0.28        313.5 
     1413.00         0.43        312.1 
     1414.00         0.60        313.1 
     1415.00         0.30        313.9 
     1416.00         0.32        314.3 
     1417.00         0.30        212.0 
     1418.00         0.50        221.2 
     1419.00         0.80        204.9 
     1420.00         0.17        279.0 
     1421.00         0.48        235.9 
     1422.00         0.27        431.0 
     1423.00         0.30        411.9 
     1424.00         0.25        413.9 
     1425.00         0.30        235.7 
     1426.00         0.37        235.0 
     1427.00         0.30        210.5 
     1428.00         0.23        129.9 
     1429.00         0.13        110.0 
     1430.00         0.27        117.8 
     1431.00         0.13        117.4 
     1432.00         0.10        117.6 
     1433.00         0.58        117.9 
     1434.00         0.27        119.2 
     1435.00         0.13        119.6 
     1436.00         0.30        129.5 
     1437.00         0.23        139.5 
     1438.00         0.13        129.5 
     1439.00         0.10        129.8 
     1440.00         0.13        118.5 
     1441.00         0.15        129.0 
     1442.00         0.33         59.2 
     1443.00         0.27         49.7 
     1444.00         0.10         39.7 
     1445.00         0.38         40.5 
     1446.00         0.57         30.0 
     1447.00         0.17         30.4 
     1448.00         0.13         40.0 
     1449.00         0.10         40.4 
     1450.00         0.13         40.4 
     1451.00         0.13         40.9 
     1452.00         0.10         49.9 
     1453.00         0.13         20.4 
     1454.00         0.20         10.2 
     1455.00         0.22         11.2 
     1456.00         0.17         10.2 
     1457.00         0.20         10.5 
     1458.00         0.10          9.7 
     1459.00         0.10         11.4 
     1460.00         0.20         10.2 
     1461.00         0.20         10.3 
     1462.00         0.20         10.7 
     1463.00         0.13         10.6 
     1464.00         0.40          9.8 
     1465.00         0.22         10.3 
