~Version Information
VERS.                      2.0: CWLS Log ASCII Standard - VERSION 2.0
WRAP.                       NO: One line per depth step
~Well Information Block
STRT.FT               964.2000: 
STOP.FT              2596.7000: 
STEP.FT                 0.1000: 
NULL.                -999.2500: 
COMP.          Petrogulf Corporation: COMPANY
WELL.             Valejo 8-12V: WELL
FLD.           Purgatorie River: FIELD
LOC.           1510' FNL & 1460' FWL: LOCATION
CNTY.               Las Animas: COUNTY
SRVC.                         : SERVICE COMPANY
DATE.          Sat Nov 15 12:30:37 2003: LOG DATE
UWI.                          : UNIQUE WELL ID
STAT.                 Colorado: STATE
~Curve Information Block
DEPT.FT            0 000 00 00: Depth
DCAL.in                       : CDL Caliper
RHOB.g/cc                     : CDL Bulk Density
RHOC.g/cc                     : CDL Density Correction
DPOR.pu                       : CDL Density Porosity
GR.GAPI                       : Gamma Ray
NPOR.pu                       : Neutron Porosity
~Parameter Information Block
~A  Depth       DCAL        RHOB        RHOC        DPOR         GR         NPOR    
# ...
  1415.4000      8.8603      2.6554      0.0766     -0.3288     72.6541     16.9805
  1415.5000      8.8587      2.6652      0.0914     -0.9233     71.9899     15.9224
  1415.6000      8.8587      2.6654      0.0653     -0.9316     77.6109     16.3101
  1415.7000      8.8587      2.6663      0.0550     -0.9858     85.9883     18.0812
  1415.8000      8.8560      2.6716      0.0737     -1.3106     91.8988     19.7397
  1415.9000      8.8560      2.6722      0.0657     -1.3428     93.1002     20.6088
  1416.0000      8.8537      2.6637      0.0717     -0.8304     88.8833     20.9748
  1416.1000      8.8537      2.6530      0.0571     -0.1804     82.4431     20.8230
  1416.2000      8.8537      2.6466      0.0797      0.2053     79.7326     20.4349
  1416.3000      8.8529      2.6419      0.0596      0.4889     82.9405     20.2750
  1416.4000      8.8529      2.6386      0.0520      0.6913     87.6780     20.4685
  1416.5000      8.8545      2.6376      0.0273      0.7515     88.1860     21.0088
  1416.6000      8.8545      2.6292      0.0424      1.2602     85.4898     21.5697
  1416.7000      8.8545      2.6104      0.0108      2.4008     84.6821     21.9104
  1416.8000      8.8585      2.5936      0.0076      3.4179     87.7422     22.3922
  1416.9000      8.8585      2.5885     -0.0016      3.7288     94.6131     23.4073
  1417.0000      8.8636      2.5931      0.0316      3.4479    103.0857     24.5250
  1417.1000      8.8636      2.6000      0.0271      3.0323    105.6017     24.9343
  1417.2000      8.8636      2.6082      0.0137      2.5341     99.1188     24.7433
  1417.3000      8.8683      2.6149      0.0518      2.1251     91.8946     24.2396
  1417.4000      8.8683      2.6061      0.0533      2.6606     89.2258     23.9600
  1417.5000      8.8711      2.5818     -0.0267      4.1318     88.5395     25.0364
  1417.6000      8.8711      2.5599     -0.0205      5.4635     90.1016     27.1458
  1417.7000      8.8711      2.5477     -0.0400      6.1978     94.5559     28.5625
  1417.8000      8.8719      2.5471     -0.0547      6.2344    100.0544     28.3915
  1417.9000      8.8719      2.5612     -0.0462      5.3811    105.3702     26.6891
  1418.0000      8.8717      2.5793      0.0144      4.2835    108.2070     24.2406
  1418.1000      8.8717      2.5855      0.0226      3.9118    108.3039     22.5948
  1418.2000      8.8717      2.5792      0.0637      4.2932    104.8697     22.3274
  1418.3000      8.8721      2.5681      0.0354      4.9613     99.0563     22.3990
  1418.4000      8.8721      2.5541      0.0410      5.8125     96.5489     22.3729
  1418.5000      8.8736      2.5307      0.0565      7.2312     95.9970     22.6487
  1418.6000      8.8736      2.5053      0.0097      8.7689     95.1177     22.9605
  1418.7000      8.8736      2.5026      0.0105      8.9343     97.7489     22.6877
  1418.8000      8.8759      2.5231      0.0902      7.6936    100.5699     21.8423
  1418.9000      8.8759      2.5420      0.0522      6.5458     99.5198     21.5494
  1419.0000      8.8783      2.5507      0.0408      6.0210     99.7295     22.6796
  1419.1000      8.8783      2.5527      0.0548      5.8950     99.2492     24.4317
  1419.2000      8.8783      2.5479      0.0454      6.1878     92.9783     26.0964
  1419.3000      8.8805      2.5400      0.0252      6.6666     85.2035     27.2907
  1419.4000      8.8805      2.5362      0.0535      6.8970     83.3598     27.1025
  1419.5000      8.8822      2.5357      0.0726      6.9275     92.1146     25.8535
  1419.6000      8.8822      2.5356      0.0339      6.9347    107.6616     25.0545
  1419.7000      8.8822      2.5374      0.0408      6.8252    120.3585     25.1344
  1419.8000      8.8830      2.5345      0.0828      7.0011    121.7023     25.7327
  1419.9000      8.8830      2.5215      0.0569      7.7907    115.1343     26.7134
  1420.0000      8.8827      2.5086      0.0366      8.5691    115.1719     27.2064
  1420.1000      8.8827      2.4969      0.0857      9.2808    120.7276     26.6165
  1420.2000      8.8827      2.4725      0.0676     10.7595    119.2537     25.8797
  1420.3000      8.8816      2.4356      0.0627     12.9927    113.7674     26.3924
  1420.4000      8.8816      2.4050      0.0204     14.8486    112.8735     28.6742
  1420.5000      8.8808      2.3948      0.0120     15.4657    113.4734     30.9844
  1420.6000      8.8808      2.4012      0.0536     15.0762    108.7752     30.9483
  1420.7000      8.8808      2.4227      0.0155     13.7756    101.3246     28.8369
  1420.8000      8.8819      2.4623      0.1015     11.3779     98.7561     26.6691
  1420.9000      8.8819      2.5065      0.1449      8.6992    101.0384     25.4971
  1421.0000      8.8866      2.5495      0.1474      6.0932    102.5669     24.6663
  1421.1000      8.8866      2.5991      0.1718      3.0861    102.2452     23.0621
  1421.2000      8.8866      2.6532      0.2258     -0.1939     99.2649     20.7875
  1421.3000      8.8970      2.7177      0.2138     -4.1051     95.4346     18.8253
  1421.4000      8.8970      2.8085      0.2468     -9.6066     96.0600     17.8200
  1421.5000      8.9147      2.9079      0.2806    -15.6290     98.6696     17.7390
  1421.6000      8.9147      2.9645      0.2770    -19.0622     96.4230     18.1651
  1421.7000      8.9147      2.9606      0.1532    -18.8222     88.0389     19.0294
  1421.8000      8.9389      2.9227      0.1898    -16.5297     78.8598     19.8312
  1421.9000      8.9389      2.8695      0.1166    -13.3043     75.1958     19.4816
  1422.0000      8.9657      2.8106      0.0655     -9.7334     75.9855     18.0804
  1422.1000      8.9657      2.7565      0.0565     -6.4561     75.2719     16.8081
  1422.2000      8.9657      2.7042      0.0840     -3.2820     74.2366     16.6803
  1422.3000      8.9894      2.6476      0.0763      0.1453     79.9070     18.1212
  1422.4000      8.9894      2.5986      0.0414      3.1138     89.2857     20.5669
  1422.5000      9.0061      2.5748      0.0245      4.5598     94.7775     22.3826
  1422.6000      9.0061      2.5723      0.0392      4.7063     98.8815     22.1553
  1422.7000      9.0061      2.5671      0.0809      5.0224    104.0599     20.4614
  1422.8000      9.0154      2.5475      0.0293      6.2137    107.9291     19.3712
  1422.9000      9.0154      2.5275      0.0327      7.4245    112.2491     20.0127
  1423.0000      9.0193      2.5180      0.0140      8.0006    116.5344     21.3462
  1423.1000      9.0193      2.5103      0.0699      8.4691    115.9844     21.7728
  1423.2000      9.0193      2.4956      0.0317      9.3572    108.2725     21.1380
  1423.3000      9.0205      2.4870      0.0300      9.8796    100.3409     20.1316
  1423.4000      9.0205      2.4947      0.0318      9.4124    102.1146     19.3696
  1423.5000      9.0209      2.5078      0.0370      8.6177    109.6970     19.2137
  1423.6000      9.0209      2.5146      0.0389      8.2060    113.7212     20.1591
  1423.7000      9.0209      2.5132      0.0485      8.2922    110.7063     21.1138
  1423.8000      9.0220      2.5042      0.0544      8.8349    104.2863     20.0316
  1423.9000      9.0220      2.4950      0.0213      9.3946    103.8129     18.0056
  1424.0000      9.0244      2.5019      0.0381      8.9782    108.5066     17.3172
  1424.1000      9.0244      2.5315      0.0383      7.1789    110.2423     17.5848
  1424.2000      9.0244      2.5712      0.0812      4.7784    106.3583     17.6607
  1424.3000      9.0279      2.6010      0.0937      2.9707     99.2999     17.9874
  1424.4000      9.0279      2.6165      0.0648      2.0275     92.4863     19.0248
  1424.5000      9.0320      2.6263      0.0756      1.4337     88.4629     20.1044
  1424.6000      9.0320      2.6323      0.0655      1.0728     87.6547     20.8279
  1424.7000      9.0320      2.6310      0.0821      1.1506     86.4046     20.9921
  1424.8000      9.0358      2.6246      0.0664      1.5396     84.3330     20.4619
  1424.9000      9.0358      2.6183      0.0710      1.9183     84.8020     19.8089
