~Version Information
 VERS.                                  2.0 : CWLS LAS VERSION
 WRAP.                                   NO : WRAPING MODE
 SWARE .                 MController 2.5.0N : SOFTWARE VERSION
~Well Information
 WELL.                           King 22-13 : WELL
 COMP.    Pioneer Natural Resources USA Inc : COMPANY
 FLD.                      Purgatoire River : FIELD
 LOC.                SE/NW Sec 13 T32S R66W : LOCATION
 DATE.                           3/30-31/05 : DATE(S) LOGGED
 SRVC.       Blanco Geological Services LLC : SERVICE COMPANY
 STAT.                                   CO : STATE
 CNTY.                           Las Animas : COUNTY
 CTRY.                                  USA : COUNTRY
 API.                       05-071-08318-00 : API NUMBER
 STRT.FT                             603.00 : START DEPTH
 STOP.FT                            2185.00 : STOP DEPTH
 STEP.FT                               1.00 : DEPTH INCREMENT
 NULL.                                -9999 : NULL VALUE
~Curve information
 DEPTH.FT                                   :
 ROP.MIN/FT                                 :
 GAS.UNITS                                  :
~ASCII Log data
       603.0     -9999.00          5.9 
       604.0        30.88        134.2 
       605.0         0.07          2.0 
       606.0         0.10          2.4 
       607.0         0.53          3.9 
       608.0         1.03          4.8 
       609.0         0.12          3.0 
       610.0         0.33          4.6 
       611.0         1.13          7.0 
       612.0         0.07          3.9 
       613.0         0.10          4.5 
       614.0         0.10          4.0 
       615.0         0.10          4.5 
       616.0         0.10          4.5 
       617.0         0.10          4.0 
       618.0         0.13          4.0 
       619.0         0.13          4.3 
       620.0         0.13          4.3 
       621.0         0.13          3.4 
       622.0         0.47          3.9 
       623.0         0.82          3.6 
       624.0         0.13          3.6 
       625.0         0.30          3.3 
       626.0         0.17          3.5 
       627.0         0.30          3.5 
       628.0         0.17          3.2 
       629.0         0.10          3.2 
       630.0         0.13          3.2 
       631.0         0.27          3.3 
       632.0         0.23          3.6 
       633.0         1.15          5.1 
       634.0         0.37          4.3 
       635.0         0.33          4.0 
       636.0         0.20          3.9 
       637.0         0.23          4.7 
       638.0         3.35          5.1 
       639.0         0.17          4.9 
       640.0         0.07          4.2 
       641.0         0.17          4.2 
       642.0         0.23          4.4 
       643.0         0.10          4.4 
       644.0         0.10          4.7 
       645.0         0.17          4.7 
       646.0         0.20          4.2 
       647.0         0.33          5.0 
       648.0         0.10          5.0 
       649.0         0.27          4.5 
       650.0         0.28          5.4 
       651.0         0.17          5.3 
       652.0         2.30          7.0 
       653.0         0.23          5.3 
       654.0         0.17          5.1 
       655.0         0.17          5.9 
       656.0         0.13          5.1 
       657.0         0.12          5.1 
       658.0         0.23          5.6 
       659.0         0.10          5.7 
       660.0         0.10          5.7 
       661.0         1.30          6.4 
       662.0         0.83          6.3 
       663.0         0.33          6.0 
       664.0         0.13          6.2 
       665.0         0.17          6.2 
       666.0         0.62          5.7 
       667.0         0.17          5.3 
       668.0         0.17          5.8 
       669.0         0.20          5.5 
       670.0         0.17          5.3 
       671.0         0.37          6.4 
       672.0         0.87          5.8 
       673.0         0.27          6.1 
       674.0         0.13          6.3 
       675.0         0.58          5.9 
       676.0         0.13          5.5 
       677.0         0.40          6.3 
       678.0         0.30          5.9 
       679.0         0.27          5.8 
       680.0         0.10          5.8 
       681.0         0.10          5.8 
       682.0         0.17          6.0 
       683.0         1.50          6.2 
       684.0         0.23          5.1 
       685.0         0.15          5.1 
       686.0         0.17          4.9 
       687.0         0.47          6.0 
       688.0         0.20          5.7 
       689.0         0.07          5.7 
       690.0         0.27          6.6 
       691.0         0.53          6.0 
       692.0         0.27          5.2 
       693.0         0.17          5.3 
       694.0         0.13          5.3 
       695.0         0.27          5.9 
       696.0         0.13          6.2 
       697.0         0.75          5.6 
       698.0         0.97          6.0 
       699.0         0.13          6.2 
       700.0         2.98          6.6 
       701.0         0.13          6.5 
       702.0         0.23          5.8 
       703.0         0.30          5.8 
       704.0         0.13          5.6 
       705.0         0.20          5.5 
       706.0         0.27          6.8 
       707.0         0.23          7.0 
       708.0         0.13          7.0 
       709.0         0.13          6.7 
       710.0         0.13          6.7 
       711.0         0.17          5.6 
       712.0         0.20          5.9 
       713.0         0.25          6.3 
       714.0         0.50          6.0 
       715.0         0.60          6.2 
       716.0         1.33          7.0 
       717.0         0.17          5.8 
       718.0         0.13          5.1 
       719.0         0.13          5.5 
       720.0         0.13          5.3 
       721.0         0.13          5.6 
       722.0         0.10          5.6 
       723.0         0.15          5.9 
       724.0         0.20          6.4 
       725.0         0.13          6.4 
       726.0         0.17          6.8 
       727.0         0.17          7.1 
       728.0         0.17          7.1 
       729.0         0.13          8.3 
       730.0         0.20          8.1 
       731.0         0.17          7.1 
       732.0         0.13          7.4 
       733.0         0.17          7.1 
       734.0         0.13          6.0 
       735.0         0.17          6.5 
       736.0         0.17          6.2 
       737.0         0.13          6.6 
       738.0         0.13          6.0 
       739.0         0.13          6.2 
       740.0         0.10          6.2 
       741.0         0.13          6.2 
       742.0         0.13          6.2 
       743.0         0.27          7.3 
       744.0         0.18          7.3 
       745.0         0.27          7.2 
       746.0         1.27          6.5 
       747.0         0.30          7.2 
       748.0         0.30          6.6 
       749.0         0.23          6.7 
       750.0         0.23          5.9 
       751.0         0.17          6.3 
       752.0         0.20          7.1 
       753.0         0.27          6.6 
       754.0         0.18          6.5 
       755.0         0.17          6.6 
       756.0         0.17          6.6 
       757.0         0.17          6.5 
       758.0         0.17          5.7 
       759.0         0.20          6.8 
       760.0         0.20          6.8 
       761.0         0.20          6.4 
       762.0         0.27          5.6 
       763.0         0.20          6.2 
       764.0         0.23          6.4 
       765.0         0.23          7.0 
       766.0         0.20          6.4 
       767.0         0.20          5.8 
       768.0         0.20          5.6 
       769.0         0.17          5.7 
       770.0         0.13          5.7 
       771.0         0.25          6.2 
       772.0         0.17          7.7 
       773.0         0.13          7.1 
       774.0         0.13          8.0 
       775.0         0.27          8.0 
       776.0         2.03          7.9 
       777.0         0.27          6.5 
       778.0         0.28          6.3 
       779.0         0.23          6.3 
       780.0         0.17          6.7 
       781.0         0.10          6.3 
       782.0         0.20          5.7 
       783.0         0.17          5.9 
       784.0         0.20          5.9 
       785.0         0.17          6.8 
       786.0         0.17          6.6 
       787.0         0.17          6.7 
       788.0         0.13          6.7 
       789.0         0.13          6.4 
       790.0         0.17          6.4 
       791.0         0.17          6.4 
       792.0         0.13          6.4 
       793.0         0.13          5.6 
       794.0         0.17          5.6 
       795.0         0.13          6.0 
       796.0         0.17          5.1 
       797.0         0.13          5.8 
       798.0         0.13          5.8 
       799.0         0.15          6.1 
       800.0         0.13          6.5 
       801.0         0.17          6.3 
       802.0         0.10          6.3 
