~Version Information
VERS.                      2.0: CWLS Log ASCII Standard - VERSION 2.0
WRAP.                       NO: One line per depth step
~Well Information Block
STRT.FT               -14.2500: 
STOP.FT              2177.5000: 
STEP.FT                 0.2500: 
NULL.                -999.2500: 
COMP.          Evergreen Operating Corp.: COMPANY
WELL.            Triumph 13-10: WELL
FLD.           Purgatorie River: FIELD
LOC.           1551' FSL & 522' FWL--: LOCATION
PROV.                       CO: PROVINCE
CNTY.               Las Animas: COUNTRY
SRVC.                         : SERVICE COMPANY
DATE.          Sat Aug 21 09:27:32 2004: LOG DATE
UWI.           005 071 08108 : UNIQUE WELL ID
~Curve Information Block
DEPT.FT            0 000 00 00: Depth
CCL.                          : Casing Collar Locator
TT3.usec                      : CBL 3' Travel Time
AMP3.mV                       : CBL 3' Amplitude
GR.GAPI                       : Gamma Ray
~Parameter Information Block
~A  Depth       CCL         TT3         AMP3         GR     
# ...
  1258.7500      0.0000    702.8766      3.8849    119.7574
  1259.0000      0.0000    701.4803      3.8414    118.4599
  1259.2500      0.0000    700.7774      3.7463    121.0377
  1259.5000      0.0000    699.8361      3.5925    125.6313
  1259.7500      0.0000    697.9840      3.4382    129.1480
  1260.0000      0.0000    696.1277      3.3322    129.9412
  1260.2500      0.0000    695.8406      3.2489    128.9753
  1260.5000      0.0000    697.5421      3.1414    128.2269
  1260.7500      0.0000    700.3572      3.0431    128.3585
  1261.0000      0.0000    703.3412      3.0526    128.4512
  1261.2500      0.0000    705.8274      3.2222    127.5592
  1261.5000      0.0000    706.8023      3.5151    125.6970
  1261.7500      0.0000    705.2073      3.8574    123.3226
  1262.0000      0.0000    701.3969      4.1702    120.6458
  1262.2500      0.0000    697.7322      4.3749    117.6570
  1262.5000      0.0000    696.9856      4.4250    114.2391
  1262.7500      0.0000    700.0552      4.3351    110.0675
  1263.0000      0.0000    705.5959      4.1569    104.7813
  1263.2500      0.0000    711.7655      3.9362     98.3072
  1263.5000      0.0000    717.5583      3.6948     90.8890
  1263.7500      0.0000    722.2264      3.4416     83.0705
  1264.0000      0.0000    724.4404      3.1880     75.7986
  1264.2500      0.0000    723.1693      2.9512     70.1644
  1264.5000      0.0000    719.2504      2.7479     66.7410
  1264.7500      0.0000    715.2308      2.5938     65.0815
  1265.0000      0.0000    713.6002      2.5016     63.8825
  1265.2500      0.0000    715.4669      2.4626     61.9011
  1265.5000      0.0000    720.2748      2.4406     58.8935
  1265.7500      0.0000    725.8593      2.4137     55.6300
  1266.0000      0.0000    729.1557      2.4183     53.0320
  1266.2500      0.0000    728.0013      2.5097     51.3781
  1266.5000      0.0000    722.5739      2.6734     50.3061
  1266.7500      0.0000    714.9391      2.8131     49.4505
  1267.0000      0.0000    707.6475      2.8441     48.8612
  1267.2500      0.0000    702.9734      2.7793     48.7924
  1267.5000      0.0000    702.5419      2.7078     49.3587
  1267.7500      0.0000    706.5770      2.6881     50.4583
  1268.0000      0.0000    713.4384      2.6826     51.8371
  1268.2500      0.0000    720.4710      2.6147     53.2476
  1268.5000      0.0000    725.6393      2.4807     54.7499
  1268.7500      0.0000    728.4778      2.3684     56.8633
  1269.0000      0.0000    729.7116      2.3579     60.2302
  1269.2500      0.0000    730.0102      2.4314     65.0149
  1269.5000      0.0000    729.0854      2.4920     70.7226
  1269.7500      0.0000    726.2120      2.4542     76.6033
  1270.0000      0.0000    721.5571      2.3170     81.9198
  1270.2500      0.0000    716.4539      2.1680     85.9013
  1270.5000      0.0000    712.2236      2.1177     88.1245
  1270.7500      0.0000    709.0898      2.2182     89.2298
  1271.0000      0.0000    706.2245      2.4376     90.5939
  1271.2500      0.0000    702.3747      2.6963     92.8533
  1271.5000      0.0000    696.4585      2.9139     95.2061
  1271.7500      0.0000    688.0535      3.0436     96.3786
  1272.0000      0.0000    677.7558      3.0937     95.7525
  1272.2500      0.0000    667.1514      3.1128     93.4753
  1272.5000      0.0000    658.3951      3.1260     90.3008
  1272.7500      0.0000    653.6197      3.0917     87.6095
  1273.0000      0.0000    654.3389      2.9482     86.6937
  1273.2500      0.0000    660.8791      2.7093     87.3617
  1273.5000      0.0000    671.7900      2.4873     87.8041
  1273.7500      0.0000    683.9564      2.4128     86.6016
  1274.0000      0.0000    694.3941      2.5319     84.6437
  1274.2500      0.0000    702.4495      2.7767     84.4459
  1274.5000      0.0000    709.5040      3.0268     87.7082
  1274.7500      0.0000    716.2518      3.2024     94.1796
  1275.0000      0.0000    721.2493      3.3173    102.7739
  1275.2500      0.0000    722.8245      3.4505    112.9276
  1275.5000      0.0000    721.6012      3.6593    124.2740
  1275.7500      0.0000    720.0210      3.9066    135.2690
  1276.0000      0.0000    719.6387      4.0702    143.2277
  1276.2500      0.0000    719.8931      4.0320    146.6026
  1276.5000      0.0000    719.6488      3.7824    146.7888
  1276.7500      0.0000    719.0077      3.4591    146.7814
  1277.0000      0.0000    719.0941      3.2651    148.3203
  1277.2500      0.0000    720.4942      3.3055    150.9277
  1277.5000      0.0000    722.3506      3.4959    152.9443
  1277.7500      0.0000    723.0237      3.6436    152.7249
  1278.0000      0.0000    721.5441      3.6088    149.7866
  1278.2500      0.0000    718.1753      3.3908    145.8201
  1278.5000      0.0000    713.2719      3.1039    143.8806
  1278.7500      0.0000    705.5706      2.8977    145.6062
  1279.0000      0.0000    692.0804      2.8587    149.2727
  1279.2500      0.0000    671.1033      2.9442    151.1404
  1279.5000      0.0000    646.8062      3.0146    148.9538
  1279.7500      0.0000    629.7297      2.9509    143.7003
  1280.0000      0.0000    629.5045      2.7528    137.7879
  1280.2500      0.0000    645.9739      2.5400    132.5132
  1280.5000      0.0000    669.2316      2.4652    128.0504
  1280.7500      0.0000    688.4982      2.5989    125.0112
  1281.0000      0.0000    699.1133      2.8671    124.8658
  1281.2500      0.0000    701.4816      3.0966    128.7565
  1281.5000      0.0000    696.0673      3.1389    136.2664
  1281.7500      0.0000    681.0101      2.9811    145.4622
  1282.0000      0.0000    655.1663      2.7561    153.9738
  1282.2500      0.0000    624.0386      2.6374    160.0269
  1282.5000      0.0000    601.1044      2.7111    162.8033
  1282.7500      0.0000    599.3054      2.9418    162.0256
  1283.0000      0.0000    619.6977      3.2352    157.3124
  1283.2500      0.0000    650.5121      3.5025    148.3842
  1283.5000      0.0000    677.7248      3.6728    136.1392
  1283.7500      0.0000    694.7130      3.6885    123.2192
  1284.0000      0.0000    702.6642      3.5253    113.2878
  1284.2500      0.0000    705.5176      3.2241    109.6375
  1284.5000      0.0000    706.1799      2.8939    114.0593
  1284.7500      0.0000    705.8017      2.6634    126.2206
  1285.0000      0.0000    704.5525      2.6119    143.3610
  1285.2500      0.0000    702.6155      2.7249    160.4222
  1285.5000      0.0000    700.7984      2.9029    171.4823
  1285.7500      0.0000    700.2719      3.0288    172.7666
  1286.0000      0.0000    701.5812      3.0539    165.1417
  1286.2500      0.0000    704.0715      3.0217    153.4142
  1286.5000      0.0000    706.5157      3.0079    142.7947
  1286.7500      0.0000    708.1508      3.0521    135.8408
  1287.0000      0.0000    708.9808      3.1440    132.1113
  1287.2500      0.0000    709.3619      3.2505    129.7430
  1287.5000      0.0000    709.5863      3.3376    127.1711
  1287.7500      0.0000    709.7925      3.3690    124.1407
  1288.0000      0.0000    710.0032      3.3025    121.6833
  1288.2500      0.0000    710.0483      3.1067    121.1628
  1288.5000      0.0000    709.4307      2.7918    123.1984
  1288.7500      0.0000    707.4021      2.4256    127.2910
  1289.0000      0.0000    703.4901      2.1155    132.3314
  1289.2500      0.0000    698.1563      1.9588    137.4200
  1289.5000      0.0000    692.7590      2.0085    142.0677
  1289.7500      0.0000    688.5604      2.2703    145.6240
  1290.0000      0.0000    685.9774      2.6996    147.1600
  1290.2500      0.0000    685.0886      3.1811    146.2867
  1290.5000      0.0000    686.2682      3.5400    143.5952
  1290.7500      0.0000    689.4629      3.6272    140.1214
  1291.0000      0.0000    693.1827      3.4278    136.8433
  1291.2500      0.0000    695.3161      3.1010    134.5419
  1291.5000      0.0000    695.3239      2.9095    133.3251
  1291.7500      0.0000    694.9607      3.0728    132.3430
  1292.0000      0.0000    696.2192      3.6313    130.6693
