~Version Information
VERS.                      2.0: CWLS Log ASCII Standard - VERSION 2.0
WRAP.                       NO: One line per depth step
~Well Information Block
STRT.FT               418.4000: 
STOP.FT              1170.0000: 
STEP.FT                 0.1000: 
NULL.                -999.2500: 
COMP.          Evergreen Operating Corporation: COMPANY
WELL.             Bernice 21-3: WELL
FLD.           Purgatoire River: FIELD
LOC.           201' FNL & 2575' FWL: LOCATION
PROV.                 Colorado: PROVINCE
CNTY.               Las Animas: COUNTRY
SRVC.                Patterson: SERVICE COMPANY
DATE.          Mon Jan 26 14:55:16 2004: LOG DATE
UWI.             05 071 07912 : UNIQUE WELL ID
~Curve Information Block
DEPT.FT            0 000 00 00: Depth
DCAL.in                       : CDL Caliper
RHOB.g/cc                     : CDL Bulk Density
RHOC.g/cc                     : CDL Density Correction
DPOR.pu                       : CDL Density Porosity
NPOR.pu                       : Neutron Porosity
GR.GAPI                       : Gamma Ray
~Parameter Information Block
~A  Depth       DCAL        RHOB        RHOC        DPOR        NPOR         GR     
# ...
  1090.4000      7.9782      2.5658      0.0426      5.1057     20.6026    116.2174
  1090.5000      7.9741      2.5674      0.0384      5.0039     20.9619    113.0982
  1090.6000      7.9741      2.5683      0.0342      4.9494     21.3551    109.2614
  1090.7000      7.9741      2.5672      0.0246      5.0187     21.5904    107.6336
  1090.8000      7.9767      2.5610      0.0283      5.3966     21.7738    108.6036
  1090.9000      7.9767      2.5514     -0.0026      5.9744     21.8333    105.8418
  1091.0000      7.9790      2.5480     -0.0213      6.1846     21.8276     95.1438
  1091.1000      7.9790      2.5527      0.0149      5.8997     22.1280     84.3206
  1091.2000      7.9790      2.5557      0.0130      5.7149     22.8495     80.4490
  1091.3000      7.9769      2.5515     -0.0030      5.9681     23.5082     82.6396
  1091.4000      7.9769      2.5414      0.0180      6.5817     23.4916     85.5040
  1091.5000      7.9755      2.5277     -0.0025      7.4140     22.7736     83.7813
  1091.6000      7.9755      2.5248     -0.0404      7.5868     22.0376     79.5299
  1091.7000      7.9755      2.5458      0.0038      6.3127     21.8275     76.7676
  1091.8000      7.9777      2.5769      0.0248      4.4291     21.9374     75.7729
  1091.9000      7.9777      2.5913      0.0517      3.5574     22.0826     77.8812
  1092.0000      7.9788      2.5821      0.0111      4.1149     22.2069     84.3573
  1092.1000      7.9788      2.5696      0.0152      4.8718     22.2071     90.1511
  1092.2000      7.9788      2.5689      0.0010      4.9157     22.1315     91.7011
  1092.3000      7.9751      2.5749      0.0238      4.5501     22.1306     89.4901
  1092.4000      7.9751      2.5807      0.0057      4.2020     22.2517     84.0584
  1092.5000      7.9782      2.5819      0.0388      4.1265     22.3969     80.1960
  1092.6000      7.9782      2.5733      0.0294      4.6504     22.5481     81.7543
  1092.7000      7.9782      2.5581     -0.0272      5.5674     22.8480     87.5137
  1092.8000      7.9789      2.5471      0.0145      6.2355     23.0815     96.2150
  1092.9000      7.9789      2.5408     -0.0041      6.6179     22.7114    103.9008
  1093.0000      7.9796      2.5403     -0.0100      6.6478     21.7938    104.8133
  1093.1000      7.9796      2.5518     -0.0010      5.9506     21.0248    100.1528
  1093.2000      7.9796      2.5686      0.0478      4.9317     20.7099     95.5053
  1093.3000      7.9747      2.5766      0.0676      4.4500     20.4953     93.0592
  1093.4000      7.9747      2.5756      0.0235      4.5077     20.3070     89.9907
  1093.5000      7.9796      2.5743      0.0338      4.5878     20.6533     87.2847
  1093.6000      7.9796      2.5666      0.0497      5.0556     21.3642     89.3011
  1093.7000      7.9796      2.5501      0.0060      6.0548     21.5650     92.8810
  1093.8000      7.9780      2.5403      0.0089      6.6474     21.2558     93.6551
  1093.9000      7.9780      2.5406      0.0297      6.6303     21.0667     94.2833
  1094.0000      7.9709      2.5399      0.0283      6.6729     21.1706     94.2475
  1094.1000      7.9709      2.5332      0.0361      7.0803     21.3343     90.9410
  1094.2000      7.9709      2.5183      0.0331      7.9800     21.4963     87.2702
  1094.3000      7.9681      2.4994      0.0160      9.1277     21.8609     86.4357
  1094.4000      7.9681      2.4904      0.0138      9.6728     22.2824     89.0054
  1094.5000      7.9705      2.4968     -0.0054      9.2850     22.4233     89.8378
  1094.6000      7.9705      2.5054      0.0243      8.7659     22.3751     85.2296
  1094.7000      7.9705      2.5048     -0.0195      8.8001     22.3033     80.3692
  1094.8000      7.9738      2.5048     -0.0001      8.8013     22.3001     80.0095
  1094.9000      7.9738      2.5172     -0.0108      8.0507     22.3062     81.9504
  1095.0000      7.9699      2.5353      0.0417      6.9513     21.9989     82.7074
  1095.1000      7.9699      2.5472     -0.0041      6.2286     21.2041     82.3326
  1095.2000      7.9699      2.5521      0.0393      5.9342     20.2903     82.3670
  1095.3000      7.9755      2.5453      0.0272      6.3451     19.9398     84.7788
  1095.4000      7.9755      2.5207      0.0216      7.8348     20.2273     90.2273
  1095.5000      7.9791      2.4890     -0.0255      9.7547     20.4150     96.1486
  1095.6000      7.9791      2.4724     -0.0219     10.7652     20.3447     97.3076
  1095.7000      7.9791      2.4794     -0.0033     10.3420     20.5199     91.8066
  1095.8000      7.9788      2.5023     -0.0029      8.9492     20.8975     87.9448
  1095.9000      7.9788      2.5253      0.0411      7.5596     21.0352     89.9140
  1096.0000      7.9773      2.5279      0.0371      7.4020     21.0299     91.6402
  1096.1000      7.9773      2.5119     -0.0219      8.3688     21.0902     91.2878
  1096.2000      7.9773      2.5025     -0.0209      8.9387     21.1536     90.4307
  1096.3000      7.9685      2.5072      0.0177      8.6521     21.1680     87.5334
  1096.4000      7.9685      2.5093      0.0345      8.5260     21.1220     83.4669
  1096.5000      7.9779      2.5039     -0.0032      8.8552     20.9514     81.2511
  1096.6000      7.9779      2.5023      0.0248      8.9536     20.8021     80.6397
  1096.7000      7.9779      2.5045      0.0145      8.8178     20.7688     77.5226
  1096.8000      7.9778      2.4990      0.0285      9.1508     20.8291     71.4260
  1096.9000      7.9778      2.4817     -0.0003     10.2015     21.1482     70.4755
  1097.0000      7.9763      2.4662     -0.0182     11.1414     21.5938     79.1250
  1097.1000      7.9763      2.4680     -0.0059     11.0285     21.6354     92.4246
  1097.2000      7.9763      2.4859      0.0030      9.9450     21.3805    102.8762
  1097.3000      7.9778      2.5035      0.0364      8.8778     21.1171    104.6368
  1097.4000      7.9778      2.5084      0.0053      8.5846     20.8536     97.9524
  1097.5000      7.9792      2.5072     -0.0134      8.6516     20.7914     89.7793
  1097.6000      7.9792      2.5112      0.0259      8.4118     20.9394     89.7244
  1097.7000      7.9792      2.5154      0.0157      8.1593     20.9763     98.0268
  1097.8000      7.9780      2.5103     -0.0022      8.4689     20.8528    104.8058
  1097.9000      7.9780      2.4986     -0.0006      9.1744     20.9369    104.8706
  1098.0000      7.9780      2.4940     -0.0029      9.4527     21.2331    101.9948
  1098.1000      7.9780      2.5049      0.0198      8.7961     21.3359    102.1235
  1098.2000      7.9780      2.5166      0.0544      8.0867     21.1985    111.3187
  1098.3000      7.9780      2.5113      0.0208      8.4040     20.9751    128.6145
  1098.4000      7.9780      2.4979     -0.0189      9.2162     20.6652    141.2650
  1098.5000      7.9694      2.4903      0.0375      9.6764     20.1405    139.8923
  1098.6000      7.9694      2.4889      0.0016      9.7620     19.4854    128.3804
  1098.7000      7.9694      2.4941     -0.0172      9.4456     19.0834    113.6984
  1098.8000      7.9783      2.5023      0.0164      8.9498     18.8476     97.1479
  1098.9000      7.9783      2.5046      0.0274      8.8150     18.2376     83.7801
  1099.0000      7.9805      2.5016      0.0034      8.9913     17.6316     78.3256
  1099.1000      7.9805      2.4980      0.0287      9.2120     17.7368     76.4457
  1099.2000      7.9805      2.4966      0.0224      9.2955     18.2247     76.4839
  1099.3000      7.9803      2.5059      0.0251      8.7340     18.6022     82.7220
  1099.4000      7.9803      2.5237      0.0555      7.6525     18.8962     90.2972
  1099.5000      7.9779      2.5335      0.0489      7.0635     19.1210     89.9022
  1099.6000      7.9779      2.5276      0.0479      7.4173     19.1970     83.6539
  1099.7000      7.9779      2.5123      0.0363      8.3429     19.2633     78.0913
  1099.8000      7.9762      2.4962      0.0195      9.3205     19.2650     73.8640
  1099.9000      7.9762      2.4823      0.0401     10.1636     18.7912     69.9720
