~Version Information
VERS.                      2.0: CWLS Log ASCII Standard - VERSION 2.0
WRAP.                       NO: One line per depth step
~Well Information Block
STRT.FT               802.1000: 
STOP.FT              1915.0000: 
STEP.FT                 0.1000: 
NULL.                -999.2500: 
COMP.          Petrogulf Corporation: COMPANY
WELL.             State 16-32R: WELL
FLD.           Purgatorie River: FIELD
LOC.           1849' FNL & 1677' FEL: LOCATION
CNTY.               Las Animas: COUNTY
SRVC.                         : SERVICE COMPANY
DATE.          Thu May 13 18:17:16 2004: LOG DATE
UWI.           05 071 08033 00: UNIQUE WELL ID
STAT.                 Colorado: STATE
~Curve Information Block
DEPT.FT            0 000 00 00: Depth
DCAL.in                       : CDL Caliper
RHOB.g/cc                     : CDL Bulk Density
RHOC.g/cc                     : CDL Density Correction
DPOR.pu                       : CDL Density Porosity
GR.GAPI                       : Gamma Ray
NPOR.pu                       : Neutron Porosity
~Parameter Information Block
~A  Depth       DCAL        RHOB        RHOC        DPOR         GR         NPOR    
# ...
  1195.7000      7.7474      2.6578      0.1426     -0.4708     49.5317     24.6534
  1195.8000      7.7794      2.6588      0.0870     -0.5312     45.9919     24.8829
  1195.9000      7.7794      2.6494     -0.0175      0.0365     42.4617     24.9229
  1196.0000      7.7866      2.6440      0.0754      0.3651     44.6416     25.0632
  1196.1000      7.7866      2.6412     -0.0484      0.5356     52.9970     25.1690
  1196.2000      7.7866      2.6339      0.0796      0.9757     59.2921     24.9860
  1196.3000      7.7789      2.6163      0.0002      2.0424     57.9393     24.8458
  1196.4000      7.7789      2.6091     -0.0347      2.4780     52.9925     24.8471
  1196.5000      7.8326      2.6132      0.0667      2.2288     52.0793     24.7025
  1196.6000      7.8326      2.5764      0.1485      4.4578     56.7295     24.7084
  1196.7000      7.8326      2.4987     -0.0299      9.1716     60.2851     24.9606
  1196.8000      7.8417      2.4489     -0.0042     12.1850     57.0595     25.0694
  1196.9000      7.8417      2.4538      0.0599     11.8892     50.2991     25.1365
  1197.0000      7.8136      2.4985      0.0919      9.1791     50.1296     25.3637
  1197.1000      7.8136      2.5747      0.1368      4.5617     62.9358     25.3942
  1197.2000      7.8136      2.6577      0.1667     -0.4636     81.4213     25.1806
  1197.3000      7.7227      2.7158      0.2521     -3.9879     96.1963     25.2105
  1197.4000      7.7227      2.7488      0.2171     -5.9869    102.4078     25.4652
  1197.5000      7.7044      2.7595      0.3342     -6.6379     96.7658     25.6043
  1197.6000      7.7044      2.7383      0.2305     -5.3539     86.2483     25.6764
  1197.7000      7.7044      2.6994      0.1927     -2.9947     78.4997     25.9246
  1197.8000      7.7101      2.6614      0.1995     -0.6893     75.0660     26.3391
  1197.9000      7.7101      2.6220      0.1355      1.6978     74.9964     26.5334
  1198.0000      7.7902      2.5806      0.1301      4.2063     76.0663     26.5087
  1198.1000      7.7902      2.5543      0.0964      5.7993     82.8308     26.7169
  1198.2000      7.7902      2.5582      0.1726      5.5634     99.1824     27.1892
  1198.3000      7.8333      2.5762      0.2035      4.4752    114.0282     27.6000
  1198.4000      7.8333      2.5850      0.1930      3.9373    120.0907     27.8073
  1198.5000      7.8752      2.5998      0.0850      3.0428    122.6904     27.9765
  1198.6000      7.8752      2.6398      0.2153      0.6171    120.7112     28.2387
  1198.7000      7.8752      2.6747      0.1991     -1.4980    109.3708     28.4286
  1198.8000      7.8830      2.6770      0.1471     -1.6358     93.9110     28.5326
  1198.9000      7.8830      2.6538      0.1752     -0.2278     83.7475     28.8024
  1199.0000      7.8685      2.6043      0.1987      2.7713     79.6605     29.1267
  1199.1000      7.8685      2.5361     -0.0037      6.9019     77.8987     29.1701
  1199.2000      7.8685      2.4889      0.0027      9.7643     77.3714     29.0940
  1199.3000      7.8786      2.4786      0.0100     10.3887     77.8567     29.2160
  1199.4000      7.8786      2.4878     -0.0121      9.8305     79.2605     29.3408
  1199.5000      7.8870      2.5041      0.0422      8.8453     81.6904     29.1553
  1199.6000      7.8870      2.5242      0.0453      7.6260     87.8188     28.7564
  1199.7000      7.8870      2.5417      0.0762      6.5660     97.3219     28.5622
  1199.8000      7.9098      2.5473      0.0980      6.2251    101.4854     28.6526
  1199.9000      7.9098      2.5470      0.1057      6.2438     96.3297     28.5862
  1200.0000      7.9203      2.5673      0.0175      5.0124     88.8833     28.3225
  1200.1000      7.9203      2.6127      0.1604      2.2598     83.2946     28.2166
  1200.2000      7.9203      2.6383      0.2180      0.7095     76.2400     28.1920
  1200.3000      7.8895      2.6247      0.1422      1.5342     67.0306     27.9912
  1200.4000      7.8895      2.6028      0.0576      2.8612     62.1495     27.8246
  1200.5000      7.8688      2.5957      0.1118      3.2924     66.5344     27.9432
  1200.6000      7.8688      2.6075      0.1050      2.5735     80.3816     27.9405
  1200.7000      7.8688      2.6309      0.1351      1.1570     90.0025     27.6256
  1200.8000      7.8468      2.6437      0.0968      0.3801     80.7719     27.3908
  1200.9000      7.8468      2.6316      0.1550      1.1165     66.6092     27.2686
  1201.0000      7.8419      2.6026      0.0985      2.8710     68.3335     27.1600
  1201.1000      7.8419      2.5801      0.1164      4.2334     80.8535     27.0763
  1201.2000      7.8419      2.5687      0.1390      4.9278     87.1684     26.9045
  1201.3000      7.8463      2.5536      0.1275      5.8408     82.7086     26.6242
  1201.4000      7.8463      2.5343      0.0976      7.0124     75.9535     26.4807
  1201.5000      7.8467      2.5148      0.0674      8.1951     71.7194     26.5354
  1201.6000      7.8467      2.4935      0.0584      9.4872     66.3083     26.6446
  1201.7000      7.8467      2.4771      0.0108     10.4793     60.3337     26.8290
  1201.8000      7.8536      2.4761     -0.0065     10.5365     60.1441     26.9985
  1201.9000      7.8536      2.4919      0.0516      9.5797     65.0623     27.1184
  1202.0000      7.8615      2.5091      0.0784      8.5408     67.5952     27.1807
  1202.1000      7.8615      2.5105     -0.0240      8.4551     66.8247     26.9078
  1202.2000      7.8615      2.4986     -0.0199      9.1758     68.6921     26.4414
  1202.3000      7.8566      2.4699      0.0212     10.9174     74.1224     26.3271
  1202.4000      7.8566      2.4209     -0.0641     13.8860     79.4938     26.3882
  1202.5000      7.8536      2.3873     -0.1520     15.9237     81.8484     26.1298
  1202.6000      7.8536      2.3981     -0.0259     15.2696     81.8649     25.7300
  1202.7000      7.8536      2.4393     -0.0472     12.7708     79.8493     25.7075
  1202.8000      7.8356      2.4910      0.0599      9.6374     75.5466     25.9621
  1202.9000      7.8356      2.5231      0.1318      7.6937     71.6539     25.7985
  1203.0000      7.8186      2.5056      0.0988      8.7528     69.9652     25.2201
  1203.1000      7.8186      2.4652     -0.0232     11.2010     72.1067     24.9168
  1203.2000      7.8186      2.4565      0.0378     11.7261     73.9544     25.0460
  1203.3000      7.7730      2.4841      0.0273     10.0532     70.5668     25.4405
  1203.4000      7.7730      2.5140      0.0746      8.2417     64.5645     26.0496
  1203.5000      7.7617      2.5265      0.0251      7.4835     60.1533     26.5720
  1203.6000      7.7617      2.5177      0.0817      8.0209     58.9650     26.9150
  1203.7000      7.7617      2.4952      0.0764      9.3842     59.5323     27.3206
  1203.8000      7.7811      2.4859      0.0491      9.9433     59.3453     27.6808
  1203.9000      7.7811      2.5015      0.0590      8.9972     57.9766     27.7810
  1204.0000      7.8515      2.5367      0.0297      6.8684     57.3540     27.8660
  1204.1000      7.8515      2.5969     -0.0119      3.2208     59.6664     28.0901
  1204.2000      7.8515      2.6749      0.1714     -1.5088     63.2019     28.1741
  1204.3000      7.8526      2.7343      0.1657     -5.1068     62.3718     28.0099
  1204.4000      7.8526      2.7589      0.1571     -6.6007     54.4386     27.7799
  1204.5000      7.8438      2.7566      0.1632     -6.4595     45.0122     27.6063
  1204.6000      7.8438      2.7268      0.1431     -4.6548     40.7038     27.5395
  1204.7000      7.8438      2.6880      0.0736     -2.3039     43.1249     27.4666
  1204.8000      7.8069      2.6816      0.0271     -1.9125     47.5229     27.1220
  1204.9000      7.8069      2.7151     -0.0430     -3.9467     48.1458     26.6270
  1205.0000      7.7471      2.7453     -0.0612     -5.7782     46.9481     26.3254
  1205.1000      7.7471      2.7321     -0.0182     -4.9755     48.2694     26.1335
  1205.2000      7.7471      2.6936     -0.0489     -2.6413     51.8373     25.7950
