~Version Information
VERS.                      2.0: CWLS Log ASCII Standard - VERSION 2.0
WRAP.                       NO: One line per depth step
~Well Information Block
STRT.FT               704.0000: 
STOP.FT              2530.0000: 
STEP.FT                 0.2500: 
NULL.                -999.2500: 
COMP.          Pioneer Natural Resources: COMPANY
WELL.          Aztec Federal 41-15: WELL
FLD.           Purgatorie River: FIELD
LOC.           706' FNL & 1253' FEL: LOCATION
CNTY.               Las Animas: COUNTY
SRVC.          Superior Well Services: SERVICE COMPANY
DATE.          Tue Mar 18 09-04-19 2008: LOG DATE
UWI.           05-071-08342-00: UNIQUE WELL ID
STAT.                       CO: STATE
~Curve Information Block
DEPT.FT            0 000 00 00: Depth
DIR.Ohm-m                     : IEL Induction Resistivity
SN.Ohm-m                      : IEL Short Normal
SP.mV                         : IEL Spontaneous Potential
GR.GAPI                       : Gamma Ray
~Parameter Information Block
~A  Depth       DIR          SN          SP          GR     
# ...
  2044.0000      9.5117     10.3481    143.9212    144.9568
  2044.2500      9.5029     10.2693    143.8378    143.1782
  2044.5000      9.5044     10.2422    143.7451    142.3516
  2044.7500      9.5089     10.2904    143.7118    141.3429
  2045.0000      9.5094     10.4227    143.7143    140.5537
  2045.2500      9.5040     10.5137    143.7458    138.9384
  2045.5000      9.4959     10.6082    143.8030    137.8047
  2045.7500      9.4758     10.6407    143.8215    137.0568
  2046.0000      9.4553     10.6642    143.7921    137.7040
  2046.2500      9.4097     10.6603    143.7349    140.1740
  2046.5000      9.3678     10.5963    143.6158    142.1070
  2046.7500      9.2877     10.5095    143.5312    144.3775
  2047.0000      9.2247     10.3285    143.4192    145.4436
  2047.2500      9.1202     10.1865    143.3613    146.9242
  2047.5000      9.0458      9.9635    143.3019    147.9517
  2047.7500      8.9293      9.8262    143.2770    149.1641
  2048.0000      8.8490      9.6693    143.2514    149.5308
  2048.2500      8.7269      9.5976    143.2399    149.5502
  2048.5000      8.6468      9.5002    143.2416    149.4819
  2048.7500      8.5329      9.4143    143.2645    149.5865
  2049.0000      8.4628      9.2407    143.3374    149.7641
  2049.2500      8.3673      9.1154    143.4084    149.9039
  2049.5000      8.3107      8.9658    143.5391    149.7691
  2049.7500      8.2403      8.9139    143.6362    149.1619
  2050.0000      8.2068      8.9302    143.7818    148.4579
  2050.2500      8.1834      9.0024    143.8662    146.7049
  2050.5000      8.1877      9.1666    143.9506    144.9186
  2050.7500      8.2231      9.2905    143.9676    141.4977
  2051.0000      8.2637      9.4806    143.9262    139.1130
  2051.2500      8.3449      9.6005    143.8584    135.9524
  2051.5000      8.4094      9.7576    143.7188    134.1231
  2051.7500      8.5163      9.8493    143.6196    131.5112
  2052.0000      8.5913      9.9607    143.5027    129.9275
  2052.2500      8.7049     10.0054    143.4736    128.5413
  2052.5000      8.7807     10.0279    143.5425    128.7297
  2052.7500      8.8965     10.0309    143.6706    130.6916
  2053.0000      8.9784     10.0477    143.9611    132.7052
  2053.2500      9.1151     10.0690    144.1898    136.1280
  2053.5000      9.2197     10.1053    144.5310    138.5813
  2053.7500      9.4037     10.1359    144.7354    142.5492
  2054.0000      9.5477     10.2076    144.9894    145.3309
  2054.2500      9.7978     10.2804    145.1184    149.5176
  2054.5000      9.9858     10.4450    145.2440    152.1842
  2054.7500     10.2912     10.6017    145.2795    155.6268
  2055.0000     10.5016     10.9127    145.2563    157.2532
  2055.2500     10.8092     11.1669    145.1874    158.0856
  2055.5000     10.9988     11.5957    145.0073    157.1343
  2055.7500     11.2514     11.8845    144.8488    152.7339
  2056.0000     11.3994     12.2759    144.5957    147.7819
  2056.2500     11.5985     12.5158    144.4449    138.5054
  2056.5000     11.7199     12.8936    144.2814    132.3522
  2056.7500     11.8864     13.1569    144.2226    125.1039
  2057.0000     11.9864     13.4850    144.2048    121.9484
  2057.2500     12.1194     13.5938    144.2313    119.0697
  2057.5000     12.1975     13.5338    144.3142    117.9103
  2057.7500     12.2965     13.3703    144.3917    117.2957
  2058.0000     12.3452     13.0533    144.5254    117.9865
  2058.2500     12.3792     12.8574    144.6096    121.0678
  2058.5000     12.3702     12.6431    144.6943    124.2683
  2058.7500     12.3095     12.5513    144.7113    129.6163
  2059.0000     12.2434     12.4473    144.6832    132.7077
  2059.2500     12.1201     12.3713    144.6409    135.7848
  2059.5000     12.0306     12.2169    144.5595    136.7937
  2059.7500     11.8991     12.0907    144.4975    136.9706
  2060.0000     11.8205     11.9093    144.3930    136.1656
  2060.2500     11.7251     11.8276    144.3147    133.4671
  2060.5000     11.6805     11.8248    144.1892    130.8387
  2060.7500     11.6483     11.9311    144.1073    126.3857
  2061.0000     11.6543     12.2509    143.9951    123.6822
  2061.2500     11.7120     12.5261    143.9232    121.2091
  2061.5000     11.7846     12.9163    143.7978    121.1299
  2061.7500     11.9412     13.1181    143.6893    123.2170
  2062.0000     12.0731     13.3476    143.4826    125.3315
  2062.2500     12.3084     13.4890    143.3228    128.1132
  2062.5000     12.4915     13.7401    143.0746    129.3251
  2062.7500     12.8073     13.9646    142.9195    130.3847
  2063.0000     13.0397     14.4424    142.7251    130.7383
  2063.2500     13.3932     14.8718    142.6275    130.4210
  2063.5000     13.6083     15.6538    142.5284    129.2119
  2063.7500     13.8629     16.2119    142.4911    125.2833
  2064.0000     13.9793     16.9878    142.4826    121.1783
  2064.2500     14.0921     17.4209    142.5170    113.4754
  2064.5000     14.1492     17.9388    142.6460    108.3395
  2064.7500     14.2477     18.2303    142.7916    103.1832
  2065.0000     14.3350     18.6502    143.1104    102.7367
  2065.2500     14.4982     18.8827    143.3949    107.1858
  2065.5000     14.6177     18.9200    143.9285    112.8487
  2065.7500     14.7845     18.5908    144.3423    122.9259
  2066.0000     14.8682     17.5505    145.0017    129.0819
  2066.2500     14.9180     16.6513    145.4299    135.5041
  2066.5000     14.8833     15.3691    145.9939    137.6482
  2066.7500     14.7151     14.7136    146.2908    138.4108
  2067.0000     14.5313     14.1051    146.5914    137.8356
  2067.2500     14.1845     13.9018    146.6941    135.9838
  2067.5000     13.9360     13.7666    146.7290    134.4520
  2067.7500     13.5862     13.7421    146.7021    132.3390
  2068.0000     13.3877     13.7831    146.6370    131.1389
  2068.2500     13.1568     13.8516    146.5964    129.2014
  2068.5000     13.0481     13.9694    146.5545    127.5846
  2068.7500     12.9470     14.0301    146.5447    124.8918
  2069.0000     12.9156     14.0839    146.5697    123.2583
  2069.2500     12.9094     14.1009    146.6212    121.3483
  2069.5000     12.9240     14.1081    146.7641    131.7599
  2069.7500     12.9625     14.1174    146.9080    129.8649
  2070.0000     12.9968     14.1795    147.1914    128.2469
  2070.2500     13.0658     14.2602    147.4090    125.4595
  2070.5000     13.1286     14.4053    147.7315    123.8229
  2070.7500     13.2540     14.4864    147.9154    122.5736
  2071.0000     13.3588     14.5636    148.1092    122.7133
  2071.2500     13.5458     14.6044    148.1757    123.9204
  2071.5000     13.6893     14.6928    148.1898    124.8904
  2071.7500     13.9306     14.7757    148.1589    125.7669
  2072.0000     14.1057     14.9198    148.0906    125.6166
  2072.2500     14.3820     15.0226    148.0497    123.9058
  2072.5000     14.5736     15.2012    148.0101    121.5785
  2072.7500     14.8796     15.3539    147.9962    116.0125
  2073.0000     15.1057     15.6510    147.9836    111.0014
  2073.2500     15.4934     15.9032    147.9798    102.4276
  2073.5000     15.7870     16.3914    147.9974     96.7573
  2073.7500     16.2681     16.7914    148.0432     89.2816
  2074.0000     16.6017     17.4464    148.1894     85.1798
  2074.2500     17.0955     17.8754    148.3368     80.2020
  2074.5000     17.4093     18.4700    148.5918     77.4543
  2074.7500     17.8443     18.8379    148.7494     73.8251
  2075.0000     18.1019     19.3645    148.9261     71.6430
  2075.2500     18.4204     19.6923    149.0051     69.0168
  2075.5000     18.5775     20.0932    149.1024     68.1853
  2075.7500     18.7281     20.2491    149.1796     69.5328
  2076.0000     18.7828     20.2337    149.3400     72.8842
  2076.2500     18.8304     20.0526    149.4745     82.2482
  2076.5000     18.8581     19.6291    149.6918     91.0108
  2076.7500     18.9046     19.3284    149.8306    105.7282
  2077.0000     18.9284     18.9415    150.0203    114.8964
  2077.2500     18.9178     18.7446    150.1401    125.7353
