~Version Information
VERS.                      2.0: CWLS Log ASCII Standard - VERSION 2.0
WRAP.                       NO: One line per depth step
~Well Information Block
STRT.FT               583.0000: 
STOP.FT              1700.0000: 
STEP.FT                 0.1000: 
NULL.                -999.2500: 
COMP.          Pioneer Natural Resources: COMPANY
WELL.          Scott Canyon 11-18 Tr: WELL
FLD.           Purgatoire River: FIELD
LOC.           411' FNL & 580' FWL: LOCATION
PROV.                 Colorado: PROVINCE
CNTY.               Las Animas: COUNTRY
SRVC.                Patterson: SERVICE COMPANY
DATE.          Thu Feb 17 15:41:32 2005: LOG DATE
UWI.           05 071 08286 00: UNIQUE WELL ID
~Curve Information Block
DEPT.FT            0 000 00 00: Depth
DCAL.in                       : CDL Caliper
RHOB.g/cc                     : CDL Bulk Density
RHOC.g/cc                     : CDL Density Correction
DPOR.pu                       : CDL Density Porosity
GR.GAPI                       : Gamma Ray
NPOR.pu                       : Neutron Porosity
~Parameter Information Block
~A  Depth       DCAL        RHOB        RHOC        DPOR         GR         NPOR    
# ...
  1322.2000      7.8985      1.6478      0.0302     60.7377     88.5470     31.3809
  1322.3000      7.9166      1.5975      0.0262     63.7882     83.5411     31.8701
  1322.4000      7.9166      1.5455      0.0108     66.9374     82.7542     32.4258
  1322.5000      8.0294      1.5025      0.0074     69.5431     84.6313     32.6807
  1322.6000      8.0294      1.4897     -0.0413     70.3197     86.8972     33.1321
  1322.7000      8.0294      1.5153      0.0060     68.7691     88.9445     34.2496
  1322.8000      8.1043      1.5691      0.0207     65.5098     89.8007     35.1791
  1322.9000      8.1043      1.6428      0.0370     61.0438     89.8418     35.0498
  1323.0000      8.2118      1.7453      0.0752     54.8332     91.2273     34.2408
  1323.1000      8.2118      1.8890      0.0803     46.1241     94.5021     33.1851
  1323.2000      8.2118      2.0546      0.1685     36.0833     98.6993     31.6323
  1323.3000      8.1286      2.1948      0.1811     27.5896    101.1463     29.9220
  1323.4000      8.1286      2.2885      0.2185     21.9101    100.3320     29.0391
  1323.5000      8.0494      2.3569      0.1649     17.7630     99.1220     28.8342
  1323.6000      8.0494      2.4190      0.1528     13.9978     99.6819     28.4510
  1323.7000      8.0494      2.4543      0.1545     11.8582     99.4729     27.6860
  1323.8000      7.9340      2.4483      0.0385     12.2221     95.9643     26.7839
  1323.9000      7.9340      2.4347     -0.0077     13.0513     90.2693     26.0177
  1324.0000      7.8782      2.4381      0.0439     12.8416     85.1942     25.3379
  1324.1000      7.8782      2.4446      0.0269     12.4508     82.5639     24.7900
  1324.2000      7.8782      2.4396      0.0271     12.7496     81.8615     24.3760
  1324.3000      7.8727      2.4328     -0.0123     13.1633     79.8145     23.6655
  1324.4000      7.8727      2.4430      0.0126     12.5467     74.8680     22.7416
  1324.5000      7.8777      2.4699      0.0681     10.9145     71.0655     22.1426
  1324.6000      7.8777      2.4986      0.0618      9.1758     71.4639     21.9583
  1324.7000      7.8777      2.5164      0.0840      8.0972     74.7431     22.0097
  1324.8000      7.8482      2.5123      0.1091      8.3425     79.3986     22.6586
  1324.9000      7.8482      2.4922      0.0693      9.5649     82.9730     23.5944
  1325.0000      7.8300      2.4795      0.0677     10.3350     83.8605     23.5407
  1325.1000      7.8300      2.4857      0.0738      9.9548     82.5743     22.7746
  1325.2000      7.8300      2.5027      0.1152      8.9251     78.5116     22.2757
  1325.3000      7.8194      2.5226      0.1013      7.7205     73.4403     21.9088
  1325.4000      7.8194      2.5447      0.1017      6.3818     72.2367     21.4193
  1325.5000      7.8099      2.5594      0.1261      5.4895     76.0826     21.0125
  1325.6000      7.8099      2.5527      0.1211      5.8984     80.0105     20.7610
  1325.7000      7.8099      2.5375      0.0625      6.8207     80.0240     20.5159
  1325.8000      7.8102      2.5381      0.1049      6.7794     76.7391     20.0493
  1325.9000      7.8102      2.5453      0.1216      6.3481     73.1599     19.2432
  1326.0000      7.8192      2.5446      0.0485      6.3886     73.6002     18.7960
  1326.1000      7.8192      2.5512      0.0604      5.9870     76.3631     19.1479
  1326.2000      7.8192      2.5762      0.0505      4.4698     75.2496     19.6062
  1326.3000      7.8301      2.6008      0.1104      2.9842     70.3756     19.5713
  1326.4000      7.8301      2.5981      0.1221      3.1475     64.0446     18.9741
  1326.5000      7.8371      2.5733      0.0652      4.6471     58.6073     18.1887
  1326.6000      7.8371      2.5544      0.0681      5.7947     57.6768     17.7574
  1326.7000      7.8371      2.5416      0.0940      6.5675     58.8900     17.7439
  1326.8000      7.8396      2.5076      0.1308      8.6290     59.2476     18.0084
  1326.9000      7.8396      2.4523      0.0188     11.9828     59.6373     18.5306
  1327.0000      7.8530      2.4062      0.0411     14.7747     60.1276     19.0818
  1327.1000      7.8530      2.3789      0.0354     16.4274     63.9221     19.7110
  1327.2000      7.8530      2.3663     -0.0010     17.1959     72.4124     20.7306
  1327.3000      7.8617      2.3694      0.0212     17.0050     78.8721     21.6799
  1327.4000      7.8617      2.3824      0.0252     16.2165     79.3429     21.9825
  1327.5000      7.8631      2.4049      0.0344     14.8533     77.4832     21.8484
  1327.6000      7.8631      2.4516      0.0983     12.0212     76.2439     21.9014
  1327.7000      7.8631      2.5126      0.2505      8.3250     73.7594     22.3103
  1327.8000      7.8500      2.5507      0.1877      6.0171     70.7448     22.6136
  1327.9000      7.8500      2.5495      0.1449      6.0905     73.2458     22.4568
  1328.0000      7.8517      2.5195      0.1068      7.9066     79.0816     22.1442
  1328.1000      7.8517      2.4894      0.0090      9.7361     78.6130     22.0170
  1328.2000      7.8517      2.4831      0.0392     10.1159     73.0929     21.8789
  1328.3000      7.8556      2.4894      0.0433      9.7356     73.8243     21.4319
  1328.4000      7.8556      2.4874      0.0398      9.8568     83.6068     21.2716
  1328.5000      7.8579      2.4800      0.0677     10.3036     94.1823     21.8376
  1328.6000      7.8579      2.4859      0.0039      9.9485     98.7651     22.5101
  1328.7000      7.8579      2.5137      0.0632      8.2625     97.9850     23.2335
  1328.8000      7.8621      2.5430      0.0900      6.4823     95.1044     24.0715
  1328.9000      7.8621      2.5540      0.0383      5.8162     95.2894     24.3665
  1329.0000      7.8646      2.5527      0.0458      5.8942    100.5526     24.1364
  1329.1000      7.8646      2.5490      0.0227      6.1209    107.0658     24.1044
  1329.2000      7.8646      2.5438      0.0687      6.4375    113.0351     24.1126
  1329.3000      7.8617      2.5381      0.0253      6.7810    116.3611     23.4168
  1329.4000      7.8617      2.5409      0.0466      6.6118    116.0928     22.3667
  1329.5000      7.8602      2.5506      0.0650      6.0251    116.1299     21.8033
  1329.6000      7.8602      2.5537      0.0586      5.8358    116.5200     21.9954
  1329.7000      7.8602      2.5539      0.0112      5.8215    113.7501     22.7108
  1329.8000      7.8571      2.5634      0.0489      5.2471    107.6451     23.1914
  1329.9000      7.8571      2.5783      0.0796      4.3452    101.0435     23.0402
  1330.0000      7.8457      2.5852      0.0808      3.9297     96.3562     22.6210
  1330.1000      7.8457      2.5730      0.0615      4.6657     89.9276     22.0168
  1330.2000      7.8457      2.5542      0.0340      5.8035     81.6430     21.3629
  1330.3000      7.8665      2.5580      0.0551      5.5751     80.5237     20.9493
  1330.4000      7.8665      2.5804      0.1077      4.2199     85.7418     20.6713
  1330.5000      7.8778      2.5898      0.1010      3.6514     86.3029     20.6093
  1330.6000      7.8778      2.5741      0.0991      4.5989     81.7693     20.7783
  1330.7000      7.8778      2.5434      0.0880      6.4613     78.2814     20.9905
  1330.8000      7.8634      2.5172      0.0115      8.0511     77.3434     21.1598
  1330.9000      7.8634      2.5119      0.0426      8.3676     79.2338     21.6347
  1331.0000      7.8730      2.5309      0.0378      7.2171     84.3717     22.5462
  1331.1000      7.8730      2.5726      0.0611      4.6916     91.2622     23.0935
  1331.2000      7.8730      2.6212      0.1173      1.7430     97.9827     22.9279
  1331.3000      7.8619      2.6506      0.1018     -0.0343    104.7625     22.6485
  1331.4000      7.8619      2.6521      0.1451     -0.1296    110.8786     22.3917
  1331.5000      7.8140      2.6326      0.1366      1.0565    111.9267     22.3033
  1331.6000      7.8140      2.6039      0.0629      2.7950    107.0211     22.8850
  1331.7000      7.8140      2.5784      0.0936      4.3378    103.3649     23.7973
