~Version Information
VERS.                      2.0: CWLS Log ASCII Standard - VERSION 2.0
WRAP.                       NO: One line per depth step
~Well Information Block
STRT.FT               870.0000: 
STOP.FT              2519.5000: 
STEP.FT                 0.2500: 
NULL.                -999.2500: 
COMP.          Pioneer Natural Resources: COMPANY
WELL.              Tiaga 23-14: WELL
FLD.           Purgatoire River: FIELD
LOC.           2168' FSL & 2030' FWL: LOCATION
PROV.                 Colorado: PROVINCE
CNTY.               Las Animas: COUNTRY
SRVC.                         : SERVICE COMPANY
DATE.          Sat May 07 08:44:43 2005: LOG DATE
UWI.           05 071 08329 00: UNIQUE WELL ID
~Curve Information Block
DEPT.FT            0 000 00 00: Depth
LTEN.lb                       : Surface Line Tension
SN.Ohm-m                      : IEL Short Normal
SP.mV                         : IEL Spontaneous Potential
DIR.Ohm-m                     : IEL Induction Resistivity
GR.GAPI                       : Gamma Ray
~Parameter Information Block
~A  Depth       LTEN         SN          SP         DIR          GR     
# ...
   982.0000    627.8231   2000.0000   2000.0000     18.5158    139.5943
   982.2500    629.1620   2000.0000   2000.0000     18.2757    140.3318
   982.5000    630.5062   2000.0000   2000.0000     17.9134    140.3838
   982.7500    631.9778   2000.0000   2000.0000     17.4656    139.7534
   983.0000    633.5353   2000.0000   2000.0000     16.9806    138.2511
   983.2500    634.9688   2000.0000   2000.0000     16.5038    137.3140
   983.5000    636.0332   2000.0000   2000.0000     16.0681    136.8529
   983.7500    636.5061   2000.0000   2000.0000     15.6926    137.4887
   984.0000    636.2278   2000.0000   2000.0000     15.3864    139.6282
   984.2500    635.2147   2000.0000   2000.0000     15.1535    141.3175
   984.5000    633.6891   2000.0000   2000.0000     14.9953    143.3026
   984.7500    631.9434   2000.0000   2000.0000     14.9087    143.9563
   985.0000    630.1873   2000.0000   2000.0000     14.8798    143.8499
   985.2500    628.5042   2000.0000   2000.0000     14.8773    143.1934
   985.5000    626.8847   2000.0000   2000.0000     14.8546    141.6810
   985.7500    625.3436   2000.0000   2000.0000     14.7687    140.3105
   986.0000    624.1034   2000.0000   2000.0000     14.6065    136.8509
   986.2500    623.6485   2000.0000   2000.0000     14.3981    132.9946
   986.5000    624.4926   2000.0000   2000.0000     14.2013    125.3396
   986.7500    626.8069   2000.0000   2000.0000     14.0711    120.5757
   987.0000    630.1948   2000.0000   2000.0000     14.0376    117.5861
   987.2500    633.8077   2000.0000   2000.0000     14.1046    119.7461
   987.5000    636.7885   2000.0000   2000.0000     14.2615    128.9473
   987.7500    638.7236   2000.0000   2000.0000     14.4947    137.6334
   988.0000    639.6789   2000.0000   2000.0000     14.7901    151.5387
   988.2500    639.8203   2000.0000   2000.0000     15.1287    160.0899
   988.5000    639.1243   2000.0000   2000.0000     15.4837    170.3170
   988.7500    637.5241   2000.0000   2000.0000     15.8247    174.5307
   989.0000    635.2573   2000.0000   2000.0000     16.1286    175.5477
   989.2500    632.9448   2000.0000   2000.0000     16.3866    172.5559
   989.5000    631.3015   2000.0000   2000.0000     16.6025    164.3324
   989.7500    630.7162   2000.0000   2000.0000     16.7843    158.1254
   990.0000    630.9799   2000.0000   2000.0000     16.9390    150.0783
   990.2500    631.3775   2000.0000   2000.0000     17.0782    145.8267
   990.5000    631.1777   2000.0000   2000.0000     17.2295    140.2674
   990.7500    630.1281   2000.0000   2000.0000     17.4398    136.7660
   991.0000    628.5295   2000.0000   2000.0000     17.7649    132.4803
   991.2500    626.9253   2000.0000   2000.0000     18.2512    131.0945
   991.5000    625.8118   2000.0000   2000.0000     18.9185    132.2091
   991.7500    625.5523   2000.0000   2000.0000     19.7480    134.9142
   992.0000    626.3429   2000.0000   2000.0000     20.6766    140.1077
   992.2500    628.0893   2000.0000   2000.0000     21.6008    142.6899
   992.5000    630.3944   2000.0000   2000.0000     22.3967    142.8368
   992.7500    632.7847   2000.0000   2000.0000     22.9582    140.1188
   993.0000    635.0419   2000.0000   2000.0000     23.2452    133.6099
   993.2500    637.3195   2000.0000   2000.0000     23.3103    129.4827
   993.5000    639.8282   2000.0000   2000.0000     23.2746    126.0820
   993.7500    642.2228   2000.0000   2000.0000     23.2577    125.9709
   994.0000    643.4087   2000.0000   2000.0000     23.3100    127.9028
   994.2500    642.3862   2000.0000   2000.0000     23.3948    129.7507
   994.5000    639.3769   2000.0000   2000.0000     23.4289    132.5710
   994.7500    635.7915   2000.0000   2000.0000     23.3450    134.3541
   995.0000    633.0485   2000.0000   2000.0000     23.1233    136.9254
   995.2500    631.6495   2000.0000   2000.0000     22.7796    138.7480
   995.5000    631.3026   2000.0000   2000.0000     22.3412    142.0496
   995.7500    631.5658   2000.0000   2000.0000     21.8436    144.6629
   996.0000    632.2413   2000.0000   2000.0000     21.3364    148.6579
   996.2500    633.3171   2000.0000   2000.0000     20.8814    150.9090
   996.5000    634.7664   2000.0000   2000.0000     20.5373    153.1801
   996.7500    636.4124   2000.0000   2000.0000     20.3390    153.9293
   997.0000    637.8749   2000.0000   2000.0000     20.2863    154.0663
   997.2500    638.6310   2000.0000   2000.0000     20.3470    153.6615
   997.5000    638.3096   2000.0000   2000.0000     20.4705    152.7651
   997.7500    637.0480   2000.0000   2000.0000     20.6021    152.1661
   998.0000    635.5299   2000.0000   2000.0000     20.6888    150.7941
   998.2500    634.5786   2000.0000   2000.0000     20.6810    148.7110
   998.5000    634.5825   2000.0000   2000.0000     20.5486    142.2781
   998.7500    635.2302   2000.0000   2000.0000     20.3088    135.6460
   999.0000    635.8062   2000.0000   2000.0000     20.0342    124.1371
   999.2500    635.7753   2000.0000   2000.0000     19.8212    117.4492
   999.5000    635.0548   2000.0000   2000.0000     19.7432    111.9554
   999.7500    633.8284   2000.0000   2000.0000     19.8228    111.9788
  1000.0000    632.2856   2000.0000   2000.0000     20.0376    116.4301
  1000.2500    630.5759   2000.0000   2000.0000     20.3411    120.8290
  1000.5000    628.9246   2000.0000   2000.0000     20.6788    126.8062
  1000.7500    627.6909   2000.0000   2000.0000     20.9831    129.3511
  1001.0000    627.2455   2000.0000   2000.0000     21.1594    130.7448
  1001.2500    627.7849   2000.0000   2000.0000     21.0985    130.3902
  1001.5000    629.3276   2000.0000   2000.0000     20.7367    128.4025
  1001.7500    631.8508   2000.0000   2000.0000     20.1262    126.3328
  1002.0000    635.2797   2000.0000   2000.0000     19.4304    123.0623
  1002.2500    639.2659   2000.0000   2000.0000     18.8295    121.7425
  1002.5000    643.1033   2000.0000   2000.0000     18.4229    122.6717
  1002.7500    646.0166   2000.0000   2000.0000     18.2024    125.5155
  1003.0000    647.5397   2000.0000   2000.0000     18.0927    131.9304
  1003.2500    647.5785   2000.0000   2000.0000     18.0197    136.4646
  1003.5000    646.2255   2000.0000   2000.0000     17.9566    142.4762
  1003.7500    643.6836   2000.0000   2000.0000     17.9203    146.0376
  1004.0000    640.3433   2000.0000   2000.0000     17.9377    151.0565
  1004.2500    636.7205   2000.0000   2000.0000     18.0184    153.9133
  1004.5000    633.2429   2000.0000   2000.0000     18.1559    156.3961
  1004.7500    630.2166   2000.0000   2000.0000     18.3484    156.3297
  1005.0000    628.0598   2000.0000   2000.0000     18.6192    153.2981
  1005.2500    627.3306   2000.0000   2000.0000     19.0162    149.3730
  1005.5000    628.2288   2000.0000   2000.0000     19.5886    141.1148
  1005.7500    630.1036   2000.0000   2000.0000     20.3559    134.5544
  1006.0000    631.7480   2000.0000   2000.0000     21.2880    124.1823
  1006.2500    632.3417   2000.0000   2000.0000     22.3124    117.4158
  1006.5000    632.1479   2000.0000   2000.0000     23.3345    108.1866
  1006.7500    632.3312   2000.0000   2000.0000     24.2585    103.0446
  1007.0000    634.0338   2000.0000   2000.0000     24.9967     97.2672
  1007.2500    637.4272   2000.0000   2000.0000     25.4841     94.6257
  1007.5000    641.5904   2000.0000   2000.0000     25.7026     91.9549
  1007.7500    645.2527   2000.0000   2000.0000     25.6886     90.7555
  1008.0000    647.5879   2000.0000   2000.0000     25.5007     89.6204
  1008.2500    648.4705   2000.0000   2000.0000     25.1660     89.4493
  1008.5000    648.4370   2000.0000   2000.0000     24.6566     91.0009
  1008.7500    648.4130   2000.0000   2000.0000     23.9206     94.0641
  1009.0000    648.9474   2000.0000   2000.0000     22.9479    102.6422
  1009.2500    649.4410   2000.0000   2000.0000     21.8076    110.7882
  1009.5000    648.4708   2000.0000   2000.0000     20.6182    124.9079
  1009.7500    645.2158   2000.0000   2000.0000     19.4824    134.2172
