~Version Information
VERS.                      2.0: CWLS Log ASCII Standard - VERSION 2.0
WRAP.                       NO: One line per depth step
~Well Information Block
STRT.FT               241.5000: 
STOP.FT              2340.7500: 
STEP.FT                 0.2500: 
NULL.                -999.2500: 
COMP.          Petrogulf Corporation: COMPANY
WELL.            Montoya 1-24V: WELL
FLD.           Purgatorie River: FIELD
LOC.           605' FSL & 2557' FWL: LOCATION
CNTY.               Las Animas: COUNTY
SRVC.                         : SERVICE COMPANY
DATE.          Tue Nov 30 10:28:39 2004: LOG DATE
UWI.           05 071 08194 00: UNIQUE WELL ID
STAT.                 Colorado: STATE
~Curve Information Block
DEPT.FT            0 000 00 00: Depth
GR.GAPI                       : Gamma Ray
CCL.                          : Casing Collar Locator
TT3.usec                      : CBL 3' Travel Time
AMP3.mV                       : CBL 3' Amplitude
~Parameter Information Block
~A  Depth        GR         CCL         TT3         AMP3    
# ...
   945.0000    121.7825      0.0000    710.4006      5.4038
   945.2500    123.9481      0.0000    712.1371      5.6923
   945.5000    127.5277      0.0000    714.5862      6.1212
   945.7500    132.0403      0.0000    716.8819      6.6625
   946.0000    136.1693      0.0000    716.8129      7.2628
   946.2500    138.3412      0.0000    712.4644      7.8572
   946.5000    137.4946      0.0000    704.0654      8.3815
   946.7500    133.1278      0.0000    694.2569      8.7885
   947.0000    125.2815      0.0000    686.1881      9.0598
   947.2500    115.2436      0.0000    681.3375      9.1999
   947.5000    105.6828      0.0000    679.1988      9.2217
   947.7500     99.0723      0.0000    678.5068      9.1520
   948.0000     95.9961      0.0000    678.3085      9.0452
   948.2500     95.0947      0.0000    678.1760      8.9738
   948.5000     94.1867      0.0000    677.9589      8.9894
   948.7500     91.4550      0.0000    677.4082      9.0886
   949.0000     86.2814      0.0000    675.7476      9.2137
   949.2500     79.3612      0.0000    671.3502      9.2901
   949.5000     71.9410      0.0000    662.3498      9.2754
   949.7500     65.0419      0.0000    648.9833      9.1854
   950.0000     59.5581      0.0000    635.8890      9.0756
   950.2500     56.7413      0.0000    630.2655      9.0047
   950.5000     58.0351      0.0000    635.7291      9.0098
   950.7500     64.2085      0.0000    648.6796      9.0952
   951.0000     74.7075      0.0000    661.9415      9.2228
   951.2500     87.8418      0.0000    670.8983      9.3228
   951.5000    101.4347      0.0000    675.3246      9.3307
   951.7500    113.2596      0.0000    677.0908      9.2229
   952.0000    121.3272      0.0000    677.8152      9.0355
   952.2500    124.5637      0.0000    678.2285      8.8538
   952.5000    123.5880      0.0000    678.4932      8.7573
   952.7500    120.5081      0.0000    678.5800      8.7465
   953.0000    117.5687      0.0000    678.4945      8.7447
   953.2500    115.8920      0.0000    678.3169      8.6948
   953.5000    115.4470      0.0000    678.2357      8.6351
   953.7500    116.0857      0.0000    678.6635      8.6559
   954.0000    118.3055      0.0000    680.4681      8.8041
   954.2500    122.6531      0.0000    684.9774      9.0562
   954.5000    128.4647      0.0000    693.2129      9.3608
   954.7500    133.6404      0.0000    704.3864      9.6835
   955.0000    135.9138      0.0000    715.1369     10.0226
   955.2500    134.4514      0.0000    721.1127     10.3898
   955.5000    130.5241      0.0000    719.9952     10.7614
   955.7500    126.7895      0.0000    712.9391     11.0565
   956.0000    125.6054      0.0000    703.1769     11.1935
   956.2500    127.7187      0.0000    693.7679     11.1682
   956.5000    132.4001      0.0000    686.5322     11.0424
   956.7500    138.4058      0.0000    682.0515     10.8638
   957.0000    144.4318      0.0000    679.9883     10.6359
   957.2500    149.0871      0.0000    679.5922     10.3707
   957.5000    151.3052      0.0000    680.3016     10.1347
   957.7500    151.1449      0.0000    681.9464     10.0274
   958.0000    149.8914      0.0000    684.2977     10.1171
   958.2500    148.9292      0.0000    686.4623     10.3828
   958.5000    148.4710      0.0000    687.1075     10.7040
   958.7500    147.5954      0.0000    685.5797     10.9163
   959.0000    145.4438      0.0000    682.6041     10.9049
   959.2500    142.0916      0.0000    679.6068     10.6718
   959.5000    138.4448      0.0000    677.5530     10.3237
   959.7500    135.4155      0.0000    676.5732      9.9879
   960.0000    132.9511      0.0000    676.3454      9.7369
   960.2500    130.1482      0.0000    676.5016      9.5904
   960.5000    126.7865      0.0000    676.7712      9.5649
   960.7500    124.1654      0.0000    676.9985      9.6842
   961.0000    123.6048      0.0000    677.1469      9.9324
   961.2500    124.5617      0.0000    677.2623     10.2245
   961.5000    124.9779      0.0000    677.3964     10.4466
   961.7500    123.2242      0.0000    677.5471     10.5186
   962.0000    119.2986      0.0000    677.6907     10.4193
   962.2500    114.4839      0.0000    677.8945     10.1787
   962.5000    110.3409      0.0000    678.4979      9.8532
   962.7500    107.8793      0.0000    680.2993      9.5012
   963.0000    107.2112      0.0000    684.5590      9.1766
   963.2500    107.8416      0.0000    692.3105      8.9362
   963.5000    109.4914      0.0000    702.9645      8.8304
   963.7500    112.5458      0.0000    713.6277      8.8713
   964.0000    117.3114      0.0000    720.7910      9.0093
   964.2500    122.9192      0.0000    723.0451      9.1611
   964.5000    127.4752      0.0000    721.3763      9.2751
   964.7500    129.3772      0.0000    716.9184      9.3587
   965.0000    128.2302      0.0000    709.8782      9.4292
   965.2500    124.5938      0.0000    700.9323      9.4645
   965.5000    119.3580      0.0000    692.1520      9.4316
   965.7500    113.6762      0.0000    685.8121      9.3467
   966.0000    109.1319      0.0000    683.0876      9.2713
   966.2500    107.3851      0.0000    684.4447      9.2533
   966.5000    109.4906      0.0000    690.6289      9.3003
   966.7500    115.4142      0.0000    702.2051      9.4099
   967.0000    123.8276      0.0000    717.8343      9.5820
   967.2500    132.4748      0.0000    733.7531      9.7834
   967.5000    139.2493      0.0000    745.9381      9.9410
   967.7500    143.1209      0.0000    752.6803     10.0082
   968.0000    144.0604      0.0000    754.6812     10.0151
   968.2500    142.5921      0.0000    753.1475     10.0153
   968.5000    139.8939      0.0000    748.2889     10.0017
   968.7500    137.8215      0.0000    739.4824      9.9155
   969.0000    138.0185      0.0000    726.8748      9.7420
   969.2500    140.8252      0.0000    712.8507      9.5577
   969.5000    145.1866      0.0000    701.3234      9.4602
   969.7500    149.5113      0.0000    695.1772      9.4615
   970.0000    152.6591      0.0000    694.5032      9.4764
   970.2500    154.7392      0.0000    697.3439      9.4167
   970.5000    157.3359      0.0000    701.7849      9.2878
   970.7500    162.2428      0.0000    707.2517      9.1920
   971.0000    169.1403      0.0000    714.3937      9.2356
   971.2500    174.8493      0.0000    724.3107      9.4196
   971.5000    175.6277      0.0000    737.5927      9.6167
   971.7500    170.3014      0.0000    753.1285      9.6708
   972.0000    161.1562      0.0000    767.7900      9.5270
   972.2500    152.3532      0.0000    778.1482      9.2669
   972.5000    147.6924      0.0000    782.7468      9.0282
   972.7500    148.8653      0.0000    782.1149      8.9009
   973.0000    154.5656      0.0000    776.8921      8.8838
   973.2500    160.9729      0.0000    767.2121      8.9104
   973.5000    163.7912      0.0000    754.1935      8.9076
   973.7500    160.7414      0.0000    740.6297      8.8413
   974.0000    152.7919      0.0000    729.0677      8.7300
   974.2500    143.3368      0.0000    719.7386      8.6282
   974.5000    135.9542      0.0000    711.1323      8.5867
   974.7500    132.3613      0.0000    702.3329      8.6101
   975.0000    131.9153      0.0000    694.1301      8.6538
   975.2500    132.8132      0.0000    687.8829      8.6716
   975.5000    133.9012      0.0000    683.8641      8.6706
   975.7500    135.4441      0.0000    680.7726      8.7127
   976.0000    138.1678      0.0000    676.2998      8.8517
   976.2500    141.8895      0.0000    668.0947      9.0649
   976.5000    145.3900      0.0000    655.1469      9.2518
   976.7500    147.2584      0.0000    639.1724      9.3116
   977.0000    146.3934      0.0000    624.6837      9.2278
   977.2500    142.2492      0.0000    617.0273      9.0733
   977.5000    135.6032      0.0000    619.6655      8.9263
   977.7500    128.9738      0.0000    632.5994      8.7953
   978.0000    125.2600      0.0000    653.0267      8.6439
   978.2500    125.3970      0.0000    677.5833      8.4766
