~Version Information
VERS.                      2.0: CWLS Log ASCII Standard - VERSION 2.0
WRAP.                       NO: One line per depth step
~Well Information Block
STRT.FT                -8.2500: 
STOP.FT              2239.2500: 
STEP.FT                 0.2500: 
NULL.                -999.2500: 
COMP.          Pioneer Natural Resources: COMPANY
WELL.            Moo Moo 31-36: WELL
FLD.           Purgatorie River: FIELD
LOC.           612' FNL & 2326' FEL--: LOCATION
PROV.                       CO: PROVINCE
CNTY.               Las Animas: COUNTRY
SRVC.          Patterson Wireline: SERVICE COMPANY
DATE.          Thu Jun 23 10:04:07 2005: LOG DATE
UWI.           05 071 08395 00: UNIQUE WELL ID
~Curve Information Block
DEPT.FT            0 000 00 00: Depth
CCL.                          : Casing Collar Locator
TT3.usec                      : CBL 3' Travel Time
AMP3.mV                       : CBL 3' Amplitude
GR.GAPI                       : Gamma Ray
~Parameter Information Block
~A  Depth       CCL         TT3         AMP3         GR     
# ...
  1767.2500      0.0000    655.6855      2.8751     48.7743
  1767.5000      0.0000    655.5101      2.9432     53.4754
  1767.7500      0.0000    654.9598      3.0143     61.5124
  1768.0000      0.0000    651.8987      3.0594     71.1996
  1768.2500      0.0000    645.0446      3.0742     80.0259
  1768.5000      0.0000    634.2252      3.0784     86.1983
  1768.7500      0.0000    619.6026      3.0892     89.3852
  1769.0000      0.0000    602.1035      3.0955     90.2626
  1769.2500      0.0000    585.6886      3.0673     89.7703
  1769.5000      0.0000    577.6317      2.9918     88.6639
  1769.7500      0.0000    583.1855      2.8990     87.0869
  1770.0000      0.0000    598.9777      2.8463     84.3146
  1770.2500      0.0000    613.5142      2.8775     79.3435
  1770.5000      0.0000    615.2955      2.9884     72.0730
  1770.7500      0.0000    600.6625      3.1291     63.9106
  1771.0000      0.0000    576.0200      3.2328     57.0739
  1771.2500      0.0000    554.8961      3.2526     53.0530
  1771.5000      0.0000    551.0792      3.1834     51.6347
  1771.7500      0.0000    570.3320      3.0623     51.4201
  1772.0000      0.0000    606.5470      2.9406     51.1092
  1772.2500      0.0000    646.1799      2.8526     50.1892
  1772.5000      0.0000    676.7768      2.8085     48.8086
  1772.7500      0.0000    692.5882      2.8075     47.4232
  1773.0000      0.0000    695.4709      2.8421     46.4982
  1773.2500      0.0000    692.9237      2.8944     46.3107
  1773.5000      2.0000    693.9893      2.9422     46.8327
  1773.7500      2.0000    703.9562      2.9760     47.6951
  1774.0000      0.0000    721.3198      3.0084     48.3579
  1774.2500      0.0000    739.5404      3.0716     48.5104
  1774.5000      0.0000    751.5375      3.1940     48.3209
  1774.7500      0.0000    752.4832      3.3660     48.2655
  1775.0000      0.0000    739.5820      3.5324     48.8134
  1775.2500      0.0000    711.3845      3.6336     50.3780
  1775.5000      0.0000    668.7845      3.6526     53.2437
  1775.7500      0.0000    617.1011      3.6164     57.1517
  1776.0000      0.0000    566.5486      3.5664     61.1193
  1776.2500      0.0000    529.1867      3.5344     64.0187
  1776.5000      0.0000    513.8926      3.5360     65.2859
  1776.7500      0.0000    522.8975      3.5716     64.8786
  1777.0000      0.0000    550.9221      3.6280     62.8028
  1777.2500      0.0000    586.5857      3.6836     59.1136
  1777.5000      0.0000    616.6219      3.7162     54.4202
  1777.7500      0.0000    631.8058      3.7131     50.0838
  1778.0000      0.0000    630.8915      3.6766     47.6468
  1778.2500      0.0000    620.0403      3.6233     47.8424
  1778.5000      0.0000    608.0259      3.5684     49.9273
  1778.7500      0.0000    599.8433      3.5087     52.0674
  1779.0000      0.0000    594.0123      3.4292     52.7913
  1779.2500      0.0000    586.7628      3.3334     52.3238
  1779.5000      0.0000    578.3220      3.2587     52.4099
  1779.7500      0.0000    573.5993      3.2504     54.8267
  1780.0000      0.0000    576.8273      3.3187     59.9206
  1780.2500      0.0000    587.1289      3.4213     66.1648
  1780.5000      0.0000    599.6824      3.4875     70.9895
  1780.7500      0.0000    609.9472      3.4671     72.4116
  1781.0000      0.0000    616.1775      3.3697     70.3072
  1781.2500      0.0000    619.0532      3.2627     66.2916
  1781.5000      0.0000    620.1671      3.2190     62.3836
  1781.7500      0.0000    621.0504      3.2554     59.6407
  1782.0000      0.0000    622.8715      3.3234     57.7800
  1782.2500      0.0000    626.2854      3.3630     55.9213
  1782.5000      0.0000    631.2775      3.3556     53.8291
  1782.7500      0.0000    637.4619      3.3261     52.4883
  1783.0000      0.0000    644.9269      3.3055     53.3214
  1783.2500      0.0000    654.5161      3.3062     56.8304
  1783.5000      0.0000    666.7066      3.3228     62.0829
  1783.7500      0.0000    680.1858      3.3452     67.4413
  1784.0000      0.0000    692.0491      3.3707     71.7561
  1784.2500      0.0000    699.5571      3.4025     75.0222
  1784.5000      0.0000    701.3183      3.4363     78.1379
  1784.7500      0.0000    696.7984      3.4553     82.1188
  1785.0000      0.0000    685.1630      3.4487     87.2305
  1785.2500      0.0000    664.8503      3.4310     92.4179
  1785.5000      0.0000    634.6639      3.4306     95.7882
  1785.7500      0.0000    596.4124      3.4542     96.2908
  1786.0000      0.0000    556.8555      3.4713     94.8591
  1786.2500      0.0000    525.8994      3.4436     93.4916
  1786.5000      0.0000    511.6756      3.3678     93.4412
  1786.7500      0.0000    516.5007      3.2811     94.4349
  1787.0000      0.0000    535.7154      3.2223     95.0989
  1787.2500      0.0000    558.9091      3.1908     94.0337
  1787.5000      0.0000    573.5974      3.1515     91.0487
  1787.7500      0.0000    570.9775      3.0794     87.5331
  1788.0000      0.0000    550.9464      2.9951     85.3193
  1788.2500      0.0000    523.0613      2.9512     85.1026
  1788.5000      0.0000    502.0705      2.9825     86.0461
  1788.7500      0.0000    499.8188      3.0732     86.7530
  1789.0000      0.0000    518.3342      3.1646     86.3885
  1789.2500      0.0000    549.1835      3.1946     84.8326
  1789.5000      0.0000    579.8127      3.1419     82.1254
  1789.7500      0.0000    601.5258      3.0438     78.2379
  1790.0000      0.0000    612.5446      2.9685     73.3383
  1790.2500      0.0000    615.4142      2.9662     67.9663
  1790.5000      0.0000    613.4227      3.0435     62.9978
  1790.7500      0.0000    609.4452      3.1743     59.4972
  1791.0000      0.0000    606.2089      3.3231     58.2365
  1791.2500      0.0000    605.8024      3.4557     59.0190
  1791.5000      0.0000    608.7013      3.5407     60.4887
  1791.7500      0.0000    614.0732      3.5562     60.8639
  1792.0000      0.0000    621.1544      3.5052     59.0718
  1792.2500      0.0000    629.6012      3.4186     55.2371
  1792.5000      0.0000    638.3364      3.3354     50.2587
  1792.7500      0.0000    645.3892      3.2813     45.2168
  1793.0000      0.0000    650.1266      3.2650     41.0771
  1793.2500      0.0000    654.9315      3.2851     38.4900
  1793.5000      0.0000    663.0383      3.3272     37.6840
  1793.7500      0.0000    674.7278      3.3603     38.7181
  1794.0000      0.0000    686.8538      3.3536     41.8517
  1794.2500      0.0000    696.0278      3.3028     47.3938
  1794.5000      0.0000    701.2211      3.2396     55.0070
  1794.7500      0.0000    703.4387      3.2112     63.4085
  1795.0000      0.0000    704.0793      3.2434     71.0960
  1795.2500      0.0000    704.0367      3.3240     77.2542
  1795.5000      0.0000    703.7375      3.4247     81.6440
  1795.7500      0.0000    703.3822      3.5286     83.8686
  1796.0000      0.0000    702.9423      3.6301     83.5192
  1796.2500      0.0000    701.9820      3.7161     81.2261
  1796.5000      0.0000    699.6510      3.7628     78.8793
  1796.7500      0.0000    695.2224      3.7644     78.2543
  1797.0000      0.0000    689.0845      3.7555     79.6539
  1797.2500      0.0000    683.2686      3.7896     82.3108
  1797.5000      0.0000    680.4958      3.8865     85.7254
  1797.7500      0.0000    682.1281      4.0093     89.7304
  1798.0000      0.0000    686.9067      4.0974     93.3734
  1798.2500      0.0000    691.7402      4.1187     94.8927
  1798.5000      0.0000    693.6772      4.0910     93.4053
  1798.7500      0.0000    691.3637      4.0579     90.2463
  1799.0000      0.0000    685.3945      4.0500     88.2295
  1799.2500      0.0000    677.8378      4.0617     89.4639
  1799.5000      0.0000    671.1456      4.0525     93.8049
  1799.7500      0.0000    666.9821      3.9765     99.3022
  1800.0000      0.0000    665.9022      3.8238    104.0010
  1800.2500      0.0000    667.9984      3.6338    107.1743
  1800.5000      0.0000    673.4595      3.4590    108.9020
