~Version Information
VERS.                      2.0: CWLS Log ASCII Standard - VERSION 2.0
WRAP.                       NO: One line per depth step
~Well Information Block
STRT.FT               456.0000: 
STOP.FT              1700.7000: 
STEP.FT                 0.1000: 
NULL.                -999.2500: 
COMP.          Pioneer Natural Resources: COMPANY
WELL.                Mead 11-9: WELL
FLD.           Purgatoire River: FIELD
LOC.           1127' FNL & 668' FWL: LOCATION
PROV.                 Colorado: PROVINCE
CNTY.               Las Animas: COUNTRY
SRVC.                Patterson: SERVICE COMPANY
DATE.          Sat Feb 19 09:18:18 2005: LOG DATE
UWI.           05 071 08160 00: UNIQUE WELL ID
~Curve Information Block
DEPT.FT            0 000 00 00: Depth
DCAL.in                       : CDL Caliper
RHOB.g/cc                     : CDL Bulk Density
RHOC.g/cc                     : CDL Density Correction
DPOR.pu                       : CDL Density Porosity
GR.GAPI                       : Gamma Ray
NPOR.pu                       : Neutron Porosity
~Parameter Information Block
~A  Depth       DCAL        RHOB        RHOC        DPOR         GR         NPOR    
# ...
   542.4000      8.3242      1.1891     -0.2148     88.5396    102.6274     18.2370
   542.5000      8.3705      1.2059     -0.1817     87.5233     98.0525     19.0226
   542.6000      8.3705      1.3396     -0.1016     79.4187     95.5459     19.8171
   542.7000      8.3705      1.5474      0.1094     66.8249     98.4151     20.7361
   542.8000      8.4628      1.7852      0.1951     52.4127    102.9167     21.7068
   542.9000      8.4628      2.0283      0.3690     37.6759    108.6349     22.9119
   543.0000      8.5311      2.2474      0.5082     24.3974    120.1185     24.2336
   543.1000      8.5311      2.4115      0.5001     14.4566    132.1783     25.2836
   543.2000      8.5311      2.5037      0.4004      8.8694    135.3992     26.1989
   543.3000      8.3388      2.5308      0.2813      7.2221    132.2104     27.3112
   543.4000      8.3388      2.5266      0.2043      7.4765    131.0259     28.5625
   543.5000      8.2356      2.5202      0.1729      7.8650    133.2674     29.6584
   543.6000      8.2356      2.5204      0.1254      7.8555    134.9872     30.2736
   543.7000      8.2356      2.5298      0.1074      7.2843    135.5541     30.1826
   543.8000      8.1511      2.5454      0.0865      6.3416    138.9553     29.7347
   543.9000      8.1511      2.5541      0.1427      5.8144    144.5606     29.3572
   544.0000      8.1186      2.5492      0.0680      6.1089    145.7496     29.0047
   544.1000      8.1186      2.5360      0.1413      6.9098    144.3082     28.8128
   544.2000      8.1186      2.5159      0.0785      8.1291    147.6207     28.7428
   544.3000      8.1124      2.4944      0.0672      9.4292    153.7042     28.3666
   544.4000      8.1124      2.4719      0.0894     10.7969    156.3292     27.9623
   544.5000      8.1116      2.4456      0.0232     12.3860    153.9271     28.1331
   544.6000      8.1116      2.4313      0.0435     13.2531    148.9322     28.5446
   544.7000      8.1116      2.4471      0.0462     12.2997    147.2747     28.6785
   544.8000      8.1116      2.4857      0.1325      9.9571    152.5662     28.7728
   544.9000      8.1116      2.5153      0.1447      8.1641    158.3277     29.0283
   545.0000      8.1133      2.5237      0.1033      7.6526    157.6692     29.3688
   545.1000      8.1133      2.5398      0.0897      6.6761    155.6286     29.7788
   545.2000      8.1133      2.5909      0.0966      3.5796    157.2402     30.2106
   545.3000      8.1157      2.6656      0.1860     -0.9435    159.0672     30.4989
   545.4000      8.1157      2.7253      0.1714     -4.5649    156.3206     30.5007
   545.5000      8.1141      2.7404      0.1832     -5.4816    145.3960     30.1965
   545.6000      8.1141      2.7071      0.1642     -3.4608    130.1431     29.8617
   545.7000      8.1141      2.6472      0.0960      0.1705    118.5922     29.5529
   545.8000      8.1111      2.5879     -0.0046      3.7647    112.5075     29.0240
   545.9000      8.1111      2.5384     -0.0131      6.7613    109.4435     28.6061
   546.0000      8.1098      2.5026     -0.0779      8.9351    107.9073     28.7896
   546.1000      8.1098      2.4908     -0.0449      9.6482    106.9970     28.9534
   546.2000      8.1098      2.5042     -0.0310      8.8385    107.8423     28.3757
   546.3000      8.1092      2.5348      0.0320      6.9815    112.8836     27.7191
   546.4000      8.1092      2.5718      0.1140      4.7366    119.8093     27.6362
   546.5000      8.1077      2.5996      0.1255      3.0516    123.6748     27.6741
   546.6000      8.1077      2.6041      0.1734      2.7802    124.1508     27.5008
   546.7000      8.1077      2.5851      0.1096      3.9360    124.3811     27.3836
   546.8000      8.1050      2.5625      0.0718      5.3014    126.0053     27.3489
   546.9000      8.1050      2.5510      0.0810      5.9989    128.8262     27.0942
   547.0000      8.0994      2.5459      0.0844      6.3100    131.9682     26.7203
   547.1000      8.0994      2.5413      0.1175      6.5908    133.7508     26.4614
   547.2000      8.0994      2.5319      0.0928      7.1602    134.0624     26.1115
   547.3000      8.0911      2.5126      0.1157      8.3244    132.2063     25.7167
   547.4000      8.0911      2.4832      0.0532     10.1106    127.9079     25.7446
   547.5000      8.0862      2.4435      0.0894     12.5175    124.2855     26.0557
   547.6000      8.0862      2.3878      0.0799     15.8886    123.1103     26.1342
   547.7000      8.0862      2.3224      0.0718     19.8531    124.2638     26.2201
   547.8000      8.0872      2.2730      0.0325     22.8483    125.7996     26.4757
   547.9000      8.0872      2.2545      0.0658     23.9700    127.2563     26.5921
   548.0000      8.0890      2.2655      0.0237     23.3011    130.9237     26.6105
   548.1000      8.0890      2.3063      0.1001     20.8283    135.1585     26.4603
   548.2000      8.0890      2.3669      0.1444     17.1557    134.6071     26.0780
   548.3000      8.0920      2.4298      0.2599     13.3439    128.7324     25.8798
   548.4000      8.0920      2.4813      0.3617     10.2221    123.5168     25.9954
   548.5000      8.1029      2.5095      0.3479      8.5172    125.5833     25.9684
   548.6000      8.1029      2.5192      0.1874      7.9272    134.3928     25.7174
   548.7000      8.1029      2.5297      0.1603      7.2928    140.3908     25.7633
   548.8000      8.1161      2.5405      0.1485      6.6348    137.1251     26.3074
   548.9000      8.1161      2.5422      0.0737      6.5319    131.1417     27.0394
   549.0000      8.1214      2.5455      0.0990      6.3310    127.8416     27.5657
   549.1000      8.1214      2.5563      0.1340      5.6785    125.1855     27.6443
   549.2000      8.1214      2.5602      0.1578      5.4413    125.5104     27.3922
   549.3000      8.1193      2.5522      0.1062      5.9288    129.8374     27.3571
   549.4000      8.1193      2.5435      0.1029      6.4561    131.3774     27.9602
   549.5000      8.1151      2.5421      0.1380      6.5389    127.2685     28.7904
   549.6000      8.1151      2.5549      0.1149      5.7650    122.9794     29.2887
   549.7000      8.1151      2.6012      0.0862      2.9588    122.1270     29.5322
   549.8000      8.1109      2.6969      0.1282     -2.8411    124.4148     29.6747
   549.9000      8.1109      2.8222      0.1645    -10.4388    126.6445     29.5977
   550.0000      8.1058      2.9297      0.2313    -16.9514    126.1689     29.1457
   550.1000      8.1058      2.9877      0.3017    -20.4639    125.9143     28.4748
   550.2000      8.1058      2.9952      0.2773    -20.9236    129.1070     28.1155
   550.3000      8.1009      2.9665      0.1939    -19.1826    130.6716     28.0934
   550.4000      8.1009      2.9132      0.1363    -15.9536    124.5698     27.8114
   550.5000      8.1055      2.8406      0.0914    -11.5491    115.5799     27.3272
   550.6000      8.1055      2.7644      0.0044     -6.9362    112.8112     27.1583
   550.7000      8.1055      2.7096     -0.0077     -3.6091    115.8576     27.1863
   550.8000      8.1220      2.6810      0.0536     -1.8778    116.6625     27.0837
   550.9000      8.1220      2.6602      0.1124     -0.6156    113.6447     26.9658
   551.0000      8.1343      2.6333      0.1403      1.0121    112.4293     26.9422
   551.1000      8.1343      2.6108      0.0973      2.3770    113.7922     26.8927
   551.2000      8.1343      2.6060      0.1362      2.6642    114.4007     26.8607
   551.3000      8.1376      2.6143      0.1338      2.1622    116.1858     26.9398
   551.4000      8.1376      2.6237      0.1503      1.5959    124.6698     27.0340
   551.5000      8.1379      2.6250      0.1227      1.5179    137.2492     27.1321
   551.6000      8.1379      2.6133      0.1075      2.2231    145.5425     27.2514
   551.7000      8.1379      2.5920      0.1125      3.5122    147.3921     27.3673
   551.8000      8.1375      2.5707      0.1020      4.8046    145.9567     27.5588
   551.9000      8.1375      2.5562      0.1245      5.6837    143.3768     27.6309
