~Version Information
VERS.                      2.0: CWLS Log ASCII Standard - VERSION 2.0
WRAP.                       NO: One line per depth step
~Well Information Block
STRT.FT               819.0000: 
STOP.FT              2499.5000: 
STEP.FT                 0.2500: 
NULL.                -999.2500: 
COMP.          Petrogulf Corporation: COMPANY
WELL.             State 16-21V: WELL
FLD.           Purgatorie River: FIELD
LOC.           1738' FWL & 332' FWL: LOCATION
PROV.                 Colorado: PROVINCE
CNTY.               Las Animas: COUNTRY
SRVC.          Patterson Wireline: SERVICE COMPANY
DATE.          Sun Jul 13 13:34:36 2003: LOG DATE
UWI.           05 071 08829 00: UNIQUE WELL ID
~Curve Information Block
DEPT.FT            0 000 00 00: Depth
SP.mV                         : DIL Spontaneous Potential
RILD.Ohm-m                    : DIL Deep Resistivity
RILM.Ohm-m                    : DIL Medium Resistivity
RLL3.Ohm-m                    : DIL Shallow Resistivity
GR.GAPI                       : Gamma Ray
~Parameter Information Block
~A  Depth        SP         RILD        RILM        RLL3         GR     
# ...
   959.0000   2000.0000     18.7737     18.8600   2000.0000    136.5392
   959.2500   2000.0000     18.7028     18.7087   2000.0000    134.9104
   959.5000   2000.0000     18.6608     18.5786   2000.0000    131.4468
   959.7500   2000.0000     18.6395     18.4722   2000.0000    129.4677
   960.0000   2000.0000     18.6307     18.3913   2000.0000    128.7503
   960.2500   2000.0000     18.6255     18.3371   2000.0000    130.0614
   960.5000   2000.0000     18.6149     18.3093   2000.0000    133.0404
   960.7500   2000.0000     18.5912     18.3068   2000.0000    133.9824
   961.0000   2000.0000     18.5526     18.3274   2000.0000    131.9950
   961.2500   2000.0000     18.5069     18.3675   2000.0000    128.8506
   961.5000   2000.0000     18.4708     18.4234   2000.0000    123.9754
   961.7500   2000.0000     18.4638     18.4904   2000.0000    121.9410
   962.0000   2000.0000     18.4973     18.5640   2000.0000    121.3001
   962.2500   2000.0000     18.5685     18.6397   2000.0000    122.0322
   962.5000   2000.0000     18.6619     18.7136   2000.0000    123.7693
   962.7500   2000.0000     18.7576     18.7823   2000.0000    124.8768
   963.0000   2000.0000     18.8393     18.8435   2000.0000    126.2929
   963.2500   2000.0000     18.8974     18.8957   2000.0000    127.2994
   963.5000   2000.0000     18.9277     18.9387   2000.0000    129.1203
   963.7500   2000.0000     18.9296     18.9729   2000.0000    130.2177
   964.0000   2000.0000     18.9066     18.9996   2000.0000    130.7459
   964.2500   2000.0000     18.8674     19.0203   2000.0000    130.2024
   964.5000   2000.0000     18.8261     19.0369   2000.0000    128.9389
   964.7500   2000.0000     18.7978     19.0511   2000.0000    128.5044
   965.0000   2000.0000     18.7927     19.0647   2000.0000    128.8893
   965.2500   2000.0000     18.8118     19.0790   2000.0000    129.6326
   965.5000   2000.0000     18.8481     19.0952   2000.0000    131.0844
   965.7500   2000.0000     18.8912     19.1142   2000.0000    132.1646
   966.0000   2000.0000     18.9313     19.1367   2000.0000    133.6340
   966.2500   2000.0000     18.9616     19.1631   2000.0000    134.2264
   966.5000   2000.0000     18.9788     19.1936   2000.0000    134.2312
   966.7500   2000.0000     18.9846     19.2279   2000.0000    133.7389
   967.0000   2000.0000     18.9858     19.2652   2000.0000    132.8239
   967.2500   2000.0000     18.9909     19.3048   2000.0000    132.4665
   967.5000   2000.0000     19.0061     19.3454   2000.0000    132.5039
   967.7500   2000.0000     19.0355     19.3860   2000.0000    132.6912
   968.0000   2000.0000     19.0838     19.4261   2000.0000    132.7755
   968.2500   2000.0000     19.1565     19.4654   2000.0000    132.6034
   968.5000   2000.0000     19.2562     19.5045   2000.0000    131.7855
   968.7500   2000.0000     19.3771     19.5447   2000.0000    130.6405
   969.0000   2000.0000     19.5068     19.5879   2000.0000    128.2392
   969.2500   2000.0000     19.6343     19.6364   2000.0000    126.9587
   969.5000   2000.0000     19.7575     19.6930   2000.0000    127.1251
   969.7500   2000.0000     19.8818     19.7601   2000.0000    128.9174
   970.0000   2000.0000     20.0128     19.8399   2000.0000    133.0080
   970.2500   2000.0000     20.1490     19.9336   2000.0000    135.5063
   970.5000   2000.0000     20.2807     20.0420   2000.0000    137.2395
   970.7500   2000.0000     20.3968     20.1646   2000.0000    136.6603
   971.0000   2000.0000     20.4918     20.3000   2000.0000    133.6148
   971.2500   2000.0000     20.5701     20.4461   2000.0000    130.8348
   971.5000   2000.0000     20.6420     20.5995   2000.0000    126.9313
   971.7500   2000.0000     20.7168     20.7565   2000.0000    125.1111
   972.0000   2000.0000     20.7974     20.9122   2000.0000    123.7442
   972.2500   2000.0000     20.8805     21.0613   2000.0000    123.3128
   972.5000   2000.0000     20.9588     21.1972   2000.0000    122.3089
   972.7500   2000.0000     21.0248     21.3131   2000.0000    121.0469
   973.0000   2000.0000     21.0721     21.4011   2000.0000    118.4118
   973.2500   2000.0000     21.0966     21.4532   2000.0000    116.5105
   973.5000   2000.0000     21.0925     21.4617   2000.0000    114.1471
   973.7500   2000.0000     21.0504     21.4199   2000.0000    113.2623
   974.0000   2000.0000     20.9589     21.3229   2000.0000    113.3143
   974.2500   2000.0000     20.8118     21.1681   2000.0000    114.2410
   974.5000   2000.0000     20.6117     20.9563   2000.0000    116.6455
   974.7500   2000.0000     20.3680     20.6911   2000.0000    118.6650
   975.0000   2000.0000     20.0912     20.3799   2000.0000    122.0075
   975.2500   2000.0000     19.7903     20.0323   2000.0000    124.4629
   975.5000   2000.0000     19.4730     19.6603   2000.0000    128.7189
   975.7500   2000.0000     19.1472     19.2769   2000.0000    131.8353
   976.0000   2000.0000     18.8232     18.8956   2000.0000    135.9169
   976.2500   2000.0000     18.5149     18.5295   2000.0000    137.4496
   976.5000   2000.0000     18.2388     18.1911   2000.0000    137.2955
   976.7500   2000.0000     18.0105     17.8916   2000.0000    135.8156
   977.0000   2000.0000     17.8411     17.6411   2000.0000    132.7088
   977.2500   2000.0000     17.7370     17.4482   2000.0000    130.8750
   977.5000   2000.0000     17.7016     17.3204   2000.0000    129.7382
   977.7500   2000.0000     17.7382     17.2643   2000.0000    130.4357
   978.0000   2000.0000     17.8495     17.2855   2000.0000    133.2125
   978.2500   2000.0000     18.0371     17.3890   2000.0000    135.3230
   978.5000   2000.0000     18.3004     17.5790   2000.0000    137.2284
   978.7500   2000.0000     18.6380     17.8599   2000.0000    137.3445
   979.0000   2000.0000     19.0491     18.2356   2000.0000    136.5995
   979.2500   2000.0000     19.5346     18.7106   2000.0000    136.1942
   979.5000   2000.0000     20.0974     19.2894   2000.0000    136.2749
   979.7500   2000.0000     20.7429     19.9774   2000.0000    136.6488
   980.0000   2000.0000     21.4793     20.7807   2000.0000    137.0646
   980.2500   2000.0000     22.3182     21.7060   2000.0000    136.8816
   980.5000   2000.0000     23.2739     22.7609   2000.0000    135.4854
   980.7500   2000.0000     24.3600     23.9525   2000.0000    133.6564
   981.0000   2000.0000     25.5855     25.2871   2000.0000    129.5055
   981.2500   2000.0000     26.9496     26.7674   2000.0000    125.9146
   981.5000   2000.0000     28.4382     28.3903   2000.0000    119.6711
   981.7500   2000.0000     30.0174     30.1432   2000.0000    115.1896
   982.0000   2000.0000     31.6263     31.9985   2000.0000    108.4421
   982.2500   2000.0000     33.1752     33.9097   2000.0000    104.1402
   982.5000   2000.0000     34.5592     35.8072   2000.0000     98.1481
   982.7500   2000.0000     35.6865     37.5976   2000.0000     94.5257
   983.0000   2000.0000     36.4994     39.1697   2000.0000     89.8030
   983.2500   2000.0000     36.9795     40.4065   2000.0000     87.0843
   983.5000   2000.0000     37.1398     41.2059   2000.0000     83.1642
   983.7500   2000.0000     37.0161     41.5025   2000.0000     80.3926
   984.0000   2000.0000     36.6568     41.2831   2000.0000     76.3897
   984.2500   2000.0000     36.1100     40.5912   2000.0000     74.6793
   984.5000   2000.0000     35.4153     39.5155   2000.0000     75.4149
   984.7500   2000.0000     34.6049     38.1705   2000.0000     78.8388
   985.0000   2000.0000     33.7096     36.6737   2000.0000     88.2263
   985.2500   2000.0000     32.7611     35.1294   2000.0000     96.2600
   985.5000   2000.0000     31.7899     33.6196   2000.0000    107.8037
   985.7500   2000.0000     30.8245     32.2021   2000.0000    113.2525
   986.0000   2000.0000     29.8908     30.9139   2000.0000    116.8040
   986.2500   2000.0000     29.0150     29.7755   2000.0000    117.1028
   986.5000   2000.0000     28.2276     28.7965   2000.0000    117.6188
   986.7500   2000.0000     27.5645     27.9802   2000.0000    119.2075
