~Version Information
VERS.                      2.0: CWLS Log ASCII Standard - VERSION 2.0
WRAP.                       NO: One line per depth step
~Well Information Block
STRT.FT                -7.2500: 
STOP.FT              2827.7500: 
STEP.FT                 0.2500: 
NULL.                -999.2500: 
COMP.          Pioneer Natural Resources: COMPANY
WELL.           Ei-ei-oh 31-24: WELL
FLD.           Purgatorie River: FIELD
LOC.           235' FNL & 2001' FEL--: LOCATION
PROV.                       CO: PROVINCE
CNTY.               Las Animas: COUNTRY
SRVC.          Patterson Wireline: SERVICE COMPANY
DATE.          Tue Aug 23 12:06:00 2005: LOG DATE
UWI.           05 071 08403 00: UNIQUE WELL ID
~Curve Information Block
DEPT.FT            0 000 00 00: Depth
CCL.                          : Casing Collar Locator
TT3.usec                      : CBL 3' Travel Time
AMP3.mV                       : CBL 3' Amplitude
GR.GAPI                       : Gamma Ray
~Parameter Information Block
~A  Depth       CCL         TT3         AMP3         GR     
# ...
   193.7500      0.0000    261.6160     67.4723     99.7611
   194.0000      0.0000    261.6395     67.4892     99.6430
   194.2500      0.0000    261.6499     67.5100     98.3222
   194.5000      0.0000    261.6454     67.6002     96.3223
   194.7500      0.0000    261.6288     67.8044     94.3425
   195.0000      0.0000    261.6019     68.1043     92.6880
   195.2500      0.0000    261.5657     68.4114     90.9190
   195.5000      0.0000    261.5246     68.6168     88.2071
   195.7500      0.0000    261.4873     68.6658     84.4584
   196.0000      0.0000    261.4636     68.5922     81.0622
   196.2500      0.0000    261.4599     68.4816     79.8645
   196.5000      0.0000    261.4742     68.4054     81.1302
   196.7500      0.0000    261.4960     68.3863     83.0536
   197.0000      0.0000    261.5141     68.4014     83.5815
   197.2500      0.0000    261.5282     68.4010     82.1998
   197.5000      0.0000    261.5464     68.3376     79.7243
   197.7500      0.0000    261.5715     68.2066     77.0508
   198.0000      0.0000    261.5952     68.0661     74.5795
   198.2500      0.0000    261.6075     68.0083     72.3114
   198.5000      0.0000    261.6063     68.1056     70.1107
   198.7500      0.0000    261.5963     68.3735     68.0702
   199.0000      0.0000    261.5823     68.7680     66.4073
   199.2500      0.0000    261.5685     69.2029     64.7306
   199.5000      0.0000    261.5620     69.5755     62.0424
   199.7500      0.0000    261.5717     69.8010     58.0565
   200.0000      0.0000    261.6010     69.8508     54.0735
   200.2500      0.0000    261.6417     69.7655     51.8672
   200.5000      0.0000    261.6753     69.6247     51.7582
   200.7500      0.0000    261.6854     69.5007     52.1041
   201.0000      0.0000    261.6700     69.4350     50.7005
   201.2500      0.0000    261.6426     69.4439     46.5990
   201.5000      0.0000    261.6192     69.5296     40.8056
   201.7500      0.0000    261.6046     69.6783     35.4992
   202.0000      0.0000    261.5930     69.8529     32.5453
   202.2500      0.0000    261.5807     69.9992     32.3750
   202.5000      0.0000    261.5727     70.0695     33.9519
   202.7500      0.0000    261.5752     70.0461     35.7449
   203.0000      0.0000    261.5885     69.9511     36.9823
   203.2500      0.0000    261.6070     69.8414     38.1391
   203.5000      0.0000    261.6237     69.7828     40.1676
   203.7500      0.0000    261.6328     69.8119     43.3139
   204.0000      0.0000    261.6317     69.9130     46.8456
   204.2500      0.0000    261.6218     70.0325     49.7840
   204.5000      0.0000    261.6096     70.1156     51.6218
   204.7500      0.0000    261.6029     70.1383     52.2742
   205.0000      0.0000    261.6058     70.1160     51.5683
   205.2500      0.0000    261.6169     70.0871     49.1965
   205.5000      0.0000    261.6294     70.0891     45.5312
   205.7500      0.0000    261.6349     70.1432     42.2858
   206.0000      0.0000    261.6288     70.2509     41.7343
   206.2500      0.0000    261.6143     70.3969     45.0433
   206.5000      0.0000    261.6013     70.5577     51.4849
   206.7500      0.0000    261.5977     70.7130     58.9500
   207.0000      0.0000    261.6022     70.8518     64.8649
   207.2500      0.0000    261.6080     70.9614     67.1585
   207.5000      0.0000    261.6142     71.0170     65.2936
   207.7500      0.0000    261.6277     70.9999     60.4512
   208.0000      0.0000    261.6531     70.9326     54.4494
   208.2500      0.0000    261.6833     70.8785     48.6362
   208.5000      0.0000    261.7033     70.8961     43.8429
   208.7500      0.0000    261.7033     70.9946     40.9282
   209.0000      0.0000    261.6860     71.1331     40.8725
   209.2500      0.0000    261.6625     71.2493     44.1204
   209.5000      0.0000    261.6429     71.2932     49.9737
   209.7500      0.0000    261.6301     71.2508     56.9786
   210.0000      0.0000    261.6220     71.1450     63.8950
   210.2500      0.0000    261.6157     71.0170     69.9454
   210.5000      0.0000    261.6095     70.9065     74.2682
   210.7500      0.0000    261.6046     70.8473     75.9833
   211.0000      0.0000    261.6044     70.8587     75.2041
   211.2500      0.0000    261.6140     70.9249     73.3971
   211.5000      0.0000    261.6433     70.9895     72.2321
   211.7500      0.0000    261.7158     70.9845     72.2397
   212.0000      0.0000    261.9454     70.8342     72.8178
   212.2500      0.0000    262.6958     70.3652     73.3443
   212.5000      0.0000    264.7608     69.1509     74.0400
   212.7500      0.0000    269.1903     66.5442     75.6361
   213.0000      0.0000    276.3792     62.1488     78.2220
   213.2500      0.0000    284.9883     56.4670     80.6387
   213.5000      0.0000    292.1967     50.9220     81.3549
   213.7500      0.0000    295.5684     46.9702     79.9469
   214.0000      0.0000    294.6095     45.1561     77.5147
   214.2500      0.0000    290.6031     45.0200     75.8637
   214.5000      0.0000    285.6198     45.6988     76.4792
   214.7500      0.0000    281.6451     46.5265     79.9673
   215.0000     -2.0000    279.6790     47.2905     85.9539
   215.2500      0.0000    279.1398     48.1788     93.2100
   215.5000      0.0000    278.4424     49.5781     99.8948
   215.7500      0.0000    276.4552     51.8464    104.0228
   216.0000      0.0000    273.3469     55.0974    104.2395
   216.2500      0.0000    270.0548     59.0502    100.5531
   216.5000      0.0000    267.3042     63.0952     94.4228
   216.7500      0.0000    265.2641     66.6210     88.0179
   217.0000      0.0000    263.8236     69.3008     83.1436
   217.2500      0.0000    262.8664     71.1037     80.4319
   217.5000      0.0000    262.3020     72.1668     79.2594
   217.7500      0.0000    262.0202     72.7102     78.4651
   218.0000      0.0000    261.9023     72.9701     77.3094
   218.2500      0.0000    261.8575     73.1208     75.9449
   218.5000      0.0000    261.8401     73.2416     75.1596
   218.7500      0.0000    261.8339     73.3479     75.8105
   219.0000      0.0000    261.8349     73.4371     78.2927
   219.2500      0.0000    261.8398     73.5075     82.0325
   219.5000      0.0000    261.8435     73.5629     85.2702
   219.7500      0.0000    261.8413     73.6095     85.7556
   220.0000      0.0000    261.8323     73.6493     82.1596
   220.2500      0.0000    261.8199     73.6805     75.0025
   220.5000      0.0000    261.8065     73.7079     66.2537
   220.7500      0.0000    261.7901     73.7485     58.0775
   221.0000      0.0000    261.7687     73.8146     51.9643
   221.2500      0.0000    261.7477     73.8902     48.6757
   221.5000      0.0000    261.7397     73.9359     48.3638
   221.7500      0.0000    261.7531     73.9308     50.5593
   222.0000      0.0000    261.7821     73.9111     54.3991
   222.2500      0.0000    261.8097     73.9534     59.0260
   222.5000      0.0000    261.8208     74.1085     63.6130
   222.7500      0.0000    261.8137     74.3487     67.2305
   223.0000      0.0000    261.7976     74.5869     69.1181
   223.2500      0.0000    261.7833     74.7504     69.1192
   223.5000      0.0000    261.7749     74.8299     67.6923
   223.7500      0.0000    261.7704     74.8603     65.5409
   224.0000      0.0000    261.7651     74.8754     63.2986
   224.2500      0.0000    261.7560     74.8904     61.5213
   224.5000      0.0000    261.7434     74.9092     60.8197
   224.7500      0.0000    261.7317     74.9316     61.6158
   225.0000      0.0000    261.7266     74.9515     63.4536
   225.2500      0.0000    261.7322     74.9589     64.8153
   225.5000      0.0000    261.7477     74.9493     64.1909
   225.7500      0.0000    261.7694     74.9312     61.4191
   226.0000      0.0000    261.7923     74.9232     57.7016
   226.2500      0.0000    261.8106     74.9497     54.3354
   226.5000      0.0000    261.8167     75.0335     51.6592
   226.7500      0.0000    261.8064     75.1794     49.2463
   227.0000      0.0000    261.7838     75.3578     46.7925
