~Version Information
VERS.                      2.0: CWLS Log ASCII Standard - VERSION 2.0
WRAP.                       NO: One line per depth step
~Well Information Block
STRT.FT               952.6000: 
STOP.FT              2511.5000: 
STEP.FT                 0.1000: 
NULL.                -999.2500: 
COMP.          Petrogulf Corporation: COMPANY
WELL.             Royal 8-33 V: WELL
FLD.           Purgatoire River: FIELD
LOC.           2365' FSL & 2336' FEL: LOCATION
PROV.                 Colorado: PROVINCE
CNTY.               Las Animas: COUNTRY
SRVC.                Patterson: SERVICE COMPANY
DATE.          Fri Dec 05 09:15:49 2003: LOG DATE
UWI.                          : UNIQUE WELL ID
~Curve Information Block
DEPT.FT            0 000 00 00: Depth
DCAL.in                       : CDL Caliper
RHOB.g/cc                     : CDL Bulk Density
RHOC.g/cc                     : CDL Density Correction
DPOR.pu                       : CDL Density Porosity
GR.GAPI                       : Gamma Ray
NPOR.pu                       : Neutron Porosity
~Parameter Information Block
~A  Depth       DCAL        RHOB        RHOC        DPOR         GR         NPOR    
# ...
  2191.0000      8.0774      2.7770      0.1404     -7.6947     88.3206     21.1066
  2191.1000      8.0774      2.7700      0.1188     -7.2724     82.9512     21.0865
  2191.2000      8.0774      2.7419      0.0398     -5.5687     78.4289     20.2713
  2191.3000      8.0228      2.7057      0.0825     -3.3769     75.2271     19.2056
  2191.4000      8.0228      2.6590     -0.0447     -0.5426     73.7400     18.8048
  2191.5000      8.0131      2.6132     -0.1190      2.2282     74.0401     19.4024
  2191.6000      8.0131      2.6023     -0.1107      2.8883     75.2062     20.4022
  2191.7000      8.0131      2.6316      0.0018      1.1160     76.8754     20.6993
  2191.8000      8.0154      2.6666      0.0766     -1.0049     77.9896     20.1024
  2191.9000      8.0154      2.6744      0.0997     -1.4774     79.5505     19.2630
  2192.0000      8.0189      2.6495      0.0486      0.0314     85.3376     19.0270
  2192.1000      8.0189      2.6063      0.0919      2.6475     94.3058     19.7033
  2192.2000      8.0189      2.5643      0.0650      5.1952     98.8459     20.5778
  2192.3000      8.0443      2.5380      0.0011      6.7889     97.5936     21.1367
  2192.4000      8.0443      2.5277      0.0278      7.4136     98.7858     21.6069
  2192.5000      8.0594      2.5258     -0.0161      7.5294    105.5277     22.0184
  2192.6000      8.0594      2.5291      0.0397      7.3289    114.7167     22.2055
  2192.7000      8.0594      2.5292      0.0563      7.3219    122.5117     22.2471
  2192.8000      8.0511      2.5205      0.0829      7.8497    127.0135     22.2881
  2192.9000      8.0511      2.5155      0.0725      8.1499    130.0571     22.5060
  2193.0000      8.0359      2.5208      0.1287      7.8320    135.1167     23.0108
  2193.1000      8.0359      2.5264      0.1215      7.4919    144.8074     23.4675
  2193.2000      8.0359      2.5309      0.0972      7.2204    153.2784     23.4595
  2193.3000      8.0025      2.5364      0.1141      6.8860    148.3537     23.1929
  2193.4000      8.0025      2.5338      0.0679      7.0425    134.3990     23.3339
  2193.5000      8.0092      2.5070      0.1246      8.6678    125.2811     24.3420
  2193.6000      8.0092      2.4577      0.0289     11.6531    119.9954     25.8290
  2193.7000      8.0092      2.4106      0.0441     14.5098    112.7818     26.6474
  2193.8000      8.0337      2.3661      0.0931     17.2057    105.6993     26.5240
  2193.9000      8.0337      2.3123      0.0235     20.4654    101.6959     26.3336
  2194.0000      8.0799      2.2610     -0.0105     23.5773    100.2737     26.2165
  2194.1000      8.0799      2.2283     -0.0161     25.5560     99.4112     26.0624
  2194.2000      8.0799      2.2129      0.0486     26.4924     99.0962     26.1534
  2194.3000      8.0776      2.2076      0.0257     26.8138    100.4315     26.4693
  2194.4000      8.0776      2.2236      0.0104     25.8447    100.6240     26.6300
  2194.5000      8.0103      2.2694      0.1392     23.0674     97.5070     26.3171
  2194.6000      8.0103      2.3208      0.1635     19.9515     93.9026     25.4667
  2194.7000      8.0103      2.3510      0.1706     18.1216     93.3713     24.4115
  2194.8000      8.0031      2.3661      0.1182     17.2032     95.1057     23.6026
  2194.9000      8.0031      2.3907      0.1424     15.7145     94.7954     23.1118
  2195.0000      8.0240      2.4271      0.1856     13.5075     90.1859     23.2154
  2195.1000      8.0240      2.4527      0.1618     11.9564     81.7009     24.3020
  2195.2000      8.0240      2.4588      0.1446     11.5897     73.9782     25.3868
  2195.3000      8.0394      2.4540      0.1079     11.8767     73.4488     25.5018
  2195.4000      8.0394      2.4339      0.0958     13.0989     79.8471     25.4472
  2195.5000      8.0834      2.3797      0.0327     16.3835     86.8419     26.0101
  2195.6000      8.0834      2.2834     -0.0215     22.2175     90.5545     26.8766
  2195.7000      8.0834      2.1628      0.0176     29.5277     92.3150     27.4670
  2195.8000      8.0958      2.0628     -0.1159     35.5908     92.5474     27.5427
  2195.9000      8.0958      2.0151     -0.0267     38.4789     92.2187     26.8729
  2196.0000      8.0767      2.0077     -0.0584     38.9291     94.8753     25.5645
  2196.1000      8.0767      2.0253     -0.0569     37.8594    100.6773     24.2958
  2196.2000      8.0767      2.0696      0.0190     35.1765    109.4789     23.3093
  2196.3000      8.0291      2.1403      0.0416     30.8889    116.0513     22.2308
  2196.4000      8.0291      2.2291      0.1602     25.5091    111.8213     20.9470
  2196.5000      7.9942      2.3161      0.2683     20.2388    102.4003     19.5125
  2196.6000      7.9942      2.3849      0.2847     16.0684     98.2868     17.9809
  2196.7000      7.9942      2.4392      0.3299     12.7781     97.9000     16.4087
  2196.8000      8.0701      2.4918      0.2691      9.5879     94.1640     14.8984
  2196.9000      8.0701      2.5460      0.1584      6.3031     87.8001     14.1698
  2197.0000      8.0926      2.5833      0.1351      4.0441     83.0015     14.5616
  2197.1000      8.0926      2.5944      0.0468      3.3689     82.0749     15.0309
  2197.2000      8.0926      2.5992      0.0957      3.0792     83.0031     14.7946
  2197.3000      8.0865      2.6049      0.0753      2.7352     80.6316     14.3964
  2197.4000      8.0865      2.5994      0.1041      3.0676     74.0398     14.4178
  2197.5000      8.0958      2.5844      0.0451      3.9759     66.4673     14.5900
  2197.6000      8.0958      2.5794      0.0535      4.2817     61.9950     14.3142
  2197.7000      8.0958      2.5859      0.1070      3.8828     63.8767     13.6201
  2197.8000      8.0802      2.5879      0.0898      3.7656     68.3811     13.1002
  2197.9000      8.0802      2.5790      0.1008      4.3016     68.7161     13.2654
  2198.0000      8.0266      2.5633      0.0564      5.2527     67.4828     13.9322
  2198.1000      8.0266      2.5558      0.0243      5.7110     68.9848     14.5004
  2198.2000      8.0266      2.5689      0.1001      4.9140     68.6731     14.7583
  2198.3000      7.9587      2.6021      0.0483      2.9037     65.1920     14.5916
  2198.4000      7.9587      2.6434      0.1389      0.4000     64.3897     14.0598
  2198.5000      7.9520      2.6672      0.1672     -1.0401     67.6465     13.9717
  2198.6000      7.9520      2.6633      0.1505     -0.8088     69.6488     14.4537
  2198.7000      7.9520      2.6489      0.1286      0.0696     68.1934     14.6285
  2198.8000      7.9582      2.6379      0.1535      0.7306     66.1335     14.3151
  2198.9000      7.9582      2.6266      0.1688      1.4194     62.4009     14.1987
  2199.0000      7.9585      2.6101      0.1271      2.4184     57.7727     14.3833
  2199.1000      7.9585      2.5915      0.1369      3.5465     58.2159     14.2733
  2199.2000      7.9585      2.5760      0.1005      4.4847     63.7735     13.7482
  2199.3000      7.9514      2.5752      0.0737      4.5336     69.0014     13.2407
  2199.4000      7.9514      2.5821      0.1376      4.1182     71.9590     12.9072
  2199.5000      7.9325      2.5729      0.1264      4.6719     74.2713     12.6498
  2199.6000      7.9325      2.5580      0.0691      5.5738     76.7152     12.6195
  2199.7000      7.9325      2.5622      0.1470      5.3188     76.2236     12.9299
  2199.8000      7.9411      2.5684      0.1335      4.9457     70.6847     13.2758
  2199.9000      7.9411      2.5519      0.1355      5.9458     63.7945     13.2352
  2200.0000      7.9324      2.5403      0.0324      6.6477     60.2137     12.6920
  2200.1000      7.9324      2.5679      0.1031      4.9779     63.2153     11.9959
  2200.2000      7.9324      2.6029      0.1920      2.8538     70.7060     11.5912
  2200.3000      7.9493      2.6034      0.1867      2.8259     73.3788     11.4921
  2200.4000      7.9493      2.5931      0.0784      3.4468     67.3307     11.5074
  2200.5000      7.9473      2.6040      0.1236      2.7863     58.8743     11.5088
