~Version Information
VERS.                      2.0: CWLS Log ASCII Standard - VERSION 2.0
WRAP.                       NO: One line per depth step
~Well Information Block
STRT.FT               557.0000: 
STOP.FT              2136.0000: 
STEP.FT                 0.2500: 
NULL.                -999.2500: 
COMP.          Petrogulf Corporation: COMPANY
WELL.           Montoya 12-41R: WELL
FLD.           Purgatorie River: FIELD
LOC.           1086' FNL & 610' FEL: LOCATION
CNTY.               Las Animas: COUNTY
SRVC.                         : SERVICE COMPANY
DATE.          Thu Nov 18 06:03:03 2004: LOG DATE
UWI.           05 071 08241 00: UNIQUE WELL ID
STAT.                 Colorado: STATE
~Curve Information Block
DEPT.FT            0 000 00 00: Depth
SP.mV                         : DIL Spontaneous Potential
RILD.Ohm-m                    : DIL Deep Resistivity
RILM.Ohm-m                    : DIL Medium Resistivity
RLL3.Ohm-m                    : DIL Shallow Resistivity
GR.GAPI                       : Gamma Ray
~Parameter Information Block
~A  Depth        SP         RILD        RILM        RLL3         GR     
# ...
  1705.0000   -125.3070     28.1315     38.7792     50.9279     79.8181
  1705.2500   -125.6087     27.1282     37.2015     49.9513     79.9816
  1705.5000   -125.9422     26.1178     35.5558     48.0301     82.0016
  1705.7500   -126.2294     25.1167     33.8575     45.2362     84.6764
  1706.0000   -126.4254     24.1420     32.1294     41.7669     91.1586
  1706.2500   -126.5221     23.2079     30.4023     37.9182     97.1581
  1706.5000   -126.5384     22.3247     28.7094     34.0336    107.9321
  1706.7500   -126.4990     21.4996     27.0816     30.4374    115.4952
  1707.0000   -126.4157     20.7363     25.5426     27.3740    125.7380
  1707.2500   -126.2791     20.0373     24.1073     24.9698    130.9749
  1707.5000   -126.0611     19.4038     22.7824     23.2271    135.9027
  1707.7500   -125.7302     18.8361     21.5687     22.0478    137.5865
  1708.0000   -125.2658     18.3332     20.4641     21.2739    138.9212
  1708.2500   -124.6719     17.8918     19.4659     20.7301    139.6974
  1708.5000   -123.9758     17.5056     18.5722     20.2606    141.3915
  1708.7500   -123.2242     17.1650     17.7821     19.7563    142.9779
  1709.0000   -122.4672     16.8566     17.0943     19.1689    145.9364
  1709.2500   -121.7552     16.5650     16.5057     18.5166    148.2550
  1709.5000   -121.1407     16.2731     16.0103     17.8768    152.3501
  1709.7500   -120.6795     15.9655     15.5978     17.3695    155.5656
  1710.0000   -120.4424     15.6307     15.2535     17.1268    160.9897
  1710.2500   -120.5219     15.2638     14.9584     17.2531    164.5644
  1710.5000   -121.0164     14.8680     14.6912     17.7829    168.1775
  1710.7500   -122.0096     14.4541     14.4305     18.6492    168.1127
  1711.0000   -123.5395     14.0384     14.1579     19.6796    162.9359
  1711.2500   -125.5636     13.6397     13.8618     20.6272    156.5867
  1711.5000   -127.9464     13.2758     13.5389     21.2356    145.6247
  1711.7500   -130.4633     12.9609     13.1941     21.3141    139.3538
  1712.0000   -132.8436     12.7039     12.8391     20.7963    133.8560
  1712.2500   -134.8213     12.5075     12.4894     19.7567    133.2883
  1712.5000   -136.1888     12.3696     12.1608     18.3807    136.6269
  1712.7500   -136.8429     12.2832     11.8672     16.9032    140.7459
  1713.0000   -136.7915     12.2389     11.6198     15.5436    147.4888
  1713.2500   -136.1434     12.2263     11.4266     14.4585    151.0794
  1713.5000   -135.0678     12.2360     11.2934     13.7264    154.1069
  1713.7500   -133.7511     12.2609     11.2241     13.3540    154.8994
  1714.0000   -132.3615     12.2970     11.2220     13.3023    155.7007
  1714.2500   -131.0363     12.3429     11.2902     13.5201    156.5942
  1714.5000   -129.8790     12.3986     11.4314     13.9793    158.1947
  1714.7500   -128.9634     12.4640     11.6480     14.7037    158.6580
  1715.0000   -128.3399     12.5372     11.9407     15.7856    157.3341
  1715.2500   -128.0253     12.6140     12.3064     17.3772    155.1335
  1715.5000   -127.9979     12.6869     12.7359     19.6481    150.8433
  1715.7500   -128.1879     12.7468     13.2103     22.7056    147.7922
  1716.0000   -128.4849     12.7836     13.6983     26.4985    142.5141
  1716.2500   -128.7612     12.7886     14.1555     30.7419    137.7366
  1716.5000   -128.8999     12.7562     14.5279     34.9070    127.8772
  1716.7500   -128.8256     12.6849     14.7615     38.3076    120.0373
  1717.0000   -128.5212     12.5785     14.8155     40.2740    108.9753
  1717.2500   -128.0203     12.4444     14.6746     40.3597    103.9952
  1717.5000   -127.3929     12.2928     14.3543     38.4942    102.6283
  1717.7500   -126.7126     12.1342     13.8957     35.0137    106.1496
  1718.0000   -126.0430     11.9779     13.3530     30.5517    116.8200
  1718.2500   -125.4238     11.8301     12.7807     25.8402    126.1911
  1718.5000   -124.8751     11.6941     12.2245     21.5073    141.1065
  1718.7500   -124.4151     11.5699     11.7177     17.9483    150.2300
  1719.0000   -124.0707     11.4561     11.2820     15.3032    161.0016
  1719.2500   -123.8839     11.3509     10.9295     13.5177    165.9633
  1719.5000   -123.9058     11.2539     10.6656     12.4401    170.7221
  1719.7500   -124.1812     11.1673     10.4919     11.9066    172.6436
  1720.0000   -124.7348     11.0960     10.4078     11.7931    173.7939
  1720.2500   -125.5576     11.0484     10.4120     12.0306    172.8772
  1720.5000   -126.6074     11.0346     10.5037     12.5979    167.8870
  1720.7500   -127.8219     11.0663     10.6835     13.5026    162.0997
  1721.0000   -129.1269     11.1550     10.9538     14.7609    151.2036
  1721.2500   -130.4431     11.3115     11.3194     16.3734    143.8447
  1721.5000   -131.6900     11.5451     11.7871     18.3042    134.5994
  1721.7500   -132.7856     11.8627     12.3653     20.4703    130.0485
  1722.0000   -133.6479     12.2686     13.0626     22.7451    125.1773
  1722.2500   -134.2037     12.7630     13.8856     24.9769    122.4736
  1722.5000   -134.3966     13.3418     14.8350     27.0188    117.6428
  1722.7500   -134.2116     13.9959     15.9017     28.7581    113.3606
  1723.0000   -133.6829     14.7113     17.0613     30.1322    105.9932
  1723.2500   -132.8986     15.4691     18.2710     31.1267    101.6416
  1723.5000   -131.9976     16.2476     19.4708     31.7579     97.9718
  1723.7500   -131.1429     17.0238     20.5921     32.0526     97.8449
  1724.0000   -130.4943     17.7761     21.5735     32.0391    100.2943
  1724.2500   -130.1768     18.4858     22.3790     31.7538    102.7836
  1724.5000   -130.2533     19.1378     23.0099     31.2589    106.5942
  1724.7500   -130.7133     19.7196     23.5021     30.6583    108.9396
  1725.0000   -131.4743     20.2199     23.9133     30.0981    112.3359
  1725.2500   -132.3990     20.6267     24.3037     29.7473    114.6975
  1725.5000   -133.3287     20.9268     24.7176     29.7646    118.2387
  1725.7500   -134.1088     21.1069     25.1706     30.2658    120.0913
  1726.0000   -134.6187     21.1562     25.6413     31.3019    120.8782
  1726.2500   -134.7833     21.0689     26.0698     32.8448    119.6175
  1726.5000   -134.5827     20.8463     26.3634     34.7772    115.2476
  1726.7500   -134.0437     20.4981     26.4134     36.8808    111.2418
  1727.0000   -133.2353     20.0405     26.1260     38.8346    104.7664
  1727.2500   -132.2583     19.4934     25.4536     40.2433    100.8028
  1727.5000   -131.2366     18.8783     24.4164     40.7087     96.5546
  1727.7500   -130.3057     18.2154     23.0963     39.9351     95.5560
  1728.0000   -129.6008     17.5231     21.6104     37.8286     97.7276
  1728.2500   -129.2322     16.8168     20.0773     34.5461    101.7384
  1728.5000   -129.2589     16.1098     18.5919     30.4638    110.9764
  1728.7500   -129.6671     15.4135     17.2169     26.0768    118.5882
  1729.0000   -130.3574     14.7377     15.9838     21.8694    130.6966
  1729.2500   -131.1627     14.0904     14.9019     18.2082    138.3315
  1729.5000   -131.8857     13.4777     13.9658     15.2903    148.0165
  1729.7500   -132.3434     12.9040     13.1622     13.1502    153.0243
  1730.0000   -132.4228     12.3714     12.4752     11.7048    158.1899
  1730.2500   -132.1072     11.8804     11.8885     10.8120    159.9589
  1730.5000   -131.4733     11.4304     11.3873     10.3179    160.1658
  1730.7500   -130.6709     11.0200     10.9592     10.0877    158.9831
  1731.0000   -129.8653     10.6482     10.5937     10.0176    155.7998
  1731.2500   -129.1953     10.3140     10.2825     10.0348    152.9873
  1731.5000   -128.7299     10.0170     10.0186     10.0913    148.6242
  1731.7500   -128.4540      9.7569      9.7960     10.1557    146.5310
  1732.0000   -128.2805      9.5333      9.6090     10.2075    145.5571
  1732.2500   -128.0853      9.3453      9.4524     10.2324    145.8263
  1732.5000   -127.7486      9.1914      9.3210     10.2210    145.6792
  1732.7500   -127.1912      9.0694      9.2099     10.1679    144.6840
