~Version Information
VERS.                      2.0: CWLS Log ASCII Standard - VERSION 2.0
WRAP.                       NO: One line per depth step
~Well Information Block
STRT.FT               523.0000: 
STOP.FT              1709.0000: 
STEP.FT                 0.1000: 
NULL.                -999.2500: 
COMP.          Evergreen Operating Corporation: COMPANY
WELL.            Rimrock 14-29: WELL
FLD.           Purgatorie River: FIELD
LOC.           945' FSL & 604' FWL: LOCATION
PROV.                 Colorado: PROVINCE
CNTY.               Las Animas: COUNTRY
SRVC.                         : SERVICE COMPANY
DATE.          Tue Sep 21 04:15:40 2004: LOG DATE
UWI.           05 071 08136 00: UNIQUE WELL ID
~Curve Information Block
DEPT.FT            0 000 00 00: Depth
DCAL.in                       : CDL Caliper
RHOB.g/cc                     : CDL Bulk Density
RHOC.g/cc                     : CDL Density Correction
DPOR.pu                       : CDL Density Porosity
GR.GAPI                       : Gamma Ray
NPOR.pu                       : Neutron Porosity
~Parameter Information Block
~A  Depth       DCAL        RHOB        RHOC        DPOR         GR         NPOR    
# ...
   993.4000      7.8977      2.3662      0.0695     17.1978    144.7106     21.5887
   993.5000      7.8939      2.3446      0.0793     18.5062    158.9655     20.9449
   993.6000      7.8939      2.3019      0.1363     21.0992    169.7271     20.8000
   993.7000      7.8939      2.2538      0.1279     24.0109    174.3217     21.1844
   993.8000      7.8763      2.2105      0.1309     26.6348    173.6805     21.8002
   993.9000      7.8763      2.1743      0.1390     28.8295    170.1776     22.5703
   994.0000      7.8711      2.1581      0.1417     29.8151    165.3708     23.4731
   994.1000      7.8711      2.1813      0.1143     28.4052    159.8609     24.5411
   994.2000      7.8711      2.2458      0.2211     24.4946    158.0393     25.7962
   994.3000      7.8637      2.3259      0.2713     19.6447    161.8024     26.8987
   994.4000      7.8637      2.3959      0.3064     15.4010    164.8842     27.8435
   994.5000      7.8647      2.4446      0.3468     12.4486    161.0153     28.8246
   994.6000      7.8647      2.4720      0.2677     10.7884    153.3926     29.5622
   994.7000      7.8647      2.4925      0.2062      9.5474    148.1841     30.0127
   994.8000      7.8795      2.5181      0.1873      7.9947    143.6540     30.4482
   994.9000      7.8795      2.5412      0.1323      6.5920    137.1687     30.6605
   995.0000      7.8825      2.5529      0.0582      5.8868    130.3111     30.3328
   995.1000      7.8825      2.5591      0.0677      5.5117    123.8164     29.5247
   995.2000      7.8825      2.5711      0.0374      4.7824    117.8722     28.4244
   995.3000      7.8652      2.5929      0.0477      3.4591    116.6675     27.4036
   995.4000      7.8652      2.6130      0.0962      2.2450    120.8857     26.7053
   995.5000      7.8611      2.6168      0.1015      2.0123    124.7643     26.0709
   995.6000      7.8611      2.6127      0.0526      2.2626    126.6130     25.2916
   995.7000      7.8611      2.6143      0.0980      2.1611    127.4761     24.6634
   995.8000      7.8946      2.6156      0.1236      2.0853    128.6374     24.4247
   995.9000      7.8946      2.6118      0.0528      2.3125    134.6597     24.3511
   996.0000      7.8956      2.6112      0.0866      2.3523    146.2121     24.3990
   996.1000      7.8956      2.6108      0.0876      2.3732    156.1083     24.6977
   996.2000      7.8956      2.5990      0.1299      3.0895    153.4528     25.1493
   996.3000      7.8652      2.5817      0.0345      4.1400    138.9010     25.6340
   996.4000      7.8652      2.5804      0.0785      4.2172    125.3347     26.1170
   996.5000      7.8733      2.5925      0.1048      3.4855    118.7416     26.6194
   996.6000      7.8733      2.5957      0.0852      3.2927    114.6389     27.1486
   996.7000      7.8733      2.5893      0.0270      3.6774    111.1609     27.5425
   996.8000      7.8658      2.5891      0.0441      3.6918    108.2112     27.6862
   996.9000      7.8658      2.5993      0.0504      3.0753    104.8450     27.6716
   997.0000      7.8534      2.6148      0.0478      2.1307    102.4059     27.5354
   997.1000      7.8534      2.6290      0.0543      1.2726    102.5003     27.0739
   997.2000      7.8534      2.6329      0.0609      1.0344    102.9539     26.3468
   997.3000      7.8422      2.6267     -0.0050      1.4096     99.7507     25.7720
   997.4000      7.8422      2.6221     -0.0006      1.6903     93.6412     25.4772
   997.5000      7.8550      2.6262      0.0269      1.4413     88.8412     25.3990
   997.6000      7.8550      2.6334      0.0375      1.0060     88.6698     25.3647
   997.7000      7.8550      2.6355      0.0288      0.8782     93.5251     25.1511
   997.8000      7.8642      2.6334      0.0568      1.0076    100.0697     24.8692
   997.9000      7.8642      2.6301      0.0507      1.2040    104.2594     24.5324
   998.0000      7.8599      2.6240      0.0402      1.5763    105.0401     23.9711
   998.1000      7.8599      2.6146     -0.0131      2.1431    105.0307     23.3582
   998.2000      7.8599      2.6096     -0.0220      2.4488    106.7241     23.1184
   998.3000      7.8880      2.6149     -0.0249      2.1272    108.5464     23.3030
   998.4000      7.8880      2.6229      0.0567      1.6448    107.3023     23.8286
   998.5000      7.9135      2.6161      0.0554      2.0517    104.6267     24.8745
   998.6000      7.9135      2.5953      0.0197      3.3162    106.5075     26.1728
   998.7000      7.9135      2.5826      0.0027      4.0838    113.8355     26.8897
   998.8000      7.8925      2.5857      0.0496      3.8974    118.9972     26.7377
   998.9000      7.8925      2.5949      0.0150      3.3383    115.6308     26.2817
   999.0000      7.8907      2.6128      0.0070      2.2554    106.5954     25.9662
   999.1000      7.8907      2.6361      0.0721      0.8435     99.3769     25.5923
   999.2000      7.8907      2.6429      0.0657      0.4283     98.5066     24.6912
   999.3000      7.9020      2.6294      0.0258      1.2496    101.5515     23.4384
   999.4000      7.9020      2.6123      0.0205      2.2869    104.3143     22.6042
   999.5000      7.9191      2.5962      0.0387      3.2624    104.6802     22.3092
   999.6000      7.9191      2.5660      0.0384      5.0882    105.2787     22.0520
   999.7000      7.9191      2.5170     -0.0276      8.0628    111.6108     21.5357
   999.8000      7.9018      2.4677     -0.0394     11.0501    122.8522     20.8839
   999.9000      7.9018      2.4383     -0.0604     12.8301    134.0603     20.5179
  1000.0000      7.9280      2.4352     -0.0395     13.0206    143.1596     20.6262
  1000.1000      7.9280      2.4489      0.0090     12.1853    150.7958     20.9351
  1000.2000      7.9280      2.4657      0.0480     11.1690    155.6225     21.2047
  1000.3000      7.9030      2.4785      0.0813     10.3943    156.3286     21.5631
  1000.4000      7.9030      2.4814      0.1409     10.2200    155.6640     22.0701
  1000.5000      7.9391      2.4669      0.1807     11.0968    156.2010     22.4734
  1000.6000      7.9391      2.4439      0.1426     12.4881    160.0062     22.7259
  1000.7000      7.9391      2.4343      0.1627     13.0723    168.8709     22.9429
  1000.8000      7.9331      2.4418      0.1755     12.6202    175.9013     23.2089
  1000.9000      7.9331      2.4545      0.1643     11.8493    175.0110     23.6854
  1001.0000      7.9156      2.4696      0.1651     10.9356    174.2330     24.3180
  1001.1000      7.9156      2.5009      0.1151      9.0346    176.3411     24.6679
  1001.2000      7.9156      2.5479      0.2582      6.1892    177.9647     24.5343
  1001.3000      7.9203      2.5804      0.2556      4.2153    179.7229     24.2603
  1001.4000      7.9203      2.5854      0.2411      3.9177    176.8226     24.1462
  1001.5000      7.9368      2.5725      0.2421      4.6948    170.7448     24.2130
  1001.6000      7.9368      2.5544      0.1511      5.7960    167.9228     24.3896
  1001.7000      7.9368      2.5438      0.1426      6.4387    166.6145     24.5085
  1001.8000      7.9579      2.5416      0.1706      6.5677    169.6310     24.4431
  1001.9000      7.9579      2.5376      0.1149      6.8151    178.2683     24.2975
  1002.0000      7.9601      2.5260      0.1232      7.5153    183.5245     24.3324
  1002.1000      7.9601      2.5109      0.1081      8.4287    182.0196     24.8146
  1002.2000      7.9601      2.5049      0.1236      8.7938    179.6530     25.5952
  1002.3000      7.9316      2.5187      0.0917      7.9589    176.6903     26.1559
  1002.4000      7.9316      2.5437      0.1221      6.4432    170.9316     26.0959
  1002.5000      7.9349      2.5555      0.1115      5.7245    167.4785     25.5062
  1002.6000      7.9349      2.5419      0.1070      6.5501    169.7755     24.9064
  1002.7000      7.9349      2.5148      0.0876      8.1929    174.8957     24.6912
  1002.8000      7.9291      2.4934      0.0831      9.4890    177.6343     24.7135
  1002.9000      7.9291      2.4825      0.0679     10.1506    179.6071     24.6377
