~Version Information
VERS.                      2.0: CWLS Log ASCII Standard - VERSION 2.0
WRAP.                       NO: One line per depth step
~Well Information Block
STRT.FT                -7.2500: 
STOP.FT              2610.0000: 
STEP.FT                 0.2500: 
NULL.                -999.2500: 
COMP.          Pioneer Natural Resources: COMPANY
WELL.              Wagner 13-9: WELL
FLD.           Purgatorie River: FIELD
LOC.           1819' FSL & 1111' FWL--: LOCATION
PROV.                       CO: PROVINCE
CNTY.               Las Animas: COUNTRY
SRVC.          Patterson Wireline: SERVICE COMPANY
DATE.          Wed May 18 09:08:26 2005: LOG DATE
UWI.           05 071 08302 00: UNIQUE WELL ID
~Curve Information Block
DEPT.FT            0 000 00 00: Depth
CCL.                          : Casing Collar Locator
TT3.usec                      : CBL 3' Travel Time
AMP3.mV                       : CBL 3' Amplitude
GR.GAPI                       : Gamma Ray
~Parameter Information Block
~A  Depth       CCL         TT3         AMP3         GR     
# ...
  1533.7500      0.0000    677.4587      4.6371    135.3491
  1534.0000      0.0000    684.9039      4.8504    130.1419
  1534.2500      0.0000    676.9824      4.8348    124.0935
  1534.5000      0.0000    661.4214      4.6117    118.3746
  1534.7500      0.0000    647.2975      4.2328    114.5209
  1535.0000      0.0000    640.7864      3.7729    114.0072
  1535.2500      0.0000    642.3312      3.3428    117.4157
  1535.5000      0.0000    648.1329      3.0782    123.4527
  1535.7500      0.0000    653.8660      3.0811    129.2462
  1536.0000      0.0000    657.0630      3.3544    132.4242
  1536.2500      0.0000    657.6433      3.7922    132.9036
  1536.5000      0.0000    657.4665      4.2345    132.3346
  1536.7500      0.0000    658.9884      4.5350    132.1238
  1537.0000      0.0000    663.2144      4.5999    132.3397
  1537.2500      0.0000    668.5564      4.4034    132.2442
  1537.5000      0.0000    672.1331      4.0027    131.5467
  1537.7500      0.0000    672.3416      3.5444    131.0396
  1538.0000      0.0000    670.0012      3.2216    131.9286
  1538.2500      0.0000    667.0741      3.1737    134.7248
  1538.5000      0.0000    664.8210      3.3969    139.1491
  1538.7500      0.0000    663.2059      3.7450    144.7449
  1539.0000      0.0000    661.5881      4.0230    150.8578
  1539.2500      0.0000    659.8586      4.1029    156.0583
  1539.5000      0.0000    659.3066      3.9911    158.4135
  1539.7500      0.0000    662.4715      3.8132    156.9036
  1540.0000      0.0000    671.7632      3.7137    152.4070
  1540.2500      0.0000    687.9880      3.7425    147.0807
  1540.5000      0.0000    710.0070      3.8343    142.7915
  1540.7500      0.0000    735.1929      3.8987    140.1009
  1541.0000      0.0000    760.0157      3.9119    138.6360
  1541.2500      0.0000    781.1159      3.9029    138.0387
  1541.5000      0.0000    796.6310      3.8773    138.2627
  1541.7500      0.0000    806.3079      3.8013    139.3052
  1542.0000      0.0000    810.3577      3.6703    140.8388
  1542.2500      0.0000    809.1659      3.5454    141.9038
  1542.5000      0.0000    804.4832      3.4857    141.3594
  1542.7500      0.0000    799.9507      3.4771    139.2576
  1543.0000      0.0000    799.3270      3.4694    137.3928
  1543.2500      0.0000    803.8075      3.4483    137.8134
  1543.5000      0.0000    811.3260      3.4235    140.9799
  1543.7500      0.0000    818.3102      3.3702    145.6176
  1544.0000      0.0000    821.6159      3.2483    149.9244
  1544.2500      0.0000    819.2759      3.0848    152.6853
  1544.5000      0.0000    810.6533      2.9864    153.7573
  1544.7500      0.0000    796.6962      3.0494    154.0005
  1545.0000      0.0000    780.0865      3.2733    154.5034
  1545.2500      0.0000    764.3986      3.5676    155.3555
  1545.5000      0.0000    751.8545      3.8174    155.3323
  1545.7500      0.0000    741.6995      3.9416    153.1677
  1546.0000      0.0000    731.2889      3.9254    148.9568
  1546.2500      0.0000    718.1512      3.8195    144.0553
  1546.5000      0.0000    699.9059      3.6916    139.8436
  1546.7500      0.0000    673.3081      3.5702    136.8649
  1547.0000      0.0000    636.0677      3.4530    134.9097
  1547.2500      0.0000    591.3428      3.3588    133.4312
  1547.5000      0.0000    549.8026      3.3262    131.8057
  1547.7500      0.0000    524.8251      3.3639    129.6439
  1548.0000      0.0000    523.8190      3.4420    127.2584
  1548.2500      2.0000    544.3146      3.5308    125.7837
  1548.5000      2.0000    578.2176      3.6187    126.4186
  1548.7500      0.0000    617.3209      3.7144    129.2073
  1549.0000      0.0000    653.2501      3.8517    132.5693
  1549.2500      0.0000    675.3978      4.0683    134.2504
  1549.5000      0.0000    674.1541      4.3518    132.9978
  1549.7500      0.0000    647.8555      4.6197    129.4044
  1550.0000      0.0000    605.1751      4.7714    125.1854
  1550.2500      0.0000    560.0080      4.7595    121.9701
  1550.5000      0.0000    523.9088      4.6089    120.8012
  1550.7500      0.0000    501.7867      4.3899    121.8367
  1551.0000      0.0000    492.0462      4.1813    123.9396
  1551.2500      0.0000    489.4534      4.0350    125.4074
  1551.5000      0.0000    489.2103      3.9576    125.8152
  1551.7500      0.0000    491.0113      3.9254    126.3811
  1552.0000      0.0000    499.6522      3.9100    127.9506
  1552.2500      0.0000    519.6208      3.8923    129.3544
  1552.5000      0.0000    547.6877      3.8627    128.4080
  1552.7500      0.0000    571.9696      3.8126    124.2337
  1553.0000      0.0000    580.9960      3.7295    118.3026
  1553.2500      0.0000    574.9915      3.6180    113.3768
  1553.5000      0.0000    566.8199      3.5171    111.4727
  1553.7500      0.0000    570.2170      3.4738    112.4214
  1554.0000      0.0000    587.8193      3.4962    113.8998
  1554.2500      0.0000    611.2000      3.5448    112.9725
  1554.5000      0.0000    630.1922      3.5742    108.2574
  1554.7500      0.0000    640.1835      3.5725    101.0321
  1555.0000      0.0000    642.5526      3.5567     94.2193
  1555.2500      0.0000    641.2807      3.5483     90.2814
  1555.5000      0.0000    639.2415      3.5580     90.2086
  1555.7500      0.0000    636.1215      3.5876     94.0269
  1556.0000      0.0000    628.9267      3.6315    101.1096
  1556.2500      0.0000    614.4061      3.6736    109.4529
  1556.5000      0.0000    591.7562      3.6930    115.6703
  1556.7500      0.0000    564.8079      3.6797    117.0556
  1557.0000      0.0000    542.2198      3.6449    113.8369
  1557.2500      0.0000    532.7914      3.6141    108.9313
  1557.5000      0.0000    537.4055      3.6054    105.5297
  1557.7500      0.0000    545.9657      3.6123    105.0290
  1558.0000      0.0000    545.0535      3.6137    106.7910
  1558.2500      0.0000    529.4432      3.5984    109.3468
  1558.5000      0.0000    505.2304      3.5776    111.6769
  1558.7500      0.0000    483.0741      3.5728    113.4328
  1559.0000      0.0000    471.3563      3.5968    114.3824
  1559.2500      0.0000    475.0663      3.6467    114.3132
  1559.5000      0.0000    496.3826      3.7137    113.6357
  1559.7500      0.0000    532.8217      3.7929    113.5891
  1560.0000      0.0000    575.8115      3.8774    115.4013
  1560.2500      0.0000    614.2261      3.9479    119.3251
  1560.5000      0.0000    640.8550      3.9832    124.5657
  1560.7500      0.0000    655.3483      3.9796    129.6039
  1561.0000      0.0000    661.6479      3.9521    132.3203
  1561.2500      0.0000    663.9038      3.9166    130.8626
  1561.5000      0.0000    664.5837      3.8773    125.5857
  1561.7500      0.0000    664.7032      3.8374    119.6513
  1562.0000      0.0000    664.6263      3.8144    116.5956
  1562.2500      0.0000    664.6269      3.8343    117.3138
  1562.5000      0.0000    665.1738      3.9020    119.8743
  1562.7500      0.0000    666.9108      3.9800    121.9561
  1563.0000      0.0000    670.2928      4.0131    122.8347
  1563.2500      0.0000    675.0648      3.9839    122.9168
  1563.5000      0.0000    680.0964      3.9352    122.0680
  1563.7500      0.0000    683.7613      3.9228    119.4071
  1564.0000      0.0000    684.5762      3.9510    114.8540
  1564.2500      0.0000    681.9470      3.9698    109.9565
  1564.5000      0.0000    676.7680      3.9347    106.6143
  1564.7500      0.0000    671.0902      3.8544    105.3804
  1565.0000      0.0000    666.7723      3.7816    105.1935
  1565.2500      0.0000    664.4256      3.7623    104.6256
  1565.5000      0.0000    663.5959      3.7939    103.5065
  1565.7500      0.0000    663.6119      3.8258    103.3549
  1566.0000      0.0000    664.1392      3.7999    106.1603
  1566.2500      0.0000    665.2673      3.6956    112.7065
  1566.5000      0.0000    667.3464      3.5436    121.7767
  1566.7500      0.0000    670.5881      3.4009    130.6812
  1567.0000      0.0000    674.5247      3.3101    136.8372
