~Version Information
VERS.                      2.0: CWLS Log ASCII Standard - VERSION 2.0
WRAP.                       NO: One line per depth step
~Well Information Block
STRT.FT                -7.0000: 
STOP.FT              1656.2500: 
STEP.FT                 0.2500: 
NULL.                -999.2500: 
COMP.          Pioneer Natural Resources: COMPANY
WELL.               Elmo 14-21: WELL
FLD.           Purgatorie River: FIELD
LOC.           623' FSL & 450' FWL--: LOCATION
PROV.                       CO: PROVINCE
CNTY.               Las Animas: COUNTRY
SRVC.          Patterson Wireline: SERVICE COMPANY
DATE.          Mon Jun 27 15:45:41 2005: LOG DATE
UWI.           05 071 08360 00: UNIQUE WELL ID
~Curve Information Block
DEPT.FT            0 000 00 00: Depth
CCL.                          : Casing Collar Locator
TT3.usec                      : CBL 3' Travel Time
AMP3.mV                       : CBL 3' Amplitude
GR.GAPI                       : Gamma Ray
~Parameter Information Block
~A  Depth       CCL         TT3         AMP3         GR     
# ...
  1634.5000      0.0000    305.3647     18.5912     70.4933
  1634.7500      0.0000    305.3065     19.4048     74.2478
  1635.0000      0.0000    305.2881     20.1492     76.5352
  1635.2500      0.0000    305.2068     20.8415     76.8708
  1635.5000      0.0000    304.9796     21.5577     75.2780
  1635.7500      0.0000    304.5992     22.3347     72.3938
  1636.0000      0.0000    304.1352     23.1071     69.2032
  1636.2500      0.0000    303.6914     23.7370     66.4791
  1636.5000      0.0000    303.3577     24.0983     64.4968
  1636.7500      0.0000    303.1944     24.1105     63.2539
  1637.0000      0.0000    303.2427     23.6962     62.8302
  1637.2500      0.0000    303.5270     22.7683     63.4702
  1637.5000      0.0000    304.0439     21.3261     65.1964
  1637.7500      0.0000    304.7658     19.5552     67.3932
  1638.0000      0.0000    305.8298     17.7729     69.0254
  1638.2500      0.0000    307.9530     16.2428     69.3468
  1638.5000      0.0000    313.1562     15.0401     68.3230
  1638.7500      0.0000    325.3668     14.0731     66.5126
  1639.0000      0.0000    350.2189     13.2027     64.7775
  1639.2500      0.0000    393.5179     12.3539     63.9291
  1639.5000      0.0000    458.2134     11.5617     64.2776
  1639.7500      0.0000    539.9437     10.9279     65.4400
  1640.0000      0.0000    623.9147     10.5252     66.7355
  1640.2500      0.0000    689.1626     10.3310     67.8061
  1640.5000      0.0000    721.0289     10.2530     68.8847
  1640.7500      0.0000    721.1320     10.2144     70.4103
  1641.0000      0.0000    704.3096     10.2237     72.2027
  1641.2500      0.0000    686.7554     10.3716     73.0091
  1641.5000      0.0000    677.7581     10.7586     71.1308
  1641.7500      0.0000    679.4398     11.4130     65.5882
  1642.0000      0.0000    689.1700     12.2561     56.5653
  1642.2500      0.0000    700.4557     13.1266     45.0150
  1642.5000      0.0000    703.2661     13.8585     32.3554
  1642.7500      0.0000    685.9448     14.3857     20.4261
  1643.0000      0.0000    640.0340     14.7887     11.0065
  1643.2500      0.0000    567.0571     15.2098      4.9392
  1643.5000      0.0000    481.6824     15.7028      1.8109
  1643.7500      0.0000    405.0095     16.1657      0.5348
  1644.0000      0.0000    351.7927     16.4137      0.1258
  1644.2500      0.0000    324.0968     16.3042      0.0231
  1644.5000      0.0000    316.6138     15.8042      0.0031
  1644.7500      0.0000    326.1331     14.9741      0.0000
  1645.0000      0.0000    355.5386     13.9195   -999.2500
  1645.2500      0.0000    409.1681     12.7582   -999.2500
  1645.5000      0.0000    483.7003     11.6044   -999.2500
  1645.7500      0.0000    564.1483     10.5543   -999.2500
  1646.0000      0.0000    631.2408      9.6739   -999.2500
  1646.2500      0.0000    673.7943      8.9926   -999.2500
  1646.5000      0.0000    693.6012      8.5004   -999.2500
  1646.7500      0.0000    699.7910      8.1588   -999.2500
  1647.0000      0.0000    699.2853      7.9181   -999.2500
  1647.2500      0.0000    688.9548      7.6981   -999.2500
  1647.5000      0.0000    653.5675      7.3404   -999.2500
  1647.7500      0.0000    574.9542      6.6389   -999.2500
  1648.0000      0.0000    450.3793      5.5021   -999.2500
  1648.2500      0.0000    303.2385      4.0993   -999.2500
  1648.5000      0.0000    170.7686      2.7840   -999.2500
  1648.7500      0.0000     78.8540      1.8403   -999.2500
  1649.0000      0.0000     29.4350      1.3191   -999.2500
  1649.2500      0.0000      8.7915      1.0967   -999.2500
  1649.5000      0.0000      2.0831      1.0232   -999.2500
  1649.7500      0.0000      0.3855      1.0043   -999.2500
  1650.0000      0.0000      0.0513      1.0006   -999.2500
  1650.2500      0.0000   -999.2500   -999.2500   -999.2500
  1650.5000      0.0000   -999.2500   -999.2500   -999.2500
  1650.7500      0.0000   -999.2500   -999.2500   -999.2500
  1651.0000      0.0000   -999.2500   -999.2500   -999.2500
  1651.2500      0.0000   -999.2500   -999.2500   -999.2500
  1651.5000      0.0000   -999.2500   -999.2500   -999.2500
  1651.7500      0.0000   -999.2500   -999.2500   -999.2500
  1652.0000      0.0000   -999.2500   -999.2500   -999.2500
  1652.2500      0.0000   -999.2500   -999.2500   -999.2500
  1652.5000      0.0000   -999.2500   -999.2500   -999.2500
  1652.7500      0.0000   -999.2500   -999.2500   -999.2500
  1653.0000      0.0000   -999.2500   -999.2500   -999.2500
  1653.2500      0.0000   -999.2500   -999.2500   -999.2500
  1653.5000      0.0000   -999.2500   -999.2500   -999.2500
  1653.7500      0.0000   -999.2500   -999.2500   -999.2500
  1654.0000      0.0000   -999.2500   -999.2500   -999.2500
  1654.2500      0.0000   -999.2500   -999.2500   -999.2500
  1654.5000      0.0000   -999.2500   -999.2500   -999.2500
  1654.7500      0.0000   -999.2500   -999.2500   -999.2500
  1655.0000      0.0000   -999.2500   -999.2500   -999.2500
  1655.2500      0.0000   -999.2500   -999.2500   -999.2500
  1655.5000      0.0000   -999.2500   -999.2500   -999.2500
  1655.7500   -999.2500   -999.2500   -999.2500   -999.2500
  1656.0000   -999.2500   -999.2500   -999.2500   -999.2500
  1656.2500   -999.2500   -999.2500   -999.2500   -999.2500
