~Version Information
VERS.                      2.0: CWLS Log ASCII Standard - VERSION 2.0
WRAP.                       NO: One line per depth step
~Well Information Block
STRT.FT               752.0000: 
STOP.FT              2474.2000: 
STEP.FT                 0.1000: 
NULL.                -999.2500: 
COMP.          Petrogulf Corporation: COMPANY
WELL.            Montoya 7-14V: WELL
FLD.           Purgatorie River: FIELD
LOC.           535' FSL & 491' FWL: LOCATION
CNTY.               Las Animas: COUNTY
SRVC.                         : SERVICE COMPANY
DATE.          Mon Aug 23 10:41:01 2004: LOG DATE
UWI.           05 071 08019 00: UNIQUE WELL ID
STAT.                 Colorado: STATE
~Curve Information Block
DEPT.FT            0 000 00 00: Depth
DCAL.in                       : CDL Caliper
RHOB.g/cc                     : CDL Bulk Density
RHOC.g/cc                     : CDL Density Correction
DPOR.pu                       : CDL Density Porosity
GR.GAPI                       : Gamma Ray
NPOR.pu                       : Neutron Porosity
~Parameter Information Block
~A  Depth       DCAL        RHOB        RHOC        DPOR         GR         NPOR    
# ...
  1558.4000      7.8783      2.4753      0.0042     10.5877     76.6958     14.4199
  1558.5000      7.8824      2.4715     -0.0074     10.8209     82.0330     15.6027
  1558.6000      7.8824      2.4740      0.0552     10.6694     84.7016     17.3365
  1558.7000      7.8824      2.4576      0.0299     11.6587     84.5994     17.9618
  1558.8000      7.8829      2.4219      0.0025     13.8221     82.7242     16.7237
  1558.9000      7.8829      2.3903      0.0000     15.7381     80.1859     15.0807
  1559.0000      7.8847      2.3720      0.0220     16.8490     77.6116     14.6553
  1559.1000      7.8847      2.3598      0.0047     17.5907     73.1947     15.7921
  1559.2000      7.8847      2.3586     -0.0462     17.6634     68.1597     17.5950
  1559.3000      7.8807      2.3798      0.0111     16.3779     64.9968     18.6994
  1559.4000      7.8807      2.4135      0.0559     14.3308     61.9799     19.0000
  1559.5000      7.8339      2.4451      0.0698     12.4184     58.7011     19.2598
  1559.6000      7.8339      2.4748      0.0961     10.6160     59.9538     19.4678
  1559.7000      7.8339      2.5054      0.1503      8.7633     66.2827     19.0447
  1559.8000      7.8501      2.5283      0.2093      7.3747     71.9527     18.2575
  1559.9000      7.8501      2.5297      0.1882      7.2881     75.1535     17.6966
  1560.0000      7.8569      2.5162      0.1300      8.1115     77.0976     17.2726
  1560.1000      7.8569      2.5126      0.1304      8.3252     76.7796     17.4098
  1560.2000      7.8569      2.5218      0.1633      7.7680     73.9351     18.5041
  1560.3000      7.8590      2.5231      0.1295      7.6887     69.5586     19.5417
  1560.4000      7.8590      2.5103      0.1043      8.4693     66.1101     19.5113
  1560.5000      7.8674      2.4937      0.0918      9.4741     67.4868     18.6600
  1560.6000      7.8674      2.4837      0.0667     10.0784     72.1585     17.5466
  1560.7000      7.8674      2.4868      0.0877      9.8894     73.0600     16.7932
  1560.8000      7.8591      2.5000      0.0921      9.0927     69.4671     17.0052
  1560.9000      7.8591      2.5086      0.0858      8.5704     68.3883     17.9540
  1561.0000      7.8582      2.5013      0.0764      9.0118     71.3479     18.8682
  1561.1000      7.8582      2.4840      0.0613     10.0596     71.0902     19.5039
  1561.2000      7.8582      2.4724      0.0481     10.7648     66.0161     19.7415
  1561.3000      7.8584      2.4719      0.0808     10.7913     63.8301     19.0585
  1561.4000      7.8584      2.4796      0.0570     10.3258     67.3689     18.0280
  1561.5000      7.8605      2.4908      0.0624      9.6489     69.5797     17.9095
  1561.6000      7.8605      2.4930      0.0657      9.5153     68.7934     18.6837
  1561.7000      7.8605      2.4828      0.0607     10.1305     71.1692     19.3738
  1561.8000      7.8674      2.4681      0.0441     11.0247     75.4211     19.4903
  1561.9000      7.8674      2.4475      0.0533     12.2755     76.0590     19.4066
  1562.0000      7.8664      2.4258      0.0159     13.5897     74.1605     19.4170
  1562.1000      7.8664      2.4204      0.0173     13.9169     73.1847     19.2549
  1562.2000      7.8664      2.4335      0.0300     13.1224     72.8864     18.5449
  1562.3000      7.8657      2.4504      0.0811     12.0965     72.7768     17.5122
  1562.4000      7.8657      2.4592      0.0640     11.5633     73.6896     16.7064
  1562.5000      7.8679      2.4561      0.0638     11.7497     76.5793     16.6247
  1562.6000      7.8679      2.4423      0.0480     12.5886     79.3651     17.5168
  1562.7000      7.8679      2.4282      0.0603     13.4429     79.1658     19.2945
  1562.8000      7.8692      2.4261      0.0565     13.5706     77.1047     21.5241
  1562.9000      7.8692      2.4331      0.0670     13.1439     74.6633     22.9917
  1563.0000      7.8711      2.4366      0.0763     12.9333     71.0828     22.8765
  1563.1000      7.8711      2.4345      0.0933     13.0625     68.0921     21.7492
  1563.2000      7.8711      2.4397      0.0603     12.7478     68.2422     20.3087
  1563.3000      7.8696      2.4609      0.0848     11.4609     71.0115     19.0576
  1563.4000      7.8696      2.4867      0.0826      9.8942     76.2483     18.7383
  1563.5000      7.8602      2.5027      0.0918      8.9265     83.1101     19.6166
  1563.6000      7.8602      2.5067      0.0823      8.6820     87.6266     20.8181
  1563.7000      7.8602      2.5037      0.0681      8.8666     86.4496     21.2507
  1563.8000      7.8626      2.4977      0.0968      9.2302     81.6639     20.8127
  1563.9000      7.8626      2.4910      0.0555      9.6351     77.6720     20.1747
  1564.0000      7.8418      2.4875      0.0611      9.8478     76.5242     19.8349
  1564.1000      7.8418      2.4853      0.0513      9.9788     78.7632     19.5920
  1564.2000      7.8418      2.4780      0.0423     10.4248     83.0489     19.2331
  1564.3000      7.8709      2.4641      0.0612     11.2647     85.4739     19.0275
  1564.4000      7.8709      2.4517     -0.0068     12.0187     84.7852     19.3343
  1564.5000      7.8533      2.4499      0.0261     12.1302     83.9442     19.8697
  1564.6000      7.8533      2.4555      0.0173     11.7850     83.7914     19.9702
  1564.7000      7.8533      2.4627      0.0157     11.3510     83.7042     19.8562
  1564.8000      7.8358      2.4705      0.0183     10.8801     84.1712     20.0861
  1564.9000      7.8358      2.4742      0.0527     10.6539     86.0347     20.7998
  1565.0000      7.8360      2.4657      0.0482     11.1717     89.8703     21.7467
  1565.1000      7.8360      2.4473      0.0129     12.2842     95.4082     21.7032
  1565.2000      7.8360      2.4358     -0.0233     12.9837    100.8029     20.6889
  1565.3000      7.8339      2.4394      0.0125     12.7651    103.3591     20.4305
  1565.4000      7.8339      2.4499      0.0099     12.1265    102.2653     21.1614
  1565.5000      7.8351      2.4572      0.0245     11.6826    100.0447     21.6055
  1565.6000      7.8351      2.4565      0.0143     11.7282     98.6783     21.2487
  1565.7000      7.8351      2.4531     -0.0238     11.9338     98.5257     20.5739
  1565.8000      7.8351      2.4512      0.0303     12.0501     98.6973     19.9308
  1565.9000      7.8351      2.4449      0.0041     12.4313     97.8586     19.4208
  1566.0000      7.8338      2.4333      0.0254     13.1305     99.0722     19.2600
  1566.1000      7.8338      2.4267     -0.0103     13.5334     99.7664     19.2559
  1566.2000      7.8338      2.4332      0.0468     13.1422     92.4102     18.9434
  1566.3000      7.8326      2.4451      0.0256     12.4180     82.3604     18.6391
  1566.4000      7.8326      2.4536      0.0093     11.9014     78.1633     18.7984
  1566.5000      7.8322      2.4584      0.0489     11.6104     78.4801     19.4121
  1566.6000      7.8322      2.4626     -0.0048     11.3550     77.6515     20.4544
  1566.7000      7.8322      2.4692      0.0446     10.9601     73.6048     21.6763
  1566.8000      7.8311      2.4732      0.0339     10.7172     69.8682     22.3119
  1566.9000      7.8311      2.4698      0.0416     10.9200     69.5677     22.0045
  1567.0000      7.8328      2.4589      0.0533     11.5819     72.6465     21.0802
  1567.1000      7.8328      2.4418      0.0209     12.6185     78.6419     20.0626
  1567.2000      7.8328      2.4236     -0.0090     13.7189     84.6778     19.4609
  1567.3000      7.8283      2.4171     -0.0281     14.1152     84.9551     19.4432
  1567.4000      7.8283      2.4329      0.0156     13.1557     80.0035     19.6347
  1567.5000      7.8260      2.4624      0.0632     11.3726     75.9797     19.4703
  1567.6000      7.8260      2.4832      0.0922     10.1094     74.9802     19.0173
  1567.7000      7.8260      2.4845      0.0464     10.0333     76.1351     18.7392
  1567.8000      7.8190      2.4752      0.0429     10.5948     79.6163     18.7458
  1567.9000      7.8190      2.4700      0.0464     10.9120     80.5924     18.6246
