~Version Information
VERS.                      2.0: CWLS Log ASCII Standard - VERSION 2.0
WRAP.                       NO: One line per depth step
~Well Information Block
STRT.FT               -11.5000: 
STOP.FT              2395.2500: 
STEP.FT                 0.2500: 
NULL.                -999.2500: 
COMP.          Petrogulf Corporation: COMPANY
WELL.            Montoya 7-21V: WELL
FLD.           Purgatorie River: FIELD
LOC.           738' FSL & 2070' FWL--: LOCATION
CNTY.               Las Animas: COUNTY
SRVC.                         : SERVICE COMPANY
DATE.          Mon Aug 30 15:10:00 2004: LOG DATE
UWI.                          : UNIQUE WELL ID
STAT.                       CO: STATE
~Curve Information Block
DEPT.FT            0 000 00 00: Depth
CCL.                          : Casing Collar Locator
TT3.usec                      : CBL 3' Travel Time
AMP3.mV                       : CBL 3' Amplitude
GR.GAPI                       : Gamma Ray
~Parameter Information Block
~A  Depth       CCL         TT3         AMP3         GR     
# ...
   156.0000      0.0000    315.1371     22.3854     53.8753
   156.2500      0.0000    314.9745     22.6427     52.4122
   156.5000      0.0000    314.7526     22.8089     53.4652
   156.7500      0.0000    314.5805     22.8344     57.2857
   157.0000      0.0000    314.5092     22.6934     63.2976
   157.2500      0.0000    314.5208     22.3919     70.5378
   157.5000      0.0000    314.5664     22.0073     78.2167
   157.7500      0.0000    314.6003     21.6909     86.0101
   158.0000      0.0000    314.5842     21.5728     93.8299
   158.2500      0.0000    314.4545     21.6475    101.3803
   158.5000      0.0000    314.0610     21.8057    108.1546
   158.7500      0.0000    313.1171     21.9941    113.7362
   159.0000      0.0000    311.3221     22.2754    117.6281
   159.2500      0.0000    308.7738     22.6725    118.8493
   159.5000      0.0000    306.3407     23.0176    116.4843
   159.7500      0.0000    305.3038     23.0574    110.8347
   160.0000      0.0000    306.2830     22.7043    103.4972
   160.2500      0.0000    308.6292     22.1119     96.2031
   160.5000      0.0000    311.0650     21.5160     89.9589
   160.7500      0.0000    312.7328     21.0708     85.1862
   161.0000      0.0000    313.5151     20.8263     82.4077
   161.2500      0.0000    313.6822     20.7680     82.9171
   161.5000      0.0000    313.5349     20.8412     88.3408
   161.7500      0.0000    313.2899     20.9791     98.5734
   162.0000      0.0000    313.0732     21.1372    110.2709
   162.2500      0.0000    312.9251     21.2795    118.5634
   162.5000      0.0000    312.8322     21.3457    120.5745
   162.7500      0.0000    312.7650     21.2922    116.6830
   163.0000      0.0000    312.6993     21.1831    108.7399
   163.2500      0.0000    312.6129     21.1802     98.3353
   163.5000      0.0000    312.4798     21.4024     86.8445
   163.7500      0.0000    312.2683     21.8274     75.9017
   164.0000      0.0000    311.9190     22.3455     67.3043
   164.2500      0.0000    311.2737     22.8758     62.6794
   164.5000      0.0000    309.9371     23.4131     63.1105
   164.7500      0.0000    307.2359     23.9923     68.6615
   165.0000      0.0000    302.5863     24.6350     78.2939
   165.2500      0.0000    296.2658     25.3121     90.5638
   165.5000      0.0000    289.7608     25.9388    104.2392
   165.7500      0.0000    284.8379     26.4172    117.9176
   166.0000      0.0000    282.0082     26.7030    129.4533
   166.2500      0.0000    280.2183     26.8331    136.7817
   166.5000      0.0000    278.2032     26.8925    139.7953
   166.7500      0.0000    275.7348     26.9788    140.9869
   167.0000      0.0000    273.3838     27.1914    143.6380
   167.2500      0.0000    271.5929     27.5993    149.0264
   167.5000      0.0000    270.3609     28.1774    155.3142
   167.7500      0.0000    269.5341     28.7809    159.3306
   168.0000      0.0000    269.0334     29.2163    159.4471
   168.2500      0.0000    268.8145     29.3854    156.5026
   168.5000      0.0000    268.7598     29.3925    152.3111
   168.7500      0.0000    268.6844     29.4961    148.0545
   169.0000      0.0000    268.4429     29.9179    144.1707
   169.2500      0.0000    268.0208     30.6896    141.0914
   169.5000      0.0000    267.5120     31.6730    139.4930
   169.7500      0.0000    267.0303     32.6744    139.7276
   170.0000      0.0000    266.6517     33.5077    141.0387
   170.2500      0.0000    266.4112     34.0024    141.4602
   170.5000      0.0000    266.3214     34.0383    138.9031
   170.7500      0.0000    266.3819     33.6065    132.8205
   171.0000      0.0000    266.5660     32.8485    124.8921
   171.2500      0.0000    266.8001     32.0294    117.8025
   171.5000      0.0000    266.9835     31.4309    113.1308
   171.7500      0.0000    267.0507     31.2154    110.4271
   172.0000      0.0000    267.0109     31.3785    108.3622
   172.2500      0.0000    266.9345     31.8091    106.5453
   172.5000      0.0000    266.9672     32.3186    105.9106
   172.7500      0.0000    267.4384     32.5938    107.4917
   173.0000      0.0000    269.0119     32.2285    111.2029
   173.2500      0.0000    272.6382     30.9477    115.5773
   173.5000      0.0000    279.0300     28.8683    118.3113
   173.7500      0.0000    287.8271     26.5411    117.5228
   174.0000      0.0000    297.3057     24.6835    113.1066
   174.2500      0.0000    305.2391     23.7673    106.7821
   174.5000      0.0000    310.2210     23.7737    100.6308
   174.7500      0.0000    312.1057     24.3193     95.8285
   175.0000     -2.0000    311.4286     24.9935     92.6915
   175.2500      2.0000    308.8590     25.5680     91.4128
   175.5000      0.0000    305.2605     25.9807     92.6655
   175.7500      0.0000    301.7551     26.2729     97.4827
   176.0000      0.0000    299.1360     26.6333    106.0245
   176.2500      0.0000    297.0559     27.4647    116.2836
   176.5000      0.0000    294.0738     29.2443    124.5698
   176.7500      0.0000    288.9287     32.1091    127.8891
   177.0000      0.0000    281.9333     35.5299    126.0546
   177.2500      0.0000    274.8890     38.5542    121.3442
   177.5000      0.0000    269.5678     40.4802    115.9539
   177.7500      0.0000    266.5054     41.2580    109.9831
   178.0000      0.0000    265.1559     41.2887    102.2300
   178.2500      0.0000    264.7206     41.0049     92.7442
   178.5000      0.0000    264.6661     40.6581     83.8669
   178.7500      0.0000    264.7463     40.3412     78.5384
   179.0000      0.0000    264.8573     40.0954     78.0770
   179.2500      0.0000    264.9348     39.9883     81.7386
   179.5000      0.0000    264.9391     40.1003     87.7621
   179.7500      0.0000    264.8692     40.4499     94.4115
   180.0000      0.0000    264.7535     40.9828    100.4973
   180.2500      0.0000    264.6219     41.6473    105.4657
   180.5000      0.0000    264.4894     42.4476    109.0597
   180.7500      0.0000    264.3600     43.4098    111.1716
   181.0000      0.0000    264.2374     44.5346    112.3187
   181.2500      0.0000    264.1273     45.8018    113.8423
   181.5000      0.0000    264.0315     47.1840    117.0361
   181.7500      0.0000    263.9493     48.6184    122.1731
   182.0000      0.0000    263.8811     49.9882    128.4173
   182.2500      0.0000    263.8278     51.1678    134.2248
   182.5000      0.0000    263.7878     52.0801    137.9122
   182.7500      0.0000    263.7594     52.7006    138.7857
   183.0000      0.0000    263.7429     53.0512    138.1417
   183.2500      0.0000    263.7377     53.2288    138.5200
   183.5000      0.0000    263.7370     53.3993    141.5386
   183.7500      0.0000    263.7294     53.6973    146.7858
   184.0000      0.0000    263.7087     54.1179    152.7592
   184.2500      0.0000    263.6815     54.5284    158.1229
   184.5000      0.0000    263.6598     54.8014    161.9886
   184.7500      0.0000    263.6470     54.9409    163.8672
   185.0000      0.0000    263.6381     55.0921    163.7086
   185.2500      0.0000    263.6320     55.4360    161.6691
   185.5000      0.0000    263.6367     56.0510    157.9751
   185.7500      0.0000    263.6617     56.8518    153.3098
   186.0000      0.0000    263.7104     57.6608    148.7234
   186.2500      0.0000    263.7758     58.3354    144.6712
   186.5000      0.0000    263.8385     58.8079    140.6958
   186.7500      0.0000    263.8735     59.0245    136.2476
   187.0000      0.0000    263.8718     58.9247    131.2264
   187.2500      0.0000    263.8531     58.5204    125.7259
   187.5000      0.0000    263.8492     57.9421    119.7822
   187.7500      0.0000    263.8750     57.3617    113.3790
   188.0000      0.0000    263.9195     56.8876    106.5182
   188.2500      0.0000    263.9630     56.5392     99.4012
   188.5000      0.0000    263.9957     56.2601     92.4769
   188.7500      0.0000    264.0167     55.9327     86.2613
   189.0000      0.0000    264.0226     55.4316     81.2766
   189.2500      0.0000    264.0068     54.6996     78.1334
