~Version Information
VERS.                      2.0: CWLS Log ASCII Standard - VERSION 2.0
WRAP.                       NO: One line per depth step
~Well Information Block
STRT.FT               768.0000: 
STOP.FT              2637.5000: 
STEP.FT                 0.2500: 
NULL.                -999.2500: 
COMP.          Pioneer Natural Resources: COMPANY
WELL.               Zink 44-10: WELL
FLD.           Purgatoire River: FIELD
LOC.           548' FSL & 473' FEL: LOCATION
PROV.                 Colorado: PROVINCE
CNTY.               Las Animas: COUNTRY
SRVC.                Patterson: SERVICE COMPANY
DATE.          Mon May 30 05:59:42 2005: LOG DATE
UWI.           05 071 08380 00: UNIQUE WELL ID
~Curve Information Block
DEPT.FT            0 000 00 00: Depth
SN.Ohm-m                      : IEL Short Normal
SP.mV                         : IEL Spontaneous Potential
DIR.Ohm-m                     : IEL Induction Resistivity
GR.GAPI                       : Gamma Ray
~Parameter Information Block
~A  Depth        SN          SP         DIR          GR     
# ...
  2476.5000     19.1733     -2.1822     15.4209     98.3409
  2476.7500     20.2014     -2.0076     15.7994     89.2498
  2477.0000     21.5539     -1.7843     16.2977     76.8526
  2477.2500     23.3335     -1.5302     16.9265     70.4854
  2477.5000     25.4811     -1.2615     17.6851     64.1844
  2477.7500     27.6809     -0.9908     18.5646     61.7897
  2478.0000     29.5069     -0.7235     19.5490     60.1688
  2478.2500     30.6932     -0.4562     20.6131     60.0933
  2478.5000     31.2412     -0.1843     21.7188     60.8662
  2478.7500     31.3411      0.0818     22.8110     61.4321
  2479.0000     31.2474      0.3116     23.8177     61.5097
  2479.2500     31.1506      0.4711     24.6527     60.9083
  2479.5000     31.1146      0.5426     25.2257     59.5022
  2479.7500     31.1367      0.5248     25.4707     58.7094
  2480.0000     31.2090      0.4170     25.3919     58.3648
  2480.2500     31.2966      0.2116     25.0953     58.7653
  2480.5000     31.3219     -0.0976     24.7615     60.0365
  2480.7500     31.2437     -0.5037     24.5660     61.2187
  2481.0000     31.1276     -0.9853     24.6019     63.6790
  2481.2500     31.0738     -1.5206     24.8528     65.9522
  2481.5000     31.1154     -2.1004     25.2199     70.1686
  2481.7500     31.2042     -2.7280     25.5834     73.0804
  2482.0000     31.2559     -3.4078     25.8573     76.6612
  2482.2500     31.2360     -4.1375     25.9983     78.1884
  2482.5000     31.1913     -4.9159     25.9719     79.2300
  2482.7500     31.1655     -5.7541     25.7210     79.3958
  2483.0000     31.1339     -6.6728     25.1776     79.5133
  2483.2500     31.0320     -7.6821     24.3116     79.7834
  2483.5000     30.7984     -8.7604     23.1690     80.5903
  2483.7500     30.3894     -9.8467     21.8607     81.3169
  2484.0000     29.7580    -10.8477     20.5157     82.5505
  2484.2500     28.8087    -11.6576     19.2375     83.4310
  2484.5000     27.4119    -12.1874     18.0872     84.8662
  2484.7500     25.5022    -12.3953     17.0877     86.0223
  2485.0000     23.1845    -12.3021     16.2381     88.3952
  2485.2500     20.7643    -11.9921     15.5278     90.4385
  2485.5000     18.6397    -11.6008     14.9442     93.7016
  2485.7500     17.1145    -11.2864     14.4722     95.6468
  2486.0000     16.2674    -11.1834     14.0908     98.0563
  2486.2500     15.9410    -11.3605     13.7755     99.3421
  2486.5000     15.8570    -11.8091     13.5068    100.2823
  2486.7500     15.7861    -12.4625     13.2782     99.7705
  2487.0000     15.6459    -13.2288     13.0958     97.4157
  2487.2500     15.4848    -14.0230     12.9714     95.7510
  2487.5000     15.4190    -14.7899     12.9160     95.3726
  2487.7500     15.5782    -15.5111     12.9374     97.3189
  2488.0000     16.0433    -16.1988     13.0403    102.9948
  2488.2500     16.7741    -16.8867     13.2258    107.3999
  2488.5000     17.5980    -17.6157     13.4887    112.7198
  2488.7500     18.3203    -18.4044     13.8177    114.7388
  2489.0000     18.8871    -19.2208     14.1994    115.5484
  2489.2500     19.4265    -19.9862     14.6256    114.9439
  2489.5000     20.1246    -20.6138     15.0964    112.7697
  2489.7500     21.0562    -21.0465     15.6160    110.6696
  2490.0000     22.0901    -21.2667     16.1791    106.9749
  2490.2500     22.9666    -21.2832     16.7552    104.4763
  2490.5000     23.5169    -21.1118     17.2805    101.3275
  2490.7500     23.7817    -20.7603     17.6725    100.0224
  2491.0000     23.8873    -20.2177     17.8663     99.6147
  2491.2500     23.8690    -19.4452     17.8522    100.2018
  2491.5000     23.6431    -18.3749     17.6815    101.5669
  2491.7500     23.0990    -16.9321     17.4370    102.3566
  2492.0000     22.2134    -15.0812     17.1929    103.0613
  2492.2500     21.1104    -12.8647     16.9936    103.3108
  2492.5000     20.0296    -10.4038     16.8534    103.7387
  2492.7500     19.2255     -7.8629     16.7678    104.2658
  2493.0000     18.8636     -5.4072     16.7250    105.6088
  2493.2500     18.9564     -3.1717     16.7131    106.8131
  2493.5000     19.3736     -1.2404     16.7201    108.4138
  2493.7500     19.9260      0.3670     16.7303    108.6554
  2494.0000     20.4459      1.6902     16.7207    106.9262
  2494.2500     20.8105      2.8000     16.6679    104.5373
  2494.5000     20.9642      3.7616     16.5643    100.4141
  2494.7500     20.9588      4.6086     16.4322     98.2386
  2495.0000     20.9253      5.3412     16.3215     96.9644
  2495.2500     20.9716      5.9412     16.2883     97.6045
  2495.5000     21.1151      6.3885     16.3730    100.2822
  2495.7500     21.3095      6.6745     16.5878    102.7234
  2496.0000     21.5251      6.8071     16.9173    106.6648
  2496.2500     21.7780      6.8108     17.3253    109.1320
  2496.5000     22.0788      6.7232     17.7653    112.0135
  2496.7500     22.3943      6.5938     18.1913    113.1665
  2497.0000     22.6883      6.4818     18.5712    113.7142
  2497.2500     22.9844      6.4445     18.8982    113.3674
  2497.5000     23.3931      6.5161     19.1943    111.8027
  2497.7500     24.0445      6.6891     19.5020    110.0392
  2498.0000     24.8969      6.9174     19.8643    106.4477
  2498.2500     25.6605      7.1390     20.3035    103.6750
  2498.5000     26.0474      7.2991     20.8118     99.6208
  2498.7500     26.0720      7.3534     21.3588     97.3799
  2499.0000     26.0401      7.2601     21.9125     94.7779
  2499.2500     26.2659      6.9829     22.4544     92.9560
  2499.5000     26.8157      6.5109     22.9737     88.5304
  2499.7500     27.5041      5.8745     23.4478     84.0037
  2500.0000     28.1143      5.1392     23.8325     75.7718
  2500.2500     28.6334      4.3786     24.0756     70.5865
  2500.5000     29.2647      3.6536     24.1486     65.3947
  2500.7500     30.1660      3.0104     24.0696     64.2445
  2501.0000     31.1900      2.4849     23.8993     65.4201
  2501.2500     31.9596      2.0972     23.7169     67.2363
  2501.5000     32.1908      1.8451     23.5925     70.2287
  2501.7500     31.8800      1.7103     23.5685     72.1693
  2502.0000     31.2216      1.6739     23.6544     75.0821
  2502.2500     30.4318      1.7250     23.8306     77.0422
  2502.5000     29.6570      1.8545     24.0600     79.8463
  2502.7500     28.9750      2.0459     24.2966     81.4060
  2503.0000     28.4071      2.2744     24.4898     82.6733
  2503.2500     27.9391      2.5173     24.5911     82.5529
  2503.5000     27.5639      2.7638     24.5688     81.3076
  2503.7500     27.3064      3.0122     24.4261     80.3757
  2504.0000     27.2330      3.2583     24.2061     79.4339
  2504.2500     27.4203      3.4880     23.9781     78.7803
  2504.5000     27.8635      3.6827     23.8156     76.5361
  2504.7500     28.4359      3.8284     23.7753     73.8081
  2505.0000     28.9882      3.9172     23.8835     68.4933
  2505.2500     29.4544      3.9426     24.1291     65.0359
  2505.5000     29.8444      3.8956     24.4692     61.4928
  2505.7500     30.1913      3.7639     24.8450     60.6641
  2506.0000     30.5296      3.5324     25.2017     61.5276
  2506.2500     30.8805      3.1803     25.4997     63.0573
  2506.5000     31.2142      2.6781     25.7152     65.9042
  2506.7500     31.4411      1.9916     25.8339     67.6658
  2507.0000     31.4678      1.0961     25.8507     69.3385
  2507.2500     31.2626     -0.0012     25.7752     69.6746
  2507.5000     30.8622     -1.2415     25.6364     69.7423
  2507.7500     30.3377     -2.5152     25.4732     70.2127
  2508.0000     29.7624     -3.6929     25.3180     72.1264
  2508.2500     29.1825     -4.6757     25.1863     73.8792
  2508.5000     28.5933     -5.4314     25.0772     76.2833
  2508.7500     27.9581     -5.9907     24.9763     77.4799
  2509.0000     27.2618     -6.4069     24.8568     78.7514
  2509.2500     26.5498     -6.7224     24.6837     79.2912
  2509.5000     25.9279     -6.9663     24.4327     79.3728
  2509.7500     25.5060     -7.1672     24.1120     78.7096
