~Version Information
VERS.                      2.0: CWLS Log ASCII Standard - VERSION 2.0
WRAP.                       NO: One line per depth step
~Well Information Block
STRT.FT                -3.2500: 
STOP.FT              2202.2500: 
STEP.FT                 0.2500: 
NULL.                -999.2500: 
COMP.          Pioneer Natural Resources: COMPANY
WELL.           Parklane 43-34: WELL
FLD.           Purgatorie River: FIELD
LOC.           1704' FSL & 1119' FEL--: LOCATION
PROV.                       CO: PROVINCE
CNTY.               Las Animas: COUNTRY
SRVC.                         : SERVICE COMPANY
DATE.          Thu Oct 14 14:49:09 2004: LOG DATE
UWI.           005 071 08162  : UNIQUE WELL ID
~Curve Information Block
DEPT.FT            0 000 00 00: Depth
GR.GAPI                       : Gamma Ray
CCL.                          : Casing Collar Locator
TT3.usec                      : CBL 3' Travel Time
AMP3.mV                       : CBL 3' Amplitude
~Parameter Information Block
~A  Depth        GR         CCL         TT3         AMP3    
# ...
  1604.7500     76.7539      0.0000    738.2806     10.7210
  1605.0000     75.7162      0.0000    738.7316     10.5828
  1605.2500     74.2641      0.0000    739.1147     10.3188
  1605.5000     72.7325      0.0000    739.3918      9.8617
  1605.7500     71.5508      0.0000    739.6141      9.2574
  1606.0000     70.9120      0.0000    739.5458      8.5955
  1606.2500     70.8577      0.0000    738.4269      7.9328
  1606.5000     70.9883      0.0000    735.3577      7.2876
  1606.7500     70.1656      0.0000    730.3002      6.6810
  1607.0000     67.3286      0.0000    724.8538      6.1486
  1607.2500     62.8489      0.0000    721.5409      5.7031
  1607.5000     58.5599      0.0000    721.7440      5.3056
  1607.7500     56.1221      0.0000    724.5231      4.8939
  1608.0000     55.5934      0.0000    727.7496      4.4402
  1608.2500     55.7389      0.0000    730.0105      3.9802
  1608.5000     55.4696      0.0000    731.1786      3.5855
  1608.7500     54.6215      0.0000    731.7256      3.3112
  1609.0000     53.5721      0.0000    732.0354      3.1646
  1609.2500     52.7388      0.0000    732.2397      3.1153
  1609.5000     52.5360      0.0000    732.3340      3.1243
  1609.7500     53.1573      0.0000    732.2947      3.1648
  1610.0000     54.0243      0.0000    732.1401      3.2197
  1610.2500     53.9346      0.0000    731.9609      3.2751
  1610.5000     52.2968      0.0000    731.9981      3.3258
  1610.7500     50.0730      0.0000    732.7441      3.3943
  1611.0000     49.0328      0.0000    734.8842      3.5377
  1611.2500     50.0683      0.0000    738.7653      3.8201
  1611.5000     52.6745      0.0000    743.5565      4.2691
  1611.7500     56.1932      0.0000    747.1653      4.8621
  1612.0000     61.3069      0.0000    747.6805      5.5528
  1612.2500     70.0978      0.0000    745.0808      6.3023
  1612.5000     84.4032      0.0000    740.8367      7.0946
  1612.7500    103.5053      0.0000    735.2281      7.9498
  1613.0000    123.2068      0.0000    724.7245      8.9329
  1613.2500    137.9114      0.0000    702.0203     10.1400
  1613.5000    144.3540      0.0000    659.7774     11.6626
  1613.7500    143.5496      0.0000    596.5252     13.5386
  1614.0000    139.5402      0.0000    520.0613     15.6935
  1614.2500    136.4727      0.0000    444.4093     17.9071
  1614.5000    136.1611      0.0000    382.3987     19.8686
  1614.7500    137.5166      0.0000    340.0147     21.3313
  1615.0000    138.1204      0.0000    315.8935     22.2515
  1615.2500    136.6270      0.0000    304.5490     22.7838
  1615.5000    133.9790      0.0000    300.1610     23.1527
  1615.7500    132.4961      0.0000    298.7262     23.5304
  1616.0000    133.8935      0.0000    298.2653     23.9944
  1616.2500    138.0223      0.0000    298.0683     24.5454
  1616.5000    143.0628      0.0000    297.9444     25.1487
  1616.7500    146.7198      0.0000    297.8485     25.7651
  1617.0000    147.7641      0.0000    297.7649     26.3376
  1617.2500    146.8806      0.0000    297.7439     26.7585
  1617.5000    145.8339      0.0000    297.9762     26.8854
  1617.7500    145.7845      0.0000    299.1721     26.6081
  1618.0000    146.7080      0.0000    303.6888     25.9022
  1618.2500    148.1438      0.0000    317.0905     24.8346
  1618.5000    149.8896      0.0000    348.0676     23.5367
  1618.7500    152.0560      0.0000    402.8490     22.1693
  1619.0000    155.0511      0.0000    475.5839     20.8837
  1619.2500    159.5982      0.0000    546.1297     19.7637
  1619.5000    166.2373      0.0000    594.1676     18.7830
  1619.7500    174.2150      0.0000    617.1800     17.8669
  1620.0000    181.0147      0.0000    630.3976     17.0189
  1620.2500    183.5850      0.0000    649.3722     16.3204
  1620.5000    180.3230      0.0000    676.6108     15.7967
  1620.7500    171.8776      0.0000    703.8628     15.3772
  1621.0000    160.5255      2.0000    722.1989     15.0022
  1621.2500    149.2908      0.0000    728.5294     14.6828
  1621.5000    141.1716      0.0000    725.8778     14.4608
  1621.7500    138.0923      0.0000    721.3654     14.3874
  1622.0000    139.9750      0.0000    723.7391     14.4998
  1622.2500    144.8149      0.0000    738.6917     14.6811
  1622.5000    149.8870      0.0000    764.3149     14.5837
  1622.7500    153.2107      0.0000    793.1023     13.8809
  1623.0000    154.0727      0.0000    819.6140     12.6171
  1623.2500    152.4729      0.0000    843.6255     11.1988
  1623.5000    148.7569      0.0000    865.6622     10.0547
  1623.7500    144.0733      0.0000    883.1021      9.3758
  1624.0000    140.4406      0.0000    892.4059      9.1086
  1624.2500    139.3622      0.0000    893.5047      9.0769
  1624.5000    140.4046      0.0000    890.8923      9.0971
  1624.7500    141.6349      0.0000    890.4956      9.0547
  1625.0000    141.4358      0.0000    895.1297      8.9431
  1625.2500    139.7051      0.0000    902.8744      8.8557
  1625.5000    137.5053      0.0000    909.4919      8.9332
  1625.7500    135.8894      0.0000    911.2599      9.2976
  1626.0000    135.2477      0.0000    904.9010     10.0191
  1626.2500    135.5676      0.0000    886.9025     11.1200
  1626.5000    136.6412      0.0000    855.9452     12.5738
  1626.7500    137.6550      0.0000    815.4803     14.2819
  1627.0000    137.3025      0.0000    769.2968     16.0786
  1627.2500    135.2354      0.0000    713.2640     17.8122
  1627.5000    133.1631      0.0000    638.1019     19.4630
  1627.7500    133.6244      0.0000    544.5460     21.2000
  1628.0000    137.5298      0.0000    450.0479     23.3017
  1628.2500    143.1628      0.0000    375.7485     25.9300
  1628.5000    147.4676      0.0000    330.3781     28.8935
  1628.7500    148.3062      0.0000    308.6499     31.6581
  1629.0000    145.9439      0.0000    300.3641     33.6764
  1629.2500    142.5513      0.0000    297.7963     34.7389
  1629.5000    140.1116      0.0000    297.1277     35.0236
  1629.7500    138.9075      0.0000    296.9949     34.8839
  1630.0000    137.9314      0.0000    297.0008     34.6457
  1630.2500    136.1746      0.0000    297.0211     34.5349
  1630.5000    133.3669      0.0000    297.0330     34.6665
  1630.7500    129.9396      0.0000    297.1347     35.0244
  1631.0000    126.4971      0.0000    297.8575     35.4386
  1631.2500    123.2805      0.0000    300.9816     35.5826
  1631.5000    120.3627      0.0000    310.7680     35.0212
  1631.7500    118.3540      0.0000    334.2015     33.3784
  1632.0000    118.4003      0.0000    377.4352     30.6219
  1632.2500    121.3152      0.0000    438.4116     27.2568
  1632.5000    126.9820      0.0000    501.9148     24.1802
  1632.7500    134.5255      0.0000    544.4716     22.2233
  1633.0000    142.6139      0.0000    547.6820     21.7139
  1633.2500    149.5250      0.0000    510.0551     22.3606
  1633.5000    153.5840      0.0000    448.8935     23.4880
  1633.7500    154.3140      0.0000    391.2868     24.4134
  1634.0000    153.1665      0.0000    361.7288     24.7010
  1634.2500    152.5762      0.0000    375.4734     24.2085
  1634.5000    153.9410      0.0000    436.4130     23.0621
  1634.7500    156.6790      0.0000    532.3785     21.6764
  1635.0000    159.1271      0.0000    631.7855     20.7008
  1635.2500    159.9366      0.0000    693.8065     20.7527
  1635.5000    158.8942      0.0000    690.6295     22.0593
  1635.7500    156.9054      0.0000    624.1643     24.3014
  1636.0000    155.0289      0.0000    523.6567     26.7956
  1636.2500    153.4074      0.0000    426.5966     28.8866
  1636.5000    151.4411      0.0000    357.4336     30.2826
  1636.7500    148.9945      0.0000    319.6749     31.1143
  1637.0000    146.8451      0.0000    303.5784     31.7132
  1637.2500    145.7322      0.0000    297.8618     32.3440
  1637.5000    145.3929      0.0000    295.3501     33.1325
  1637.7500    144.7702      0.0000    292.5482     34.1659
  1638.0000    142.9951      0.0000    287.8998     35.5473
