~Version Information
VERS.                      2.0: CWLS Log ASCII Standard - VERSION 2.0
WRAP.                       NO: One line per depth step
~Well Information Block
STRT.FT               510.5000: 
STOP.FT              2075.5000: 
STEP.FT                 0.1000: 
NULL.                -999.2500: 
COMP.          Petrogulf Corporation: COMPANY
WELL.          Robinson 15-11V: WELL
FLD.           Purgatorie River: FIELD
LOC.           226' FNL & 592' FWL: LOCATION
CNTY.               Las Animas: COUNTY
SRVC.                         : SERVICE COMPANY
DATE.          Wed Aug 04 06:17:53 2004: LOG DATE
UWI.           05 071 08027 00: UNIQUE WELL ID
STAT.                 Colorado: STATE
~Curve Information Block
DEPT.FT            0 000 00 00: Depth
DCAL.in                       : CDL Caliper
RHOB.g/cc                     : CDL Bulk Density
RHOC.g/cc                     : CDL Density Correction
DPOR.pu                       : CDL Density Porosity
GR.GAPI                       : Gamma Ray
NPOR.pu                       : Neutron Porosity
~Parameter Information Block
~A  Depth       DCAL        RHOB        RHOC        DPOR         GR         NPOR    
# ...
  1864.1000      7.8463      2.3809      0.1457     16.3105     96.7243     25.9690
  1864.2000      7.8463      2.3507      0.1823     18.1371     97.8072     26.3204
  1864.3000      7.8851      2.2893      0.1233     21.8585    100.5921     27.1714
  1864.4000      7.8851      2.2086      0.1173     26.7543    104.9482     28.2484
  1864.5000      7.9300      2.1219      0.1159     32.0036    107.2644     29.0173
  1864.6000      7.9300      2.0222      0.0883     38.0513    102.4726     29.3819
  1864.7000      7.9300      1.9031      0.0553     45.2672     95.9266     29.8916
  1864.8000      7.9428      1.7896      0.0151     52.1435     95.1375     30.4719
  1864.9000      7.9428      1.7092      0.0016     57.0170    101.5060     30.5306
  1865.0000      7.9484      1.6523      0.0104     60.4653    109.3220     30.2677
  1865.1000      7.9484      1.5941     -0.0205     63.9965    107.0710     30.2390
  1865.2000      7.9484      1.5343     -0.0037     67.6161     91.4759     30.4252
  1865.3000      7.9492      1.4873      0.1060     70.4695     74.4985     30.6506
  1865.4000      7.9492      1.4523      0.1254     72.5875     67.1053     31.2178
  1865.5000      7.9556      1.4225      0.1156     74.3938     65.4984     32.0008
  1865.6000      7.9556      1.3976      0.0754     75.9019     61.9400     32.2379
  1865.7000      7.9556      1.3727      0.1012     77.4132     55.2683     32.1587
  1865.8000      8.0383      1.3432      0.0112     79.1976     47.4387     32.6676
  1865.9000      8.0383      1.3209      0.0023     80.5491     41.0496     33.3864
  1866.0000      8.0524      1.3112      0.0347     81.1405     38.8533     33.0109
  1866.1000      8.0524      1.3048      0.0175     81.5263     39.2060     31.4334
  1866.2000      8.0524      1.3004      0.0089     81.7937     39.3096     30.2647
  1866.3000      8.0652      1.3037      0.0066     81.5931     39.0134     30.4425
  1866.4000      8.0652      1.3108      0.0599     81.1609     36.8216     31.1972
  1866.5000      8.0696      1.3111      0.0440     81.1482     32.5207     31.5053
  1866.6000      8.0696      1.3051      0.0216     81.5108     29.3447     31.0539
  1866.7000      8.0696      1.2999      0.0348     81.8244     27.2717     30.4044
  1866.8000      8.0633      1.2983      0.0045     81.9197     23.4544     30.4067
  1866.9000      8.0633      1.3058      0.0116     81.4680     19.6659     30.9084
  1867.0000      8.0501      1.3316      0.0123     79.9032     19.6049     31.3383
  1867.1000      8.0501      1.3847      0.0286     76.6859     22.6508     31.8216
  1867.2000      8.0501      1.4620      0.0778     71.9984     25.5677     32.4050
  1867.3000      8.0347      1.5444      0.0938     67.0085     27.5438     32.5408
  1867.4000      8.0347      1.6206      0.0970     62.3853     30.5749     31.7805
  1867.5000      8.0537      1.7021      0.1446     57.4498     34.7365     30.5568
  1867.6000      8.0537      1.7955      0.1529     51.7881     36.8186     30.1113
  1867.7000      8.0537      1.8845      0.1489     46.3937     36.0912     30.9236
  1867.8000      8.1202      1.9495      0.1556     42.4550     36.0695     32.1365
  1867.9000      8.1202      1.9992      0.1038     39.4437     39.4646     32.6008
  1868.0000      8.2364      2.0656      0.0830     35.4200     44.6250     31.9877
  1868.1000      8.2364      2.1592      0.0831     29.7477     48.0948     30.9690
  1868.2000      8.2364      2.2518      0.1377     24.1339     47.4511     30.2156
  1868.3000      8.2161      2.3135      0.1209     20.3921     44.6637     29.9151
  1868.4000      8.2161      2.3515      0.0743     18.0930     45.9501     29.4879
  1868.5000      7.9697      2.3920      0.0838     15.6393     52.6660     28.2516
  1868.6000      7.9697      2.4330      0.1981     13.1543     60.8288     26.7433
  1868.7000      7.9697      2.4547      0.1175     11.8373     68.1286     25.8967
  1868.8000      7.8738      2.4596      0.1222     11.5412     72.8169     26.0597
  1868.9000      7.8738      2.4612      0.0921     11.4446     75.9961     26.5142
  1869.0000      7.8599      2.4688      0.1017     10.9849     80.7237     25.8958
  1869.1000      7.8599      2.4816      0.0989     10.2041     84.0991     24.3370
  1869.2000      7.8599      2.4913      0.0989      9.6203     82.5890     23.3303
  1869.3000      7.8603      2.4937      0.0849      9.4725     77.3944     23.1530
  1869.4000      7.8603      2.4878      0.0902      9.8280     72.7316     22.8389
  1869.5000      7.8659      2.4726      0.0661     10.7512     73.7450     22.3596
  1869.6000      7.8659      2.4553      0.0305     11.8006     79.7388     22.3589
  1869.7000      7.8659      2.4469      0.0714     12.3083     84.2342     22.5036
  1869.8000      7.8653      2.4491      0.0738     12.1786     83.5780     22.2996
  1869.9000      7.8653      2.4590      0.0893     11.5785     78.2701     22.0126
  1870.0000      7.8661      2.4745      0.0905     10.6390     71.4476     22.1415
  1870.1000      7.8661      2.4879      0.1178      9.8231     66.9411     22.6008
  1870.2000      7.8661      2.4937      0.1223      9.4736     65.4318     22.9537
  1870.3000      7.8654      2.5007      0.0874      9.0514     69.8013     23.1582
  1870.4000      7.8654      2.5142      0.1589      8.2284     81.3980     23.5145
  1870.5000      7.8670      2.5213      0.1393      7.7988     91.4125     23.8219
  1870.6000      7.8670      2.5168      0.1208      8.0715     93.7413     23.4456
  1870.7000      7.8670      2.5137      0.0968      8.2579     92.0426     22.5519
  1870.8000      7.8697      2.5207      0.1215      7.8393     88.7592     22.0130
  1870.9000      7.8697      2.5318      0.1459      7.1608     84.7381     22.4763
  1871.0000      7.9162      2.5405      0.1329      6.6348     82.4391     23.5969
  1871.1000      7.9162      2.5428      0.1422      6.4952     80.5030     24.4806
  1871.2000      7.9162      2.5394      0.1357      6.7007     76.8597     24.6242
  1871.3000      7.9310      2.5389      0.1110      6.7340     75.4100     24.2109
  1871.4000      7.9310      2.5430      0.1332      6.4844     78.3796     23.5267
  1871.5000      7.9290      2.5432      0.1023      6.4723     81.5701     23.0441
  1871.6000      7.9290      2.5361      0.1057      6.9042     82.3314     23.2820
  1871.7000      7.9290      2.5293      0.0864      7.3125     82.3831     23.7459
  1871.8000      7.9196      2.5332      0.0816      7.0798     83.6807     23.4173
  1871.9000      7.9196      2.5479      0.0937      6.1887     84.3706     22.0779
  1872.0000      7.9188      2.5635      0.1141      5.2451     82.5460     20.7078
  1872.1000      7.9188      2.5731      0.1210      4.6632     79.9898     20.3155
  1872.2000      7.9188      2.5781      0.1098      4.3580     78.5284     20.2718
  1872.3000      7.9189      2.5800      0.1091      4.2425     77.1175     19.4273
  1872.4000      7.9189      2.5777      0.1317      4.3808     74.5775     18.3824
  1872.5000      7.9189      2.5715      0.1198      4.7568     74.3581     18.2905
  1872.6000      7.9189      2.5678      0.0853      4.9814     77.2414     18.8741
  1872.7000      7.9189      2.5654      0.1222      5.1293     78.0361     19.2114
  1872.8000      7.9187      2.5566      0.0785      5.6611     75.3715     18.9760
  1872.9000      7.9187      2.5432      0.0976      6.4735     71.0282     18.2728
  1873.0000      7.9580      2.5265      0.0747      7.4870     66.8503     17.5993
  1873.1000      7.9580      2.5106      0.0406      8.4477     65.9769     17.4952
  1873.2000      7.9580      2.5017      0.0499      8.9876     68.8982     17.9686
  1873.3000      7.9632      2.4963      0.0455      9.3122     73.2083     18.4723
  1873.4000      7.9632      2.4881      0.0198      9.8121     78.0206     18.6483
  1873.5000      7.9640      2.4697      0.0464     10.9265     82.1820     18.6032
  1873.6000      7.9640      2.4380      0.0213     12.8514     80.2672     18.6625
