~Version Information
VERS.                      2.0: CWLS Log ASCII Standard - VERSION 2.0
WRAP.                       NO: One line per depth step
~Well Information Block
STRT.FT                -7.5000: 
STOP.FT              1716.7500: 
STEP.FT                 0.2500: 
NULL.                -999.2500: 
COMP.          Pioneer Natural Resources: COMPANY
WELL.          Lookout Point 31-23 Tr: WELL
FLD.           Purgatorie River: FIELD
LOC.           541' FNL & 1786' FEL--------: LOCATION
PROV.                       CO: PROVINCE
CNTY.               Las Animas: COUNTRY
SRVC.                         : SERVICE COMPANY
DATE.          Fri Jan 28 08:30:47 2005: LOG DATE
UWI.         005 071 08260 : UNIQUE WELL ID
~Curve Information Block
DEPT.FT            0 000 00 00: Depth
CCL.                          : Casing Collar Locator
TT3.usec                      : CBL 3' Travel Time
AMP3.mV                       : CBL 3' Amplitude
GR.GAPI                       : Gamma Ray
~Parameter Information Block
~A  Depth       CCL         TT3         AMP3         GR     
# ...
  1232.0000      0.0000    442.4924      3.8329    157.9933
  1232.2500      0.0000    460.3123      3.8560    159.9926
  1232.5000      0.0000    474.6849      3.9913    156.5486
  1232.7500      0.0000    484.5464      4.1338    147.9871
  1233.0000      0.0000    495.8701      4.2141    137.1847
  1233.2500      0.0000    514.5127      4.2767    127.9247
  1233.5000      0.0000    539.7098      4.4150    122.3523
  1233.7500      0.0000    566.4163      4.6504    119.5628
  1234.0000      0.0000    591.3892      4.9030    116.7305
  1234.2500      0.0000    614.6719      5.0806    111.7701
  1234.5000      0.0000    636.6845      5.1701    104.8386
  1234.7500      0.0000    655.9263      5.2282     97.5281
  1235.0000      0.0000    669.5276      5.3084     91.3062
  1235.2500      0.0000    674.8447      5.4163     86.9160
  1235.5000      0.0000    670.0433      5.5210     84.5471
  1235.7500      0.0000    654.2068      5.5831     84.0088
  1236.0000      0.0000    628.5550      5.5718     84.9388
  1236.2500      0.0000    597.5046      5.4679     86.9276
  1236.5000      0.0000    567.2141      5.2601     89.0991
  1236.7500      0.0000    542.4441      4.9620     89.9555
  1237.0000      0.0000    525.1284      4.6451     88.5478
  1237.2500      0.0000    515.1709      4.4289     85.8487
  1237.5000      0.0000    511.3712      4.4011     84.3013
  1237.7500      0.0000    511.7253      4.5570     85.7617
  1238.0000      0.0000    514.1497      4.8299     89.9990
  1238.2500      0.0000    517.7006      5.1564     95.0543
  1238.5000      0.0000    522.9042      5.4855     98.7005
  1238.7500      0.0000    530.8813      5.7476     99.6853
  1239.0000      0.0000    542.5351      5.8708     98.1864
  1239.2500      0.0000    558.0865      5.8551     95.5268
  1239.5000      0.0000    576.5455      5.7997     93.3111
  1239.7500      0.0000    596.1187      5.8165     92.4752
  1240.0000      0.0000    615.8933      5.9227     93.0592
  1240.2500      0.0000    635.7971      6.0503     95.0749
  1240.5000      0.0000    653.4918      6.1434     99.5303
  1240.7500      0.0000    662.7839      6.2003    108.1798
  1241.0000      0.0000    657.4734      6.2195    121.7999
  1241.2500      0.0000    637.4137      6.1551    138.4578
  1241.5000      0.0000    610.7037      5.9587    153.5327
  1241.7500      0.0000    589.7394      5.6474    162.0834
  1242.0000      0.0000    583.7800      5.3123    162.1975
  1242.2500      0.0000    593.4725      5.0626    156.2499
  1242.5000      0.0000    611.7137      4.9585    148.4827
  1242.7500      0.0000    629.9990      4.9809    141.6862
  1243.0000      0.0000    643.7039      5.0627    136.5682
  1243.2500      0.0000    651.2441      5.1621    133.1631
  1243.5000      0.0000    650.5220      5.2979    131.5320
  1243.7500      0.0000    639.1581      5.4959    131.6220
  1244.0000      0.0000    618.2596      5.7063    133.4734
  1244.2500      0.0000    593.8319      5.8008    137.1945
  1244.5000      0.0000    573.2989      5.6701    142.2128
  1244.7500      0.0000    560.8486      5.3255    147.1661
  1245.0000      0.0000    556.0545      4.9180    151.1157
  1245.2500      0.0000    555.8384      4.6560    154.4943
  1245.5000      0.0000    556.8517      4.6733    158.3186
  1245.7500      0.0000    556.5480      4.9416    162.6244
  1246.0000      0.0000    553.4717      5.2866    166.0755
  1246.2500      0.0000    547.6340      5.4934    167.0908
  1246.5000      0.0000    540.6783      5.4310    165.3383
  1246.7500      0.0000    535.1644      5.1272    162.3751
  1247.0000      0.0000    533.2400      4.7539    160.8199
  1247.2500      0.0000    535.6619      4.5300    162.5043
  1247.5000      0.0000    541.5949      4.5959    167.1968
  1247.7500      0.0000    549.1358      4.9331    172.9437
  1248.0000      0.0000    556.4409      5.3753    177.1584
  1248.2500      0.0000    562.8576      5.7029    177.7197
  1248.5000      0.0000    568.7523      5.7632    174.5212
  1248.7500      0.0000    573.6726      5.5475    170.1460
  1249.0000      0.0000    574.8881      5.1862    167.7396
  1249.2500      0.0000    569.0376      4.8720    168.0810
  1249.5000      0.0000    556.3607      4.7504    169.5085
  1249.7500      0.0000    542.6462      4.8419    170.2539
  1250.0000      0.0000    535.6464      5.0503    169.8719
  1250.2500      0.0000    539.4975      5.2496    168.7714
  1250.5000      0.0000    553.1608      5.3744    167.2615
  1250.7500      0.0000    573.3892      5.4302    164.9327
  1251.0000      0.0000    597.3440      5.4285    160.5835
  1251.2500      0.0000    622.3851      5.3393    153.0447
  1251.5000      0.0000    645.5369      5.1258    142.4366
  1251.7500      0.0000    664.5437      4.8109    130.3359
  1252.0000      0.0000    679.0089      4.4951    118.4120
  1252.2500      0.0000    689.9672      4.3098    107.3628
  1252.5000      0.0000    698.2673      4.3430     97.6726
  1252.7500      0.0000    703.6361      4.5818     90.9304
  1253.0000      0.0000    705.5587      4.9068     89.4484
  1253.2500      0.0000    704.6210      5.1443     94.2832
  1253.5000      0.0000    702.2452      5.1627    104.0429
  1253.7500      0.0000    699.3278      4.9579    115.9613
  1254.0000      0.0000    696.0552      4.6560    127.6693
  1254.2500      0.0000    692.8734      4.4180    137.2948
  1254.5000      0.0000    690.8063      4.3330    142.4543
  1254.7500      0.0000    690.7216      4.3962    140.7809
  1255.0000      0.0000    692.5620      4.5542    132.2578
  1255.2500      0.0000    695.2156      4.7477    120.4330
  1255.5000      0.0000    697.2297      4.9304    110.6793
  1255.7500      0.0000    697.9904      5.0765    107.1342
  1256.0000      0.0000    698.0319      5.1714    111.0950
  1256.2500      0.0000    697.9003      5.1940    121.3868
  1256.5000      0.0000    697.2085      5.1218    135.2964
  1256.7500      0.0000    695.3201      4.9597    149.4931
  1257.0000      0.0000    692.4446      4.7514    161.3418
  1257.2500      0.0000    689.2878      4.5677    170.0441
  1257.5000      0.0000    685.5631      4.4901    176.1882
  1257.7500      0.0000    678.8014      4.5802    179.9885
  1258.0000      0.0000    664.4907      4.8303    180.4639
  1258.2500      0.0000    638.3676      5.1507    176.8874
  1258.5000      0.0000    600.4973      5.4295    170.6617
  1258.7500      0.0000    557.5605      5.6057    165.0001
  1259.0000      0.0000    519.6843      5.6726    162.4234
  1259.2500      0.0000    494.1106      5.6271    162.6271
  1259.5000      0.0000    482.2837      5.4519    163.0365
  1259.7500      0.0000    482.4922      5.1652    161.6080
  1260.0000      0.0000    493.8758      4.8611    158.8225
  1260.2500      0.0000    517.2899      4.6652    156.6199
  1260.5000      0.0000    552.5425      4.6515    155.8452
  1260.7500      0.0000    595.0790      4.8168    155.2346
  1261.0000      0.0000    635.8236      5.1055    152.3474
  1261.2500      0.0000    664.8235      5.4234    144.9482
  1261.5000      0.0000    674.8739      5.6668    132.3672
  1261.7500      0.0000    661.8395      5.7984    116.6002
  1262.0000      0.0000    624.1368      5.8816    101.8612
  1262.2500      0.0000    565.3937      6.0038     92.3411
  1262.5000      0.0000    497.4892      6.1764     89.9717
  1262.7500      0.0000    437.2149      6.3288     93.8428
  1263.0000      0.0000    397.7497      6.3827    101.3046
  1263.2500      0.0000    384.4435      6.3067    109.7111
  1263.5000      0.0000    398.0425      6.1151    117.4324
  1263.7500      0.0000    437.2707      5.8464    123.4335
  1264.0000      0.0000    494.8964      5.5567    126.4270
  1264.2500      0.0000    554.1458      5.3149    125.4570
  1264.5000      0.0000    595.5290      5.1713    121.8018
  1264.7500      0.0000    610.6618      5.1206    119.3847
  1265.0000      0.0000    607.9073      5.1102    122.0190
  1265.2500      0.0000    602.9948      5.0978    130.0139
