~Version Information
 VERS.                                  2.0 : CWLS LAS VERSION
 WRAP.                                   NO : WRAPING MODE
 SWARE .                 MController 2.5.0E : SOFTWARE VERSION
~Well Information
 WELL.                         STATE 16-32R : WELL
 COMP.                      Petrogulf Corp. : COMPANY
 FLD.                      Purgatorie River : FIELD
 LOC.                SW/NE Sec 16 T33S R67W : LOCATION
 DATE.                      5/12/04-5/13/04 : DATE(S) LOGGED
 SRVC.       Blanco Geological Services LLC : SERVICE COMPANY
 STAT.                                   CO : STATE
 CNTY.                           Las Animas : COUNTY
 CTRY.                                  USA : COUNTRY
 API.                       05-071-08033-00 : API NUMBER
 STRT.FT                             167.00 : START DEPTH
 STOP.FT                            1918.00 : STOP DEPTH
 STEP.FT                               1.00 : DEPTH INCREMENT
 NULL.                                -9999 : NULL VALUE
~Curve information
 DEPTH.FT                                   :
 ROP.MIN/FT                                 :
 GAS.UNITS                                  :
~ASCII Log data
# ...
      567.00        0.200         21.9 
      568.00        0.167         85.1 
      569.00        0.183         85.1 
      570.00        0.267         67.9 
      571.00        0.233         12.7 
      572.00        0.200         11.2 
      573.00        0.300         13.1 
      574.00        0.367         13.3 
      575.00        0.233         13.9 
      576.00        0.267         13.0 
      577.00        0.267         11.3 
      578.00        0.233         12.6 
      579.00        0.200         12.6 
      580.00        0.200         14.8 
      581.00        0.300         17.9 
      582.00        0.317         19.2 
      583.00        0.333         22.4 
      584.00        0.400         83.7 
      585.00        0.300         78.6 
      586.00        0.367         48.2 
      587.00        0.367         41.9 
      588.00        0.500         34.9 
      589.00        0.400         14.3 
      590.00        0.333         13.9 
      591.00        0.317         14.0 
      592.00        2.700         14.2 
      593.00        0.267         14.5 
      594.00        0.217         13.9 
      595.00        0.200         14.8 
      596.00        0.200         14.9 
      597.00        0.233         13.9 
      598.00        0.267         14.6 
      599.00        0.267         14.7 
      600.00        0.233         14.4 
      601.00        0.300         14.3 
      602.00        0.300         14.3 
      603.00        0.333         14.3 
      604.00        0.333         14.2 
      605.00        0.300         15.2 
      606.00        0.333         15.9 
      607.00        0.350         15.2 
      608.00        0.400         15.3 
      609.00        0.333         13.7 
      610.00        0.333         14.3 
      611.00        0.367         19.0 
      612.00        0.333         19.9 
      613.00        0.333         22.8 
      614.00        0.367         40.4 
      615.00        0.300         88.0 
      616.00        0.350         81.7 
      617.00        0.300         49.9 
      618.00        0.500         39.4 
      619.00        0.400         34.3 
      620.00        0.400         22.7 
      621.00        0.333         17.2 
      622.00        3.183         17.4 
      623.00        0.300         15.5 
      624.00        0.300         15.6 
      625.00        0.300         15.1 
      626.00        0.333         14.9 
      627.00        0.583         15.2 
      628.00        0.433         14.5 
      629.00        0.467         17.4 
      630.00        0.400         18.8 
      631.00        0.433         19.8 
      632.00        0.333         19.3 
      633.00        0.333         19.9 
      634.00        0.333         20.3 
      635.00        0.317         19.6 
      636.00        0.333         18.7 
      637.00        0.333         18.3 
      638.00        0.300         17.4 
      639.00        0.300         14.4 
      640.00        0.300         15.0 
      641.00        0.300         16.8 
      642.00        0.433         19.8 
      643.00        0.667         25.7 
      644.00        0.417        108.2 
      645.00        0.433         86.2 
      646.00        0.400         41.2 
      647.00        0.367         39.3 
      648.00        0.267         38.9 
      649.00        0.267         32.1 
      650.00        0.367         25.1 
      651.00        0.267         20.8 
      652.00        2.850         20.6 
      653.00        0.400         14.2 
      654.00        0.167         14.3 
      655.00        0.133         14.5 
      656.00        0.133         14.4 
      657.00        0.167         13.9 
      658.00        0.133         13.9 
      659.00        0.483         14.2 
      660.00        0.500         16.6 
      661.00        0.400         18.0 
      662.00        0.333         17.0 
      663.00        0.333         15.8 
      664.00        0.367         15.6 
      665.00        0.367         16.3 
      666.00        0.333         15.2 
      667.00        0.400         12.4 
      668.00        0.350         11.7 
      669.00        0.333         13.5 
      670.00        0.300         17.4 
      671.00        0.333         19.0 
      672.00        0.300        109.4 
      673.00        0.300         97.4 
      674.00        0.233         75.2 
      675.00        0.133         42.5 
      676.00        0.233         40.0 
      677.00        0.300         41.8 
      678.00        0.500         47.7 
      679.00        0.517         24.8 
      680.00        0.267         17.3 
      681.00        0.167         16.8 
      682.00        2.950         16.0 
      683.00        0.767         15.2 
      684.00        0.133         14.8 
      685.00        0.300         15.4 
      686.00        0.400         14.9 
      687.00        0.167         14.6 
      688.00        0.200         14.9 
      689.00        0.333         14.7 
      690.00        0.300         14.4 
      691.00        0.300         14.2 
      692.00        0.383         14.3 
      693.00        0.333         15.4 
      694.00        0.333         14.2 
      695.00        0.367         14.1 
      696.00        0.333         11.8 
      697.00        0.333         11.6 
      698.00        0.300         12.8 
      699.00        0.367         17.4 
      700.00        0.333         20.7 
      701.00        0.300         32.5 
      702.00        0.317         98.5 
      703.00        0.300        102.2 
      704.00        0.300         48.5 
      705.00        0.300         40.4 
      706.00        0.267         40.7 
      707.00        0.200         35.9 
      708.00        0.233         28.2 
      709.00        0.233         25.0 
      710.00        0.333         22.0 
      711.00        0.300         20.5 
      712.00        3.383         52.3 
      713.00        0.333         48.7 
      714.00        0.283         47.4 
      715.00        0.167         46.4 
      716.00        0.200         45.7 
      717.00        0.233         45.4 
      718.00        0.167         44.1 
      719.00        0.133         44.5 
      720.00        0.100         44.5 
      721.00        0.133         44.1 
      722.00        0.167         44.1 
      723.00        0.333         43.6 
      724.00        0.200         43.0 
      725.00        0.167         43.0 
      726.00        0.167         43.0 
      727.00        0.133         39.5 
      728.00        0.133         32.3 
      729.00        0.167         32.3 
      730.00        0.167         33.4 
      731.00        0.333         39.0 
      732.00        0.317         42.8 
      733.00        0.367         48.7 
      734.00        0.333         52.9 
      735.00        0.333        166.9 
      736.00        0.300        211.1 
      737.00        0.500        168.8 
      738.00        0.467         77.3 
      739.00        0.467         69.2 
      740.00        0.333         67.9 
      741.00        0.317         77.6 
      742.00        4.717         75.5 
      743.00        0.233         39.2 
      744.00        0.533         38.8 
      745.00        0.333         38.6 
      746.00        0.300         37.3 
      747.00        0.233         37.3 
      748.00        0.183         36.9 
      749.00        0.200         36.9 
      750.00        0.167         36.3 
      751.00        0.167         36.3 
      752.00        0.233         36.6 
      753.00        0.233         35.2 
      754.00        0.333         29.2 
      755.00        0.300         26.7 
      756.00        0.267         29.2 
      757.00        0.267         32.3 
      758.00        0.267         37.3 
      759.00        0.267         41.0 
      760.00        0.300         62.2 
      761.00        0.300        193.8 
      762.00        0.283        151.4 
      763.00        0.267        113.8 
      764.00        0.233         69.8 
      765.00        0.267         85.9 
      766.00        0.233         95.0 
