~Version Information
VERS.                      2.0: CWLS Log ASCII Standard - VERSION 2.0
WRAP.                       NO: One line per depth step
~Well Information Block
STRT.FT               550.0000: 
STOP.FT              2042.5000: 
STEP.FT                 0.2500: 
NULL.                -999.2500: 
COMP.          Petrogulf Corporation: COMPANY
WELL.          Robinson 15-12V: WELL
FLD.           Purgatorie River: FIELD
LOC.           1788' FNL & 466' FWL: LOCATION
PROV.                 Colorado: PROVINCE
CNTY.               Las Animas: COUNTRY
SRVC.                Patterson: SERVICE COMPANY
DATE.          Mon Sep 12 10:04:59 2005: LOG DATE
UWI.                          : UNIQUE WELL ID
~Curve Information Block
DEPT.FT            0 000 00 00: Depth
SP.mV                         : DIL Spontaneous Potential
RILD.Ohm-m                    : DIL Deep Resistivity
RILM.Ohm-m                    : DIL Medium Resistivity
RLL3.Ohm-m                    : DIL Shallow Resistivity
GR.GAPI                       : Gamma Ray
~Parameter Information Block
~A  Depth        SP         RILD        RILM        RLL3         GR     
# ...
  2006.0000    171.2950     37.2941     47.8253     70.1811    100.2064
  2006.2500    175.9519     35.3827     44.8282     59.3205     99.7702
  2006.5000    180.1461     34.4786     45.8168     54.6156    107.1777
  2006.7500    185.2975     33.8282     43.5816     46.7772    107.5146
  2007.0000    188.8357     34.2039     42.1264     41.5696    104.4834
  2007.2500    192.1447     32.9812     36.1179     36.4111    100.7336
  2007.5000    195.0146     32.0646     33.5360     27.3811     89.2040
  2007.7500    197.1961     30.4070     31.2985     21.6221     92.2639
  2008.0000    198.0739     29.8610     30.1665     20.8254     92.9642
  2008.2500    198.0274     28.9364     29.7572     25.4247     83.8375
  2008.5000    197.6240     28.0646     29.3904     38.6934     72.4920
  2008.7500    197.0108     27.4923     32.6032     41.9498     78.0943
  2009.0000    197.6313     28.3964     33.1874     41.2604     84.1927
  2009.2500    198.7107     30.0062     31.0452     39.4188     56.3077
  2009.5000    201.0126     27.2244     31.8078     36.8484      1.5488
  2009.7500    202.2795     26.6324     31.2887     35.6560      0.0081
  2010.0000    203.7298     25.6349     30.7357     36.1435   -999.2500
  2010.2500    204.1909     25.4792     31.3597     37.3565   -999.2500
  2010.5000    204.3173     25.5888     29.8902     37.0089   -999.2500
  2010.7500    204.3923     26.3106     29.0814     32.9928   -999.2500
  2011.0000    204.3356     25.5936     28.5147     30.0810   -999.2500
  2011.2500    204.2134     24.5055     27.7811     28.4032   -999.2500
  2011.5000    203.8715     24.8448     27.4407     28.4861   -999.2500
  2011.7500    204.0903     24.5175     27.2606     28.5618   -999.2500
  2012.0000    204.2230     24.3550     27.7484     27.9792   -999.2500
  2012.2500    203.9319     24.6261     26.6039     27.4136   -999.2500
  2012.5000    202.7377     22.8653     26.2118     26.4518   -999.2500
  2012.7500    201.0222     23.4278     25.0418     25.9620   -999.2500
  2013.0000    198.5131     22.8657     23.0841     25.8079   -999.2500
  2013.2500    195.8521     21.9657     23.2668     26.8893   -999.2500
  2013.5000    193.3784     22.7712     23.3872     30.2282   -999.2500
  2013.7500    191.3661     22.0489     23.4079     31.6442   -999.2500
  2014.0000    190.2262     22.4719     23.6502     30.0087   -999.2500
  2014.2500    189.8083     21.8355     23.4437     28.3192   -999.2500
  2014.5000    190.0772     21.7776     22.6321     30.5774   -999.2500
  2014.7500    189.4983     21.0267     23.0427     31.0235   -999.2500
  2015.0000    188.9041     21.4502     23.6944     30.1549   -999.2500
  2015.2500    187.5694     20.5750     23.1127     28.2229   -999.2500
  2015.5000    186.2182     20.1703     23.1187     26.7363   -999.2500
  2015.7500    184.7641     19.2252     22.8042     23.5415   -999.2500
  2016.0000    183.4990     18.5055     22.9587     23.5398   -999.2500
  2016.2500    182.7568     17.6457     23.5992     27.5774   -999.2500
  2016.5000    182.4660     18.4043     21.9891     36.4377   -999.2500
  2016.7500    183.1896     18.2217     20.5964     45.8640   -999.2500
  2017.0000    184.3908     17.7261     19.3847     43.1181   -999.2500
  2017.2500    186.5243     17.7138     16.0078     30.4216   -999.2500
  2017.5000    187.9107     17.1849     15.3747     15.1852   -999.2500
  2017.7500    189.7735     17.0639     15.0782     10.6438   -999.2500
  2018.0000    190.7543     16.7797     15.4651     11.9717   -999.2500
  2018.2500    191.1702     17.6023     16.3440     19.2228   -999.2500
  2018.5000    191.4969     16.3408     17.6995     30.9395   -999.2500
  2018.7500    191.6937     16.2738     18.4588     32.7544   -999.2500
  2019.0000    192.0883     15.3875     18.8895     35.7620   -999.2500
  2019.2500    192.2328     15.0401     18.4457     54.7918   -999.2500
  2019.5000    193.0216     14.7392     17.1336     60.8207   -999.2500
  2019.7500    193.2771     15.3543     16.4203     38.6499   -999.2500
  2020.0000    194.4575     15.5822     15.1766     22.4324   -999.2500
  2020.2500    194.4504     16.7957     14.2681     12.2218   -999.2500
  2020.5000    194.2289     17.0793     14.6453     10.4105   -999.2500
  2020.7500    193.6063     16.0950     16.1738     14.4531   -999.2500
  2021.0000    192.5785     16.5182     17.6704     26.5024   -999.2500
  2021.2500    192.2743     16.3731     19.6183     45.4610   -999.2500
  2021.5000    191.6672     15.5942     20.1470     56.4945   -999.2500
  2021.7500    191.7215     15.4772     19.2588     56.8570   -999.2500
  2022.0000    192.3147     15.6260     17.1516     44.5212   -999.2500
  2022.2500    193.7280     15.4819     15.6210     33.9287   -999.2500
  2022.5000    195.0837     15.4922     15.2183     12.9175   -999.2500
  2022.7500    196.5160     15.7355     15.7871     10.2484   -999.2500
  2023.0000    197.4516     16.2472     16.7857     15.8310   -999.2500
  2023.2500    197.5940     16.1990     19.1174     26.5982   -999.2500
  2023.5000    197.7306     15.9399     20.3178     46.6755   -999.2500
  2023.7500    198.3722     15.3690     21.3142     60.7118   -999.2500
  2024.0000    199.6231     15.3202     19.7262     60.6476   -999.2500
  2024.2500    201.2756     13.4937     18.0529     42.2362   -999.2500
  2024.5000    202.9560     12.5196     17.5097     30.2843   -999.2500
  2024.7500    205.0246     12.1243     15.9700     18.8073   -999.2500
  2025.0000    206.1130     12.1956     14.4426     16.5261   -999.2500
  2025.2500    207.5279     11.8877     14.1872     15.6633   -999.2500
  2025.5000    208.0083     11.5561     13.8537     15.8973   -999.2500
  2025.7500    207.9975     11.2751     13.4399     13.9497   -999.2500
  2026.0000    207.6423     10.8844     13.2442     13.0074   -999.2500
  2026.2500    206.6318     10.6450     12.6580     14.9188   -999.2500
  2026.5000    205.8682     10.2420     12.2799     15.8076   -999.2500
  2026.7500    205.3676      9.9497     11.4383     15.9051   -999.2500
  2027.0000    205.3969      9.8280     10.8669     14.8296   -999.2500
  2027.2500    205.4715      9.4462     10.1806     13.4753   -999.2500
  2027.5000    205.5451      9.6837      9.7417     12.1028   -999.2500
  2027.7500    206.0341      9.7429      9.5694     11.5152   -999.2500
  2028.0000    205.7717     10.4423      9.5423     10.9299   -999.2500
  2028.2500    205.5260     10.5245      9.5868     11.5246   -999.2500
  2028.5000    204.8766     10.7390      9.9569     12.9298   -999.2500
  2028.7500    204.0963     11.1445     10.3683     12.5710   -999.2500
  2029.0000    203.8009     11.2660     11.2994     11.1275   -999.2500
  2029.2500    203.9371     11.3067     12.5623     13.9841   -999.2500
  2029.5000    204.2128     11.2485     13.4890     25.8974   -999.2500
  2029.7500    204.9101     10.9639     14.6247     65.5823   -999.2500
  2030.0000    205.1275     10.8791     14.8887     80.5174   -999.2500
  2030.2500    205.8237     10.7905     14.8012     83.0596   -999.2500
  2030.5000    206.0145     10.4384     13.9962     73.7278   -999.2500
  2030.7500    184.0723     11.8833     13.2453     50.1342   -999.2500
  2031.0000     21.9894    118.3313     11.9292     22.5573   -999.2500
  2031.2500      0.0544 100000.0000     11.0221     12.6265   -999.2500
  2031.5000   -999.2500    198.4935     10.1525      9.9398   -999.2500
  2031.7500   -999.2500    206.3989      9.7118      9.5388   -999.2500
  2032.0000   -999.2500    209.1702      9.6942      9.6537   -999.2500
  2032.2500   -999.2500    210.2399     10.1996      9.9612   -999.2500
  2032.5000   -999.2500    209.6697     10.2767     11.7207   -999.2500
  2032.7500   -999.2500    204.6337     10.2833     19.3133   -999.2500
  2033.0000   -999.2500    203.1893     10.1883     26.2266   -999.2500
  2033.2500   -999.2500    202.0193     10.3345     14.0940   -999.2500
  2033.5000   -999.2500    194.9452     10.5874     11.1308   -999.2500
  2033.7500   -999.2500    222.5249     10.8031     11.9631   -999.2500
