~Version Information
 VERS.                      2.0: CWLS Log ASCII Standard - VERSION 2.0
 WRAP.                       NO: One line per depth step
 ~Well Information Block
 STRT.FT               887.5000: 
 STOP.FT              2605.5000: 
 STEP.FT                 0.2500: 
 NULL.                -999.2500: 
 COMP.          Petrogulf Corporation: COMPANY
 WELL.               YWAM 7-23V: WELL
 FLD.           Purgatorie River: FIELD
 LOC.           230' FSL & 225' FWL: LOCATION
 CNTY.               Las Animas: COUNTY
 SRVC.                         : SERVICE COMPANY
 DATE.          Sat Oct 30 08:34:45 2004: LOG DATE
 UWI.           05 071 08227 00: UNIQUE WELL ID
 STAT.                 Colorado: STATE
 PROV.                         :Province
 ~Curve Information Block
 DEPT.FT            0 000 00 00: Depth
 SP.mV                         : DIL Spontaneous Potential
 RILD.Ohm-m                    : DIL Deep Resistivity
 RILM.Ohm-m                    : DIL Medium Resistivity
 RLL3.Ohm-m                    : DIL Shallow Resistivity
 GR.GAPI                       : Gamma Ray
 ~Parameter Information Block
 ~A  Depth        SP         RILD        RILM        RLL3         GR     
# ...
  2343.5000     -7.1990      9.4964     11.0450     13.4038     80.3801
  2343.7500     -7.7295      9.5275     10.9943     12.8424     83.2684
  2344.0000     -8.2152      9.5417     10.8819     12.1192     88.0376
  2344.2500     -8.6434      9.5419     10.7252     11.3236     90.7925
  2344.5000     -9.0086      9.5320     10.5460     10.5563     93.4932
  2344.7500     -9.3072      9.5155     10.3662      9.9193     94.1991
  2345.0000     -9.5322      9.4958     10.2058      9.5059     93.6906
  2345.2500     -9.6714      9.4760     10.0801      9.3885     92.4482
  2345.5000     -9.7079      9.4589      9.9993      9.6051     89.7432
  2345.7500     -9.6241      9.4476      9.9684     10.1449     87.7268
  2346.0000     -9.4053      9.4458      9.9878     10.9414     84.5749
  2346.2500     -9.0471      9.4574     10.0545     11.8781     82.2923
  2346.5000     -8.5581      9.4870     10.1631     12.8114     78.7768
  2346.7500     -7.9667      9.5389     10.3068     13.6051     76.8383
  2347.0000     -7.3193      9.6171     10.4793     14.1651     75.2654
  2347.2500     -6.6837      9.7242     10.6753     14.4622     75.1045
  2347.5000     -6.1383      9.8611     10.8910     14.5325     75.5880
  2347.7500     -5.7586     10.0269     11.1242     14.4598     75.9906
  2348.0000     -5.6024     10.2179     11.3735     14.3453     76.1345
  2348.2500     -5.6940     10.4288     11.6374     14.2783     75.5964
  2348.5000     -6.0130     10.6525     11.9134     14.3146     73.3263
  2348.7500     -6.4978     10.8811     12.1975     14.4681     70.6513
  2349.0000     -7.0580     11.1071     12.4837     14.7146     64.9770
  2349.2500     -7.5919     11.3238     12.7650     15.0032     60.5034
  2349.5000     -8.0152     11.5264     13.0342     15.2743     54.1287
  2349.7500     -8.2795     11.7120     13.2851     15.4762     50.9228
  2350.0000     -8.3841     11.8799     13.5134     15.5783     48.1347
  2350.2500     -8.3768     12.0307     13.7170     15.5761     47.2812
  2350.5000     -8.3393     12.1666     13.8962     15.4889     46.8365
  2350.7500     -8.3613     12.2902     14.0526     15.3510     47.0234
  2351.0000     -8.5121     12.4039     14.1885     15.1996     48.0237
  2351.2500     -8.8093     12.5093     14.3062     15.0664     48.8662
  2351.5000     -9.2007     12.6063     14.4070     14.9720     49.4497
  2351.7500     -9.5715     12.6930     14.4917     14.9250     48.9746
  2352.0000     -9.7639     12.7655     14.5599     14.9249     46.9918
  2352.2500     -9.6248     12.8183     14.6100     14.9650     45.2289
  2352.5000     -9.0504     12.8451     14.6396     15.0344     42.9420
  2352.7500     -8.0290     12.8401     14.6444     15.1187     42.2491
  2353.0000     -6.6555     12.7993     14.6186     15.1995     42.9948
  2353.2500     -5.1249     12.7214     14.5548     15.2548     44.4605
  2353.5000     -3.6954     12.6078     14.4448     15.2612     46.9258
  2353.7500     -2.6325     12.4633     14.2812     15.1987     48.0535
  2354.0000     -2.1498     12.2947     14.0593     15.0557     48.6162
  2354.2500     -2.3566     12.1107     13.7793     14.8333     48.5732
  2354.5000     -3.2230     11.9206     13.4470     14.5449     48.8803
  2354.7500     -4.5767     11.7334     13.0747     14.2118     49.8701
  2355.0000     -6.1375     11.5582     12.6795     13.8558     52.9601
  2355.2500     -7.5723     11.4031     12.2814     13.4925     55.8877
  2355.5000     -8.5707     11.2755     11.9013     13.1277     60.6569
  2355.7500     -8.9099     11.1821     11.5588     12.7630     63.6596
  2356.0000     -8.5074     11.1287     11.2711     12.4059     67.9855
  2356.2500     -7.4260     11.1202     11.0532     12.0836     71.1101
  2356.5000     -5.8526     11.1611     10.9176     11.8723     76.5668
  2356.7500     -4.0505     11.2546     10.8754     11.9293     80.6525
  2357.0000     -2.2992     11.4034     10.9366     12.5357     86.8801
  2357.2500     -0.8396     11.6098     11.1109     14.1325     90.5995
  2357.5000      0.1570     11.8752     11.4082     17.3331     94.8029
  2357.7500      0.6129     12.2008     11.8386     22.8716     96.5577
  2358.0000      0.5356     12.5883     12.4120     31.4540     97.6955
  2358.2500      0.0061     13.0390     13.1377     43.5048     97.2789
  2358.5000     -0.8404     13.5554     14.0227     58.8645     93.8141
  2358.7500     -1.8377     14.1403     15.0711     76.5860     88.9308
  2359.0000     -2.8120     14.7963     16.2825     94.9924     77.9848
  2359.2500     -3.6031     15.5250     17.6525    112.1059     69.6377
  2359.5000     -4.0891     16.3236     19.1730    126.4044     58.8162
  2359.7500     -4.2018     17.1814     20.8351    137.6597     54.0255
  2360.0000     -3.9355     18.0755     22.6312    147.4775     50.5706
  2360.2500     -3.3489     18.9662     24.5525    159.1862     49.9014
  2360.5000     -2.5507     19.7960     26.5825    176.9325     49.4013
  2360.7500     -1.6836     20.4938     28.6806    204.1744     48.3740
  2361.0000     -0.9019     20.9860     30.7549    242.0724     44.8175
  2361.2500     -0.3494     21.2132     32.6383    288.4174     41.2424
  2361.5000     -0.1372     21.1460     34.0790    337.6032     35.2242
  2361.7500     -0.3281     20.7930     34.7776    381.7834     31.4764
  2362.0000     -0.9230     20.1967     34.4884    412.8810     26.9654
  2362.2500     -1.8561     19.4194     33.1412    424.7582     24.9710
  2362.5000     -3.0051     18.5278     30.9006    414.7867     24.1178
  2362.7500     -4.2168     17.5804     28.1035    384.3252     25.3440
  2363.0000     -5.3413     16.6220     25.1218    338.0606     30.0010
  2363.2500     -6.2571     15.6832     22.2486    282.5872     34.6393
  2363.5000     -6.8974     14.7826     19.6577    224.7805     43.0883
  2363.7500     -7.2520     13.9311     17.4190    170.4548     49.5291
  2364.0000     -7.3585     13.1348     15.5354    123.5882     60.6059
  2364.2500     -7.2773     12.3971     13.9747     86.1310     68.8932
  2364.5000     -7.0747     11.7207     12.6923     58.2728     81.5817
  2364.7500     -6.8086     11.1080     11.6426     38.9602     89.0756
  2365.0000     -6.5242     10.5611     10.7848     26.4799     97.0124
  2365.2500     -6.2611     10.0815     10.0852     18.9623     99.5997
  2365.5000     -6.0632      9.6701      9.5174     14.7331     99.9409
  2365.7500     -5.9879      9.3263      9.0614     12.4960     98.7187
  2366.0000     -6.1092      9.0481      8.7026     11.3738     96.6341
  2366.2500     -6.5049      8.8317      8.4304     10.8614     95.9921
  2366.5000     -7.2362      8.6714      8.2371     10.7482     96.5925
  2366.7500     -8.3207      8.5599      8.1166     11.0299     97.5932
  2367.0000     -9.7095      8.4885      8.0633     11.8228     98.9743
  2367.2500    -11.2796      8.4471      8.0707     13.2734     99.4416
  2367.5000    -12.8493      8.4259      8.1311     15.4615     98.7208
  2367.7500    -14.2141      8.4152      8.2342     18.3101     96.5202
  2368.0000    -15.1924      8.4072      8.3672     21.5342     89.6044
  2368.2500    -15.6670      8.3954      8.5147     24.6567     82.9742
  2368.5000    -15.6077      8.3759      8.6599     27.1114     72.6718
  2368.7500    -15.0678      8.3458      8.7863     28.4073     67.5491
  2369.0000    -14.1594      8.3036      8.8791     28.2903     64.9310
  2369.2500    -13.0179      8.2477      8.9276     26.8302     67.0262
  2369.5000    -11.7703      8.1769      8.9256     24.3895     75.0819
  2369.7500    -10.5158      8.0896      8.8713     21.4901     82.3781
  2370.0000     -9.3211      7.9850      8.7668     18.6382     93.0198
  2370.2500     -8.2257      7.8631      8.6169     16.1854     98.2659
  2370.5000     -7.2511      7.7257      8.4287     14.2730    102.3556
  2370.7500     -6.4079      7.5766      8.2108     12.8632    103.2675
  2371.0000     -5.7001      7.4209      7.9733     11.8200    104.3449
  2371.2500     -5.1254      7.2651      7.7267     10.9948    106.0877
