~Version Information
VERS.                      2.0: CWLS Log ASCII Standard - VERSION 2.0
WRAP.                       NO: One line per depth step
~Well Information Block
STRT.FT               770.0000: 
STOP.FT              1997.7000: 
STEP.FT                 0.1000: 
NULL.                -999.2500: 
COMP.          Pioneer Natural Resources: COMPANY
WELL.          Titan Federal 34-17: WELL
FLD.           Purgatoire River: FIELD
LOC.           321' FSL & 1911' FEL--: LOCATION
STAT.                 Colorado: State
CNTY.               Las Animas: COUNTY
CTRY. USA : Country
SECT. 17 : Section
TOWN. 32S : Township
RANG. 65W : Range
SRVC.                Patterson: SERVICE COMPANY
DATE.          Thu Oct 06 15:09:27 2005: LOG DATE
API.           05 071 08272 00: UNIQUE WELL ID
~Curve Information Block
DEPT.FT            0 000 00 00: Depth
DCAL.in                       : CDL Caliper
RHOB.g/cc                     : CDL Bulk Density
RHOC.g/cc                     : CDL Density Correction
DPOR.pu                       : CDL Density Porosity
NPOR.pu                       : Neutron Porosity
GR.GAPI                       : Gamma Ray
~Parameter Information Block
~A  Depth       DCAL        RHOB        RHOC        DPOR        NPOR         GR     
# ...
  1326.8000      8.0390      2.6194      0.0708      1.8519     24.2508    126.5538
  1326.9000      8.0390      2.5992      0.0497      3.0803     24.5708    117.1543
  1327.0000      8.0377      2.5726      0.0331      4.6900     24.7578    111.4986
  1327.1000      8.0377      2.5553      0.0058      5.7391     24.4118    108.4608
  1327.2000      8.0377      2.5525      0.0311      5.9072     23.8192    107.0033
  1327.3000      8.0368      2.5563      0.0296      5.6773     23.6763    109.2618
  1327.4000      8.0368      2.5659      0.0347      5.0967     24.2554    114.5469
  1327.5000      8.0379      2.5798      0.0732      4.2573     24.9713    117.4298
  1327.6000      8.0379      2.5867      0.0427      3.8388     25.2966    117.9401
  1327.7000      8.0379      2.5876      0.0457      3.7824     25.4658    120.5725
  1327.8000      8.0393      2.5874      0.0497      3.7967     25.6446    122.9802
  1327.9000      8.0393      2.5807      0.0567      4.1993     25.5018    122.3447
  1328.0000      8.0389      2.5666      0.0613      5.0542     25.0601    123.4300
  1328.1000      8.0389      2.5580     -0.0172      5.5731     24.7184    130.5115
  1328.2000      8.0389      2.5639      0.0072      5.2210     24.5265    140.6327
  1328.3000      8.0375      2.5711      0.0273      4.7831     24.1423    149.1730
  1328.4000      8.0375      2.5722     -0.0090      4.7169     23.3559    152.2303
  1328.5000      8.0364      2.5786      0.0191      4.3245     22.6029    147.9506
  1328.6000      8.0364      2.5948      0.0415      3.3426     22.2280    140.4230
  1328.7000      8.0364      2.6055      0.0586      2.6949     22.0047    136.4652
  1328.8000      8.0366      2.5902      0.0416      3.6238     21.8772    137.2907
  1328.9000      8.0366      2.5568      0.0023      5.6505     21.8102    135.4583
  1329.0000      8.0366      2.5388     -0.0419      6.7403     21.6437    127.5271
  1329.1000      8.0366      2.5465      0.0234      6.2747     21.7554    121.2701
  1329.2000      8.0366      2.5648     -0.0037      5.1664     22.1837    116.9579
  1329.3000      8.0367      2.5877      0.0296      3.7769     22.3999    110.2154
  1329.4000      8.0367      2.6089      0.0477      2.4895     22.5449    106.8290
  1329.5000      8.0375      2.6154      0.0448      2.0944     22.9440    109.1473
  1329.6000      8.0375      2.6045     -0.0073      2.7581     23.3691    111.6609
  1329.7000      8.0375      2.5920     -0.0141      3.5158     23.8417    110.2617
  1329.8000      8.0390      2.5921      0.0194      3.5083     24.5413    103.9036
  1329.9000      8.0390      2.5942      0.0076      3.3795     24.9961     98.2610
  1330.0000      8.0388      2.5868      0.0030      3.8294     25.0465     98.2843
  1330.1000      8.0388      2.5827     -0.0222      4.0791     25.0397    100.1412
  1330.2000      8.0388      2.5983      0.0039      3.1313     25.1469     98.5632
  1330.3000      8.0382      2.6223      0.0638      1.6792     25.1965     94.7959
  1330.4000      8.0382      2.6329      0.0293      1.0382     25.0075     93.5386
  1330.5000      8.0400      2.6337      0.0020      0.9900     24.7864     95.1350
  1330.6000      8.0400      2.6370      0.0010      0.7889     24.7765     97.7715
  1330.7000      8.0400      2.6361      0.0453      0.8413     24.7594    101.0183
  1330.8000      8.0415      2.6151      0.0240      2.1171     24.3181    104.3276
  1330.9000      8.0415      2.5804     -0.0208      4.2197     23.3744    106.1236
  1331.0000      8.0408      2.5533      0.0094      5.8617     22.2071    105.9719
  1331.1000      8.0408      2.5354      0.0032      6.9476     21.1743    104.8046
  1331.2000      8.0408      2.5240     -0.0360      7.6391     20.5708    103.5580
  1331.3000      8.0394      2.5215      0.0082      7.7852     20.4936    101.6529
  1331.4000      8.0394      2.5171      0.0210      8.0566     20.4787     98.2609
  1331.5000      8.0374      2.5041      0.0269      8.8410     19.7866     96.2061
  1331.6000      8.0374      2.4954      0.0186      9.3695     18.9203     99.1913
  1331.7000      8.0374      2.5008      0.0373      9.0410     18.7535    103.6181
  1331.8000      8.0367      2.5153      0.0362      8.1619     18.7796    104.3288
  1331.9000      8.0367      2.5397      0.0142      6.6838     18.3266    103.3718
  1332.0000      8.0372      2.5663      0.1027      5.0730     17.7942    102.8028
  1332.1000      8.0372      2.5609      0.0823      5.3984     17.8740    102.8868
  1332.2000      8.0372      2.5200      0.0056      7.8793     18.5121    104.2180
  1332.3000      8.0374      2.4817     -0.0022     10.1971     19.0440    104.7873
  1332.4000      8.0374      2.4669      0.0095     11.0954     19.1366    103.5547
  1332.5000      8.0380      2.4633     -0.0027     11.3124     18.8134    103.1082
  1332.6000      8.0380      2.4560     -0.0073     11.7578     18.3790    102.9535
  1332.7000      8.0380      2.4477     -0.0235     12.2612     18.0979    100.2155
  1332.8000      8.0374      2.4490      0.0041     12.1807     17.7573     98.2828
  1332.9000      8.0374      2.4668     -0.0222     11.1032     17.3212     98.6708
  1333.0000      8.0371      2.5005      0.0256      9.0610     17.0571     95.4464
  1333.1000      8.0371      2.5335      0.0437      7.0632     16.7565     90.3286
  1333.2000      8.0371      2.5446      0.0772      6.3878     16.2496     89.2325
  1333.3000      8.0380      2.5330      0.0034      7.0906     15.8587     90.4241
  1333.4000      8.0380      2.5162      0.0210      8.1121     15.7747     89.6045
  1333.5000      8.0378      2.5047      0.0148      8.8082     15.7941     85.1486
  1333.6000      8.0378      2.4978      0.0783      9.2237     15.7742     80.0260
  1333.7000      8.0378      2.4920      0.0442      9.5760     15.8970     77.1714
  1333.8000      8.0376      2.4897      0.0189      9.7148     16.1315     74.7353
  1333.9000      8.0376      2.4907      0.0499      9.6530     16.1352     70.8795
  1334.0000      8.0363      2.4904      0.0073      9.6709     15.8991     66.7772
  1334.1000      8.0363      2.4926      0.0064      9.5400     15.6794     64.4657
  1334.2000      8.0363      2.4958      0.0399      9.3465     15.5944     64.9502
  1334.3000      8.0341      2.4966      0.0103      9.2955     15.5257     67.5269
  1334.4000      8.0341      2.5059     -0.0109      8.7333     15.3957     69.7432
  1334.5000      8.0337      2.5257      0.0483      7.5355     15.5523     69.9923
  1334.6000      8.0337      2.5388      0.0489      6.7397     16.0433     70.5968
  1334.7000      8.0337      2.5404      0.0316      6.6427     16.3057     72.9331
  1334.8000      8.0365      2.5425      0.0326      6.5156     16.0628     73.2725
  1334.9000      8.0365      2.5450      0.0676      6.3665     15.6050     71.9344
  1335.0000      8.0406      2.5393      0.0541      6.7098     15.1857     74.9103
  1335.1000      8.0406      2.5360     -0.0122      6.9092     14.9179     80.9372
  1335.2000      8.0406      2.5487      0.0233      6.1396     15.0511     82.0293
  1335.3000      8.0421      2.5682      0.0340      4.9574     15.6296     78.5265
  1335.4000      8.0421      2.5739      0.0599      4.6144     16.4267     78.2731
  1335.5000      8.0410      2.5539      0.0363      5.8244     17.3410     81.6634
  1335.6000      8.0410      2.5217      0.0021      7.7731     18.1192     83.3299
  1335.7000      8.0410      2.5044     -0.0404      8.8271     18.4494     84.0205
  1335.8000      8.0394      2.5074      0.0019      8.6447     18.4507     86.2270
  1335.9000      8.0394      2.5160     -0.0074      8.1225     18.3373     86.9275
  1336.0000      8.0403      2.5306     -0.0471      7.2372     18.2681     86.4735
  1336.1000      8.0403      2.5541      0.0370      5.8143     18.6695     89.7442
  1336.2000      8.0403      2.5674      0.0356      5.0070     19.5643     96.4999
  1336.3000      8.0411      2.5606      0.0367      5.4206     20.3057    102.9637
