~Version Information
VERS.                      2.0: CWLS Log ASCII Standard - VERSION 2.0
WRAP.                       NO: One line per depth step
~Well Information Block
STRT.FT               770.0000: 
STOP.FT              1718.7000: 
STEP.FT                 0.1000: 
NULL.                -999.2500: 
COMP.          Pioneer Natural Resources: COMPANY
WELL.            Salty 42-6 Tr: WELL
FLD.           Purgatoire River: FIELD
LOC.           2409' FNL & 599' FEL: LOCATION
PROV.                 Colorado: PROVINCE
CNTY.               Las Animas: COUNTRY
SRVC.                Patterson: SERVICE COMPANY
DATE.          Thu Dec 16 09:30:36 2004: LOG DATE
UWI.           05 071 08238 00: UNIQUE WELL ID
~Curve Information Block
DEPT.FT            0 000 00 00: Depth
DCAL.in                       : CDL Caliper
RHOB.g/cc                     : CDL Bulk Density
RHOC.g/cc                     : CDL Density Correction
DPOR.pu                       : CDL Density Porosity
NPOR.pu                       : Neutron Porosity
GR.GAPI                       : Gamma Ray
~Parameter Information Block
~A  Depth       DCAL        RHOB        RHOC        DPOR        NPOR         GR     
# ...
  1634.0000      7.8312      2.5708      0.0754      4.7982     14.8776     75.7656
  1634.1000      7.8312      2.5762      0.0797      4.4741     15.0503     78.2023
  1634.2000      7.8312      2.5684      0.0439      4.9483     14.9234     81.4174
  1634.3000      7.8324      2.5520      0.0748      5.9386     14.5864     82.7054
  1634.4000      7.8324      2.5299      0.0444      7.2762     14.6917     80.9953
  1634.5000      7.8318      2.5068      0.0072      8.6801     15.2474     78.9636
  1634.6000      7.8318      2.4905      0.0137      9.6693     15.7150     80.7893
  1634.7000      7.8318      2.4868      0.0324      9.8913     15.8085     85.5181
  1634.8000      7.8300      2.4979      0.0866      9.2192     15.5592     87.6297
  1634.9000      7.8300      2.5197      0.0854      7.8946     15.1803     86.9554
  1635.0000      7.8301      2.5451      0.0657      6.3601     14.9046     87.1382
  1635.1000      7.8301      2.5646      0.0743      5.1753     14.6938     90.3045
  1635.2000      7.8301      2.5713      0.0366      4.7668     14.4255     96.9473
  1635.3000      7.8318      2.5639      0.0899      5.2183     14.3415    104.5978
  1635.4000      7.8318      2.5442      0.0266      6.4115     14.6405    107.6851
  1635.5000      7.8338      2.5259     -0.0048      7.5224     15.0549    104.7405
  1635.6000      7.8338      2.5177      0.0198      8.0205     15.2548    100.5358
  1635.7000      7.8338      2.5097      0.0299      8.5057     15.2504     97.7016
  1635.8000      7.8349      2.4971     -0.0241      9.2647     14.9887     93.9387
  1635.9000      7.8349      2.4910     -0.0232      9.6355     14.2827     89.5191
  1636.0000      7.8328      2.4983      0.0292      9.1922     13.5905     87.2360
  1636.1000      7.8328      2.5156      0.0232      8.1429     13.6015     87.8360
  1636.2000      7.8328      2.5326      0.0237      7.1171     14.1263     89.6334
  1636.3000      7.8290      2.5348      0.0506      6.9831     14.3758     89.5945
  1636.4000      7.8290      2.5227     -0.0125      7.7123     14.2444     87.4187
  1636.5000      7.8277      2.5126     -0.0011      8.3250     14.1815     85.0622
  1636.6000      7.8277      2.5143      0.0010      8.2267     14.3841     83.0948
  1636.7000      7.8277      2.5288     -0.0085      7.3480     14.6675     82.2317
  1636.8000      7.8271      2.5418      0.0447      6.5559     14.8782     82.0429
  1636.9000      7.8271      2.5387      0.0206      6.7455     15.0215     82.0992
  1637.0000      7.8267      2.5308      0.0045      7.2269     15.0828     83.9628
  1637.1000      7.8267      2.5282      0.0465      7.3811     15.1178     84.1606
  1637.2000      7.8267      2.5279      0.0288      7.3986     15.2399     78.1852
  1637.3000      7.8282      2.5290      0.0513      7.3344     15.5294     70.5635
  1637.4000      7.8282      2.5277      0.0470      7.4114     15.7369     68.5165
  1637.5000      7.8286      2.5206      0.0116      7.8442     15.5555     72.5048
  1637.6000      7.8286      2.5137      0.0053      8.2607     15.2676     77.6055
  1637.7000      7.8286      2.5140      0.0280      8.2397     15.3671     78.6570
  1637.8000      7.8223      2.5213      0.0279      7.7977     15.9101     76.8068
  1637.9000      7.8223      2.5296      0.0425      7.2981     16.5111     77.5039
  1638.0000      7.8165      2.5341      0.0457      7.0259     16.7214     82.0833
  1638.1000      7.8165      2.5379      0.0536      6.7955     16.3480     87.1651
  1638.2000      7.8165      2.5457      0.0502      6.3237     15.7239     89.0158
  1638.3000      7.8224      2.5546      0.0459      5.7800     15.4314     87.0700
  1638.4000      7.8224      2.5628      0.0392      5.2859     15.6586     82.8799
  1638.5000      7.8272      2.5690      0.0769      4.9120     16.1590     81.1410
  1638.6000      7.8272      2.5636      0.0439      5.2363     16.6610     85.1622
  1638.7000      7.8272      2.5458      0.0450      6.3141     16.9204     87.0261
  1638.8000      7.8249      2.5278      0.0487      7.4037     16.6887     79.6291
  1638.9000      7.8249      2.5200      0.0125      7.8774     16.2067     71.2487
  1639.0000      7.8217      2.5248      0.0380      7.5884     16.0121     69.9440
  1639.1000      7.8217      2.5400     -0.0050      6.6666     16.1449     71.7425
  1639.2000      7.8217      2.5556      0.0652      5.7241     16.5317     71.6299
  1639.3000      7.8203      2.5567      0.0243      5.6546     17.2565     72.6440
  1639.4000      7.8203      2.5444      0.0670      6.4019     18.0578     77.3226
  1639.5000      7.8205      2.5311     -0.0048      7.2070     18.6576     80.5438
  1639.6000      7.8205      2.5309      0.0370      7.2194     19.1026     80.8538
  1639.7000      7.8205      2.5449      0.0452      6.3680     19.5872     83.4612
  1639.8000      7.8239      2.5566      0.0488      5.6631     20.3391     87.4913
  1639.9000      7.8239      2.5516      0.0289      5.9628     21.3501     89.2179
  1640.0000      7.8295      2.5310      0.0158      7.2131     22.4477     89.4688
  1640.1000      7.8295      2.5062     -0.0285      8.7129     23.6523     90.7936
  1640.2000      7.8295      2.4915      0.0047      9.6044     25.0651     96.3110
  1640.3000      7.8377      2.4918     -0.0179      9.5856     26.6099    103.9500
  1640.4000      7.8377      2.5032     -0.0345      8.8993     28.0008    111.6611
  1640.5000      7.8432      2.5133      0.0227      8.2841     28.9018    122.4406
  1640.6000      7.8432      2.5105     -0.0004      8.4528     29.2825    134.7159
  1640.7000      7.8432      2.4972     -0.0002      9.2602     29.4238    142.3655
  1640.8000      7.8370      2.4832     -0.0033     10.1104     29.4823    141.7457
  1640.9000      7.8370      2.4804      0.0164     10.2801     29.2085    135.5052
  1641.0000      7.8303      2.4924      0.0764      9.5502     28.4441    129.5171
  1641.1000      7.8303      2.5137      0.0398      8.2603     27.5896    124.5789
  1641.2000      7.8303      2.5398      0.0805      6.6760     27.0484    118.3563
  1641.3000      7.8301      2.5550      0.0680      5.7601     26.7560    115.9434
  1641.4000      7.8301      2.5425      0.0744      6.5126     26.5324    121.7964
  1641.5000      7.8325      2.5132      0.0407      8.2933     26.1009    128.1429
  1641.6000      7.8325      2.4965      0.0305      9.3001     25.3058    129.8230
  1641.7000      7.8325      2.5038      0.0419      8.8588     24.5288    130.5067
  1641.8000      7.8333      2.5230      0.0120      7.6994     23.9469    127.9117
  1641.9000      7.8333      2.5412      0.0714      6.5957     23.4670    120.9605
  1642.0000      7.8324      2.5483      0.0518      6.1614     23.2004    114.4264
  1642.1000      7.8324      2.5419      0.0557      6.5507     23.0930    110.2833
  1642.2000      7.8324      2.5297      0.0280      7.2900     22.8577    111.6899
  1642.3000      7.8313      2.5181      0.0489      7.9920     22.4974    117.6852
  1642.4000      7.8313      2.5102      0.0607      8.4751     22.4542    118.9233
  1642.5000      7.8308      2.5113      0.0222      8.4040     22.7968    113.2083
  1642.6000      7.8308      2.5187      0.0707      7.9597     23.0784    105.2519
  1642.7000      7.8308      2.5170      0.0691      8.0624     23.1290    100.7594
  1642.8000      7.8308      2.5038     -0.0008      8.8626     23.1572    105.0412
  1642.9000      7.8308      2.4980      0.0040      9.2142     23.2615    113.0580
  1643.0000      7.8307      2.5108      0.0673      8.4336     23.3133    114.9548
  1643.1000      7.8307      2.5304      0.0580      7.2471     23.3731    111.8145
  1643.2000      7.8307      2.5442      0.0508      6.4141     23.6031    109.9795
  1643.3000      7.8294      2.5462      0.0542      6.2932     23.8409    111.7062
  1643.4000      7.8294      2.5259      0.0706      7.5236     23.9336    114.3071
  1643.5000      7.8292      2.4910      0.0152      9.6364     23.8409    112.3107
