~Version Information
VERS.                      2.0: CWLS Log ASCII Standard - VERSION 2.0
WRAP.                       NO: One line per depth step
~Well Information Block
STRT.FT                 0.0000: 
STOP.FT              2006.5000: 
STEP.FT                 0.2500: 
NULL.                -999.2500: 
COMP.          Petrogulf Corporation: COMPANY
WELL.           Lavedure 7-44R: WELL
FLD.           Purgatorie River: FIELD
LOC.           946' FSL & 521' FEL: LOCATION
STAT.                 Colorado: State
CNTY.               Las Animas: COUNTY
CTRY. USA : Country
SECT. 7 : Section
TOWN. 33S : Township
RANG. 67W : Range
SRVC.                Patterson: SERVICE COMPANY
DATE.          Thu Nov 10 15:49:38 2005: LOG DATE
API. 05-071-08090       : UNIQUE WELL ID
~Curve Information Block
DEPT.FT            0 000 00 00: Depth
CCL.                          : Casing Collar Locator
TT3.usec                      : CBL 3' Travel Time
AMP3.mV                       : CBL 3' Amplitude
GR.GAPI                       : Gamma Ray
~Parameter Information Block
~A  Depth       CCL         TT3         AMP3         GR     
# ...
   670.0000      0.0000    328.7636      8.2963     80.9638
   670.2500      0.0000    328.7037      8.2889     82.0468
   670.5000      0.0000    328.6545      8.3267     83.1030
   670.7500      0.0000    328.6018      8.3952     83.6305
   671.0000      0.0000    328.5272      8.4531     83.0346
   671.2500      0.0000    328.4236      8.4938     81.0492
   671.5000      0.0000    328.3014      8.5343     78.1221
   671.7500      0.0000    328.1731      8.5866     75.4032
   672.0000      0.0000    328.0331      8.6546     74.0377
   672.2500      0.0000    327.8666      8.7180     74.3561
   672.5000      0.0000    327.6770      8.7554     75.9005
   672.7500      0.0000    327.4866      8.7650     78.0630
   673.0000      0.0000    327.3196      8.7574     80.3353
   673.2500      0.0000    327.1862      8.7494     82.1015
   673.5000      0.0000    327.0857      8.7361     82.7761
   673.7500      0.0000    327.0210      8.7043     82.3817
   674.0000      0.0000    326.9908      8.6631     81.7629
   674.2500      0.0000    326.9906      8.6089     82.0307
   674.5000      0.0000    327.0470      8.5229     83.6788
   674.7500      0.0000    327.2098      8.3989     86.2330
   675.0000      0.0000    327.5020      8.2267     88.8760
   675.2500      0.0000    327.9344      8.0075     91.3289
   675.5000      0.0000    328.7171      7.7677     93.8296
   675.7500      0.0000    330.7387      7.5189     96.3224
   676.0000      0.0000    335.7192      7.2664     98.0500
   676.2500      0.0000    344.6487      7.0283     97.9982
   676.5000      0.0000    355.4676      6.8053     95.6691
   676.7500      0.0000    364.2503      6.6019     91.6493
   677.0000      0.0000    369.6015      6.4434     87.5543
   677.2500      0.0000    375.0499      6.3290     84.9745
   677.5000      0.0000    388.8952      6.2438     84.2279
   677.7500      0.0000    420.7941      6.1822     84.4144
   678.0000      0.0000    471.4021      6.1202     84.8007
   678.2500      0.0000    525.3723      6.0438     85.6881
   678.5000      0.0000    563.6622      5.9709     87.6507
   678.7500      0.0000    580.6321      5.9010     90.3556
   679.0000      0.0000    580.6276      5.8278     92.5843
   679.2500      0.0000    564.1649      5.7737     93.3030
   679.5000      0.0000    528.1327      5.7500     92.5158
   679.7500      0.0000    478.6177      5.7440     91.2632
   680.0000      0.0000    432.7730      5.7470     91.0256
   680.2500      0.0000    403.1883      5.7539     92.9091
   680.5000      0.0000    388.1552      5.7661     96.9792
   680.7500      0.0000    379.6488      5.8000    102.1894
   681.0000      0.0000    373.3713      5.8660    106.9646
   681.2500      0.0000    368.2093      5.9529    109.8920
   681.5000      0.0000    362.1406      6.0441    110.0628
   681.7500      0.0000    353.2353      6.1168    107.1801
   682.0000      0.0000    342.8674      6.1278    101.8013
   682.2500      0.0000    334.7007      6.0694     95.4250
   682.5000      0.0000    330.4632      5.9965     89.9002
   682.7500      0.0000    328.9974      5.9513     86.4546
   683.0000      0.0000    328.6445      5.9395     85.2327
   683.2500      0.0000    328.6355      5.9616     85.5600
   683.5000      0.0000    329.0123      5.9808     86.5587
   683.7500      0.0000    330.6057      5.9291     87.7786
   684.0000      0.0000    335.0817      5.8028     89.3090
   684.2500      0.0000    343.4874      5.6683     91.1986
   684.5000      0.0000    353.8128      5.5603     93.1331
   684.7500      0.0000    361.9788      5.4695     94.9209
   685.0000      0.0000    365.9787      5.3993     96.7431
   685.2500      0.0000    366.8952      5.3423     98.6056
   685.5000      0.0000    366.5256      5.2674    100.1610
   685.7500      0.0000    365.9167      5.1798    101.4490
   686.0000      0.0000    365.4536      5.1129    103.2306
   686.2500      0.0000    365.2564      5.0468    106.1195
   686.5000      0.0000    365.4038      4.9359    109.7408
   686.7500      0.0000    365.8847      4.8110    113.1395
   687.0000      0.0000    366.4558      4.7236    115.8161
   687.2500      0.0000    366.7859      4.6462    118.0219
   687.5000      0.0000    366.8179      4.5577    120.1733
   687.7500      0.0000    366.8341      4.5062    122.2136
   688.0000      0.0000    367.2176      4.5017    123.5013
   688.2500      0.0000    368.4206      4.4993    123.1640
   688.5000      0.0000    371.2964      4.5069    120.6614
   688.7500      0.0000    377.3185      4.5693    116.1427
   689.0000      0.0000    387.9484      4.6814    110.2044
   689.2500      0.0000    404.3908      4.8008    103.3966
   689.5000      0.0000    429.9941      4.8951     96.2360
   689.7500      0.0000    468.7887      4.9592     89.6013
   690.0000      0.0000    515.0128      4.9928     84.6311
   690.2500      0.0000    551.4937      4.9724     81.9888
   690.5000      0.0000    566.3743      4.8756     81.3554
   690.7500      0.0000    563.4114      4.7141     81.8066
   691.0000      0.0000    551.8698      4.5186     82.7317
   691.2500      0.0000    535.6290      4.2985     84.1827
   691.5000      0.0000    519.7192      4.0345     86.1558
   691.7500      0.0000    518.1553      3.7334     87.9555
   692.0000      0.0000    537.8669      3.4568     88.8167
   692.2500      0.0000    564.8599      3.2531     88.7716
   692.5000      0.0000    582.9963      3.1243     88.3059
   692.7500      0.0000    590.7546      3.0950     87.3887
   693.0000      0.0000    593.4974      3.2063     85.4359
   693.2500      0.0000    594.4817      3.4147     82.3377
   693.5000      0.0000    594.7411      3.6241     79.2057
   693.7500      0.0000    594.6712      3.8139     77.7831
   694.0000      0.0000    594.5142      4.0251     79.0020
   694.2500      0.0000    594.4369      4.2458     82.1626
   694.5000      0.0000    594.5165      4.4105     85.5297
   694.7500      0.0000    594.9472      4.5059     87.6394
   695.0000      0.0000    596.7031      4.5967     88.2023
   695.2500      0.0000    601.8127      4.7476     88.1920
   695.5000      0.0000    611.0634      4.9915     88.9555
   695.7500      0.0000    620.9011      5.3233     90.8337
   696.0000      0.0000    626.8479      5.5969     92.7641
   696.2500      0.0000    629.7902      5.5606     93.4498
   696.5000      0.0000    633.2145      5.2098     92.6724
   696.7500      0.0000    638.3522      4.8920     91.2303
   697.0000      0.0000    646.2692      4.8604     89.9134
   697.2500      0.0000    658.8023      5.0005     88.9333
   697.5000     -2.0000    674.8817      5.0729     88.1202
   697.7500      2.0000    686.6468      4.9916     87.1501
   698.0000      0.0000    683.9053      4.8320     85.7005
   698.2500      0.0000    667.7030      4.7083     83.8817
   698.5000      0.0000    651.1969      4.7069     82.4754
   698.7500      0.0000    640.9496      4.8192     82.3088
   699.0000      0.0000    627.6149      4.8862     83.3907
   699.2500      0.0000    597.9251      4.8439     84.9465
   699.5000      0.0000    549.7268      4.8874     86.0771
   699.7500      0.0000    496.7168      5.0670     86.1365
   700.0000      0.0000    458.3874      5.1157     84.8195
   700.2500      0.0000    443.0738      4.8948     82.3117
   700.5000      0.0000    442.9844      4.6025     79.2743
   700.7500      0.0000    445.8122      4.4877     76.4678
   701.0000      0.0000    445.7458      4.5863     74.4197
   701.2500      0.0000    441.4971      4.7544     73.3704
   701.5000      0.0000    433.7459      4.8691     73.3807
   701.7500      0.0000    428.3435      4.9137     74.4033
   702.0000      0.0000    432.8461      4.9124     76.1401
   702.2500      0.0000    447.3820      4.8935     77.7742
   702.5000      0.0000    462.1213      4.8745     78.2247
   702.7500      0.0000    467.5794      4.8560     77.1752
   703.0000      0.0000    464.9926      4.8630     75.8832
   703.2500      0.0000    460.2426      4.9402     76.4376
