~Version Information
VERS.                      2.0: CWLS Log ASCII Standard - VERSION 2.0
WRAP.                       NO: One line per depth step
~Well Information Block
STRT.FT               647.0000: 
STOP.FT              1167.5000: 
STEP.FT                 0.2500: 
NULL.                -999.2500: 
COMP.          Pioneer Natural Resources: COMPANY
WELL.             Linda T 32-3: WELL
FLD.           Purgatoire River: FIELD
LOC.           1350' FNL & 2290' FEL: LOCATION
PROV.                 Colorado: PROVINCE
CNTY.               Las Animas: COUNTRY
SRVC.                Patterson: SERVICE COMPANY
DATE.          Sat Feb 05 06:41:02 2005: LOG DATE
UWI.           05 071 08215 00: UNIQUE WELL ID
~Curve Information Block
DEPT.FT            0 000 00 00: Depth
SN.Ohm-m                      : IEL Short Normal
SP.mV                         : IEL Spontaneous Potential
DIR.Ohm-m                     : IEL Induction Resistivity
GR.GAPI                       : Gamma Ray
~Parameter Information Block
~A  Depth        SN          SP         DIR          GR     
# ...
   948.5000     24.2905     69.8617     21.0926     69.4428
   948.7500     24.6008     69.7443     21.4998     66.2159
   949.0000     24.6596     69.5513     21.8312     62.9009
   949.2500     24.5137     69.3016     22.0859     61.3852
   949.5000     24.2387     69.0345     22.2642     59.7025
   949.7500     23.8904     68.7932     22.3653     59.0976
   950.0000     23.5057     68.6096     22.3796     59.3773
   950.2500     23.1170     68.4942     22.2848     60.3135
   950.5000     22.7392     68.4351     22.0582     62.1148
   950.7500     22.3586     68.4050     21.7025     63.0077
   951.0000     21.9528     68.3722     21.2593     63.2686
   951.2500     21.5310     68.3107     20.7918     62.7104
   951.5000     21.1545     68.2099     20.3505     61.1070
   951.7500     20.8831     68.0788     19.9541     59.8020
   952.0000     20.7114     67.9385     19.5972     58.1385
   952.2500     20.5936     67.8065     19.2715     57.6278
   952.5000     20.4904     67.6863     18.9780     57.9337
   952.7500     20.3798     67.5687     18.7206     58.4679
   953.0000     20.2552     67.4383     18.4929     58.8369
   953.2500     20.1274     67.2779     18.2734     58.6669
   953.5000     20.0152     67.0716     18.0354     58.6295
   953.7500     19.9185     66.8083     17.7635     59.4275
   954.0000     19.8062     66.4879     17.4609     62.2913
   954.2500     19.6476     66.1234     17.1461     64.9944
   954.5000     19.4395     65.7331     16.8449     69.2878
   954.7500     19.1930     65.3307     16.5820     71.8873
   955.0000     18.9135     64.9242     16.3736     75.0924
   955.2500     18.6099     64.5218     16.2210     76.7211
   955.5000     18.3125     64.1350     16.1079     78.4057
   955.7500     18.0545     63.7748     16.0067     79.0752
   956.0000     17.8437     63.4473     15.8923     79.4551
   956.2500     17.6653     63.1528     15.7569     79.2673
   956.5000     17.5072     62.8843     15.6148     78.4594
   956.7500     17.3846     62.6224     15.4969     77.8901
   957.0000     17.3476     62.3291     15.4361     77.6802
   957.2500     17.4273     61.9607     15.4541     78.1619
   957.5000     17.5783     61.4976     15.5534     79.5512
   957.7500     17.7246     60.9646     15.7172     80.5357
   958.0000     17.8337     60.4185     15.9193     81.4866
   958.2500     17.9207     59.9113     16.1418     81.6482
   958.5000     18.0158     59.4587     16.3865     81.4001
   958.7500     18.1431     59.0341     16.6720     81.0977
   959.0000     18.3131     58.5903     17.0164     80.5235
   959.2500     18.5230     58.0910     17.4209     79.9957
   959.5000     18.7682     57.5301     17.8691     79.0838
   959.7500     19.0581     56.9302     18.3433     78.7106
   960.0000     19.4138     56.3267     18.8412     79.1952
   960.2500     19.8596     55.7551     19.3787     80.3931
   960.5000     20.4177     55.2470     19.9739     83.0415
   960.7500     21.0896     54.8311     20.6264     84.7855
   961.0000     21.8482     54.5306     21.3116     86.5598
   961.2500     22.6557     54.3568     21.9931     87.0606
   961.5000     23.4818     54.3029     22.6429     86.7573
   961.7500     24.2942     54.3411     23.2440     85.6591
   962.0000     25.0357     54.4263     23.7748     82.4545
   962.2500     25.6411     54.5105     24.1925     79.6306
   962.5000     26.0822     54.5610     24.4418     75.6547
   962.7500     26.3738     54.5715     24.4877     73.8321
   963.0000     26.5260     54.5575     24.3430     72.6702
   963.2500     26.5145     54.5382     24.0627     72.7309
   963.5000     26.3039     54.5183     23.7095     73.4389
   963.7500     25.8779     54.4835     23.3230     74.0019
   964.0000     25.2543     54.4106     22.9159     74.8515
   964.2500     24.4848     54.2817     22.4873     75.6154
   964.5000     23.6370     54.0888     22.0355     77.4301
   964.7500     22.7749     53.8299     21.5635     79.0128
   965.0000     21.9474     53.5078     21.0798     81.2596
   965.2500     21.1960     53.1332     20.5992     82.2121
   965.5000     20.5599     52.7269     20.1402     82.4040
   965.7500     20.0548     52.3160     19.7182     81.6969
   966.0000     19.6566     51.9253     19.3406     79.5743
   966.2500     19.3243     51.5688     19.0064     77.6987
   966.5000     19.0268     51.2471     18.7121     75.0466
   966.7500     18.7492     50.9586     18.4525     74.0802
   967.0000     18.4935     50.7148     18.2163     74.7096
   967.2500     18.2736     50.5390     17.9837     76.4520
   967.5000     18.0934     50.4432     17.7343     79.9650
   967.7500     17.9394     50.4102     17.4621     82.2048
   968.0000     17.7897     50.3982     17.1840     84.9744
   968.2500     17.6163     50.3618     16.9314     86.5728
   968.5000     17.4062     50.2733     16.7317     88.8182
   968.7500     17.1888     50.1348     16.5934     90.1305
   969.0000     17.0109     49.9758     16.5077     91.5884
   969.2500     16.8865     49.8324     16.4587     92.2519
   969.5000     16.7985     49.7240     16.4359     93.0784
   969.7500     16.7386     49.6422     16.4382     93.5059
   970.0000     16.7139     49.5555     16.4699     93.2863
   970.2500     16.7180     49.4237     16.5349     92.1456
   970.5000     16.7379     49.2149     16.6337     89.1498
   970.7500     16.7894     48.9198     16.7646     86.8580
   971.0000     16.9054     48.5582     16.9255     83.5580
   971.2500     17.0939     48.1705     17.1147     81.3171
   971.5000     17.3410     47.7984     17.3303     77.6000
   971.7500     17.6362     47.4643     17.5707     75.0504
   972.0000     17.9830     47.1667     17.8374     71.6415
   972.2500     18.3913     46.8921     18.1378     69.7130
   972.5000     18.8615     46.6334     18.4813     67.0685
   972.7500     19.3820     46.3981     18.8682     65.4289
   973.0000     19.9279     46.2055     19.2788     63.5196
   973.2500     20.4627     46.0738     19.6735     62.8452
   973.5000     20.9612     46.0048     20.0098     62.7033
   973.7500     21.4164     45.9792     20.2669     62.9430
   974.0000     21.8187     45.9649     20.4587     63.3931
   974.2500     22.1462     45.9304     20.6229     63.7131
   974.5000     22.3785     45.8538     20.7963     64.4979
   974.7500     22.5103     45.7279     20.9987     65.3876
   975.0000     22.5473     45.5670     21.2343     67.2758
   975.2500     22.4991     45.4092     21.5031     68.7643
   975.5000     22.3875     45.3032     21.8060     70.9195
   975.7500     22.2540     45.2806     22.1399     71.9255
   976.0000     22.1516     45.3365     22.4880     72.2375
   976.2500     22.1350     45.4361     22.8143     71.7247
   976.5000     22.2458     45.5395     23.0681     70.6285
   976.7500     22.4880     45.6242     23.1994     69.9715
   977.0000     22.8134     45.6943     23.1797     68.7057
   977.2500     23.1421     45.7728     23.0155     67.1841
   977.5000     23.4103     45.8826     22.7435     63.5642
   977.7500     23.6103     46.0311     22.4155     60.6528
   978.0000     23.7665     46.2104     22.0863     57.0104
   978.2500     23.8813     46.4097     21.8078     56.0444
   978.5000     23.9307     46.6258     21.6205     57.8737
   978.7500     23.8931     46.8615     21.5404     61.2288
   979.0000     23.7468     47.1179     21.5492     68.2386
   979.2500     23.4598     47.3859     21.6036     73.2399
   979.5000     23.0313     47.6456     21.6629     79.9602
   979.7500     22.5282     47.8755     21.7165     83.6574
   980.0000     22.0383     48.0634     21.7882     88.2803
   980.2500     21.6097     48.2095     21.9154     91.0681
   980.5000     21.2737     48.3205     22.1179     95.1696
   980.7500     21.0877     48.3986     22.3804     97.6781
   981.0000     21.0958     48.4362     22.6569     99.9717
   981.2500     21.2817     48.4206     22.8931     99.8052
   981.5000     21.5855     48.3475     23.0517     97.2106
   981.7500     21.9368     48.2308     23.1252     95.1335
