~Version Information
 VERS.                                  2.0 : CWLS LAS VERSION
 WRAP.                                   NO : WRAPING MODE
 SWARE .                 MController 2.5.0J : SOFTWARE VERSION
~Well Information
 WELL.                                  N/A : WELL
 COMP.                                  N/A : COMPANY
 FLD.                                   N/A : FIELD
 LOC.                                   N/A : LOCATION
 DATE.                                  N/A : DATE(S) LOGGED
 SRVC.                                  N/A : SERVICE COMPANY
 STAT.                                  N/A : STATE
 CNTY.                                  N/A : COUNTY
 CTRY.                                  N/A : COUNTRY
 API.                                   N/A : API NUMBER
 STRT.FT                             986.00 : START DEPTH
 STOP.FT                            2126.00 : STOP DEPTH
 STEP.FT                               1.00 : DEPTH INCREMENT
 NULL.                                -9999 : NULL VALUE
~Curve information
 DEPTH.FT                                   :
 ROP.MIN/FT                                 :
 GAS.UNITS                                  :
~ASCII Log data
# ...
      1386.0         0.40         24.2 
      1387.0         0.40         24.0 
      1388.0         0.33         23.9 
      1389.0         0.22         23.9 
      1390.0         0.30         24.0 
      1391.0         0.30         23.5 
      1392.0         0.37         23.9 
      1393.0         0.47         24.0 
      1394.0         0.17         24.1 
      1395.0         0.20         23.8 
      1396.0         0.20         24.5 
      1397.0         0.23         25.4 
      1398.0         0.20         25.9 
      1399.0         0.17         26.2 
      1400.0         0.13         26.3 
      1401.0         0.27         27.2 
      1402.0         0.28         27.0 
      1403.0         0.33         26.0 
      1404.0         0.33         25.4 
      1405.0         0.27         24.7 
      1406.0         2.68        145.6 
      1407.0         0.43         44.5 
      1408.0         0.30         37.8 
      1409.0         0.40         48.4 
      1410.0         0.43         48.3 
      1411.0         0.33         38.2 
      1412.0         0.35         30.8 
      1413.0         0.27         29.5 
      1414.0         0.23         28.9 
      1415.0         0.27         28.2 
      1416.0         0.27         27.0 
      1417.0         0.33         26.5 
      1418.0         0.27         25.9 
      1419.0         0.30         25.9 
      1420.0         0.40         25.6 
      1421.0         0.37         25.8 
      1422.0         0.27         26.4 
      1423.0         0.25         26.7 
      1424.0         0.27         26.9 
      1425.0         0.27         27.2 
      1426.0         0.27         27.7 
      1427.0         0.27         26.7 
      1428.0         0.33         26.1 
      1429.0         0.27         25.3 
      1430.0         0.27         25.5 
      1431.0         0.23         26.0 
      1432.0         0.27         25.9 
      1433.0         0.27         25.6 
      1434.0         0.23         31.5 
      1435.0         0.23         47.8 
      1436.0         1.75        183.6 
      1437.0         0.23        156.3 
      1438.0         0.20        130.0 
      1439.0         0.30         98.7 
      1440.0         0.33         61.1 
      1441.0         0.30         39.3 
      1442.0         0.48         55.6 
      1443.0         0.47         64.7 
      1444.0         0.37         62.2 
      1445.0         0.33         51.2 
      1446.0         0.20         37.0 
      1447.0         0.27         31.4 
      1448.0         0.27         27.1 
      1449.0         0.23         25.2 
      1450.0         0.23         24.7 
      1451.0         0.27         25.1 
      1452.0         0.23         25.3 
      1453.0         0.28         26.1 
      1454.0         0.23         26.5 
      1455.0         0.23         26.6 
      1456.0         0.20         26.4 
      1457.0         0.23         26.5 
      1458.0         0.20         26.3 
      1459.0         0.23         26.4 
      1460.0         0.20         25.2 
      1461.0         0.20         25.2 
      1462.0         0.23         24.0 
      1463.0         0.20         24.8 
      1464.0         0.23         25.7 
      1465.0         0.23         25.6 
      1466.0         2.38        208.2 
      1467.0         0.37        123.1 
      1468.0         0.27         73.5 
      1469.0         0.27         50.8 
      1470.0         0.20         39.7 
      1471.0         0.35         36.0 
      1472.0         0.43         32.3 
      1473.0         0.50         30.5 
      1474.0         0.23         28.5 
      1475.0         0.23         28.1 
      1476.0         0.23         27.6 
      1477.0         0.23         27.3 
      1478.0         0.20         27.2 
      1479.0         0.17         27.2 
      1480.0         0.20         27.3 
      1481.0         0.27         27.0 
      1482.0         0.20         27.2 
      1483.0         0.20         27.1 
      1484.0         0.25         31.6 
      1485.0         0.20         33.6 
      1486.0         0.23         34.9 
      1487.0         0.20         35.9 
      1488.0         0.20         36.4 
      1489.0         0.20         36.4 
      1490.0         0.20         35.7 
      1491.0         0.23         35.0 
      1492.0         0.30         34.0 
      1493.0         0.33         32.1 
      1494.0         0.20         30.3 
      1495.0         0.20         41.7 
      1496.0         2.15        251.3 
      1497.0         0.30        116.3 
      1498.0         0.23         75.3 
      1499.0         0.27         57.7 
      1500.0         0.27         51.5 
      1501.0         0.20         49.5 
      1502.0         0.17         47.8 
      1503.0         0.17         49.6 
      1504.0         0.28         51.6 
      1505.0         0.33         51.3 
      1506.0         0.30         48.4 
      1507.0         0.30         46.6 
      1508.0         0.30         41.4 
      1509.0         0.27         37.3 
      1510.0         0.23         34.9 
      1511.0         0.23         33.8 
      1512.0         0.20         32.6 
      1513.0         0.23         32.1 
      1514.0         0.37         32.7 
      1515.0         0.20         35.1 
      1516.0         0.22         36.2 
      1517.0         0.17         36.3 
      1518.0         0.13         35.9 
      1519.0         0.20         36.7 
      1520.0         0.27         38.8 
      1521.0         0.27         39.5 
      1522.0         0.27         37.2 
      1523.0         0.27         33.9 
      1524.0         0.23         30.9 
      1525.0         0.23         34.6 
      1526.0         2.58        237.9 
      1527.0         0.27         72.7 
      1528.0         0.27         52.9 
      1529.0         0.23         42.9 
      1530.0         0.33         38.5 
      1531.0         0.40         41.6 
      1532.0         0.32         40.4 
      1533.0         0.30         36.2 
      1534.0         0.27         32.9 
      1535.0         0.30         31.2 
      1536.0         0.27         29.9 
      1537.0         0.27         29.6 
      1538.0         0.23         29.1 
      1539.0         0.27         29.1 
      1540.0         0.23         29.0 
      1541.0         0.23         28.7 
      1542.0         0.27         28.5 
      1543.0         0.23         28.6 
      1544.0         0.23         28.8 
      1545.0         0.25         29.0 
      1546.0         0.27         29.5 
      1547.0         0.23         30.4 
      1548.0         0.27         32.5 
      1549.0         0.27         36.5 
      1550.0         0.27         37.9 
      1551.0         0.30         41.1 
      1552.0         0.30         40.9 
      1553.0         0.23         35.4 
      1554.0         0.28         31.7 
      1555.0         0.23         35.3 
      1556.0         2.65        217.7 
      1557.0         0.23         45.6 
      1558.0         0.33         39.8 
      1559.0         0.33         35.0 
      1560.0         0.40         33.2 
      1561.0         0.63         32.6 
      1562.0         0.43         30.4 
      1563.0         0.27         28.3 
      1564.0         0.27         28.1 
      1565.0         0.28         28.2 
      1566.0         0.30         28.2 
      1567.0         0.30         28.5 
      1568.0         0.37         28.5 
      1569.0         0.30         28.6 
      1570.0         0.33         28.4 
      1571.0         0.33         28.5 
      1572.0         0.33         28.0 
      1573.0         0.37         27.8 
      1574.0         0.38         27.7 
      1575.0         0.37         27.2 
      1576.0         0.37         26.6 
      1577.0         0.30         26.6 
      1578.0         0.23         26.9 
      1579.0         0.23         26.9 
      1580.0         0.23         27.1 
      1581.0         0.27         27.1 
      1582.0         0.27         26.9 
      1583.0         0.20         26.1 
      1584.0         0.27         25.7 
      1585.0         0.23         25.3 
