~Version Information
VERS.                      2.0: CWLS Log ASCII Standard - VERSION 2.0
WRAP.                       NO: One line per depth step
~Well Information Block
STRT.FT               275.0000: 
STOP.FT              1682.2000: 
STEP.FT                 0.1000: 
NULL.                -999.2500: 
COMP.          Pioneer Natural Resources: COMPANY
WELL.               Elmo 14-21: WELL
FLD.           Purgatoire River: FIELD
LOC.           623' FSL & 450' FWL----: LOCATION
PROV.                 Colorado: PROVINCE
CNTY.               Las Animas: COUNTRY
SRVC.                Patterson: SERVICE COMPANY
DATE.          Wed May 18 08:17:30 2005: LOG DATE
UWI.           05 071 08360 00: UNIQUE WELL ID
~Curve Information Block
DEPT.FT            0 000 00 00: Depth
DCAL.in                       : CDL Caliper
RHOB.g/cc                     : CDL Bulk Density
RHOC.g/cc                     : CDL Density Correction
DPOR.pu                       : CDL Density Porosity
NPOR.pu                       : Neutron Porosity
GR.GAPI                       : Gamma Ray
~Parameter Information Block
~A  Depth       DCAL        RHOB        RHOC        DPOR        NPOR         GR     
# ...
  1100.6000      8.1086      2.5926      0.0530      3.4769     20.4302     56.4738
  1100.7000      8.1086      2.6163      0.0723      2.0440     20.2108     53.4876
  1100.8000      8.1073      2.6331      0.0830      1.0221     19.6303     53.2296
  1100.9000      8.1073      2.6290      0.0919      1.2736     18.9662     54.5021
  1101.0000      8.1069      2.6070      0.0733      2.6063     18.4601     55.3589
  1101.1000      8.1069      2.5841      0.0397      3.9924     18.3371     54.9778
  1101.2000      8.1069      2.5702      0.0614      4.8376     18.7010     54.0960
  1101.3000      8.1069      2.5653      0.0329      5.1341     19.5282     55.6923
  1101.4000      8.1069      2.5626      0.0283      5.2978     20.9109     61.2735
  1101.5000      8.1084      2.5500      0.0450      6.0592     22.7615     68.1431
  1101.6000      8.1084      2.5245      0.0253      7.6066     24.4471     71.0473
  1101.7000      8.1084      2.4895      0.0266      9.7282     25.4575     71.1893
  1101.8000      8.1107      2.4396      0.0209     12.7518     25.9907     74.5728
  1101.9000      8.1107      2.3749     -0.0062     16.6738     26.4296     81.9764
  1102.0000      8.1105      2.3161     -0.0730     20.2345     26.8570     89.5585
  1102.1000      8.1105      2.2864     -0.0686     22.0335     27.3675     93.9368
  1102.2000      8.1105      2.2899     -0.0554     21.8227     27.9288     94.0814
  1102.3000      8.1086      2.3135     -0.0047     20.3961     28.2441     92.6604
  1102.4000      8.1086      2.3415      0.0263     18.6990     28.0560     93.6870
  1102.5000      8.1064      2.3681      0.0704     17.0865     27.3492     94.5820
  1102.6000      8.1064      2.4002      0.0719     15.1377     26.6297     93.3517
  1102.7000      8.1064      2.4474      0.1391     12.2777     26.1316     92.7289
  1102.8000      8.1053      2.5018      0.1746      8.9814     25.6440     91.9968
  1102.9000      8.1053      2.5447      0.1956      6.3832     25.0957     89.4222
  1103.0000      8.1069      2.5706      0.1508      4.8116     24.2843     86.4113
  1103.1000      8.1069      2.5840      0.1169      3.9998     23.2723     83.2905
  1103.2000      8.1069      2.5876      0.0636      3.7802     22.7146     81.7938
  1103.3000      8.1091      2.5874      0.0523      3.7961     22.6565     85.2934
  1103.4000      8.1091      2.5856      0.0530      3.9050     22.6190     93.1249
  1103.5000      8.1111      2.5798      0.0584      4.2517     22.5911     99.3116
  1103.6000      8.1111      2.5757      0.0436      4.5044     22.5956     99.8277
  1103.7000      8.1111      2.5799      0.0134      4.2476     22.8128     96.0788
  1103.8000      8.1125      2.5879      0.0693      3.7651     23.7705     88.8670
  1103.9000      8.1125      2.5887      0.0375      3.7172     25.3328     80.6358
  1104.0000      8.1120      2.5757      0.0436      4.5037     26.4946     75.9769
  1104.1000      8.1120      2.5467      0.0508      6.2606     26.3556     76.2479
  1104.2000      8.1120      2.5138      0.0148      8.2525     25.2877     78.2455
  1104.3000      8.1101      2.4980      0.0278      9.2112     24.1969     79.2811
  1104.4000      8.1101      2.5018      0.0138      8.9831     23.5191     79.4802
  1104.5000      8.1083      2.5094      0.0595      8.5194     23.3597     79.0860
  1104.6000      8.1083      2.5119      0.0386      8.3671     23.6887     78.9222
  1104.7000      8.1083      2.5241      0.0077      7.6314     24.5682     80.0043
  1104.8000      8.1079      2.5590      0.0428      5.5143     25.5883     81.0246
  1104.9000      8.1079      2.5988      0.0729      3.1015     26.0017     80.5648
  1105.0000      8.1079      2.6170      0.1093      2.0025     25.8119     80.7264
  1105.1000      8.1079      2.6089      0.0645      2.4939     25.6582     83.0887
  1105.2000      8.1079      2.5830      0.0681      4.0578     25.9306     84.0638
  1105.3000      8.1081      2.5444      0.0735      6.4029     26.2507     82.7094
  1105.4000      8.1081      2.5087      0.0224      8.5661     26.1262     81.3633
  1105.5000      8.1089      2.4998      0.0286      9.1008     25.6918     80.8550
  1105.6000      8.1089      2.5134      0.0521      8.2776     25.6485     80.6769
  1105.7000      8.1089      2.5262      0.0374      7.5040     25.7979     81.4361
  1105.8000      8.1086      2.5377      0.0417      6.8071     25.3045     84.1433
  1105.9000      8.1086      2.5533      0.0533      5.8596     24.9408     89.4481
  1106.0000      8.1078      2.5549      0.0989      5.7642     25.3724     95.7319
  1106.1000      8.1078      2.5343      0.0631      7.0113     25.8462    100.3344
  1106.2000      8.1078      2.5161      0.0125      8.1137     26.0991    104.3490
  1106.3000      8.1068      2.5155      0.0624      8.1485     26.4456    108.9433
  1106.4000      8.1068      2.5167      0.0946      8.0800     26.5999    113.0052
  1106.5000      8.1063      2.5081      0.0471      8.6004     26.5029    115.1459
  1106.6000      8.1063      2.5011      0.0178      9.0247     26.9178    115.1060
  1106.7000      8.1063      2.5038      0.0105      8.8584     27.8086    112.5337
  1106.8000      8.1078      2.5084      0.0483      8.5813     28.3212    108.4118
  1106.9000      8.1078      2.5021      0.0744      8.9658     28.1545    107.3040
  1107.0000      8.1094      2.4857      0.0147      9.9601     27.5596    109.8599
  1107.1000      8.1094      2.4739      0.0084     10.6707     27.1305    114.4515
  1107.2000      8.1094      2.4695      0.0653     10.9364     27.1183    119.3467
  1107.3000      8.1097      2.4659     -0.0025     11.1589     27.2853    121.8648
  1107.4000      8.1097      2.4643      0.0184     11.2524     27.5765    123.6974
  1107.5000      8.1100      2.4610      0.0321     11.4547     28.1476    125.9332
  1107.6000      8.1100      2.4539      0.0419     11.8832     28.7394    126.4272
  1107.7000      8.1100      2.4577      0.0154     11.6549     28.7780    127.4364
  1107.8000      8.1101      2.4804      0.0594     10.2773     28.2361    129.8236
  1107.9000      8.1101      2.5023      0.1070      8.9519     27.6583    130.8625
  1108.0000      8.1094      2.5027      0.0973      8.9296     27.5267    129.3148
  1108.1000      8.1094      2.4938      0.0409      9.4692     27.9050    125.5597
  1108.2000      8.1094      2.4988      0.0880      9.1616     28.6485    121.8425
  1108.3000      8.1100      2.5115      0.1289      8.3969     29.5763    121.4688
  1108.4000      8.1100      2.5141      0.0916      8.2369     30.0582    123.2757
  1108.5000      8.1118      2.5081      0.0945      8.5999     29.6609    125.9725
  1108.6000      8.1118      2.5066      0.0835      8.6937     28.8239    132.6333
  1108.7000      8.1118      2.5198      0.0690      7.8900     28.2216    139.3127
  1108.8000      8.1124      2.5369      0.1355      6.8565     27.9999    138.9487
  1108.9000      8.1124      2.5383      0.0652      6.7690     27.8819    134.4343
  1109.0000      8.1113      2.5251      0.0785      7.5723     27.6975    129.1570
  1109.1000      8.1113      2.5090      0.0277      8.5469     27.5326    122.8482
  1109.2000      8.1113      2.4992      0.0480      9.1396     27.8153    116.1701
  1109.3000      8.1100      2.4969      0.0533      9.2808     28.5031    111.9678
  1109.4000      8.1100      2.5039      0.0463      8.8564     28.7143    112.7762
  1109.5000      8.1101      2.5173      0.0766      8.0425     28.1670    116.1623
  1109.6000      8.1101      2.5218      0.0809      7.7716     27.4383    117.9143
  1109.7000      8.1101      2.5179      0.0242      8.0088     26.8461    116.6177
  1109.8000      8.1092      2.5189      0.0685      7.9427     26.6196    113.5231
  1109.9000      8.1092      2.5204      0.0430      7.8517     26.9055    113.4855
  1110.0000      8.1065      2.5161      0.0558      8.1121     27.1984    118.1117
  1110.1000      8.1065      2.5189      0.0506      7.9468     27.1302    124.5324
