~Version Information
VERS.                      2.0: CWLS Log ASCII Standard - VERSION 2.0
WRAP.                       NO: One line per depth step
~Well Information Block
STRT.FT               475.0000: 
STOP.FT              2336.7500: 
STEP.FT                 0.2500: 
NULL.                -999.2500: 
COMP.          Pioneer Natural Resources: COMPANY
WELL.              Bobsy 34-11: WELL
FLD.           Purgatoire River: FIELD
LOC.           1937' FEL & 451' FSL----: LOCATION
PROV.                 Colorado: PROVINCE
CNTY.               Las Animas: COUNTRY
SRVC.                Patterson: SERVICE COMPANY
DATE.          Fri Apr 08 05:21:25 2005: LOG DATE
UWI.           05 071 08330 00: UNIQUE WELL ID
~Curve Information Block
DEPT.FT            0 000 00 00: Depth
SN.Ohm-m                      : IEL Short Normal
SP.mV                         : IEL Spontaneous Potential
DIR.Ohm-m                     : IEL Induction Resistivity
GR.GAPI                       : Gamma Ray
~Parameter Information Block
~A  Depth        SN          SP         DIR          GR     
# ...
  1949.0000     17.9951   -154.3703     17.7053    100.2235
  1949.2500     18.6759   -155.0341     18.2145     93.2692
  1949.5000     19.5032   -155.6572     18.8625     82.1669
  1949.7500     20.4814   -156.2055     19.6512     75.1469
  1950.0000     21.5885   -156.6535     20.5610     66.9879
  1950.2500     22.7645   -156.9872     21.5454     63.9638
  1950.5000     23.9153   -157.2053     22.5343     63.1926
  1950.7500     24.9339   -157.3176     23.4456     64.4556
  1951.0000     25.7274   -157.3417     24.2063     67.1867
  1951.2500     26.2389   -157.2991     24.7722     68.7349
  1951.5000     26.4577   -157.2106     25.1336     69.9841
  1951.7500     26.4184   -157.0936     25.3064     70.0119
  1952.0000     26.1899   -156.9603     25.3195     69.1615
  1952.2500     25.8606   -156.8183     25.2057     68.5723
  1952.5000     25.5224   -156.6724     25.0016     68.8406
  1952.7500     25.2509   -156.5262     24.7463     69.9521
  1953.0000     25.0839   -156.3829     24.4776     71.9872
  1953.2500     25.0081   -156.2454     24.2243     72.7447
  1953.5000     24.9731   -156.1141     24.0004     72.1357
  1953.7500     24.9242   -155.9858     23.8020     70.4344
  1954.0000     24.8280   -155.8522     23.6122     66.0191
  1954.2500     24.6745   -155.7007     23.4075     62.1240
  1954.5000     24.4599   -155.5167     23.1670     55.9035
  1954.7500     24.1685   -155.2869     22.8772     52.2430
  1955.0000     23.7685   -155.0010     22.5325     48.4578
  1955.2500     23.2274   -154.6542     22.1312     47.3837
  1955.5000     22.5371   -154.2457     21.6736     48.2245
  1955.7500     21.7277   -153.7785     21.1607     50.5997
  1956.0000     20.8564   -153.2573     20.5967     57.3541
  1956.2500     19.9765   -152.6876     19.9907     64.1095
  1956.5000     19.1137   -152.0754     19.3568     76.6851
  1956.7500     18.2653   -151.4281     18.7127     85.3467
  1957.0000     17.4220   -150.7543     18.0753     96.2999
  1957.2500     16.5884   -150.0641     17.4580    101.6569
  1957.5000     15.7875   -149.3692     16.8699    107.6342
  1957.7500     15.0507   -148.6817     16.3195    111.1893
  1958.0000     14.4068   -148.0147     15.8175    116.7733
  1958.2500     13.8773   -147.3811     15.3754    120.4806
  1958.5000     13.4723   -146.7938     14.9999    125.2090
  1958.7500     13.1886   -146.2645     14.6894    127.6544
  1959.0000     13.0120   -145.8036     14.4370    130.7049
  1959.2500     12.9252   -145.4190     14.2372    132.5070
  1959.5000     12.9139   -145.1156     14.0916    134.6055
  1959.7500     12.9656   -144.8953     14.0070    135.5236
  1960.0000     13.0639   -144.7568     13.9899    136.5855
  1960.2500     13.1852   -144.6958     14.0403    137.0766
  1960.5000     13.3031   -144.7049     14.1495    135.9123
  1960.7500     13.3993   -144.7741     14.3018    132.4487
  1961.0000     13.4740   -144.8919     14.4802    122.2000
  1961.2500     13.5503   -145.0461     14.6743    112.9929
  1961.5000     13.6656   -145.2259     14.8842     98.9048
  1961.7500     13.8550   -145.4225     15.1190     90.7449
  1962.0000     14.1331   -145.6296     15.3885     80.4394
  1962.2500     14.4849   -145.8428     15.6932     74.0570
  1962.5000     14.8690   -146.0585     16.0196     64.4133
  1962.7500     15.2322   -146.2739     16.3445     58.3094
  1963.0000     15.5294   -146.4859     16.6441     50.8765
  1963.2500     15.7407   -146.6931     16.9040     47.3931
  1963.5000     15.8774   -146.8959     17.1210     43.9158
  1963.7500     15.9740   -147.0976     17.3016     42.3920
  1964.0000     16.0727   -147.3044     17.4575     41.2707
  1964.2500     16.2073   -147.5245     17.6025     41.4297
  1964.5000     16.3922   -147.7665     17.7500     42.6258
  1964.7500     16.6192   -148.0384     17.9130     43.4338
  1965.0000     16.8640   -148.3455     18.1021     43.7864
  1965.2500     17.0978   -148.6898     18.3225     43.4688
  1965.5000     17.2984   -149.0686     18.5684     42.9849
  1965.7500     17.4534   -149.4745     18.8218     43.1032
  1966.0000     17.5555   -149.8953     19.0569     43.8346
  1966.2500     17.5969   -150.3156     19.2470     44.2027
  1966.5000     17.5688   -150.7191     19.3673     44.0838
  1966.7500     17.4693   -151.0904     19.3952     43.9129
  1967.0000     17.3131   -151.4185     19.3155     44.9350
  1967.2500     17.1315   -151.6980     19.1306     47.0824
  1967.5000     16.9603   -151.9296     18.8667     51.8463
  1967.7500     16.8231   -152.1205     18.5661     54.5917
  1968.0000     16.7265   -152.2824     18.2722     55.5165
  1968.2500     16.6676   -152.4306     18.0166     53.7360
  1968.5000     16.6433   -152.5817     17.8158     49.3245
  1968.7500     16.6518   -152.7513     17.6751     46.5343
  1969.0000     16.6871   -152.9518     17.5954     43.3867
  1969.2500     16.7385   -153.1902     17.5796     41.6878
  1969.5000     16.7979   -153.4674     17.6337     39.1249
  1969.7500     16.8638   -153.7777     17.7627     37.3560
  1970.0000     16.9404   -154.1103     17.9640     34.8962
  1970.2500     17.0342   -154.4510     18.2251     33.5485
  1970.5000     17.1540   -154.7834     18.5261     32.0773
  1970.7500     17.3086   -155.0908     18.8455     31.5242
  1971.0000     17.5018   -155.3565     19.1630     31.6729
  1971.2500     17.7291   -155.5657     19.4580     32.7041
  1971.5000     17.9776   -155.7074     19.7062     35.7691
  1971.7500     18.2273   -155.7765     19.8812     38.4319
  1972.0000     18.4526   -155.7760     19.9631     42.0935
  1972.2500     18.6283   -155.7167     19.9499     43.6982
  1972.5000     18.7389   -155.6152     19.8611     44.7548
  1972.7500     18.7858   -155.4905     19.7293     45.0391
  1973.0000     18.7846   -155.3586     19.5890     45.8113
  1973.2500     18.7587   -155.2300     19.4687     46.7274
  1973.5000     18.7308   -155.1084     19.3891     47.9198
  1973.7500     18.7146   -154.9920     19.3617     47.8264
  1974.0000     18.7088   -154.8755     19.3876     45.7196
  1974.2500     18.6957   -154.7530     19.4552     43.3769
  1974.5000     18.6491   -154.6192     19.5403     39.8004
  1974.7500     18.5501   -154.4709     19.6099     38.1000
  1975.0000     18.3985   -154.3061     19.6325     37.5893
  1975.2500     18.2142   -154.1248     19.5923     39.2274
  1975.5000     18.0284   -153.9297     19.4964     45.4830
  1975.7500     17.8686   -153.7261     19.3704     52.1101
  1976.0000     17.7458   -153.5230     19.2433     64.3190
  1976.2500     17.6526   -153.3319     19.1341     72.6733
  1976.5000     17.5751   -153.1660     19.0443     83.3905
  1976.7500     17.5070   -153.0385     18.9602     88.5269
  1977.0000     17.4557   -152.9609     18.8641     92.9494
  1977.2500     17.4395   -152.9414     18.7501     94.0381
  1977.5000     17.4840   -152.9839     18.6351     93.6134
  1977.7500     17.6188   -153.0867     18.5577     92.2485
  1978.0000     17.8701   -153.2425     18.5646     88.8942
  1978.2500     18.2466   -153.4377     18.6924     85.9075
  1978.5000     18.7262   -153.6527     18.9528     80.3266
  1978.7500     19.2565   -153.8628     19.3253     75.8126
  1979.0000     19.7687   -154.0393     19.7594     68.0460
  1979.2500     20.1958   -154.1520     20.1840     62.7017
  1979.5000     20.4819   -154.1718     20.5203     55.8419
  1979.7500     20.5795   -154.0746     20.6956     52.8539
  1980.0000     20.4496   -153.8451     20.6566     51.5054
  1980.2500     20.0759   -153.4790     20.3815     52.6448
  1980.5000     19.4829   -152.9844     19.8872     56.9563
  1980.7500     18.7332   -152.3805     19.2259     61.4667
  1981.0000     17.9015   -151.6947     18.4654     71.0111
  1981.2500     17.0455   -150.9591     17.6650     79.3866
  1981.5000     16.1974   -150.2064     16.8615     94.3023
  1981.7500     15.3742   -149.4671     16.0735    104.6993
  1982.0000     14.5930   -148.7679     15.3139    118.6262
  1982.2500     13.8765   -148.1305     14.5999    125.9778
