~Version Information
VERS.                      2.0: CWLS Log ASCII Standard - VERSION 2.0
WRAP.                       NO: One line per depth step
~Well Information Block
STRT.FT               -12.2500: 
STOP.FT              2183.0000: 
STEP.FT                 0.2500: 
NULL.                -999.2500: 
COMP.          Petrogulf Corporation: COMPANY
WELL.            Montoya 6-14R: WELL
FLD.           Purgatorie River: FIELD
LOC.           867' FSL & 751' FWL: LOCATION
CNTY.               Las Animas: COUNTY
SRVC.                         : SERVICE COMPANY
DATE.          Mon Nov 22 13:07:31 2004: LOG DATE
UWI.           05-071-08242-00: UNIQUE WELL ID
STAT.                 Colorado: STATE
~Curve Information Block
DEPT.FT            0 000 00 00: Depth
TT3.usec                      : CBL 3' Travel Time
AMP3.mV                       : CBL 3' Amplitude
GR.GAPI                       : Gamma Ray
CCL.                          : Casing Collar Locator
~Parameter Information Block
~A  Depth       TT3         AMP3         GR         CCL     
# ...
   289.2500    291.3716     69.2138     97.5063      0.0000
   289.5000    290.7922     71.5697     95.9299      0.0000
   289.7500    289.8725     74.5117     95.7493      0.0000
   290.0000    288.6528     77.4735     97.6643      0.0000
   290.2500    287.2837     80.0149    101.8600      0.0000
   290.5000    285.9912     82.0297    106.9489      0.0000
   290.7500    284.9884     83.5662    110.3558      0.0000
   291.0000    284.3796     84.5957    110.0967      0.0000
   291.2500    284.1303     85.0346    106.0939      0.0000
   291.5000    284.1158     84.9276    100.0253      0.0000
   291.7500    284.1987     84.5530     94.3251      0.0000
   292.0000    284.2809     84.3057     90.9880      0.0000
   292.2500    284.3189     84.3996     90.5167      0.0000
   292.5000    284.3127     84.6893     91.8183      0.0000
   292.7500    284.2792     84.8758     93.3355      0.0000
   293.0000    284.2314     84.8690     94.2379      0.0000
   293.2500    284.1808     84.8391     94.6219      0.0000
   293.5000    284.1491     84.9481     95.1721      0.0000
   293.7500    284.1581     85.1517     96.8480      0.0000
   294.0000    284.2016     85.2750    100.3389      0.0000
   294.2500    284.2382     85.2280    105.4634      0.0000
   294.5000    284.2221     85.1370    111.2504      0.0000
   294.7500    284.1451     85.2449    116.6877      0.0000
   295.0000    284.0486     85.6397    121.1827      0.0000
   295.2500    283.9916     86.0932    124.2799      0.0000
   295.5000    284.0027     86.2260    125.5383      0.0000
   295.7500    284.0623     85.8385    125.0822      0.0000
   296.0000    284.1267     85.0551    123.8100      0.0000
   296.2500    284.1602     84.1894    122.6342      0.0000
   296.5000    284.1525     83.5468    121.8115      0.0000
   296.7500    284.1203     83.3065    121.1593      0.0000
   297.0000    284.0945     83.4687    120.5176      0.0000
   297.2500    284.0995     83.8632    119.9150      0.0000
   297.5000    284.1404     84.2475    119.6940      0.0000
   297.7500    284.2018     84.4603    120.5020      0.0000
   298.0000    284.2566     84.5126    122.8173      0.0000
   298.2500    284.2825     84.5256    126.3931      0.0000
   298.5000    284.2762     84.5811    130.2820      0.0000
   298.7500    284.2503     84.6664    133.4247      0.0000
   299.0000    284.2150     84.7439    135.1796      0.0000
   299.2500    284.1671     84.8069    135.3288      0.0000
   299.5000    284.1016     84.8528    133.8179      0.0000
   299.7500    284.0268     84.8643    130.6954      0.0000
   300.0000    283.9637     84.8368    126.2149      0.0000
   300.2500    283.9296     84.8035    120.9564      0.0000
   300.5000    283.9256     84.8246    116.0519      0.0000
   300.7500    283.9400     84.9509    113.1786      0.0000
   301.0000    283.9600     85.1724    113.7694      0.0000
   301.2500    283.9802     85.4055    117.7905      0.0000
   301.5000    283.9998     85.5629    123.4203      0.0000
   301.7500    284.0160     85.6478    128.2386      0.0000
   302.0000    284.0215     85.7300    130.9434      0.0000
   302.2500    284.0083     85.8263    132.0551      0.0000
   302.5000    283.9748     85.8730    133.1339      0.0000
   302.7500    283.9337     85.8186    135.2616      0.0000
   303.0000    283.9117     85.6748    138.0963      0.0000
   303.2500    283.9294     85.4933    140.3709      0.0000
   303.5000    283.9780     85.3607    141.2729      0.0000
   303.7500    284.0250     85.3799    141.0287      0.0000
   304.0000    284.0469     85.5711    140.1428      0.0000
   304.2500    284.0504     85.8066    138.6474      0.0000
   304.5000    284.0576     85.9138    136.3607      0.0000
   304.7500    284.0766     85.8369    133.4189      0.0000
   305.0000    284.0949     85.6641    130.3038      0.0000
   305.2500    284.0967     85.5313    127.6252      0.0000
   305.5000    284.0793     85.5230    126.0524      0.0000
   305.7500    284.0530     85.6222    126.2112      0.0000
   306.0000    284.0326     85.7115    128.5312      0.0000
   306.2500    284.0296     85.6462    133.1477      0.0000
   306.5000    284.0439     85.3695    139.5554      0.0000
   306.7500    284.0603     84.9755    146.1354      0.0000
   307.0000    284.0607     84.6394    150.6068      0.0000
   307.2500    284.0424     84.4644    151.4386      0.0000
   307.5000    284.0179     84.4234    148.6876      0.0000
   307.7500    283.9961     84.4568    143.4739      0.0000
   308.0000    283.9748     84.5535    137.0384      0.0000
   308.2500    283.9523     84.7027    130.3026      0.0000
   308.5000    283.9366     84.8545    123.9074      0.0000
   308.7500    283.9351     84.9831    118.4020      0.0000
   309.0000    283.9466     85.1370    114.3110      0.0000
   309.2500    283.9630     85.3724    111.8474      0.0000
   309.5000    283.9738     85.6654    110.5854      0.0000
   309.7500    283.9686     85.9237    109.7105      0.0000
   310.0000    283.9457     86.0668    108.8065      0.0000
   310.2500    283.9194     86.0710    108.2818      0.0000
   310.5000    283.9100     85.9505    108.8572      0.0000
   310.7500    283.9271     85.7296    110.6284      0.0000
   311.0000    283.9663     85.4340    112.7914      0.0000
   311.2500    284.0190     85.0980    114.4125      0.0000
   311.5000    284.0749     84.7737    115.2864      0.0000
   311.7500    284.1170     84.5206    115.8033      0.0000
   312.0000    284.1249     84.3746    116.3888      0.0000
   312.2500    284.0899     84.3370    117.6148      0.0000
   312.5000    284.0280     84.3960    120.3807      0.0000
   312.7500    283.9724     84.5339    124.9429      0.0000
   313.0000    283.9488     84.7035    129.7619      0.0000
   313.2500    283.9579     84.8252    132.3427      0.0000
   313.5000    283.9848     84.8323    131.7369      0.0000
   313.7500    284.0161     84.7125    129.7322      0.0000
   314.0000    284.0457     84.5087    129.1965      0.0000
   314.2500    284.0694     84.3006    131.5577      0.0000
   314.5000    284.0835     84.1721    136.0969      0.0000
   314.7500    284.0864     84.1555    141.3054      0.0000
   315.0000    284.0798     84.1947    146.3461      0.0000
   315.2500    284.0701     84.1766    151.0316      0.0000
   315.5000    284.0649     84.0050    155.0149      0.0000
   315.7500    284.0635     83.6637    157.7667      0.0000
   316.0000    284.0572     83.2402    159.3029      0.0000
   316.2500    284.0411     82.8938    160.3446      0.0000
   316.5000    284.0219     82.7651    161.6037      0.0000
   316.7500    284.0093     82.8852    163.0931      0.0000
   317.0000    284.0063     83.1666    164.0754      0.0000
   317.2500    284.0091     83.4839    163.5061      0.0000
   317.5000    284.0120     83.7671    160.8217      0.0000
   317.7500    284.0117     84.0186    156.6128      0.0000
   318.0000    284.0101     84.2485    152.2783      0.0000
   318.2500    284.0159     84.4255    148.7212      0.0000
   318.5000    284.0349     84.5199    145.5348      0.0000
   318.7500    284.0590     84.5690    141.7616      0.0000
   319.0000    284.0695     84.6400    137.3220      0.0000
   319.2500    284.0550     84.7336    133.3875      0.0000
   319.5000    284.0222     84.7846    131.3450      0.0000
   319.7500    283.9887     84.7465    131.5033      0.0000
   320.0000    283.9698     84.6219    132.7493      0.0000
   320.2500    283.9712     84.4260    133.3938      0.0000
   320.5000    283.9871     84.1875    132.3391      0.0000
   320.7500    284.0022     83.9759    129.4606      0.0000
   321.0000    284.0030     83.8778    125.1518      0.0000
   321.2500    283.9913     83.9359    119.8805      0.0000
   321.5000    283.9820     84.1218    114.1790      0.0000
   321.7500    283.9878     84.3536    108.7547      0.0000
   322.0000    284.0082     84.5238    104.5431      0.0000
   322.2500    284.0316     84.5389    102.5472      0.0000
   322.5000    284.0442     84.3685    103.2453      0.0000
