~Version Information
VERS.                      2.0: CWLS Log ASCII Standard - VERSION 2.0
WRAP.                       NO: One line per depth step
~Well Information Block
STRT.FT               620.0000: 
STOP.FT              2660.0000: 
STEP.FT                 0.1000: 
NULL.                -999.2500: 
COMP.          Evergreen Operating Corporation: COMPANY
WELL.             Carbon 34-21: WELL
FLD.           Purgatoire River: FIELD
LOC.           56' FSL & 2304' FEL: LOCATION
PROV.                 Colorado: PROVINCE
CNTY.               Las Animas: COUNTRY
SRVC.                Patterson: SERVICE COMPANY
DATE.          Mon Sep 13 14:13:15 2004: LOG DATE
UWI.           05 071 08117 00: UNIQUE WELL ID
~Curve Information Block
DEPT.FT            0 000 00 00: Depth
DCAL.in                       : CDL Caliper
DPOR.pu                       : CDL Density Porosity
NPOR.pu                       : Neutron Porosity
RHOB.g/cc                     : CDL Bulk Density
RHOC.g/cc                     : CDL Density Correction
GR.GAPI                       : Gamma Ray
~Parameter Information Block
~A  Depth       DCAL        DPOR        NPOR        RHOB        RHOC         GR     
# ...
  2386.4000      7.9175      8.5715     19.3124      2.5086      0.0526    106.8306
  2386.5000      7.9165      6.6962     19.4219      2.5395      0.0644    113.4096
  2386.6000      7.9165      5.4378     19.3152      2.5603      0.1173    110.8766
  2386.7000      7.9165      5.2235     19.4292      2.5638      0.0747     99.5481
  2386.8000      7.9150      5.8663     19.7988      2.5532      0.0557     91.1206
  2386.9000      7.9150      7.1076     20.1838      2.5327      0.0436     91.6766
  2387.0000      7.9143      8.8546     20.5210      2.5039      0.0185     95.5495
  2387.1000      7.9143     10.1651     20.6173      2.4823     -0.0265     97.5058
  2387.2000      7.9143      9.9836     20.2219      2.4853      0.0230     95.0041
  2387.3000      7.9135      9.0080     19.5818      2.5014      0.0161     87.3564
  2387.4000      7.9135      8.4874     19.2965      2.5100      0.0191     84.5420
  2387.5000      7.9110      8.6719     19.4879      2.5069      0.0356     95.3436
  2387.6000      7.9110      9.0907     20.0291      2.5000      0.0268    108.8289
  2387.7000      7.9110      9.1963     20.6742      2.4983      0.0201    113.6704
  2387.8000      7.9085      8.9576     20.8083      2.5022      0.0320    116.2582
  2387.9000      7.9085      8.4990     20.6123      2.5098      0.0150    119.1566
  2388.0000      7.9085      7.8237     20.9879      2.5209      0.0091    119.7610
  2388.1000      7.9085      7.4655     21.8222      2.5268      0.0652    119.0000
  2388.2000      7.9085      7.6720     22.3360      2.5234      0.0271    117.5670
  2388.3000      7.9102      7.7953     22.3317      2.5214      0.0566    115.8428
  2388.4000      7.9102      7.6374     22.2039      2.5240      0.0134    112.2329
  2388.5000      7.9112      7.6826     22.3693      2.5232      0.0528    107.9640
  2388.6000      7.9112      8.0163     22.7140      2.5177      0.0341    107.6894
  2388.7000      7.9112      8.0952     22.7553      2.5164      0.0170    108.3856
  2388.8000      7.9117      7.5127     22.3541      2.5260      0.0168    102.3748
  2388.9000      7.9117      6.3372     22.0321      2.5454      0.0437     96.4511
  2389.0000      7.9122      5.1361     22.2981      2.5653      0.0945    103.4691
  2389.1000      7.9122      4.9109     22.8388      2.5690      0.0920    117.8216
  2389.2000      7.9122      5.9931     22.9899      2.5511      0.0700    127.2866
  2389.3000      7.9119      7.6227     22.5727      2.5242      0.0655    132.2764
  2389.4000      7.9119      9.2636     22.2329      2.4972      0.0386    131.9699
  2389.5000      7.9113     11.0219     22.3126      2.4681      0.0255    122.7630
  2389.6000      7.9113     12.5817     22.5396      2.4424      0.0099    113.7625
  2389.7000      7.9113     13.3813     22.9323      2.4292      0.0217    116.5141
  2389.8000      7.9110     13.5769     23.3257      2.4260      0.0089    120.8323
  2389.9000      7.9110     13.1550     23.1808      2.4329      0.0048    113.0461
  2390.0000      7.9100     11.9255     22.4666      2.4532      0.0581    102.5826
  2390.1000      7.9100     10.5999     21.6278      2.4751      0.0755    100.9479
  2390.2000      7.9100     10.0239     21.0963      2.4846      0.0783    103.1684
  2390.3000      7.9072     10.2141     21.1375      2.4815      0.0668    103.7485
  2390.4000      7.9072     10.7043     21.8533      2.4734      0.0345    106.7943
  2390.5000      7.8999     11.0914     23.0601      2.4670      0.0455    116.9253
  2390.6000      7.8999     11.0866     24.1572      2.4671      0.0072    124.6593
  2390.7000      7.8999     10.6969     24.5944      2.4735      0.0371    117.4976
  2390.8000      7.8879     10.5083     24.1320      2.4766      0.0606    103.8425
  2390.9000      7.8879     10.3600     23.0806      2.4791      0.0300     97.5945
  2391.0000      7.8812      9.2640     21.9890      2.4971      0.0605     97.7140
  2391.1000      7.8812      7.4746     21.0975      2.5267      0.0757     97.6636
  2391.2000      7.8812      6.3192     20.7903      2.5457      0.1012     99.2183
  2391.3000      7.8798      6.5420     21.5617      2.5421      0.1053    105.7771
  2391.4000      7.8798      7.7147     22.6445      2.5227      0.0646    109.9212
  2391.5000      7.8827      8.8005     22.3962      2.5048      0.0655    106.0323
  2391.6000      7.8827      9.7556     20.9461      2.4890      0.0816     99.2340
  2391.7000      7.8827     11.2675     19.9685      2.4641      0.0509     93.2786
  2391.8000      7.8932     12.7676     20.1144      2.4393      0.0249     88.1857
  2391.9000      7.8932     13.2346     20.9092      2.4316      0.0308     84.0678
  2392.0000      7.9036     12.8218     21.7770      2.4384      0.0236     85.1665
  2392.1000      7.9036     12.1145     22.0816      2.4501      0.0295     92.5103
  2392.2000      7.9036     11.1729     21.9326      2.4656      0.0271     97.8082
  2392.3000      7.9020      9.7985     22.0900      2.4883      0.0488     91.5781
  2392.4000      7.9020      8.1902     22.4400      2.5149      0.0744     78.7962
  2392.5000      7.8902      7.2682     22.6263      2.5301      0.0961     76.3952
  2392.6000      7.8902      8.0278     22.8608      2.5175      0.1135     84.2888
  2392.7000      7.8902     10.0594     23.1719      2.4840      0.0645     89.7568
  2392.8000      7.8847     11.8153     23.2773      2.4550      0.0546     92.7303
  2392.9000      7.8847     12.8148     23.3577      2.4386      0.0552     99.3676
  2393.0000      7.8911     13.6477     23.8529      2.4248      0.0468    106.5809
  2393.1000      7.8911     14.2738     24.3874      2.4145      0.0354    105.5921
  2393.2000      7.8911     14.3132     24.1022      2.4138      0.0519     96.3709
  2393.3000      7.9028     14.0897     23.4977      2.4175      0.0835     91.8974
  2393.4000      7.9028     13.8948     23.4534      2.4207      0.0882     92.4769
  2393.5000      7.9115     13.1316     23.6167      2.4333      0.0702     86.0790
  2393.6000      7.9115     11.3990     23.4520      2.4619      0.1163     73.2099
  2393.7000      7.9115      9.5471     22.8785      2.4925      0.1403     63.7151
  2393.8000      7.9221      8.5314     22.2336      2.5092      0.1590     60.1030
  2393.9000      7.9221      8.1931     22.1405      2.5148      0.1515     62.4569
  2394.0000      7.9400      7.7758     22.3199      2.5217      0.1661     75.9185
  2394.1000      7.9400      6.8408     21.8870      2.5371      0.1519     95.9130
  2394.2000      7.9400      5.7920     21.2319      2.5544      0.1728    104.7725
  2394.3000      7.9550      5.5252     21.2622      2.5588      0.1648     93.9080
  2394.4000      7.9550      6.0345     21.8844      2.5504      0.1003     77.2050
  2394.5000      7.9599      6.7137     22.2444      2.5392      0.0844     69.8413
  2394.6000      7.9599      7.6281     21.8630      2.5241      0.0482     72.0411
  2394.7000      7.9599      9.1729     21.1166      2.4986      0.0343     78.7271
  2394.8000      7.9603     10.9178     20.4548      2.4699     -0.0145     86.1432
  2394.9000      7.9603     11.6176     20.1355      2.4583     -0.0107     89.1148
  2395.0000      7.9608     10.7167     20.0977      2.4732      0.0019     84.6549
  2395.1000      7.9608      9.0286     19.9862      2.5010      0.0530     77.2305
  2395.2000      7.9608      8.1115     19.7271      2.5162      0.0870     72.2678
  2395.3000      7.9598      8.4098     19.5025      2.5112      0.0259     69.0248
  2395.4000      7.9598      8.6243     19.0922      2.5077      0.0187     67.2630
  2395.5000      7.9584      8.0965     18.2111      2.5164      0.0450     68.5272
  2395.6000      7.9584      7.6711     17.4211      2.5234      0.0335     67.4613
  2395.7000      7.9584      7.8612     17.2359      2.5203      0.0308     63.3957
  2395.8000      7.9592      8.2658     17.5086      2.5136      0.0398     63.6334
  2395.9000      7.9592      8.6103     17.8375      2.5079      0.0558     67.0206
