~Version Information
 VERS.                                  2.0 : CWLS LAS VERSION
 WRAP.                                   NO : WRAPING MODE
 SWARE .                 MController 2.5.0J : SOFTWARE VERSION
~Well Information
 WELL.                        HARRIER 44-33 : WELL
 COMP.    PIONEER NATURAL RESOURCES USA INC : COMPANY
 FLD.                      PURGATOIRE RIVER : FIELD
 LOC.                SE/SE SEC 33 T32S R66W : LOCATION
 DATE.                          06/19-20/05 : DATE(S) LOGGED
 SRVC.       BLANCO GEOLOGICAL SERVICES LLC : SERVICE COMPANY
 STAT.                             COLORADO : STATE
 CNTY.                           LAS ANIMAS : COUNTY
 CTRY.                                  USA : COUNTRY
 API.                       05-071-08398-00 : API NUMBER
 STRT.FT                             665.00 : START DEPTH
 STOP.FT                            2381.00 : STOP DEPTH
 STEP.FT                               1.00 : DEPTH INCREMENT
 NULL.                                -9999 : NULL VALUE
~Curve information
 DEPTH.FT                                   :
 ROP.MIN/FT                                 :
 GAS.UNITS                                  :
~ASCII Log data
# ...
      1865.0         0.20         37.6 
      1866.0         0.20         39.0 
      1867.0         0.17         39.3 
      1868.0         0.20         38.2 
      1869.0         0.23         36.5 
      1870.0         0.20         34.4 
      1871.0         0.17         33.1 
      1872.0         0.20         31.7 
      1873.0         0.17         31.5 
      1874.0         0.17         31.1 
      1875.0         0.13         30.6 
      1876.0         0.18         30.1 
      1877.0         0.13         29.1 
      1878.0         0.13         29.3 
      1879.0         0.13         28.8 
      1880.0         0.17         28.2 
      1881.0         0.17         27.2 
      1882.0         0.17         26.9 
      1883.0         0.17         26.8 
      1884.0         0.17         26.2 
      1885.0         0.23         26.6 
      1886.0         1.80         39.1 
      1887.0         0.28         56.2 
      1888.0         0.27         76.8 
      1889.0         0.43         97.8 
      1890.0         0.20         97.8 
      1891.0         0.53         88.9 
      1892.0         0.33         54.1 
      1893.0         0.40         37.8 
      1894.0         0.27         40.2 
      1895.0         0.23         41.2 
      1896.0         0.20         40.5 
      1897.0         0.20         38.6 
      1898.0         0.22         37.0 
      1899.0         0.23         35.0 
      1900.0         0.23         32.6 
      1901.0         0.20         31.0 
      1902.0         0.17         29.1 
      1903.0         0.20         29.0 
      1904.0         0.23         28.9 
      1905.0         0.20         27.8 
      1906.0         0.23         27.4 
      1907.0         0.20         26.8 
      1908.0         0.20         26.0 
      1909.0         0.20         25.5 
      1910.0         0.17         25.2 
      1911.0         0.20         25.2 
      1912.0         0.23         25.2 
      1913.0         0.20         25.3 
      1914.0         0.22         25.9 
      1915.0         0.20         25.8 
      1916.0         3.55        131.8 
      1917.0         0.30        118.6 
      1918.0         0.37         86.8 
      1919.0         0.53         55.7 
      1920.0         0.40         36.9 
      1921.0         0.33         30.1 
      1922.0         0.52         38.6 
      1923.0         0.27         36.6 
      1924.0         0.20         28.8 
      1925.0         0.23         27.3 
      1926.0         0.27         32.9 
      1927.0         0.47         33.6 
      1928.0         0.57         30.3 
      1929.0         0.47         26.5 
      1930.0         0.30         26.7 
      1931.0         0.20         26.6 
      1932.0         0.23         26.4 
      1933.0         0.32         26.0 
      1934.0         0.13         24.4 
      1935.0         0.17         23.7 
      1936.0         0.20         23.5 
      1937.0         0.17         23.0 
      1938.0         0.17         22.7 
      1939.0         0.20         22.1 
      1940.0         0.13         21.5 
      1941.0         0.13         21.3 
      1942.0         0.17         22.1 
      1943.0         0.13         22.4 
      1944.0         0.23         23.5 
      1945.0         0.27         23.4 
      1946.0         1.78         32.2 
      1947.0         0.43         58.6 
      1948.0         0.47         86.5 
      1949.0         0.43         86.6 
      1950.0         0.30         83.1 
      1951.0         0.13         80.7 
      1952.0         0.20         78.1 
      1953.0         0.23         73.2 
      1954.0         0.20         65.9 
      1955.0         0.22         61.2 
      1956.0         0.17         55.5 
      1957.0         0.27         50.2 
      1958.0         0.23         43.1 
      1959.0         0.23         37.4 
      1960.0         0.17         40.7 
      1961.0         0.20         42.4 
      1962.0         0.20         41.7 
      1963.0         0.33         36.7 
      1964.0         0.23         31.3 
      1965.0         0.20         35.0 
      1966.0         0.27         36.8 
      1967.0         0.23         36.7 
      1968.0         0.17         35.6 
      1969.0         0.17         35.2 
      1970.0         0.17         34.4 
      1971.0         0.32         33.6 
      1972.0         0.23         31.8 
      1973.0         0.13         31.8 
      1974.0         0.17         32.3 
      1975.0         0.27         32.0 
      1976.0         2.17         61.0 
      1977.0         0.22         78.3 
      1978.0         0.23         99.9 
      1979.0         0.33        115.4 
      1980.0         0.37        117.4 
      1981.0         0.20        115.5 
      1982.0         0.17        109.5 
      1983.0         0.30        100.3 
      1984.0         0.33        133.7 
      1985.0         0.27        196.3 
      1986.0         0.23        225.6 
      1987.0         0.13        228.1 
      1988.0         0.17        226.6 
      1989.0         0.20        217.0 
      1990.0         0.20        200.4 
      1991.0         0.18        181.0 
      1992.0         0.17        166.3 
      1993.0         0.13        153.5 
      1994.0         0.23        145.5 
      1995.0         0.27        130.1 
      1996.0         0.37        111.7 
      1997.0         0.30        113.0 
      1998.0         0.27        112.7 
      1999.0         0.20        110.9 
      2000.0         0.20        109.2 
      2001.0         0.17        107.1 
      2002.0         0.17        105.4 
      2003.0         0.23        103.4 
      2004.0         0.20        102.3 
      2005.0         0.27        101.4 
      2006.0         3.22        354.0 
      2007.0         0.62        355.9 
      2008.0         0.40        282.7 
      2009.0         0.40        165.7 
      2010.0         0.40        101.4 
      2011.0         0.40        129.1 
      2012.0         0.30        139.3 
      2013.0         0.33        139.4 
      2014.0         0.27        134.9 
      2015.0         0.48        129.9 
      2016.0         0.37        107.1 
      2017.0         0.23         73.9 
      2018.0         0.27         74.8 
      2019.0         0.27         91.6 
      2020.0         0.27        103.1 
      2021.0         0.40        108.2 
      2022.0         0.10        105.9 
      2023.0         0.10        101.6 
      2024.0         0.17         93.9 
      2025.0         0.23         78.4 
      2026.0         0.10         60.6 
      2027.0         0.13         55.8 
      2028.0         0.10         52.1 
      2029.0         0.20         50.6 
      2030.0         0.42         56.8 
      2031.0         0.33         82.3 
      2032.0         0.37        108.1 
      2033.0         0.33        115.1 
      2034.0         0.27        115.1 
      2035.0         0.17        114.0 
      2036.0        16.82        198.2 
      2037.0         0.33         84.0 
      2038.0         0.17         98.8 
      2039.0         0.23        124.7 
      2040.0         0.53        207.4 
      2041.0         0.43        234.2 
      2042.0         0.42        230.2 
      2043.0         0.37        203.4 
      2044.0         0.33        194.1 
      2045.0         0.50        176.7 
      2046.0         0.43        142.5 
      2047.0         0.47        119.5 
      2048.0         0.27        111.6 
      2049.0         0.27        107.0 
      2050.0         0.27        100.5 
      2051.0         0.32         93.9 
      2052.0         0.27         88.1 
      2053.0         0.23         84.8 
      2054.0         0.27         82.2 
      2055.0         0.23         79.7 
      2056.0         0.27         78.1 
      2057.0         0.30         76.5 
      2058.0         0.27         74.0 
      2059.0         0.27         72.1 
      2060.0         0.27         70.3 
      2061.0         0.33         69.9 
      2062.0         0.30         68.4 
      2063.0         0.35         67.4 
      2064.0         0.30         66.3 
