~Version Information
VERS.                      2.0: CWLS Log ASCII Standard - VERSION 2.0
WRAP.                       NO: One line per depth step
~Well Information Block
STRT.FT                -8.0000: 
STOP.FT              1540.2500: 
STEP.FT                 0.2500: 
NULL.                -999.2500: 
COMP.          Pioneer Natural Resources: COMPANY
WELL.           Telna 24-22 Tr: WELL
FLD.           Purgatorie River: FIELD
LOC.           748' FSL & 1931' FWL--: LOCATION
PROV.                       CO: PROVINCE
CNTY.               Las Animas: COUNTRY
SRVC.          Patterson Wireline: SERVICE COMPANY
DATE.          Fri May 06 12:29:21 2005: LOG DATE
UWI.           05 071 08304 00: UNIQUE WELL ID
~Curve Information Block
DEPT.FT            0 000 00 00: Depth
CCL.                          : Casing Collar Locator
TT3.usec                      : CBL 3' Travel Time
AMP3.mV                       : CBL 3' Amplitude
GR.GAPI                       : Gamma Ray
~Parameter Information Block
~A  Depth       CCL         TT3         AMP3         GR     
# ...
   997.0000      0.0000    748.1069      5.2194    152.9414
   997.2500      0.0000    710.6729      5.3827    148.5629
   997.5000      0.0000    692.6420      5.7192    142.7150
   997.7500      0.0000    696.2446      6.1785    137.5777
   998.0000      0.0000    708.1471      6.6590    134.4749
   998.2500      0.0000    711.9334      7.0894    133.1057
   998.5000      0.0000    700.4292      7.4912    132.2814
   998.7500      0.0000    673.9827      7.9546    130.9877
   999.0000      0.0000    632.4265      8.5585    128.7219
   999.2500      0.0000    575.6010      9.3299    125.3862
   999.5000      0.0000    510.1573     10.2624    121.4705
   999.7500      0.0000    449.3687     11.3290    118.3114
  1000.0000      0.0000    404.5054     12.4571    117.5229
  1000.2500      0.0000    378.3766     13.5291    119.4993
  1000.5000      0.0000    366.4708     14.4414    122.4415
  1000.7500      0.0000    361.5803     15.1676    123.4153
  1001.0000      0.0000    357.5403     15.7571    120.7735
  1001.2500      0.0000    351.1674     16.2783    115.4956
  1001.5000      0.0000    342.3630     16.7694    110.1558
  1001.7500      0.0000    333.3979     17.2242    106.7685
  1002.0000      0.0000    328.9301     17.5848    105.5007
  1002.2500      0.0000    336.9946     17.7488    105.0261
  1002.5000      0.0000    368.4326     17.6284    103.9660
  1002.7500      0.0000    431.5042     17.2170    102.1260
  1003.0000      0.0000    523.0651     16.5799    100.3107
  1003.2500      0.0000    625.3843     15.7768     99.1894
  1003.5000      0.0000    715.6954     14.8239     98.8961
  1003.7500      0.0000    780.3289     13.7457     99.6784
  1004.0000      0.0000    818.7764     12.6333    102.0576
  1004.2500      0.0000    836.7176     11.6038    105.8880
  1004.5000      0.0000    839.4929     10.6965    109.7940
  1004.7500      0.0000    832.0602      9.8331    112.0943
  1005.0000      0.0000    821.7347      8.9017    112.1357
  1005.2500      0.0000    817.9862      7.8859    110.3182
  1005.5000      0.0000    827.4982      6.9187    106.9843
  1005.7500      0.0000    848.6629      6.2121    101.9728
  1006.0000      0.0000    871.9279      5.9218     95.4976
  1006.2500      0.0000    886.6232      6.0642     89.0139
  1006.5000     -2.0000    886.9868      6.5490     84.9663
  1006.7500     -2.0000    871.1475      7.2738     85.7373
  1007.0000     -2.0000    836.9097      8.1826     92.4116
  1007.2500      0.0000    782.5173      9.2759    103.9118
  1007.5000      0.0000    713.9219     10.5824    117.2272
  1007.7500      0.0000    650.1642     12.0710    128.8943
  1008.0000      0.0000    616.7645     13.5660    136.5848
  1008.2500      0.0000    628.3281     14.8196    139.5761
  1008.5000      0.0000    676.2222     15.7139    137.9926
  1008.7500      0.0000    734.9183     16.3227    131.9202
  1009.0000      0.0000    780.5488     16.7426    121.6786
  1009.2500      0.0000    802.5467     16.9525    108.9070
  1009.5000      0.0000    800.2046     16.8899     96.6355
  1009.7500      0.0000    773.8285     16.6001     87.5454
  1010.0000      0.0000    723.1589     16.2416     82.1503
  1010.2500      0.0000    655.3826     15.9529     79.0200
  1010.5000      0.0000    591.8639     15.7514     76.6557
  1010.7500      0.0000    560.1680     15.5737     74.5948
  1011.0000      0.0000    574.6695     15.3941     72.9501
  1011.2500      0.0000    625.7015     15.2741     71.9404
  1011.5000      0.0000    689.0584     15.2739     72.1107
  1011.7500      0.0000    744.7852     15.3170     74.1417
  1012.0000      0.0000    787.3112     15.1792     78.0374
  1012.2500      0.0000    821.4656     14.6533     82.9925
  1012.5000      0.0000    851.5419     13.7251     88.1514
  1012.7500      0.0000    873.9727     12.5708     93.1235
  1013.0000      0.0000    880.2114     11.3949     97.8209
  1013.2500      0.0000    867.1148     10.3049    101.9889
  1013.5000      0.0000    843.7896      9.3301    104.8779
  1013.7500      0.0000    827.3264      8.4958    105.4329
  1014.0000      0.0000    830.9200      7.8341    102.9076
  1014.2500      0.0000    854.5175      7.3412     97.3184
  1014.5000      0.0000    885.0008      6.9707     89.6796
  1014.7500      0.0000    905.4099      6.6923     82.1080
  1015.0000      0.0000    905.8792      6.5392     77.2237
  1015.2500      0.0000    887.3467      6.5732     76.6500
  1015.5000      0.0000    857.2294      6.8044     79.9836
  1015.7500      0.0000    824.5421      7.1784     85.5377
  1016.0000      0.0000    797.5430      7.6594     92.0696
  1016.2500      0.0000    780.6955      8.2857     99.5564
  1016.5000      0.0000    772.3824      9.0971    108.4514
  1016.7500      0.0000    767.6819     10.0229    118.5903
  1017.0000      0.0000    763.0432     10.8993    128.8809
  1017.2500      0.0000    756.4741     11.6210    137.7255
  1017.5000      0.0000    745.4222     12.2464    143.6229
  1017.7500      0.0000    729.4937     12.9257    145.6293
  1018.0000      0.0000    716.6014     13.7299    143.4688
  1018.2500      0.0000    721.9537     14.5643    137.4091
  1018.5000      0.0000    755.1309     15.2509    128.4006
  1018.7500      0.0000    807.1854     15.6808    118.3033
  1019.0000      0.0000    853.4020     15.8726    109.4515
  1019.2500      0.0000    871.0621     15.8996    103.6796
  1019.5000      0.0000    855.7238     15.7922    101.5708
  1019.7500      0.0000    821.4064     15.5213    102.3203
  1020.0000      0.0000    786.8240     15.0640    104.3139
  1020.2500      0.0000    762.6655     14.4723    106.0850
  1020.5000      0.0000    749.7049     13.8766    106.8927
  1020.7500      0.0000    744.1429     13.4109    106.5602
  1021.0000      0.0000    742.5716     13.1194    105.1082
  1021.2500      0.0000    743.9946     12.9262    102.8867
  1021.5000      0.0000    750.4187     12.7074    100.8318
  1021.7500      0.0000    766.7985     12.4019     99.8364
  1022.0000      0.0000    798.7662     12.0555     99.5959
  1022.2500      0.0000    847.5626     11.7535     98.6310
  1022.5000      0.0000    906.1644     11.5232     95.7020
  1022.7500      0.0000    961.6628     11.3168     90.8244
  1023.0000      0.0000   1001.3618     11.0903     84.8760
  1023.2500      0.0000   1016.0427     10.8730     78.9576
  1023.5000      0.0000   1001.3839     10.7351     74.4734
  1023.7500      0.0000    961.5215     10.6923     72.9784
  1024.0000      0.0000    909.9960     10.6647     74.9666
  1024.2500      0.0000    862.6881     10.5351     78.9345
  1024.5000      0.0000    829.1046     10.2403     82.3189
  1024.7500      0.0000    810.6322      9.8204     83.5060
  1025.0000      0.0000    804.0748      9.4015     82.7334
  1025.2500      0.0000    804.0457      9.1229     81.3422
  1025.5000      0.0000    803.2482      9.0445     80.6147
  1025.7500      0.0000    793.0371      9.1078     81.0617
  1026.0000      0.0000    765.0739      9.2025     82.1203
  1026.2500      0.0000    715.2007      9.2862     82.4432
  1026.5000      0.0000    650.4297      9.4302     80.9922
  1026.7500      0.0000    592.8740      9.7343     78.1285
  1027.0000      0.0000    570.6414     10.2043     75.4419
  1027.2500      0.0000    598.5447     10.7288     74.3759
  1027.5000      0.0000    666.5777     11.1687     75.0210
  1027.7500      0.0000    747.4412     11.4510     76.2652
  1028.0000      0.0000    813.5671     11.5889     77.1892
  1028.2500      0.0000    847.7780     11.6505     78.1798
  1028.5000      0.0000    843.6451     11.7323     80.2945
  1028.7500      0.0000    801.6686     11.9415     83.6421
  1029.0000      0.0000    727.1597     12.3572     87.1038
  1029.2500      0.0000    631.3500     12.9684     89.8459
  1029.5000      0.0000    532.1790     13.6490     92.3408
  1029.7500      0.0000    449.2421     14.2166     95.2338
  1030.0000      0.0000    394.5061     14.5386     97.6749
  1030.2500      0.0000    367.4496     14.5971     97.8071
