~Version Information
VERS.                      2.0: CWLS Log ASCII Standard - VERSION 2.0
WRAP.                       NO: One line per depth step
~Well Information Block
STRT.FT               390.0000: 
STOP.FT               902.2000: 
STEP.FT                 0.1000: 
NULL.                -999.2500: 
COMP.          Pioneer Natural Resources: COMPANY
WELL.              Venom 32-22: WELL
FLD.           Purgatoire River: FIELD
LOC.           2307' FNL & 2024' FEL----: LOCATION
PROV.                 Colorado: PROVINCE
CNTY.               Las Animas: COUNTRY
SRVC.                Patterson: SERVICE COMPANY
DATE.          Wed May 11 08:31:39 2005: LOG DATE
UWI.           05 071 08361 00: UNIQUE WELL ID
~Curve Information Block
DEPT.FT            0 000 00 00: Depth
DCAL.in                       : CDL Caliper
RHOB.g/cc                     : CDL Bulk Density
RHOC.g/cc                     : CDL Density Correction
DPOR.pu                       : CDL Density Porosity
NPOR.pu                       : Neutron Porosity
GR.GAPI                       : Gamma Ray
~Parameter Information Block
~A  Depth       DCAL        RHOB        RHOC        DPOR        NPOR         GR     
# ...
   457.2000      8.1179      2.4492      0.0368     12.1708     24.3499    145.3074
   457.3000      8.1263      2.4422     -0.0036     12.5961     24.9816    137.0305
   457.4000      8.1263      2.4512      0.0002     12.0515     25.0955    127.6294
   457.5000      8.1396      2.4750      0.0412     10.6060     25.6246    128.8514
   457.6000      8.1396      2.4960      0.0555      9.3363     27.1610    141.3977
   457.7000      8.1396      2.4929      0.0581      9.5226     28.1682    154.6498
   457.8000      8.1450      2.4665      0.0321     11.1222     26.6197    162.1607
   457.9000      8.1450      2.4409      0.0374     12.6701     24.4086    161.1464
   458.0000      8.1383      2.4343      0.0198     13.0738     25.0147    153.3280
   458.1000      8.1383      2.4359      0.1301     12.9760     28.3085    145.1249
   458.2000      8.1383      2.4264      0.0677     13.5516     29.5308    138.6418
   458.3000      8.1393      2.4148      0.0661     14.2536     26.8425    134.4007
   458.4000      8.1393      2.4219      0.0422     13.8247     25.0923    134.9639
   458.5000      8.1579      2.4495      0.0443     12.1537     26.2449    138.4063
   458.6000      8.1579      2.4855      0.1181      9.9671     27.1644    141.7470
   458.7000      8.1579      2.5202      0.1300      7.8657     25.5892    145.3110
   458.8000      8.1798      2.5500      0.1166      6.0595     22.9409    144.3596
   458.9000      8.1798      2.5680      0.1587      4.9705     22.6556    137.5008
   459.0000      8.1833      2.5625      0.1639      5.3002     26.3883    134.2996
   459.1000      8.1833      2.5284      0.1156      7.3699     30.7770    140.7794
   459.2000      8.1833      2.4794      0.0336     10.3407     31.9147    153.8601
   459.3000      8.1663      2.4462      0.0120     12.3511     31.6046    165.9576
   459.4000      8.1663      2.4375      0.0791     12.8818     31.3518    170.9731
   459.5000      8.1518      2.4247      0.0648     13.6570     31.2123    167.7083
   459.6000      8.1518      2.3840      0.0326     16.1192     31.6346    157.3858
   459.7000      8.1518      2.3270     -0.0305     19.5738     31.1022    146.4180
   459.8000      8.1474      2.2783      0.0053     22.5287     29.4431    141.3319
   459.9000      8.1474      2.2422     -0.0096     24.7166     29.9184    141.8078
   460.0000      8.1471      2.2041     -0.0150     27.0228     32.8656    146.5983
   460.1000      8.1471      2.1492     -0.0011     30.3526     34.3389    154.9692
   460.2000      8.1471      2.0861     -0.0588     34.1741     32.5525    160.8686
   460.3000      8.1576      2.0366      0.0057     37.1743     30.0818    159.0307
   460.4000      8.1576      1.9949      0.0600     39.7032     28.5669    151.3248
   460.5000      8.1854      1.9467      0.0211     42.6213     26.5251    142.7492
   460.6000      8.1854      1.9035      0.0131     45.2400     22.4805    137.1551
   460.7000      8.1854      1.8848      0.0090     46.3746     19.4325    134.4861
   460.8000      8.2076      1.8951      0.0422     45.7543     20.7446    130.5347
   460.9000      8.2076      1.9299      0.0527     43.6431     25.8807    122.4827
   461.0000      8.2086      1.9923      0.0903     39.8634     28.6991    113.1133
   461.1000      8.2086      2.0811      0.1457     34.4759     24.2755    109.8248
   461.2000      8.2086      2.1768      0.2166     28.6804     18.5139    114.8317
   461.3000      8.1902      2.2597      0.2188     23.6557     17.5852    120.5483
   461.4000      8.1902      2.3325      0.1938     19.2437     20.0387    118.4842
   461.5000      8.1498      2.4002      0.2241     15.1419     21.3886    109.6854
   461.6000      8.1498      2.4562      0.1803     11.7430     21.5960    104.3451
   461.7000      8.1498      2.4999      0.1514      9.0991     24.1665    105.6488
   461.8000      8.1113      2.5291      0.1689      7.3255     26.9644    108.1450
   461.9000      8.1113      2.5387      0.0953      6.7485     24.8937    109.7290
   462.0000      8.1055      2.5352      0.0916      6.9604     20.4456    111.1494
   462.1000      8.1055      2.5302      0.0715      7.2629     19.1105    112.7411
   462.2000      8.1055      2.5290      0.0906      7.3304     21.8663    115.4145
   462.3000      8.1157      2.5251      0.1228      7.5678     25.1852    118.9507
   462.4000      8.1157      2.5106      0.0552      8.4476     23.9692    120.5656
   462.5000      8.1207      2.4999      0.0356      9.0976     20.4545    121.1316
   462.6000      8.1207      2.5101      0.0628      8.4788     20.1362    125.6290
   462.7000      8.1207      2.5319      0.0863      7.1578     23.6846    134.4139
   462.8000      8.1093      2.5449      0.0929      6.3685     26.1889    141.5082
   462.9000      8.1093      2.5426      0.0978      6.5085     23.6407    142.3129
   463.0000      8.0814      2.5329      0.0842      7.0963     20.1591    137.4426
   463.1000      8.0814      2.5306      0.0559      7.2357     19.6567    131.4750
   463.2000      8.0814      2.5441      0.0398      6.4190     20.9262    130.0038
   463.3000      8.0567      2.5613      0.0940      5.3738     20.9006    130.3727
   463.4000      8.0567      2.5672      0.0822      5.0206     19.8761    126.6834
   463.5000      8.0461      2.5658      0.0836      5.1051     20.6673    121.9410
   463.6000      8.0461      2.5650      0.0901      5.1490     23.8089    120.1260
   463.7000      8.0461      2.5660      0.0312      5.0915     26.1976    119.8806
   463.8000      8.0437      2.5613      0.0950      5.3747     25.2931    116.0423
   463.9000      8.0437      2.5398      0.0437      6.6813     22.9619    107.1932
   464.0000      8.0432      2.5152      0.0325      8.1683     21.1246     97.9901
   464.1000      8.0432      2.5104     -0.0172      8.4636     20.3996     92.5401
   464.2000      8.0432      2.5165      0.0742      8.0913     20.8359     93.9370
   464.3000      8.0411      2.5154      0.0108      8.1604     20.8201    100.6638
   464.4000      8.0411      2.5149      0.0354      8.1902     19.9807    108.8283
   464.5000      8.0333      2.5259      0.0166      7.5204     19.9387    117.3069
   464.6000      8.0333      2.5400      0.0664      6.6662     19.9312    121.0173
   464.7000      8.0333      2.5442      0.0651      6.4125     18.5739    116.6798
   464.8000      8.0247      2.5403      0.0436      6.6504     17.4117    111.6670
   464.9000      8.0247      2.5394      0.0438      6.7056     18.4302    110.4777
   465.0000      8.0190      2.5453      0.0451      6.3450     21.8293    109.6108
   465.1000      8.0190      2.5496      0.0761      6.0841     24.1792    108.0746
   465.2000      8.0190      2.5469      0.0732      6.2474     22.7163    107.6682
   465.3000      8.0094      2.5485      0.0606      6.1532     21.0860    107.9433
   465.4000      8.0094      2.5637      0.0571      5.2275     21.8925    107.7065
   465.5000      7.9955      2.5805      0.1124      4.2110     22.4892    106.8214
   465.6000      7.9955      2.5822      0.1016      4.1065     20.2275    105.6621
   465.7000      7.9955      2.5738      0.0798      4.6159     17.6302    102.9188
   465.8000      7.9841      2.5707      0.0886      4.8040     17.2834     96.1751
   465.9000      7.9841      2.5821      0.0262      4.1161     18.9594     88.6343
   466.0000      7.9796      2.6106      0.0938      2.3864     20.0880     84.8426
   466.1000      7.9796      2.6438      0.1010      0.3728     18.9402     82.4407
   466.2000      7.9796      2.6587      0.1142     -0.5248     18.1007     76.6831
   466.3000      7.9859      2.6492      0.0493      0.0494     18.8093     68.2980
   466.4000      7.9859      2.6336      0.0291      0.9969     18.7601     62.6082
   466.5000      8.0000      2.6214      0.0526      1.7328     16.7433     61.8253
   466.6000      8.0000      2.6153     -0.0077      2.1043     15.4903     65.3312
   466.7000      8.0000      2.6240      0.0642      1.5766     17.0299     70.7673
