~Version Information
VERS.                      2.0: CWLS Log ASCII Standard - VERSION 2.0
WRAP.                       NO: One line per depth step
~Well Information Block
STRT.FT                -7.5000: 
STOP.FT              1716.7500: 
STEP.FT                 0.2500: 
NULL.                -999.2500: 
COMP.          Pioneer Natural Resources: COMPANY
WELL.          Lookout Point 31-23 Tr: WELL
FLD.           Purgatorie River: FIELD
LOC.           541' FNL & 1786' FEL--------: LOCATION
PROV.                       CO: PROVINCE
CNTY.               Las Animas: COUNTRY
SRVC.                         : SERVICE COMPANY
DATE.          Fri Jan 28 08:30:47 2005: LOG DATE
UWI.         005 071 08260 : UNIQUE WELL ID
~Curve Information Block
DEPT.FT            0 000 00 00: Depth
CCL.                          : Casing Collar Locator
TT3.usec                      : CBL 3' Travel Time
AMP3.mV                       : CBL 3' Amplitude
GR.GAPI                       : Gamma Ray
~Parameter Information Block
~A  Depth       CCL         TT3         AMP3         GR     
# ...
   763.0000      0.0000    755.8131      5.4534     62.0921
   763.2500      0.0000    765.0829      5.4720     59.4471
   763.5000      0.0000    767.4252      5.4597     56.0024
   763.7500      0.0000    763.6829      5.4193     53.6037
   764.0000      0.0000    757.7144      5.3855     54.1129
   764.2500      0.0000    752.6088      5.3638     58.6857
   764.5000      0.0000    749.0016      5.3163     67.5324
   764.7500      0.0000    746.0654      5.2180     79.6951
   765.0000      0.0000    743.0253      5.1044     93.1741
   765.2500      0.0000    739.5015      5.0321    105.6145
   765.5000      0.0000    735.0535      5.0011    114.8871
   765.7500      0.0000    729.1726      4.9466    119.3088
   766.0000      0.0000    722.1042      4.8223    118.2958
   766.2500      0.0000    715.4382      4.6660    113.5333
   766.5000      0.0000    711.3156      4.5568    109.0048
   766.7500      0.0000    710.9363      4.5096    108.7948
   767.0000      0.0000    714.1633      4.4394    114.5959
   767.2500      0.0000    720.2401      4.2476    125.6309
   767.5000      0.0000    727.9237      3.9361    140.3884
   767.7500      0.0000    735.1378      3.6215    157.3107
   768.0000      0.0000    739.9201      3.4332    173.8719
   768.2500      0.0000    742.1586      3.4020    186.3192
   768.5000      0.0000    743.5809      3.4536    191.4813
   768.7500      0.0000    745.7182      3.5017    189.0810
   769.0000      0.0000    748.2366      3.5259    181.8460
   769.2500      0.0000    749.4376      3.5573    173.0294
   769.5000      0.0000    748.2697      3.6141    163.8944
   769.7500      0.0000    745.4932      3.6722    153.4715
   770.0000      0.0000    742.8100      3.6815    140.3607
   770.2500      0.0000    741.4482      3.6014    124.7319
   770.5000      0.0000    742.0031      3.4336    108.7627
   770.7500      0.0000    745.0877      3.2351     95.0875
   771.0000      0.0000    751.2205      3.0921     84.7702
   771.2500      0.0000    759.7819      3.0639     76.8656
   771.5000      0.0000    768.5305      3.1435     69.7999
   771.7500      0.0000    774.8138      3.2774     62.8858
   772.0000      0.0000    777.3572      3.4248     56.6534
   772.2500      0.0000    776.5131      3.5873     52.1322
   772.5000      0.0000    773.0394      3.7778     49.8853
   772.7500      0.0000    767.6442      3.9779     49.5624
   773.0000      0.0000    761.8560      4.1408     50.2319
   773.2500      0.0000    758.1514      4.2322     51.0529
   773.5000      0.0000    758.2428      4.2606     51.5681
   773.7500      0.0000    761.0938      4.2643     51.5453
   774.0000      0.0000    762.8224      4.2710     50.8860
   774.2500      0.0000    759.1863      4.2686     49.7876
   774.5000      0.0000    749.1883      4.2189     48.7430
   774.7500      0.0000    736.6920      4.1061     48.2229
   775.0000      0.0000    727.8571      3.9686     48.4899
   775.2500      0.0000    726.1697      3.8767     49.8020
   775.5000      0.0000    729.8259      3.8818     52.6473
   775.7500      0.0000    733.8833      3.9883     57.4966
   776.0000      0.0000    734.4100      4.1586     64.0753
   776.2500      0.0000    730.2739      4.3354     70.7461
   776.5000      0.0000    722.2536      4.4694     74.8676
   776.7500      0.0000    712.4719      4.5420     74.3441
   777.0000      0.0000    704.7952      4.5609     69.1998
   777.2500      0.0000    703.6353      4.5334     61.5730
   777.5000      0.0000    710.5888      4.4545     54.1158
   777.7500      0.0000    722.5475      4.3259     48.4839
   778.0000      0.0000    734.1241      4.1781     45.1364
   778.2500      0.0000    741.8723      4.0690     44.0447
   778.5000      0.0000    746.0266      4.0540     45.1313
   778.7500      0.0000    748.9144      4.1415     47.9308
   779.0000      0.0000    752.3385      4.2796     51.2435
   779.2500      0.0000    756.4356      4.4054     53.6020
   779.5000      0.0000    760.2686      4.5105     54.2082
   779.7500      0.0000    762.8467      4.6400     53.4958
   780.0000      0.0000    764.0875      4.8265     52.9843
   780.2500      0.0000    765.3833      5.0444     54.2416
   780.5000      0.0000    768.7266      5.2330     57.3866
   780.7500      0.0000    774.7791      5.3509     60.7684
   781.0000      0.0000    782.1281      5.4021     62.6701
   781.2500      0.0000    788.5600      5.4200     63.0519
   781.5000      0.0000    792.6522      5.4352     63.0581
   781.7500      0.0000    794.1994      5.4496     63.2356
   782.0000      0.0000    793.7150      5.4262     63.0040
   782.2500      0.0000    791.7820      5.3063     61.6840
   782.5000      0.0000    788.7709      5.0496     59.2772
   782.7500      0.0000    785.0787      4.6698     56.1962
   783.0000      0.0000    781.4407      4.2389     52.9747
   783.2500      0.0000    778.6887      3.8529     50.5537
   783.5000      0.0000    777.2405      3.5820     50.2137
   783.7500      0.0000    777.1986      3.4444     52.7013
   784.0000      0.0000    778.7548      3.4307     57.7078
   784.2500      0.0000    781.8890      3.5526     64.3171
   784.5000      0.0000    785.6935      3.8638     71.3554
   784.7500      0.0000    788.4774      4.4268     77.1081
   785.0000      0.0000    788.2208      5.2590     79.5656
   785.2500      0.0000    782.3199      6.3137     77.6760
   785.5000      0.0000    766.9956      7.5131     72.1620
   785.7500      0.0000    738.5753      8.7805     64.9245
   786.0000      0.0000    697.7921     10.0220     57.9682
   786.2500      0.0000    652.8478     11.1115     52.8122
   786.5000      0.0000    615.3331     11.9544     50.2713
   786.7500      0.0000    592.1700     12.5561     50.3333
   787.0000      0.0000    584.3824     12.9652     52.1039
   787.2500      0.0000    592.6754     13.1733     53.9124
   787.5000      0.0000    617.6613     13.1411     54.0046
   787.7500      0.0000    653.9183     12.8702     51.8124
   788.0000      0.0000    690.4892     12.3623     48.4928
   788.2500      0.0000    719.5525     11.5696     45.9628
   788.5000     -2.0000    740.8588     10.4777     45.5692
   788.7500      0.0000    757.0388      9.2110     47.5644
   789.0000      0.0000    768.2913      8.0032     51.2391
   789.2500      0.0000    773.0334      7.0659     55.3147
   789.5000      0.0000    770.8839      6.4799     58.6178
   789.7500      0.0000    762.8526      6.1812     60.8130
   790.0000      0.0000    749.6942      6.0429     62.5126
   790.2500      0.0000    732.1190      5.9902     64.5210
   790.5000      0.0000    713.0309      6.0324     67.0370
   790.7500      0.0000    697.4973      6.1881     69.6288
   791.0000      0.0000    688.7118      6.4228     71.8691
   791.2500      0.0000    684.7172      6.6733     73.9213
   791.5000      0.0000    680.6348      6.8855     76.4761
   791.7500      0.0000    674.0222      7.0124     79.9198
   792.0000      0.0000    667.6225      7.0142     83.4935
   792.2500      0.0000    666.9965      6.8830     85.6317
   792.5000      0.0000    675.1892      6.6466     85.3912
   792.7500      0.0000    689.6523      6.3443     83.3509
   793.0000      0.0000    704.5456      6.0171     81.1409
   793.2500      0.0000    715.5842      5.7158     80.3809
   793.5000      0.0000    722.2926      5.4895     81.8548
   793.7500      0.0000    726.3499      5.3501     85.0834
   794.0000      0.0000    728.8784      5.2536     88.6092
   794.2500      0.0000    729.6761      5.1358     90.9512
   794.5000      0.0000    728.6403      4.9740     91.5046
   794.7500      0.0000    726.9856      4.8128     90.8591
   795.0000      0.0000    726.5172      4.7220     90.3472
   795.2500      0.0000    728.0497      4.7340     90.9659
   795.5000      0.0000    731.1458      4.8224     92.7281
   795.7500      0.0000    735.3284      4.9276     95.1750
   796.0000      0.0000    740.8159      4.9939     97.9708
   796.2500      0.0000    747.3344      4.9907    100.5461
