~Version Information
VERS.                      2.0: CWLS Log ASCII Standard - VERSION 2.0
WRAP.                       NO: One line per depth step
~Well Information Block
STRT.FT               250.0000: 
STOP.FT              1573.7500: 
STEP.FT                 0.2500: 
NULL.                -999.2500: 
COMP.          Pioneer Natural Resources: COMPANY
WELL.          Big Cat Federal 44-1: WELL
FLD.           Purgatoire River: FIELD
LOC.           197' FSL & 973' FEL--: LOCATION
CNTY.               Las Animas: COUNTY
SRVC.                Patterson: SERVICE COMPANY
DATE.          Sun Apr 23 14:54:11 2006: LOG DATE
UWI.           05 071 08042 00: UNIQUE WELL ID
STAT.                 Colorado: STATE
~Curve Information Block
DEPT.FT            0 000 00 00: Depth
DIR.Ohm-m                     : IEL Induction Resistivity
GR.GAPI                       : Gamma Ray
~Parameter Information Block
~A  Depth       DIR          GR     
# ...
  1420.7500     14.6590    114.5319
  1421.0000     15.2542    107.2508
  1421.2500     15.9107    102.4295
  1421.5000     16.5923     96.1893
  1421.7500     17.2452     93.4988
  1422.0000     17.8007     92.8218
  1422.2500     18.1905     94.8014
  1422.5000     18.3740    100.8364
  1422.7500     18.3626    106.1714
  1423.0000     18.2228    114.3036
  1423.2500     18.0520    118.5005
  1423.5000     17.9463    120.9076
  1423.7500     17.9781    119.1842
  1424.0000     18.1945    111.4333
  1424.2500     18.6234    103.4624
  1424.5000     19.2780     89.5499
  1424.7500     20.1494     80.4921
  1425.0000     21.1861     69.2369
  1425.2500     22.2721     63.9496
  1425.5000     23.2259     59.7527
  1425.7500     23.8470     59.3206
  1426.0000     24.0043     61.6784
  1426.2500     23.7005     65.0356
  1426.5000     23.0528     72.7429
  1426.7500     22.2130     79.5747
  1427.0000     21.2992     91.2327
  1427.2500     20.3795     98.6211
  1427.5000     19.4899    106.5639
  1427.7500     18.6602    108.8071
  1428.0000     17.9272    107.7540
  1428.2500     17.3354    105.1548
  1428.5000     16.9293    100.7047
  1428.7500     16.7421     98.3661
  1429.0000     16.7870     96.3965
  1429.2500     17.0499     95.8184
  1429.5000     17.4897     94.8186
  1429.7500     18.0442     93.2997
  1430.0000     18.6410     89.1789
  1430.2500     19.2083     85.6161
  1430.5000     19.6829     80.9277
  1430.7500     20.0215     79.3880
  1431.0000     20.2129     79.9636
  1431.2500     20.2828     81.5008
  1431.5000     20.2800     83.6358
  1431.7500     20.2523     84.3092
  1432.0000     20.2278     84.3796
  1432.2500     20.2134     84.3216
  1432.5000     20.2055     84.7138
  1432.7500     20.1977     85.1856
  1433.0000     20.1801     85.4428
  1433.2500     20.1335     85.0241
  1433.5000     20.0298     83.9214
  1433.7500     19.8458     83.3748
  1434.0000     19.5808     83.1567
  1434.2500     19.2650     83.2241
  1434.5000     18.9500     83.5578
  1434.7500     18.6864     84.2433
  1435.0000     18.5027     86.3223
  1435.2500     18.3926     88.1189
  1435.5000     18.3146     90.5798
  1435.7500     18.2057     91.8298
  1436.0000     18.0066     93.1644
  1436.2500     17.6902     93.7710
  1436.5000     17.2749     94.7193
  1436.7500     16.8131     96.0768
  1437.0000     16.3654    100.5515
  1437.2500     15.9772    105.2657
  1437.5000     15.6653    113.3745
  1437.7500     15.4162    118.1820
  1438.0000     15.1924    123.2115
  1438.2500     14.9480    125.0308
  1438.5000     14.6497    125.7637
  1438.7500     14.2926    125.2231
  1439.0000     13.9001    123.7599
  1439.2500     13.5115    122.9926
  1439.5000     13.1659    122.9771
  1439.7500     12.8905    123.8552
  1440.0000     12.6964    126.1714
  1440.2500     12.5788    128.1558
  1440.5000     12.5215    131.7704
  1440.7500     12.5033    134.5013
  1441.0000     12.5036    137.9487
  1441.2500     12.5064    138.8964
  1441.5000     12.4993    137.7135
  1441.7500     12.4729    135.6810
  1442.0000     12.4214    132.1446
  1442.2500     12.3472    130.1188
  1442.5000     12.2639    128.2516
  1442.7500     12.1953    127.8924
  1443.0000     12.1685    128.3745
  1443.2500     12.2046    129.0313
  1443.5000     12.3100    129.8026
  1443.7500     12.4717    129.7048
  1444.0000     12.6585    127.9530
  1444.2500     12.8307    125.5093
  1444.5000     12.9555    119.9171
  1444.7500     13.0204    115.2613
  1445.0000     13.0353    108.6508
  1445.2500     13.0235    105.9226
  1445.5000     13.0070    105.8575
  1445.7500     12.9940    108.3199
  1446.0000     12.9747    114.4163
  1446.2500     12.9246    119.3051
  1446.5000     12.8153    126.8326
  1446.7500     12.6297    131.3666
  1447.0000     12.3720    136.3442
  1447.2500     12.0683    137.9383
  1447.5000     11.7562    137.3193
  1447.7500     11.4700    134.9526
  1448.0000     11.2309    129.1482
  1448.2500     11.0454    124.4547
  1448.5000     10.9098    117.6099
  1448.7500     10.8178    114.1317
  1449.0000     10.7661    112.1208
  1449.2500     10.7571    113.3140
  1449.5000     10.7983    117.9425
  1449.7500     10.9013    121.7269
  1450.0000     11.0808    126.6495
  1450.2500     11.3527    128.6759
  1450.5000     11.7326    128.3685
  1450.7500     12.2333    125.1074
  1451.0000     12.8632    115.7549
  1451.2500     13.6276    107.8497
  1451.5000     14.5324     96.4526
  1451.7500     15.5898     90.3840
  1452.0000     16.8164     84.4864
  1452.2500     18.2191     82.9902
  1452.5000     19.7685     85.4028
  1452.7500     21.3720     91.1632
  1453.0000     22.8682    108.0178
  1453.2500     24.0622    125.1481
  1453.5000     24.7918    157.3270
  1453.7500     24.9909    179.6531
  1454.0000     24.7138    206.9674
  1454.2500     24.1125    217.6389
  1454.5000     23.3805    220.3839
  1454.7500     22.6914    214.4100
  1455.0000     22.1628    197.5679
  1455.2500     21.8526    183.6221
  1455.5000     21.7760    162.4667
  1455.7500     21.9235    149.8164
  1456.0000     22.2654    134.4854
  1456.2500     22.7443    127.0740
  1456.5000     23.2712    121.1437
  1456.7500     23.7412    121.8351
  1457.0000     24.0729    132.2881
  1457.2500     24.2469    146.1552
  1457.5000     24.3100    175.2352
  1457.7500     24.3435    197.1234
  1458.0000     24.4239    227.4859
  1458.2500     24.6041    243.3515
  1458.5000     24.9132    259.2240
  1458.7500     25.3630    265.8284
  1459.0000     25.9509    275.3321
  1459.2500     26.6638    286.0760
  1459.5000     27.4879    316.1704
  1459.7500     28.4224    346.6872
  1460.0000     29.4816    400.5943
  1460.2500     30.6811    432.5243
  1460.5000     32.0139    457.3550
  1460.7500     33.4355    454.0373
  1461.0000     34.8698    426.9477
  1461.2500     36.2380    405.1849
  1461.5000     37.4891    385.9444
  1461.7500     38.6079    387.9720
  1462.0000     39.6013    411.2366
  1462.2500     40.4845    433.0619
  1462.5000     41.2863    458.5570
  1462.7500     42.0534    462.1879
  1463.0000     42.8338    440.6689
  1463.2500     43.6415    410.4512
  1463.5000     44.4318    354.5560
  1463.7500     45.1166    320.1628
  1464.0000     45.6143    284.5231
  1464.2500     45.8953    272.2032
  1464.5000     45.9754    263.9754
  1464.7500     45.8655    259.6429
  1465.0000     45.5360    247.4705
  1465.2500     44.9381    234.0826
  1465.5000     44.0602    208.0281
  1465.7500     42.9609    188.8223
  1466.0000     41.7475    159.9409
  1466.2500     40.5265    141.6007
  1466.5000     39.3700    117.4280
  1466.7500     38.3213    105.0024
  1467.0000     37.4179     93.9793
  1467.2500     36.6988     92.1927
  1467.5000     36.1815     96.7153
  1467.7500     35.8286    102.3987
  1468.0000     35.5425    109.4796
  1468.2500     35.2018    110.4665
  1468.5000     34.7155    104.9972
  1468.7500     34.0514     98.0582
  1469.0000     33.2257     86.5646
  1469.2500     32.2800     80.0994
  1469.5000     31.2677     73.9521
  1469.7500     30.2449     72.4049
  1470.0000     29.2540     73.2174
  1470.2500     28.3078     75.1063
  1470.5000     27.3883     78.5807
  1470.7500     26.4654     80.6815
  1471.0000     25.5225     83.0340
  1471.2500     24.5747     84.2647
  1471.5000     23.6659     86.4593
  1471.7500     22.8494     88.5257
  1472.0000     22.1642     92.3127
  1472.2500     21.6220     94.6834
  1472.5000     21.2091     96.6786
  1472.7500     20.8973     96.4523
  1473.0000     20.6569     93.9955
  1473.2500     20.4652     91.6725
  1473.5000     20.3097     88.5359
  1473.7500     20.1853     87.0825
  1474.0000     20.0903     85.6558
  1474.2500     20.0221     84.8062
  1474.5000     19.9760     83.3926
  1474.7500     19.9447     82.7317
  1475.0000     19.9189     83.1320
  1475.2500     19.8889     84.4273
  1475.5000     19.8492     86.9503
  1475.7500     19.8019     88.2405
  1476.0000     19.7562     88.8508
  1476.2500     19.7229     88.4643
