~Version Information
VERS.                      2.0: CWLS Log ASCII Standard - VERSION 2.0
WRAP.                       NO: One line per depth step
~Well Information Block
STRT.FT               640.0000: 
STOP.FT               927.0000: 
STEP.FT                 0.1000: 
NULL.                -999.2500: 
COMP.          Pioneer Natural Resources: COMPANY
WELL.          Claim Jumper 41-22: WELL
FLD.           Purgatoire River: FIELD
LOC.           1120' FNL & 977' FEL: LOCATION
PROV.                 Colorado: PROVINCE
CNTY.               Las Animas: COUNTRY
SRVC.                Patterson: SERVICE COMPANY
DATE.          Thu Jun 23 08:35:14 2005: LOG DATE
UWI.           05-071-08405-00: UNIQUE WELL ID
~Curve Information Block
DEPT.FT            0 000 00 00: Depth
DCAL.in                       : CDL Caliper
RHOB.g/cc                     : CDL Bulk Density
RHOC.g/cc                     : CDL Density Correction
DPOR.pu                       : CDL Density Porosity
GR.GAPI                       : Gamma Ray
NPOR.pu                       : Neutron Porosity
~Parameter Information Block
~A  Depth       DCAL        RHOB        RHOC        DPOR         GR         NPOR    
# ...
   870.4000      7.8748      2.5427      0.1218      6.5028    114.4077     21.1815
   870.5000      7.8774      2.5337      0.1014      7.0501    120.4504     21.1531
   870.6000      7.8774      2.5094      0.0566      8.5199    130.4881     21.0035
   870.7000      7.8774      2.4853      0.0510      9.9806    128.8653     20.8908
   870.8000      7.8790      2.4725      0.0216     10.7547    116.0009     20.8994
   870.9000      7.8790      2.4676      0.0247     11.0532    104.7778     21.0529
   871.0000      7.8809      2.4640      0.0263     11.2751    100.9141     21.2863
   871.1000      7.8809      2.4578      0.0318     11.6490     98.9292     21.2925
   871.2000      7.8809      2.4472      0.0409     12.2879     97.3129     21.1521
   871.3000      7.8870      2.4365     -0.0135     12.9398    100.0872     21.2212
   871.4000      7.8870      2.4364     -0.0288     12.9475    105.9427     21.4529
   871.5000      7.8938      2.4421      0.0583     12.6020    110.8761     21.5518
   871.6000      7.8938      2.4379      0.0433     12.8548    111.3853     21.4721
   871.7000      7.8938      2.4330     -0.0102     13.1520    106.5481     21.2944
   871.8000      7.8937      2.4460      0.0086     12.3662    102.7136     21.0240
   871.9000      7.8937      2.4671      0.0943     11.0875    104.8368     20.7451
   872.0000      7.8860      2.4815      0.0688     10.2148    109.8677     20.6259
   872.1000      7.8860      2.4929      0.0929      9.5223    115.6840     20.7511
   872.2000      7.8860      2.5014      0.0900      9.0077    122.7416     20.9933
   872.3000      7.8806      2.5008      0.0897      9.0433    128.5621     21.1268
   872.4000      7.8806      2.4946      0.0740      9.4199    128.2130     21.1777
   872.5000      7.8809      2.4927      0.0676      9.5346    121.5178     21.3332
   872.6000      7.8809      2.4960      0.0778      9.3335    114.2506     21.5133
   872.7000      7.8809      2.4968      0.0692      9.2863    112.1461     21.7217
   872.8000      7.8810      2.4950      0.0478      9.3917    117.2575     22.0468
   872.9000      7.8810      2.4916      0.0956      9.5980    122.8917     22.2391
   873.0000      7.8803      2.4858      0.0223      9.9539    121.7615     22.1627
   873.1000      7.8803      2.4854      0.0761      9.9772    116.8282     21.9834
   873.2000      7.8803      2.4945      0.0397      9.4222    112.8461     21.9268
   873.3000      7.8821      2.5134      0.0427      8.2812    110.8652     22.0802
   873.4000      7.8821      2.5364      0.0665      6.8879    113.2968     22.2845
   873.5000      7.8856      2.5518      0.1032      5.9487    121.9556     22.5808
   873.6000      7.8856      2.5564      0.0209      5.6711    130.4995     23.2171
   873.7000      7.8856      2.5525      0.0528      5.9096    134.5813     24.0346
   873.8000      7.8879      2.5422      0.0267      6.5304    139.0841     24.4554
   873.9000      7.8879      2.5399      0.0045      6.6715    144.4583     24.3024
   874.0000      7.8873      2.5509      0.0690      6.0072    145.5681     24.1892
   874.1000      7.8873      2.5619      0.0475      5.3393    142.6138     24.5970
   874.2000      7.8873      2.5750      0.0321      4.5460    140.3223     25.2718
   874.3000      7.8810      2.5904      0.1028      3.6107    140.4565     25.6611
   874.4000      7.8810      2.5944      0.0769      3.3722    138.8430     25.6669
   874.5000      7.8671      2.5945      0.1018      3.3627    134.4181     25.5054
   874.6000      7.8671      2.6123      0.1408      2.2865    130.4630     25.2378
   874.7000      7.8671      2.6455      0.1599      0.2698    129.7101     24.9572
   874.8000      7.8557      2.6667      0.1700     -1.0150    133.4361     24.9932
   874.9000      7.8557      2.6562      0.1296     -0.3761    138.0382     25.4908
   875.0000      7.8685      2.6239      0.0939      1.5794    143.2355     25.9258
   875.1000      7.8685      2.5873      0.0778      3.8018    150.4999     25.7160
   875.2000      7.8685      2.5515      0.0085      5.9670    150.5180     25.2843
   875.3000      7.8983      2.5282     -0.0443      7.3791    140.5790     25.2211
   875.4000      7.8983      2.5358      0.0152      6.9188    130.7782     25.1457
   875.5000      7.9107      2.5777     -0.0091      4.3809    124.3494     24.6409
   875.6000      7.9107      2.6338      0.0841      0.9840    118.8225     23.9930
   875.7000      7.9107      2.6663      0.1108     -0.9853    117.7911     23.5124
   875.8000      7.8961      2.6590      0.1259     -0.5425    123.1895     23.1666
   875.9000      7.8961      2.6289      0.1311      1.2794    131.4816     22.8867
   876.0000      7.8778      2.5951      0.1082      3.3288    137.3083     22.8744
   876.1000      7.8778      2.5760      0.0645      4.4821    133.5318     23.2188
   876.2000      7.8778      2.5825      0.1320      4.0887    123.3920     23.7331
   876.3000      7.8724      2.6003      0.1543      3.0110    119.0223     24.2408
   876.4000      7.8724      2.6123      0.1709      2.2845    122.9518     24.6951
   876.5000      7.8730      2.6145      0.1467      2.1488    128.4203     25.2467
   876.6000      7.8730      2.6111      0.1563      2.3559    128.7866     25.6906
   876.7000      7.8730      2.6115      0.1291      2.3362    121.0051     25.7060
   876.8000      7.8689      2.6187      0.1632      1.8982    111.9967     25.6336
   876.9000      7.8689      2.6223      0.1413      1.6817    109.2884     25.6955
   877.0000      7.8700      2.6185      0.1396      1.9072    108.7060     25.6498
   877.1000      7.8700      2.6103      0.1591      2.4044    104.1695     25.3273
   877.2000      7.8700      2.5956      0.0485      3.2946     98.4576     24.8363
   877.3000      7.8793      2.5837      0.0625      4.0158     96.4645     24.4366
   877.4000      7.8793      2.5818      0.0801      4.1360    101.2492     23.8696
   877.5000      7.8793      2.5828      0.1010      4.0755    111.2699     22.8808
   877.6000      7.8793      2.5917      0.0496      3.5349    117.1598     22.1456
   877.7000      7.8793      2.6153      0.1258      2.1032    117.5837     22.1848
   877.8000      7.8679      2.6300      0.1505      1.2116    121.9319     22.5887
   877.9000      7.8679      2.6281      0.0347      1.3255    126.4296     22.8086
   878.0000      7.8622      2.6399      0.1005      0.6146    118.9946     22.7758
   878.1000      7.8622      2.6707      0.1624     -1.2515    104.4646     22.6774
   878.2000      7.8622      2.6921      0.1538     -2.5537    100.8825     22.7135
   878.3000      7.8633      2.6844      0.1119     -2.0839    111.7099     23.0490
   878.4000      7.8633      2.6521      0.0818     -0.1300    125.1521     23.6296
   878.5000      7.8648      2.6164      0.1022      2.0358    135.8213     24.1152
   878.6000      7.8648      2.5974      0.0544      3.1889    142.4143     24.3652
   878.7000      7.8648      2.5968      0.0773      3.2272    142.0217     24.5622
   878.8000      7.8688      2.5984      0.1226      3.1248    134.6072     24.6592
   878.9000      7.8688      2.5971      0.0691      3.2032    129.1419     24.5970
   879.0000      7.8765      2.5929      0.0764      3.4595    132.4187     24.6930
   879.1000      7.8765      2.5811      0.0563      4.1782    139.5798     25.1474
   879.2000      7.8765      2.5660      0.0504      5.0930    143.8325     25.6948
   879.3000      7.8900      2.5559      0.0758      5.7017    143.0103     26.0962
   879.4000      7.8900      2.5498      0.0612      6.0738    138.7576     26.3497
   879.5000      7.8981      2.5414      0.0673      6.5833    131.8883     26.1800
   879.6000      7.8981      2.5340      0.0817      7.0318    123.9937     25.4487
   879.7000      7.8981      2.5344      0.1185      7.0078    119.6050     24.7813
   879.8000      7.8891      2.5394      0.1046      6.7015    121.8945     24.5107
   879.9000      7.8891      2.5425      0.1055      6.5131    125.1237     24.4217
