~Version Information
VERS.                      2.0: CWLS Log ASCII Standard - VERSION 2.0
WRAP.                       NO: One line per depth step
~Well Information Block
STRT.FT               450.0000: 
STOP.FT              1739.2000: 
STEP.FT                 0.1000: 
NULL.                -999.2500: 
COMP.          Pioneer Natural Resources: COMPANY
WELL.            Harlee L 34-9: WELL
FLD.           Purgatoire River: FIELD
LOC.           600' FSL & 2125' FEL: LOCATION
PROV.                 Colorado: PROVINCE
CNTY.               Las Animas: COUNTRY
SRVC.                Patterson: SERVICE COMPANY
DATE.          Wed Jan 26 13:57:24 2005: LOG DATE
UWI.           05 071 08009 00: UNIQUE WELL ID
~Curve Information Block
DEPT.FT            0 000 00 00: Depth
DCAL.in                       : CDL Caliper
RHOB.g/cc                     : CDL Bulk Density
RHOC.g/cc                     : CDL Density Correction
DPOR.pu                       : CDL Density Porosity
NPOR.pu                       : Neutron Porosity
GR.GAPI                       : Gamma Ray
~Parameter Information Block
~A  Depth       DCAL        RHOB        RHOC        DPOR        NPOR         GR     
# ...
   613.2000      8.8494      2.4890      0.0414      9.7572     20.1656     86.1582
   613.3000      8.8520      2.4886     -0.0102      9.7832     19.5919     85.7538
   613.4000      8.8520      2.4978      0.0515      9.2235     19.5688     86.9385
   613.5000      8.8530      2.5093      0.0802      8.5287     19.7561     86.8466
   613.6000      8.8530      2.5156      0.0740      8.1452     19.7509     85.6263
   613.7000      8.8530      2.5313      0.0702      7.1925     19.4676     84.3452
   613.8000      8.8537      2.5605      0.1154      5.4248     19.1494     83.7789
   613.9000      8.8537      2.5794      0.1383      4.2760     19.1962     85.0302
   614.0000      8.8575      2.5804      0.1123      4.2186     19.5722     85.5371
   614.1000      8.8575      2.5815      0.1229      4.1511     19.9021     82.6563
   614.2000      8.8575      2.5935      0.1107      3.4255     20.2490     80.5674
   614.3000      8.8609      2.6138      0.1138      2.1916     21.0421     83.5375
   614.4000      8.8609      2.6307      0.1099      1.1690     22.2990     87.4331
   614.5000      8.8613      2.6350      0.0841      0.9104     23.5733     85.6220
   614.6000      8.8613      2.6275      0.1148      1.3656     24.5848     78.9841
   614.7000      8.8613      2.5984      0.0475      3.1277     25.1829     73.8488
   614.8000      8.8604      2.5393     -0.0089      6.7106     25.3080     73.8793
   614.9000      8.8604      2.4704     -0.0342     10.8825     25.3187     77.1872
   615.0000      8.8616      2.4261     -0.0357     13.5696     25.5222     81.7264
   615.1000      8.8616      2.4138      0.0198     14.3128     25.7794     87.8494
   615.2000      8.8616      2.4130      0.0359     14.3627     25.7016     93.3902
   615.3000      8.8718      2.4085      0.0262     14.6390     25.2587     94.8470
   615.4000      8.8718      2.3987      0.0263     15.2305     24.7048     96.7136
   615.5000      8.8925      2.3831      0.0272     16.1787     24.2753    105.7326
   615.6000      8.8925      2.3535      0.0730     17.9703     24.1842    119.7444
   615.7000      8.8925      2.3057      0.0201     20.8694     24.2271    132.2327
   615.8000      8.9113      2.2594     -0.0497     23.6739     23.9524    140.2001
   615.9000      8.9113      2.2477     -0.0560     24.3804     23.2507    142.2798
   616.0000      8.9201      2.2765      0.0919     22.6346     22.3969    139.6821
   616.1000      8.9201      2.3122      0.1333     20.4705     21.6482    139.8698
   616.2000      8.9201      2.3233      0.1216     19.7970     21.1120    147.2842
   616.3000      8.9220      2.3165      0.0676     20.2100     20.8975    155.0998
   616.4000      8.9220      2.3205      0.0679     19.9720     20.8344    154.1186
   616.5000      8.9216      2.3431      0.0857     18.6030     20.5815    143.1862
   616.6000      8.9216      2.3644      0.1079     17.3062     20.2286    132.5894
   616.7000      8.9216      2.3684      0.0935     17.0687     19.9735    129.2815
   616.8000      8.9210      2.3646      0.0517     17.2951     19.8284    128.9563
   616.9000      8.9210      2.3762      0.0694     16.5934     19.9623    127.4907
   617.0000      8.9202      2.3996      0.1195     15.1753     20.3633    123.6408
   617.1000      8.9202      2.4014      0.1227     15.0642     20.7426    117.8812
   617.2000      8.9202      2.3756      0.0363     16.6288     20.9532    114.6454
   617.3000      8.9198      2.3615     -0.0080     17.4862     21.0221    116.6781
   617.4000      8.9198      2.3770      0.0772     16.5433     20.8304    121.0813
   617.5000      8.9203      2.3901      0.1057     15.7533     20.3034    124.4926
   617.6000      8.9203      2.3747      0.0840     16.6841     19.7086    124.6998
   617.7000      8.9203      2.3424      0.0416     18.6405     19.2738    122.7743
   617.8000      8.9213      2.3091      0.0314     20.6604     19.0452    122.1373
   617.9000      8.9213      2.2739      0.0241     22.7959     18.9581    124.3673
   618.0000      8.9238      2.2465     -0.0229     24.4541     18.8480    127.6324
   618.1000      8.9238      2.2519     -0.0102     24.1268     18.7784    129.0616
   618.2000      8.9238      2.2896      0.0297     21.8404     18.7660    127.5558
   618.3000      8.9321      2.3268      0.0773     19.5869     18.5055    122.3252
   618.4000      8.9321      2.3434      0.0509     18.5818     18.0528    116.8419
   618.5000      8.9392      2.3533      0.0484     17.9836     17.8934    114.3933
   618.6000      8.9392      2.3711      0.1183     16.9024     18.0735    113.3726
   618.7000      8.9392      2.3907      0.2046     15.7173     18.1145    115.3446
   618.8000      8.9327      2.4101      0.1566     14.5422     18.0980    123.3167
   618.9000      8.9327      2.4438      0.1961     12.4964     18.4746    132.9353
   619.0000      8.9242      2.4878      0.2621      9.8332     19.0323    138.0964
   619.1000      8.9242      2.5121      0.2739      8.3546     19.5134    137.8252
   619.2000      8.9242      2.5116      0.1306      8.3884     20.0437    135.3644
   619.3000      8.9207      2.5139      0.0788      8.2499     20.6399    133.4971
   619.4000      8.9207      2.5244      0.1234      7.6117     21.3700    131.4945
   619.5000      8.9195      2.5252      0.1060      7.5636     22.3610    128.5000
   619.6000      8.9195      2.5168      0.0694      8.0756     23.3828    127.4091
   619.7000      8.9195      2.5128      0.0544      8.3137     24.3452    129.3215
   619.8000      8.9207      2.5184      0.0576      7.9782     25.4044    129.2043
   619.9000      8.9207      2.5274      0.0303      7.4293     26.3309    125.6695
   620.0000      8.9258      2.5312      0.0537      7.1997     26.8073    122.9287
   620.1000      8.9258      2.5247      0.0157      7.5957     27.0736    123.8785
   620.2000      8.9258      2.5136      0.0157      8.2643     27.3568    127.6811
   620.3000      8.9344      2.5084     -0.0066      8.5846     27.4531    131.5266
   620.4000      8.9344      2.5081      0.0344      8.5989     27.2355    133.0981
   620.5000      8.9407      2.5069      0.0089      8.6717     26.7911    132.4063
   620.6000      8.9407      2.5047      0.0405      8.8033     26.1507    132.1387
   620.7000      8.9407      2.5003      0.0486      9.0717     25.5520    133.1392
   620.8000      8.9432      2.4884      0.0918      9.7930     25.0803    132.2462
   620.9000      8.9432      2.4541      0.1376     11.8700     24.3205    128.7330
   621.0000      8.9454      2.3863      0.0645     15.9822     23.4072    127.5693
   621.1000      8.9454      2.3054      0.0146     20.8860     22.7893    130.6588
   621.2000      8.9454      2.2413     -0.0307     24.7712     22.2673    134.1108
   621.3000      8.9513      2.1994      0.0007     27.3101     21.5548    136.2896
   621.4000      8.9513      2.1717     -0.0104     28.9861     20.6638    137.0999
   621.5000      8.9614      2.1595     -0.0032     29.7281     19.5510    135.5827
   621.6000      8.9614      2.1656      0.0454     29.3595     18.3134    132.8311
   621.7000      8.9614      2.1846      0.0598     28.2038     17.3577    132.0262
   621.8000      8.9689      2.2137      0.0541     26.4435     16.8662    135.3813
   621.9000      8.9689      2.2508      0.0928     24.1948     16.5508    139.4028
   622.0000      8.9721      2.2820      0.1445     22.3042     16.3036    140.3499
   622.1000      8.9721      2.2892      0.1669     21.8654     16.2635    139.3187
   622.2000      8.9721      2.2700      0.1352     23.0333     16.3009    136.8073
   622.3000      8.9736      2.2405      0.0959     24.8167     16.4157    132.6272
   622.4000      8.9736      2.2143      0.1078     26.4039     16.7096    127.7893
   622.5000      8.9784      2.1875      0.0824     28.0280     17.0043    124.4310
   622.6000      8.9784      2.1519      0.0578     30.1904     17.0704    122.8249
   622.7000      8.9784      2.0960      0.1026     33.5776     16.8520    122.1405
