~Version Information
VERS.                      2.0: CWLS Log ASCII Standard - VERSION 2.0
WRAP.                       NO: One line per depth step
~Well Information Block
STRT.FT               453.5000: 
STOP.FT              1386.0000: 
STEP.FT                 0.1000: 
NULL.                -999.2500: 
COMP.          Petrogulf Corporation: COMPANY
WELL.          Great Plains 22-22R: WELL
FLD.           Purgatoire River: FIELD
LOC.           2042' FNL & 1657' FWL--: LOCATION
PROV.                 Colorado: PROVINCE
CNTY.               Las Animas: COUNTRY
SRVC.                Patterson: SERVICE COMPANY
DATE.          Fri Sep 09 14:42:42 2005: LOG DATE
UWI.           05 071 08028 00: UNIQUE WELL ID
~Curve Information Block
DEPT.FT            0 000 00 00: Depth
DCAL.in                       : CDL Caliper
RHOB.g/cc                     : CDL Bulk Density
RHOC.g/cc                     : CDL Density Correction
DPOR.pu                       : CDL Density Porosity
NPOR.pu                       : Neutron Porosity
GR.GAPI                       : Gamma Ray
~Parameter Information Block
~A  Depth       DCAL        RHOB        RHOC        DPOR        NPOR         GR     
# ...
  1183.1000      7.9163      2.6232      0.0711      1.6230     21.4453    110.3406
  1183.2000      7.9163      2.6155      0.0534      2.0931     21.7763    115.0381
  1183.3000      7.9165      2.5981      0.0462      3.1433     21.9948    116.9728
  1183.4000      7.9165      2.5808      0.0141      4.1932     22.0820    115.9544
  1183.5000      7.9166      2.5671      0.0440      5.0219     22.4097    115.0688
  1183.6000      7.9166      2.5577     -0.0323      5.5935     23.3038    118.4784
  1183.7000      7.9166      2.5598      0.0242      5.4649     24.1848    125.0344
  1183.8000      7.9161      2.5730      0.0281      4.6676     24.4314    129.0687
  1183.9000      7.9161      2.5902      0.0454      3.6219     24.5738    128.1569
  1184.0000      7.9123      2.6043      0.0558      2.7678     24.9406    123.5288
  1184.1000      7.9123      2.6097      0.0454      2.4437     25.0292    117.8483
  1184.2000      7.9123      2.6072      0.0458      2.5941     24.6335    114.1829
  1184.3000      7.9033      2.6003      0.0186      3.0096     23.9423    113.9797
  1184.4000      7.9033      2.5871      0.0587      3.8143     23.2530    118.7324
  1184.5000      7.8933      2.5624      0.0413      5.3086     22.8562    125.6360
  1184.6000      7.8933      2.5373      0.0001      6.8312     22.7065    128.9295
  1184.7000      7.8933      2.5317      0.0273      7.1677     22.9141    127.7765
  1184.8000      7.8916      2.5516      0.0191      5.9625     23.4403    123.9601
  1184.9000      7.8916      2.5762      0.0941      4.4714     23.6470    120.7472
  1185.0000      7.8973      2.5804      0.0581      4.2191     23.5836    119.4024
  1185.1000      7.8973      2.5762      0.0452      4.4706     23.8429    115.9693
  1185.2000      7.8973      2.5840      0.0575      4.0025     24.1039    108.9753
  1185.3000      7.9036      2.5877      0.0936      3.7751     23.7128    101.9592
  1185.4000      7.9036      2.5698      0.0498      4.8617     22.7408     99.5708
  1185.5000      7.9093      2.5492      0.0242      6.1114     21.6091    103.0433
  1185.6000      7.9093      2.5453      0.0446      6.3434     20.8732    108.2171
  1185.7000      7.9093      2.5521      0.0035      5.9337     21.0723    111.5278
  1185.8000      7.9119      2.5631     -0.0070      5.2659     21.6443    114.0487
  1185.9000      7.9119      2.5773     -0.0291      4.4043     21.7329    115.7924
  1186.0000      7.9066      2.5882      0.0366      3.7444     21.6349    114.3943
  1186.1000      7.9066      2.5867      0.0445      3.8387     21.9595    111.5067
  1186.2000      7.9066      2.5724      0.0201      4.7007     22.5917    110.2747
  1186.3000      7.8955      2.5551      0.0178      5.7533     22.9131    109.7858
  1186.4000      7.8955      2.5453      0.0162      6.3424     22.6948    107.1319
  1186.5000      7.8893      2.5481      0.0275      6.1769     22.4324    102.2995
  1186.6000      7.8893      2.5609      0.0033      5.4015     22.2879     98.5954
  1186.7000      7.8893      2.5765      0.0482      4.4546     21.8306     97.5095
  1186.8000      7.8886      2.5841      0.0579      3.9937     21.1055     98.1851
  1186.9000      7.8886      2.5838      0.0334      4.0092     20.5234     99.6293
  1187.0000      7.8879      2.5898     -0.0045      3.6463     20.2545     98.7595
  1187.1000      7.8879      2.6083      0.0382      2.5269     20.0227     95.0168
  1187.2000      7.8879      2.6241      0.0509      1.5696     19.4482     91.1200
  1187.3000      7.8872      2.6193      0.0505      1.8581     18.8468     87.1112
  1187.4000      7.8872      2.5969      0.0135      3.2187     18.6200     81.5518
  1187.5000      7.8886      2.5809     -0.0125      4.1886     18.6201     76.5172
  1187.6000      7.8886      2.5838      0.0150      4.0137     18.8895     74.8283
  1187.7000      7.8886      2.5901     -0.0038      3.6299     19.2763     74.6818
  1187.8000      7.8908      2.5818      0.0232      4.1321     19.3402     73.4678
  1187.9000      7.8908      2.5619     -0.0154      5.3414     19.3403     75.5262
  1188.0000      7.8908      2.5481      0.0073      6.1732     19.3651     82.3249
  1188.1000      7.8908      2.5485     -0.0036      6.1514     18.8503     87.3165
  1188.2000      7.8908      2.5568      0.0061      5.6470     18.0681     87.8220
  1188.3000      7.8910      2.5643      0.0245      5.1925     17.7876     86.6702
  1188.4000      7.8910      2.5708      0.0053      4.8025     18.1404     85.2652
  1188.5000      7.8919      2.5861     -0.0009      3.8713     18.8143     82.7456
  1188.6000      7.8919      2.6128      0.0318      2.2562     19.5615     81.2085
  1188.7000      7.8919      2.6326      0.0590      1.0559     20.2900     82.1073
  1188.8000      7.8923      2.6260      0.0478      1.4566     20.7807     82.1716
  1188.9000      7.8923      2.5980      0.0511      3.1487     20.7771     80.1912
  1189.0000      7.8923      2.5752      0.0037      4.5317     20.6123     80.1190
  1189.1000      7.8923      2.5727      0.0269      4.6863     20.9472     86.4490
  1189.2000      7.8923      2.5736      0.0387      4.6298     21.5780     96.5860
  1189.3000      7.8954      2.5624      0.0001      5.3064     21.9021    102.7686
  1189.4000      7.8954      2.5492     -0.0174      6.1116     22.2153    103.6637
  1189.5000      7.9068      2.5424      0.0009      6.5197     22.9067    105.4841
  1189.6000      7.9068      2.5439     -0.0162      6.4311     23.9185    111.6539
  1189.7000      7.9068      2.5537      0.0489      5.8372     25.0024    119.4478
  1189.8000      7.9248      2.5620      0.0094      5.3323     25.3753    123.3257
  1189.9000      7.9248      2.5620      0.0476      5.3328     24.6582    120.5633
  1190.0000      7.9465      2.5572      0.0241      5.6269     23.8941    115.5931
  1190.1000      7.9465      2.5531      0.0236      5.8740     23.6586    115.5469
  1190.2000      7.9465      2.5556      0.0177      5.7197     23.1431    118.8880
  1190.3000      7.9566      2.5709      0.0322      4.7951     22.1619    119.3980
  1190.4000      7.9566      2.5916      0.0505      3.5379     21.3120    116.0149
  1190.5000      7.9392      2.6016      0.0390      2.9316     21.1132    112.2784
  1190.6000      7.9392      2.5973      0.0661      3.1954     21.8527    113.0005
  1190.7000      7.9392      2.5836      0.0562      4.0218     23.0227    120.2004
  1190.8000      7.9091      2.5635      0.0560      5.2419     23.6181    129.1778
  1190.9000      7.9091      2.5428      0.0143      6.4995     23.5227    134.3329
  1191.0000      7.8956      2.5343      0.0281      7.0138     23.2494    135.2601
  1191.1000      7.8956      2.5410      0.0440      6.6076     23.1462    133.1197
  1191.2000      7.8956      2.5519      0.0284      5.9436     23.3679    131.3364
  1191.3000      7.9001      2.5592      0.0170      5.5017     23.7286    131.2560
  1191.4000      7.9001      2.5575      0.0436      5.6078     23.9294    130.0163
  1191.5000      7.9080      2.5411      0.0409      6.6003     23.9650    128.9237
  1191.6000      7.9080      2.5209     -0.0497      7.8222     24.1752    132.4177
  1191.7000      7.9080      2.5139      0.0056      8.2482     24.5878    142.3381
  1191.8000      7.9140      2.5191     -0.0310      7.9348     24.8524    153.5966
  1191.9000      7.9140      2.5255      0.0358      7.5428     24.7114    156.6746
  1192.0000      7.9164      2.5273     -0.0106      7.4385     24.4179    148.9469
  1192.1000      7.9164      2.5296      0.0309      7.2942     24.5878    138.8252
  1192.2000      7.9164      2.5339      0.0140      7.0346     25.2459    136.2841
  1192.3000      7.9145      2.5384      0.0152      6.7663     25.8949    140.0506
  1192.4000      7.9145      2.5469      0.0343      6.2464     26.2371    141.2582
  1192.5000      7.9108      2.5656      0.0433      5.1175     26.1259    137.6617
  1192.6000      7.9108      2.5899      0.0770      3.6426     25.4683    138.0259
