~Version Information
VERS.                      2.0: CWLS Log ASCII Standard - VERSION 2.0
WRAP.                       NO: One line per depth step
~Well Information Block
STRT.FT                -8.5000: 
STOP.FT              1968.0000: 
STEP.FT                 0.2500: 
NULL.                -999.2500: 
COMP.          Pioneer Natural Resources: COMPANY
WELL.           Firehawk 34-26: WELL
FLD.           Purgatorie River: FIELD
LOC.           1196' FSL & 1595' FEL--: LOCATION
STAT.                       CO: State
CNTY.               Las Animas: COUNTY
CTRY. USA : Country
SECT. 26 : Section
TOWN. 32S : Township
RANG. 66W : Range 
SRVC.          Patterson Wireline: SERVICE COMPANY
DATE.          Tue Oct 25 14:45:07 2005: LOG DATE
API.           05 071 08389 00: UNIQUE WELL ID
~Curve Information Block
DEPT.FT            0 000 00 00: Depth
CCL.                          : Casing Collar Locator
TT3.usec                      : CBL 3' Travel Time
AMP3.mV                       : CBL 3' Amplitude
GR.GAPI                       : Gamma Ray
~Parameter Information Block
~A  Depth       CCL         TT3         AMP3         GR     
# ...
   259.5000      0.0000    710.8883      5.3519    105.4471
   259.7500      0.0000    708.8840      5.0732    108.0245
   260.0000      0.0000    713.0674      4.7633    109.9924
   260.2500      0.0000    722.5787      4.4616    111.6485
   260.5000      0.0000    734.5867      4.2264    112.5240
   260.7500      0.0000    746.0079      4.0997    111.5402
   261.0000      0.0000    754.5190      4.0780    108.3520
   261.2500      0.0000    758.5419      4.1226    104.0652
   261.5000      0.0000    757.7565      4.2036    100.0975
   261.7500      0.0000    753.8561      4.3323     96.6865
   262.0000      0.0000    749.6621      4.5472     93.1123
   262.2500      0.0000    747.0007      4.8652     89.3375
   262.5000      0.0000    745.8088      5.2465     86.9503
   262.7500      0.0000    745.0033      5.6090     87.9568
   263.0000      0.0000    743.5102      5.8814     92.4314
   263.2500      0.0000    740.5807      6.0420     97.7345
   263.5000      0.0000    736.0351      6.1054    100.5495
   263.7500      0.0000    730.7843      6.0817     99.7660
   264.0000      0.0000    726.7203      5.9604     97.1785
   264.2500      0.0000    725.1303      5.7315     95.5147
   264.5000      0.0000    725.0277      5.4103     96.0432
   264.7500      0.0000    723.7719      5.0361     98.0269
   265.0000      0.0000    719.8438      4.6497    100.0767
   265.2500      0.0000    714.7295      4.2722    101.4814
   265.5000      0.0000    711.8764      3.9030    102.2614
   265.7500      0.0000    713.8853      3.5394    102.7356
   266.0000      0.0000    720.4711      3.2016    103.3370
   266.2500      0.0000    728.7997      2.9337    104.3358
   266.5000      0.0000    735.7675      2.7790    105.5732
   266.7500      0.0000    739.9626      2.7567    106.6173
   267.0000      0.0000    741.6161      2.8632    107.1008
   267.2500      0.0000    741.2423      3.0824    106.8603
   267.5000      0.0000    738.7067      3.3879    106.0311
   267.7500      0.0000    733.5355      3.7400    104.9566
   268.0000      0.0000    726.0648      4.0926    103.7513
   268.2500      0.0000    718.2361      4.4072    102.2274
   268.5000      0.0000    713.0009      4.6625    100.5881
   268.7500      0.0000    712.4366      4.8587     99.7897
   269.0000      0.0000    716.0480      5.0159    100.6448
   269.2500      0.0000    720.7558      5.1619    102.8280
   269.5000      0.0000    723.0367      5.3124    105.2456
   269.7500      0.0000    721.8200      5.4575    107.0902
   270.0000      0.0000    719.3848      5.5645    108.1969
   270.2500      0.0000    718.8337      5.5951    108.8410
   270.5000      0.0000    720.5537      5.5244    109.5073
   270.7500      0.0000    721.7923      5.3556    110.3949
   271.0000      0.0000    719.8810      5.1258    110.8631
   271.2500      0.0000    715.1793      4.8907    109.7066
   271.5000      0.0000    710.5025      4.6916    106.2459
   271.7500      0.0000    708.1992      4.5344    101.1575
   272.0000      0.0000    708.2418      4.3993     96.3066
   272.2500      0.0000    708.9949      4.2659     93.6329
   272.5000      0.0000    709.2872      4.1283     93.7793
   272.7500      0.0000    709.2581      3.9919     95.4985
   273.0000      0.0000    709.3387      3.8644     96.4038
   273.2500      0.0000    709.3500      3.7486     94.7077
   273.5000      0.0000    709.0682      3.6457     90.8195
   273.7500      0.0000    708.8175      3.5590     87.2897
   274.0000      0.0000    708.8012      3.4917     86.8342
   274.2500      0.0000    708.5369      3.4382     90.3219
   274.5000      0.0000    707.8276      3.3823     96.6264
   274.7500      0.0000    707.8597      3.3088    103.7976
   275.0000      0.0000    710.3817      3.2170    109.9070
   275.2500      0.0000    715.5981      3.1229    113.1351
   275.5000      0.0000    721.1965      3.0477    112.0730
   275.7500      0.0000    723.7301      3.0015    106.8910
   276.0000      0.0000    720.9965      2.9779    100.2334
   276.2500      0.0000    713.0305      2.9645     95.9401
   276.5000      0.0000    701.4197      2.9560     96.0187
   276.7500      0.0000    688.7396      2.9549     99.0170
   277.0000      0.0000    678.5040      2.9629    101.6457
   277.2500      0.0000    673.8104      2.9774    101.7386
   277.5000      0.0000    674.9916      2.9964     99.5985
   277.7500      0.0000    679.2590      3.0223     97.0298
   278.0000      0.0000    682.9551      3.0594     95.5572
   278.2500      0.0000    683.9103      3.1100     95.3503
   278.5000      0.0000    682.2524      3.1717     95.2829
   278.7500      0.0000    679.8304      3.2399     93.7934
   279.0000      0.0000    678.9323      3.3105     90.2056
   279.2500      0.0000    681.1705      3.3799     85.5940
   279.5000      0.0000    687.1954      3.4431     82.1252
   279.7500      0.0000    696.8464      3.4962     81.2326
   280.0000      0.0000    708.8272      3.5433     82.5460
   280.2500      0.0000    720.1967      3.5906     84.5575
   280.5000      0.0000    726.9863      3.6296     85.9437
   280.7500      0.0000    725.9845      3.6380     86.1562
   281.0000      0.0000    716.6776      3.6140     85.1162
   281.2500      0.0000    702.6285      3.6005     82.6852
   281.5000      0.0000    691.6114      3.6497     78.6126
   281.7500      0.0000    693.0340      3.7713     73.1067
   282.0000      0.0000    712.0934      3.9430     67.3035
   282.2500      0.0000    744.2682      4.1624     62.7240
   282.5000      0.0000    776.3782      4.4515     60.0425
   282.7500     -2.0000    795.4267      4.8083     58.5832
   283.0000      2.0000    797.0261      5.1786     57.1580
   283.2500      0.0000    784.9282      5.4839     55.1771
   283.5000      0.0000    764.7968      5.6769     52.9751
   283.7500      0.0000    741.4326      5.7842     51.5010
   284.0000      0.0000    720.4587      5.9022     51.6949
   284.2500      0.0000    707.8792      6.1369     53.6067
   284.5000      0.0000    705.7517      6.5290     56.0935
   284.7500      0.0000    710.0196      7.0361     57.8887
   285.0000      0.0000    714.5247      7.5709     58.8348
   285.2500      0.0000    716.6390      8.0390     59.6497
   285.5000      0.0000    718.0497      8.3599     60.7441
   285.7500      0.0000    720.8570      8.4942     61.6661
   286.0000      0.0000    724.2867      8.4660     61.5731
   286.2500      0.0000    725.4526      8.3456     60.0388
   286.5000      0.0000    722.4799      8.2056     57.3284
   286.7500      0.0000    716.3296      8.0866     53.9517
   287.0000      0.0000    709.7374      7.9979     50.3035
   287.2500      0.0000    704.9003      7.9337     47.0124
   287.5000      0.0000    702.3217      7.8847     45.1747
   287.7500      0.0000    701.3590      7.8398     45.5576
   288.0000      0.0000    701.3045      7.7901     47.6641
   288.2500      0.0000    701.9520      7.7329     50.0909
   288.5000      0.0000    703.4668      7.6661     51.8388
   288.7500      0.0000    705.7791      7.5780     53.0983
   289.0000      0.0000    708.0384      7.4512     54.8159
   289.2500      0.0000    708.9139      7.2816     57.5994
   289.5000      0.0000    707.7538      7.0860     61.1201
   289.7500      0.0000    705.3205      6.8815     64.7417
   290.0000      0.0000    703.2061      6.6616     68.5653
   290.2500      0.0000    702.7956      6.3999     73.2507
   290.5000      0.0000    704.8755      6.0757     78.7549
   290.7500      0.0000    709.5754      5.6903     84.1315
   291.0000      0.0000    715.9290      5.2671     88.8276
   291.2500      0.0000    721.6138      4.8418     93.1581
   291.5000      0.0000    724.0461      4.4514     97.0360
   291.7500      0.0000    722.5238      4.1246     99.1656
   292.0000      0.0000    719.2503      3.8791     98.2339
   292.2500      0.0000    717.7310      3.7209     94.5462
   292.5000      0.0000    719.7858      3.6376     90.0089
   292.7500      0.0000    724.1537      3.5973     86.5649
