~Version Information
VERS.                      2.0: CWLS Log ASCII Standard - VERSION 2.0
WRAP.                       NO: One line per depth step
~Well Information Block
STRT.FT               521.6000: 
STOP.FT              1490.2000: 
STEP.FT                 0.1000: 
NULL.                -999.2500: 
COMP.          Petrogulf Corporation: COMPANY
WELL.          Robinson 15-11R: WELL
FLD.           Purgatorie River: FIELD
LOC.           324' FNL & 570' FWL: LOCATION
CNTY.               Las Animas: COUNTY
SRVC.                         : SERVICE COMPANY
DATE.          Sat Nov 06 22:43:15 2004: LOG DATE
UWI.           05 071 08029 00: UNIQUE WELL ID
STAT.                 Colorado: STATE
~Curve Information Block
DEPT.FT            0 000 00 00: Depth
DCAL.in                       : CDL Caliper
RHOB.g/cc                     : CDL Bulk Density
RHOC.g/cc                     : CDL Density Correction
DPOR.pu                       : CDL Density Porosity
GR.GAPI                       : Gamma Ray
NPOR.pu                       : Neutron Porosity
~Parameter Information Block
~A  Depth       DCAL        RHOB        RHOC        DPOR         GR         NPOR    
# ...
  1040.0000      7.9262      2.5555      0.0547      5.7294    140.7549     27.7132
  1040.1000      7.9262      2.5413      0.0630      6.5904    140.2632     27.3390
  1040.2000      7.9262      2.5363      0.0680      6.8935    144.5509     26.8084
  1040.3000      7.8724      2.5489      0.0988      6.1280    149.4495     26.4739
  1040.4000      7.8724      2.5629      0.1152      5.2777    151.2645     26.4607
  1040.5000      7.8532      2.5707      0.0722      4.8068    149.0772     26.4556
  1040.6000      7.8532      2.5856      0.0970      3.9053    145.4095     26.3049
  1040.7000      7.8532      2.6089      0.1257      2.4883    144.9403     26.2256
  1040.8000      7.8767      2.6233      0.1369      1.6198    146.2188     26.2699
  1040.9000      7.8767      2.6231      0.1135      1.6317    143.7116     26.2244
  1041.0000      7.9034      2.6133      0.1391      2.2249    139.5889     26.2549
  1041.1000      7.9034      2.5949      0.0967      3.3368    137.9522     26.5472
  1041.2000      7.9034      2.5810      0.0056      4.1801    136.9354     26.9608
  1041.3000      7.8994      2.5856      0.0708      3.9023    136.4829     27.4109
  1041.4000      7.8994      2.5928      0.0705      3.4651    138.8169     27.4977
  1041.5000      7.9304      2.5749      0.1222      4.5517    142.6195     26.8152
  1041.6000      7.9304      2.5299      0.0326      7.2782    144.9980     25.8897
  1041.7000      7.9304      2.4880      0.0640      9.8165    144.0542     25.5029
  1041.8000      7.9002      2.4743      0.0594     10.6470    140.6027     25.3640
  1041.9000      7.9002      2.4857      0.0846      9.9589    137.0723     24.9952
  1042.0000      7.8937      2.4977      0.0895      9.2322    136.3272     24.7774
  1042.1000      7.8937      2.4929      0.0610      9.5221    138.3823     24.8021
  1042.2000      7.8937      2.4838      0.0437     10.0750    140.0839     24.4784
  1042.3000      7.8926      2.4869      0.0731      9.8835    141.1985     23.7793
  1042.4000      7.8926      2.4996      0.0391      9.1146    142.9845     23.3023
  1042.5000      7.8816      2.5102      0.1241      8.4756    146.3398     23.1425
  1042.6000      7.8816      2.5109      0.0990      8.4318    152.0486     23.1388
  1042.7000      7.8816      2.5078      0.0862      8.6183    158.8474     23.1866
  1042.8000      7.9015      2.5016      0.1367      8.9930    163.3468     23.1721
  1042.9000      7.9015      2.4831      0.1026     10.1152    162.1375     23.1425
  1043.0000      7.9657      2.4577      0.0496     11.6555    155.7113     23.1837
  1043.1000      7.9657      2.4322      0.0498     13.1997    150.5455     23.4280
  1043.2000      7.9657      2.4048      0.0518     14.8600    154.0905     23.9090
  1043.3000      7.9620      2.3788      0.0659     16.4379    165.4415     24.2019
  1043.4000      7.9620      2.3647      0.0554     17.2935    175.2684     24.0517
  1043.5000      7.9964      2.3751      0.0357     16.6621    177.9116     23.7861
  1043.6000      7.9964      2.4047      0.1160     14.8686    178.5646     23.3958
  1043.7000      7.9964      2.4317      0.0991     13.2316    179.0329     22.6641
  1043.8000      8.0100      2.4529      0.1689     11.9427    173.6078     21.8386
  1043.9000      8.0100      2.4732      0.2400     10.7141    163.3495     20.8661
  1044.0000      7.9773      2.4797      0.2328     10.3199    155.6718     19.3860
  1044.1000      7.9773      2.4519      0.2501     12.0068    153.4451     17.9389
  1044.2000      7.9773      2.3724      0.2118     16.8254    154.4525     16.7649
  1044.3000      7.9149      2.2498      0.1146     24.2556    153.9091     15.1659
  1044.4000      7.9149      2.1175      0.0929     32.2723    147.1969     13.2433
  1044.5000      7.9113      1.9901      0.0904     39.9947    136.7179     11.6961
  1044.6000      7.9113      1.8571      0.0361     48.0571    127.7914     10.7679
  1044.7000      7.9113      1.7221     -0.0403     56.2368    120.6072     10.3488
  1044.8000      7.9376      1.6074     -0.0746     63.1882    112.6812     10.1409
  1044.9000      7.9376      1.5193     -0.0266     68.5279    102.3031      9.8738
  1045.0000      7.9764      1.4597     -0.0699     72.1408     88.7343      9.6686
  1045.1000      7.9764      1.4515      0.0470     72.6381     73.3993      9.9713
  1045.2000      7.9764      1.5053      0.1740     69.3782     62.8412     11.0279
  1045.3000      8.0172      1.5951      0.2845     63.9308     61.9370     12.7217
  1045.4000      8.0172      1.6885      0.2958     58.2699     68.3699     14.5565
  1045.5000      8.1814      1.7906      0.2671     52.0839     76.2589     16.0736
  1045.6000      8.1814      1.9324      0.2365     43.4926     79.3441     17.4843
  1045.7000      8.1814      2.1061      0.3358     32.9639     76.9250     19.5888
  1045.8000      8.2890      2.2670      0.3611     23.2110     75.2428     22.7303
  1045.9000      8.2890      2.4029      0.3487     14.9779     77.4139     26.1559
  1046.0000      8.1198      2.5249      0.4111      7.5842     80.0954     28.6759
  1046.1000      8.1198      2.6111      0.4297      2.3568     81.6771     29.4647
  1046.2000      8.1198      2.6300      0.3286      1.2109     85.0961     28.8450
  1046.3000      8.0728      2.5956      0.1528      3.2999     89.7852     27.6974
  1046.4000      8.0728      2.5520      0.0531      5.9408     93.5626     26.4754
  1046.5000      7.8699      2.5231      0.0665      7.6891     96.8547     25.4101
  1046.6000      7.8699      2.5017      0.0701      8.9897    100.3028     24.3298
  1046.7000      7.8699      2.4780      0.0557     10.4216    103.6094     23.0235
  1046.8000      7.8533      2.4556      0.0655     11.7793    106.9136     22.0157
  1046.9000      7.8533      2.4463      0.0389     12.3480    110.8915     21.5490
  1047.0000      7.8647      2.4559      0.0675     11.7644    113.5211     20.9674
  1047.1000      7.8647      2.4687      0.0945     10.9868    110.3372     19.9806
  1047.2000      7.8647      2.4680      0.0722     11.0278    102.1284     18.9400
  1047.3000      7.8349      2.4617      0.0453     11.4151     95.7531     18.0755
  1047.4000      7.8349      2.4627      0.0484     11.3499     95.1365     17.4331
  1047.5000      7.8822      2.4667      0.1104     11.1094     97.8333     17.0117
  1047.6000      7.8822      2.4653      0.0724     11.1944     97.6782     16.9363
  1047.7000      7.8822      2.4591      0.0777     11.5702     94.1452     17.1954
  1047.8000      7.9118      2.4454      0.0677     12.3989     91.8181     17.2720
  1047.9000      7.9118      2.4241      0.0244     13.6923     90.6687     17.0582
  1048.0000      7.8656      2.4093      0.0101     14.5852     89.5995     16.9282
  1048.1000      7.8656      2.4102      0.0429     14.5308     88.7519     16.9741
  1048.2000      7.8656      2.4176      0.0644     14.0853     86.8280     17.1171
  1048.3000      7.8602      2.4275      0.0136     13.4819     86.3733     17.1240
  1048.4000      7.8602      2.4422      0.0699     12.5965     89.6840     16.5653
  1048.5000      7.8855      2.4515      0.0371     12.0294     92.4335     15.8053
  1048.6000      7.8855      2.4524      0.0240     11.9769     92.1677     15.7690
  1048.7000      7.8855      2.4550      0.0229     11.8203     92.4065     16.3691
  1048.8000      7.8729      2.4631      0.0673     11.3279     94.3637     16.8176
  1048.9000      7.8729      2.4728      0.0811     10.7383     94.1902     16.9339
  1049.0000      7.8678      2.4813      0.0936     10.2231     89.4380     16.8957
  1049.1000      7.8678      2.4869      0.0877      9.8829     86.1239     16.7870
  1049.2000      7.8678      2.4928      0.0272      9.5301     88.9907     16.8274
  1049.3000      7.8776      2.5016      0.0976      8.9962     92.9849     17.1204
  1049.4000      7.8776      2.5080      0.0708      8.6031     92.4097     17.5623
  1049.5000      7.8863      2.5056      0.1011      8.7541     90.0631     17.9771
