~Version Information
VERS.                      2.0: CWLS Log ASCII Standard - VERSION 2.0
WRAP.                       NO: One line per depth step
~Well Information Block
STRT.FT               710.0000: 
STOP.FT              2921.0000: 
STEP.FT                 0.1000: 
NULL.                -999.2500: 
COMP.          Petrogulf Corporation: COMPANY
WELL.            Montoya 1-41V: WELL
FLD.           Purgatorie River: FIELD
LOC.           610' FNL & 1205' FEL: LOCATION
PROV.                 Colorado: PROVINCE
CNTY.               Las Animas: COUNTRY
SRVC.                Patterson: SERVICE COMPANY
DATE.          Mon Aug 22 07:54:27 2005: LOG DATE
UWI.                          : UNIQUE WELL ID
~Curve Information Block
DEPT.FT            0 000 00 00: Depth
DCAL.in                       : CDL Caliper
RHOB.g/cc                     : CDL Bulk Density
RHOC.g/cc                     : CDL Density Correction
DPOR.pu                       : CDL Density Porosity
GR.GAPI                       : Gamma Ray
NPOR.pu                       : Neutron Porosity
~Parameter Information Block
~A  Depth       DCAL        RHOB        RHOC        DPOR         GR         NPOR    
# ...
  2322.8000      7.9553      2.5516      0.0809      5.9620    127.5557     20.2885
  2322.9000      7.9553      2.5390      0.0571      6.7291    121.8752     19.9777
  2323.0000      7.9625      2.5344      0.0482      7.0077    116.0726     19.3510
  2323.1000      7.9625      2.5346      0.0945      6.9922    112.6843     18.6000
  2323.2000      7.9625      2.5303      0.0591      7.2551    113.6065     18.1568
  2323.3000      7.9948      2.5227      0.0420      7.7170    115.7755     18.1555
  2323.4000      7.9948      2.5173      0.0350      8.0416    114.3333     18.3917
  2323.5000      7.9814      2.5128      0.0725      8.3153    109.6840     18.7626
  2323.6000      7.9814      2.5034      0.0402      8.8861    103.8696     19.1946
  2323.7000      7.9814      2.4946      0.0346      9.4159     98.2694     19.5868
  2323.8000      7.9816      2.4976      0.0489      9.2389     97.2235     19.9138
  2323.9000      7.9816      2.5054      0.0880      8.7655    100.4703     19.9266
  2324.0000      7.9849      2.5043      0.0586      8.8287    100.4489     19.2062
  2324.1000      7.9849      2.5013      0.0690      9.0135     95.4507     17.9266
  2324.2000      7.9849      2.5109      0.0281      8.4328     91.9516     17.0687
  2324.3000      8.0104      2.5240      0.0963      7.6393     92.5542     17.3293
  2324.4000      8.0104      2.5233      0.0627      7.6813     94.6754     18.4263
  2324.5000      8.0337      2.5141      0.0669      8.2354     96.7750     19.4891
  2324.6000      8.0337      2.5046      0.0809      8.8102     98.0750     19.5694
  2324.7000      8.0337      2.4965      0.0184      9.3032     97.2735     18.5963
  2324.8000      8.0114      2.4931      0.0675      9.5113     94.6583     17.7815
  2324.9000      8.0114      2.4886      0.0904      9.7826     93.0591     18.1254
  2325.0000      8.0006      2.4819      0.0425     10.1856     93.2299     19.2023
  2325.1000      8.0006      2.4846      0.0458     10.0226     92.1904     19.9399
  2325.2000      8.0006      2.4956      0.0576      9.3554     89.4900     20.2769
  2325.3000      7.9773      2.4975      0.0890      9.2451     87.8661     20.5434
  2325.4000      7.9773      2.4801      0.0709     10.2967     88.0715     20.3389
  2325.5000      7.9972      2.4592      0.0293     11.5619     88.2414     19.5003
  2325.6000      7.9972      2.4556      0.0366     11.7813     86.5195     18.5895
  2325.7000      7.9972      2.4662      0.1068     11.1386     85.2615     17.9126
  2325.8000      7.9772      2.4811      0.0287     10.2371     87.3449     17.5196
  2325.9000      7.9772      2.4990      0.1042      9.1529     90.2963     17.5029
  2326.0000      7.9547      2.5060      0.1045      8.7290     91.4725     17.4559
  2326.1000      7.9547      2.4891      0.0810      9.7539     90.2964     16.9841
  2326.2000      7.9547      2.4629      0.0209     11.3405     86.0712     16.5868
  2326.3000      7.9493      2.4501      0.0318     12.1176     80.9912     16.7047
  2326.4000      7.9493      2.4527      0.0107     11.9580     78.8857     16.9974
  2326.5000      8.0050      2.4572      0.0487     11.6847     79.6769     17.1018
  2326.6000      8.0050      2.4564      0.0333     11.7335     80.4471     17.2190
  2326.7000      8.0050      2.4582      0.0366     11.6225     80.5555     17.5636
  2326.8000      8.0159      2.4666      0.0726     11.1122     81.0781     17.9411
  2326.9000      8.0159      2.4712      0.0827     10.8339     83.3859     18.2359
  2327.0000      8.0068      2.4680      0.0233     11.0289     87.9580     18.5732
  2327.1000      8.0068      2.4641      0.0556     11.2697     91.6880     18.6802
  2327.2000      8.0068      2.4589      0.0772     11.5797     92.1744     18.2810
  2327.3000      8.0351      2.4488      0.0515     12.1917     89.3217     17.6039
  2327.4000      8.0351      2.4400      0.0062     12.7249     83.4471     16.9141
  2327.5000      8.0108      2.4412      0.0127     12.6544     76.1982     16.3932
  2327.6000      8.0108      2.4498      0.0482     12.1328     69.6659     16.2361
  2327.7000      8.0108      2.4585      0.0381     11.6065     66.3557     16.3751
  2327.8000      8.0105      2.4645      0.0725     11.2413     68.2411     16.6390
  2327.9000      8.0105      2.4707      0.0559     10.8652     71.7755     16.8909
  2328.0000      8.0367      2.4855      0.0515      9.9716     71.4984     16.8524
  2328.1000      8.0367      2.5096      0.0946      8.5110     68.1738     16.5190
  2328.2000      8.0367      2.5296      0.0987      7.2965     65.3297     15.9503
  2328.3000      8.0376      2.5331      0.0827      7.0861     64.2499     15.2119
  2328.4000      8.0376      2.5205      0.0601      7.8511     65.6260     14.9143
  2328.5000      8.0126      2.5056      0.0716      8.7503     69.1866     15.2487
  2328.6000      8.0126      2.5053      0.0258      8.7712     73.9262     15.5934
  2328.7000      8.0126      2.5218      0.0733      7.7669     80.5178     15.8550
  2328.8000      7.9740      2.5412      0.0718      6.5946     89.9255     16.5634
  2328.9000      7.9740      2.5594      0.0485      5.4885    102.7738     17.7836
  2329.0000      7.9902      2.5866      0.0731      3.8427    118.9988     19.0242
  2329.1000      7.9902      2.6150      0.1129      2.1227    135.3918     20.0258
  2329.2000      7.9902      2.6235      0.1207      1.6058    146.5637     21.0451
  2329.3000      7.9683      2.6114      0.1011      2.3364    149.3262     22.2583
  2329.4000      7.9683      2.5998      0.0564      3.0434    147.7182     23.3789
  2329.5000      7.9724      2.5980      0.1033      3.1532    147.1081     24.0179
  2329.6000      7.9724      2.5917      0.0834      3.5329    147.4772     24.2353
  2329.7000      7.9724      2.5742      0.0583      4.5969    147.4382     24.5186
  2329.8000      8.0514      2.5560      0.0558      5.6992    146.5023     25.1929
  2329.9000      8.0514      2.5442      0.0724      6.4100    146.3965     26.0112
  2330.0000      8.0956      2.5366      0.0655      6.8743    148.1517     26.5535
  2330.1000      8.0956      2.5348      0.0330      6.9790    150.0183     26.6059
  2330.2000      8.0956      2.5412      0.0471      6.5910    151.5618     26.1653
  2330.3000      8.1003      2.5504      0.0504      6.0393    152.2823     25.6513
  2330.4000      8.1003      2.5563      0.0453      5.6799    147.4748     25.4093
  2330.5000      8.0965      2.5595      0.0691      5.4854    134.5031     25.2774
  2330.6000      8.0965      2.5673      0.0493      5.0099    119.1114     24.8795
  2330.7000      8.0965      2.5827      0.0923      4.0771    108.6331     24.1657
  2330.8000      8.0644      2.5913      0.1248      3.5556    103.8691     23.3452
  2330.9000      8.0644      2.5757      0.1087      4.5023    101.5710     22.4787
  2331.0000      8.0276      2.5422      0.0612      6.5316     98.4511     21.8238
  2331.1000      8.0276      2.5136      0.0317      8.2672     90.0161     21.5294
  2331.2000      8.0276      2.4946      0.0768      9.4180     77.3651     21.2042
  2331.3000      8.0305      2.4763      0.0452     10.5286     67.2928     20.4817
  2331.4000      8.0305      2.4610      0.0292     11.4521     62.7090     19.5043
  2331.5000      8.0297      2.4528      0.0794     11.9544     62.7190     18.6939
  2331.6000      8.0297      2.4462      0.0525     12.3512     63.5109     18.0899
  2331.7000      8.0297      2.4399      0.0518     12.7320     62.1843     17.4110
  2331.8000      8.0379      2.4413      0.0542     12.6514     60.1980     16.7540
  2331.9000      8.0379      2.4575      0.0689     11.6656     59.2798     16.1030
  2332.0000      8.0621      2.4838      0.0969     10.0718     59.1366     15.2356
  2332.1000      8.0621      2.5049      0.0951      8.7956     59.0017     14.4200
  2332.2000      8.0621      2.5084      0.1085      8.5813     59.9081     13.9907
  2332.3000      8.0548      2.4970      0.0625      9.2747     63.0839     14.1121
