~Version Information
VERS.                      2.0: CWLS Log ASCII Standard - VERSION 2.0
WRAP.                       NO: One line per depth step
~Well Information Block
STRT.FT                -8.0000: 
STOP.FT              2410.0000: 
STEP.FT                 0.2500: 
NULL.                -999.2500: 
COMP.          Petrogulf Corporation: COMPANY
WELL.            Torcom 17-33V: WELL
FLD.           Purgatorie River: FIELD
LOC.           1544' FSL & 1746' FEL--: LOCATION
PROV.                       CO: PROVINCE
CNTY.               Las Animas: COUNTRY
SRVC.          Patterson Wireline: SERVICE COMPANY
DATE.          Wed Dec 10 17:24:27 2003: LOG DATE
UWI.                          : UNIQUE WELL ID
~Curve Information Block
DEPT.FT            0 000 00 00: Depth
CCL.                          : Casing Collar Locator
TT3.usec                      : CBL 3' Travel Time
AMP3.mV                       : CBL 3' Amplitude
GR.GAPI                       : Gamma Ray
~Parameter Information Block
~A  Depth       CCL         TT3         AMP3         GR     
# ...
   461.0000      0.0000    743.1122      3.5472     91.3000
   461.2500      0.0000    738.0234      3.5681     90.6066
   461.5000      0.0000    732.1698      3.5633     89.9675
   461.7500      0.0000    726.9561      3.5400     90.4128
   462.0000      0.0000    722.6820      3.5048     91.8506
   462.2500      0.0000    718.9109      3.4641     93.4986
   462.5000      0.0000    715.6084      3.4305     95.0588
   462.7500      0.0000    713.1645      3.4176     96.7822
   463.0000      0.0000    711.2640      3.4284     98.2592
   463.2500      0.0000    708.5662      3.4586     98.0778
   463.5000      0.0000    704.2886      3.5020     95.3982
   463.7500      0.0000    699.8454      3.5495     91.2466
   464.0000      0.0000    698.0950      3.5924     87.4538
   464.2500      0.0000    700.6834      3.6284     84.8387
   464.5000      0.0000    706.3604      3.6567     83.2914
   464.7500      0.0000    711.8466      3.6731     83.0127
   465.0000      0.0000    714.0108      3.6727     84.5100
   465.2500      0.0000    711.4062      3.6550     87.5678
   465.5000      0.0000    704.6577      3.6267     91.0864
   465.7500      0.0000    696.0128      3.6031     94.0062
   466.0000      0.0000    688.2025      3.5972     96.0410
   466.2500      0.0000    683.1262      3.6095     97.5356
   466.5000      0.0000    681.3998      3.6320     98.8261
   466.7500      0.0000    682.8760      3.6538     99.9028
   467.0000      0.0000    687.0149      3.6621    100.7711
   467.2500      0.0000    692.5342      3.6494    101.7704
   467.5000      0.0000    697.4564      3.6198    103.0344
   467.7500      0.0000    700.5086      3.5843    103.9818
   468.0000      0.0000    702.4713      3.5548    103.9863
   468.2500      0.0000    705.3100      3.5392    103.2633
   468.5000      0.0000    709.8489      3.5347    102.4743
   468.7500      0.0000    714.9414      3.5271    101.7694
   469.0000      0.0000    718.9152      3.5010    100.9071
   469.2500      0.0000    721.1364      3.4484    100.0229
   469.5000      0.0000    722.2014      3.3765     99.5573
   469.7500      0.0000    723.4117      3.3102     99.6147
   470.0000      0.0000    726.5074      3.2763     99.8496
   470.2500      0.0000    733.3185      3.2831     99.7470
   470.5000      0.0000    744.3514      3.3189     98.7262
   470.7500      0.0000    756.8167      3.3614     96.4277
   471.0000      0.0000    764.9116      3.3837     93.2337
   471.2500      0.0000    763.9276      3.3647     90.2256
   471.5000      0.0000    754.5363      3.3022     88.3712
   471.7500      0.0000    742.1607      3.2120     87.6803
   472.0000      0.0000    732.3376      3.1135     87.0186
   472.2500      0.0000    727.5723      3.0147     84.9410
   472.5000      0.0000    727.9581      2.9098     80.9532
   472.7500      0.0000    732.9571      2.7948     75.8204
   473.0000      0.0000    741.8906      2.6849     70.7934
   473.2500      0.0000    753.5621      2.6123     67.0098
   473.5000      0.0000    766.3361      2.6030     65.3372
   473.7500      0.0000    778.6418      2.6507     65.9273
   474.0000      0.0000    789.2158      2.7112     67.7490
   474.2500      0.0000    797.1736      2.7355     69.0846
   474.5000      0.0000    802.2811      2.7124     68.7145
   474.7500      0.0000    805.0861      2.6787     66.6780
   475.0000      0.0000    806.5322      2.6862     63.9920
   475.2500      0.0000    807.3826      2.7514     61.7075
   475.5000      0.0000    807.9545      2.8373     60.1900
   475.7500      0.0000    808.2040      2.9024     59.1395
   476.0000      0.0000    807.8832      2.9574     58.1236
   476.2500      0.0000    806.5925      3.0444     57.2187
   476.5000      0.0000    803.8536      3.1726     57.2458
   476.7500      0.0000    799.4315      3.3074     59.1059
   477.0000      0.0000    793.7509      3.4128     62.6700
   477.2500      0.0000    787.6636      3.4823     66.5362
   477.5000      0.0000    781.3926      3.5309     69.0999
   477.7500      0.0000    774.2764      3.5629     69.8721
   478.0000      0.0000    766.3973      3.5443     69.7999
   478.2500      0.0000    759.7283      3.4328     70.3608
   478.5000      0.0000    756.6195      3.2461     72.2815
   478.7500      0.0000    758.2007      3.0657     75.0971
   479.0000      0.0000    765.2874      2.9568     77.8681
   479.2500      0.0000    778.8552      2.9257     80.1640
   479.5000     -1.9443    797.5914      2.9587     82.2721
   479.7500      0.0000    816.1127      3.0469     84.5436
   480.0000      0.0000    827.4244      3.1653     86.7177
   480.2500      0.0000    827.4994      3.2814     88.1417
   480.5000      0.0000    817.0243      3.3824     88.6898
   480.7500      0.0000    799.0410      3.4514     89.0547
   481.0000      0.0000    776.9291      3.4399     89.8286
   481.2500      0.0000    755.5572      3.3167     90.7523
   481.5000      0.0000    741.1537      3.1284     91.4006
   481.7500      0.0000    736.9556      2.9621     92.2193
   482.0000      0.0000    740.3250      2.8663     94.1320
   482.2500      0.0000    745.9844      2.8392     97.1855
   482.5000      0.0000    750.7274      2.8596    100.0796
   482.7500      0.0000    753.8428      2.8921    101.1575
   483.0000      0.0000    754.8053      2.9019     99.7666
   483.2500      0.0000    752.5347      2.8967     96.6123
   483.5000      0.0000    746.6959      2.9236     92.9842
   483.7500      0.0000    738.6682      3.0043     90.0283
   484.0000      0.0000    730.8176      3.1020     88.5874
   484.2500      0.0000    724.9572      3.1674     88.9524
   484.5000      0.0000    721.5295      3.1825     90.6826
   484.7500      0.0000    720.0159      3.1457     93.0976
   485.0000      0.0000    719.8357      3.0579     95.7312
   485.2500      0.0000    721.0109      2.9453     98.0736
   485.5000      0.0000    724.3429      2.8609     99.5375
   485.7500      0.0000    730.9883      2.8372    100.1275
   486.0000      0.0000    741.4903      2.8589    100.5515
   486.2500      0.0000    754.9552      2.8974    101.2405
   486.5000      0.0000    769.4113      2.9395    101.6908
   486.7500      0.0000    783.2094      2.9725    101.1410
   487.0000      0.0000    795.6412      2.9800     99.6189
   487.2500      0.0000    805.6664      2.9716     97.9443
   487.5000      0.0000    811.2196      2.9837     96.7518
   487.7500      0.0000    812.0428      3.0327     95.7678
   488.0000      0.0000    812.8263      3.0901     94.1541
   488.2500      0.0000    820.2355      3.1205     91.6202
   488.5000      0.0000    835.6271      3.1253     89.1383
   488.7500      0.0000    852.7474      3.1386     88.2741
   489.0000      0.0000    863.1383      3.1887     89.6492
   489.2500      0.0000    861.9924      3.2741     92.2337
   489.5000      0.0000    848.9757      3.3658     94.2675
   489.7500      0.0000    826.4424      3.4260     94.7168
   490.0000      0.0000    798.6946      3.4341     93.7994
   490.2500      0.0000    771.6845      3.4096     92.3310
   490.5000      0.0000    751.2225      3.3998     90.8248
   490.7500      0.0000    740.3508      3.4308     89.2968
   491.0000      0.0000    738.3148      3.4763     87.7311
   491.2500      0.0000    742.1302      3.4879     86.4525
   491.5000      0.0000    748.9221      3.4489     86.1180
   491.7500      0.0000    756.7353      3.3795     87.4884
   492.0000      0.0000    764.1232      3.2969     90.8959
   492.2500      0.0000    769.9852      3.2006     95.5473
   492.5000      0.0000    773.1924      3.1052     99.5413
   492.7500      0.0000    771.9117      3.0538    101.0963
   493.0000      0.0000    764.6000      3.0616     99.9636
   493.2500      0.0000    752.8506      3.0710     97.5401
   493.5000      0.0000    742.1029      3.0073     95.6046
   493.7500      0.0000    737.5286      2.8789     95.1914
   494.0000      0.0000    739.2970      2.7751     96.5408
   494.2500      0.0000    743.1414      2.7520     99.2960
