~Version Information
VERS.                      2.0: CWLS Log ASCII Standard - VERSION 2.0
WRAP.                       NO: One line per depth step
~Well Information Block
STRT.FT               -11.5000: 
STOP.FT              2395.2500: 
STEP.FT                 0.2500: 
NULL.                -999.2500: 
COMP.          Petrogulf Corporation: COMPANY
WELL.            Montoya 7-21V: WELL
FLD.           Purgatorie River: FIELD
LOC.           738' FSL & 2070' FWL--: LOCATION
CNTY.               Las Animas: COUNTY
SRVC.                         : SERVICE COMPANY
DATE.          Mon Aug 30 15:10:00 2004: LOG DATE
UWI.                          : UNIQUE WELL ID
STAT.                       CO: STATE
~Curve Information Block
DEPT.FT            0 000 00 00: Depth
CCL.                          : Casing Collar Locator
TT3.usec                      : CBL 3' Travel Time
AMP3.mV                       : CBL 3' Amplitude
GR.GAPI                       : Gamma Ray
~Parameter Information Block
~A  Depth       CCL         TT3         AMP3         GR     
# ...
  1730.5000      0.0000    433.8955     10.6690     56.9557
  1730.7500      0.0000    494.8680     10.1146     57.3365
  1731.0000      0.0000    557.1710      9.5468     59.2122
  1731.2500      0.0000    614.4510      9.0227     61.5521
  1731.5000      0.0000    661.0405      8.6156     63.3238
  1731.7500      0.0000    692.9797      8.3774     64.0599
  1732.0000      0.0000    710.6516      8.3073     64.1155
  1732.2500      0.0000    718.4294      8.3828     64.3953
  1732.5000      0.0000    721.3061      8.6050     65.7097
  1732.7500      0.0000    722.4506      8.9783     68.1390
  1733.0000      0.0000    723.1107      9.4451     70.7437
  1733.2500      0.0000    723.4557      9.8713     71.8971
  1733.5000      0.0000    723.0939     10.1170     70.2473
  1733.7500      0.0000    721.4902     10.1290     65.7935
  1734.0000      0.0000    718.5416      9.9676     60.1860
  1734.2500      0.0000    715.1619      9.7414     55.7899
  1734.5000      0.0000    712.9293      9.5157     54.1401
  1734.7500      0.0000    712.6833      9.2800     55.2456
  1735.0000      0.0000    713.4875      8.9871     58.3468
  1735.2500      0.0000    713.1079      8.6146     62.8383
  1735.5000      0.0000    709.5789      8.1994     68.1585
  1735.7500      0.0000    702.8974      7.8231     73.3527
  1736.0000      0.0000    695.9117      7.5723     77.2524
  1736.2500      0.0000    692.9799      7.5029     78.9293
  1736.5000      0.0000    696.5362      7.6175     78.0549
  1736.7500      0.0000    705.0482      7.8644     75.2349
  1737.0000      0.0000    714.8572      8.1734     71.8225
  1737.2500      0.0000    723.3320      8.4906     68.9343
  1737.5000      0.0000    729.8341      8.7655     66.6044
  1737.7500      0.0000    734.7583      8.9392     63.9604
  1738.0000      0.0000    738.4787      8.9887     60.1353
  1738.2500      0.0000    740.7070      8.9567     55.0643
  1738.5000      0.0000    740.5419      8.8989     49.5448
  1738.7500      0.0000    737.5869      8.8294     44.5710
  1739.0000      0.0000    732.9292      8.7451     40.5795
  1739.2500      0.0000    728.4285      8.6606     37.3365
  1739.5000      0.0000    725.2458      8.5808     34.5806
  1739.7500      0.0000    723.4256      8.4686     32.5726
  1740.0000      0.0000    722.5464      8.2894     31.8069
  1740.2500      0.0000    722.3113      8.0696     32.2990
  1740.5000      0.0000    722.6414      7.8786     33.4768
  1740.7500      0.0000    723.2228      7.7614     34.8444
  1741.0000      0.0000    722.3352      7.7224     36.4160
  1741.2500      0.0000    715.4684      7.7688     38.2236
  1741.5000      0.0000    696.1111      7.9348     39.7280
  1741.7500      0.0000    661.0239      8.2565     40.2897
  1742.0000      0.0000    616.9728      8.7411     40.3041
  1742.2500      0.0000    578.9846      9.3576     41.4920
  1742.5000      0.0000    555.9589     10.0400     45.9015
  1742.7500      0.0000    538.5284     10.7011     54.7841
  1743.0000      0.0000    507.9126     11.2658     68.2956
  1743.2500      0.0000    457.7172     11.7013     85.5842
  1743.5000      0.0000    401.0345     12.0096    104.5739
  1743.7500      0.0000    355.8824     12.1998    121.9410
  1744.0000      0.0000    330.2309     12.2879    134.4206
  1744.2500      0.0000    322.3547     12.3144    140.9048
  1744.5000      0.0000    330.3398     12.3204    142.9301
  1744.7500      0.0000    357.8150     12.2851    142.7060
  1745.0000      0.0000    410.4369     12.1266    141.1234
  1745.2500      0.0000    486.4813     11.7999    138.0761
  1745.5000      0.0000    571.6935     11.3661    133.8998
  1745.7500      0.0000    645.9070     10.9390    129.6930
  1746.0000      0.0000    694.9902     10.6038    126.6671
  1746.2500      0.0000    714.2276     10.4171    125.6538
  1746.5000      0.0000    701.9752     10.4358    126.6498
  1746.7500      0.0000    656.2561     10.6897    128.3445
  1747.0000      0.0000    581.0222     11.1409    128.6841
  1747.2500      0.0000    492.3806     11.7009    126.6701
  1747.5000      0.0000    412.8662     12.2852    123.5326
  1747.7500      0.0000    357.7499     12.8397    121.8229
  1748.0000      0.0000    328.1361     13.3341    123.4159
  1748.2500      0.0000    315.9912     13.7533    128.3356
  1748.5000      0.0000    313.1424     14.0867    135.1613
  1748.7500      0.0000    316.4918     14.2963    142.3182
  1749.0000      0.0000    329.2716     14.3012    148.8786
  1749.2500      0.0000    359.7166     14.0280    154.2578
  1749.5000      0.0000    415.5494     13.4800    157.5213
  1749.7500      0.0000    494.8474     12.7422    157.4699
  1750.0000      0.0000    581.7537     11.9297    153.6826
  1750.2500      0.0000    654.7897     11.1413    147.5085
  1750.5000      0.0000    701.1040     10.4383    141.6414
  1750.7500      0.0000    721.9211      9.8296    137.9942
  1751.0000      0.0000    726.4708      9.2757    135.8641
  1751.2500      0.0000    724.1160      8.7367    132.8264
  1751.5000      0.0000    720.8976      8.2358    127.5190
  1751.7500      0.0000    719.0789      7.8586    121.0311
  1752.0000      0.0000    717.9155      7.6657    115.8627
  1752.2500      0.0000    715.5612      7.6277    114.3299
  1752.5000      0.0000    710.9116      7.6655    117.5884
  1752.7500      0.0000    703.4379      7.7245    124.8689
  1753.0000      0.0000    691.5049      7.7820    133.1602
  1753.2500      0.0000    672.9251      7.8251    138.2508
  1753.5000      0.0000    649.7883      7.8648    137.2004
  1753.7500      0.0000    631.9244      7.9386    130.8286
  1754.0000      0.0000    631.1045      8.0623    123.7180
  1754.2500      0.0000    649.7808      8.1951    120.7615
  1754.5000      0.0000    678.0995      8.2783    123.3468
  1754.7500      0.0000    703.0923      8.2885    129.0394
  1755.0000      0.0000    718.4202      8.2315    134.4352
  1755.2500      0.0000    725.2067      8.1131    137.7220
  1755.5000      0.0000    727.1822      7.9511    139.0616
  1755.7500      0.0000    726.7285      7.8081    139.6084
  1756.0000      0.0000    723.2824      7.7845    140.4440
  1756.2500      0.0000    712.4495      7.9659    141.8398
  1756.5000      0.0000    686.1957      8.3676    143.1225
  1756.7500      0.0000    637.2048      8.9208    143.4886
  1757.0000      0.0000    567.7419      9.5071    143.1322
  1757.2500      0.0000    495.8383     10.0021    143.0387
  1757.5000      0.0000    449.3936     10.3036    143.4684
  1757.7500      0.0000    449.5153     10.3578    143.4423
  1758.0000      0.0000    496.1908     10.1831    142.1722
  1758.2500      0.0000    568.2590      9.8582    140.3100
  1758.5000      0.0000    637.7234      9.4680    139.3061
  1758.7500      0.0000    686.4443      9.0549    139.8694
  1759.0000      0.0000    712.0244      8.6297    141.3652
  1759.2500      0.0000    721.4908      8.2246    142.4830
  1759.5000      0.0000    722.3607      7.9074    142.2973
  1759.7500      0.0000    718.8917      7.7154    141.0450
  1760.0000      0.0000    713.3695      7.5935    140.1685
  1760.2500      0.0000    708.2194      7.4339    141.1034
  1760.5000      0.0000    706.1191      7.1830    143.4131
  1760.7500      0.0000    708.3851      6.8931    144.5230
  1761.0000      0.0000    713.8910      6.6726    142.3445
  1761.2500      0.0000    720.0545      6.6128    138.0582
  1761.5000      0.0000    724.8467      6.7551    135.3571
  1761.7500      0.0000    727.8676      7.0865    136.9763
  1762.0000      0.0000    729.9924      7.5383    142.6776
  1762.2500      0.0000    732.4982      7.9980    150.0424
  1762.5000      0.0000    736.3676      8.3452    155.9668
  1762.7500      0.0000    741.8591      8.4991    157.7258
  1763.0000      0.0000    748.4099      8.4485    154.2409
  1763.2500      0.0000    754.4828      8.2486    147.1432
  1763.5000      0.0000    757.1083      7.9960    140.1192
  1763.7500      0.0000    752.0430      7.8084    136.5450
