~Version Information
VERS.                      2.0: CWLS Log ASCII Standard - VERSION 2.0
WRAP.                       NO: One line per depth step
~Well Information Block
STRT.FT               830.0000: 
STOP.FT              3122.7000: 
STEP.FT                 0.1000: 
NULL.                -999.2500: 
COMP.          Pioneer Natural Resources: COMPANY
WELL.              Stones 24-8: WELL
FLD.           Purgatoire River: FIELD
LOC.           648' FSL & 2264' FWL: LOCATION
PROV.                 Colorado: PROVINCE
CNTY.               Las Animas: COUNTRY
SRVC.                Patterson: SERVICE COMPANY
DATE.          Wed Jan 19 15:33:00 2005: LOG DATE
UWI.           05 071 07945 00: UNIQUE WELL ID
~Curve Information Block
DEPT.FT            0 000 00 00: Depth
DCAL.in                       : CDL Caliper
RHOB.g/cc                     : CDL Bulk Density
RHOC.g/cc                     : CDL Density Correction
DPOR.pu                       : CDL Density Porosity
NPOR.pu                       : Neutron Porosity
GR.GAPI                       : Gamma Ray
~Parameter Information Block
~A  Depth       DCAL        RHOB        RHOC        DPOR        NPOR         GR     
# ...
  1732.4000      8.0451      2.6173      0.0582      1.9822     18.1841    127.0579
  1732.5000      8.0387      2.6170      0.0372      2.0024     17.6617    121.1199
  1732.6000      8.0387      2.6190      0.0809      1.8758     17.4315    114.8019
  1732.7000      8.0387      2.6156      0.0394      2.0821     17.7363    110.7690
  1732.8000      8.0355      2.6145      0.0502      2.1509     18.4663    108.9873
  1732.9000      8.0355      2.6232      0.0731      1.6263     19.0154    109.4529
  1733.0000      8.0330      2.6317      0.0910      1.1082     18.9484    112.5121
  1733.1000      8.0330      2.6263      0.0394      1.4377     18.4775    115.4995
  1733.2000      8.0330      2.6093      0.0850      2.4638     17.9942    115.9480
  1733.3000      8.0294      2.5959      0.0315      3.2760     17.6676    113.8291
  1733.4000      8.0294      2.5975      0.0376      3.1832     17.3234    111.0412
  1733.5000      8.0229      2.6097      0.0411      2.4429     17.0894    111.3108
  1733.6000      8.0229      2.6214      0.0556      1.7347     17.3682    112.7595
  1733.7000      8.0229      2.6241      0.0697      1.5691     17.9142    108.4989
  1733.8000      8.0161      2.6243      0.0319      1.5585     18.2928     98.0538
  1733.9000      8.0161      2.6352      0.0495      0.8940     18.7010     86.9186
  1734.0000      8.0133      2.6471      0.0583      0.1764     19.3929     81.2148
  1734.1000      8.0133      2.6474      0.0754      0.1547     19.9424     84.3015
  1734.2000      8.0133      2.6464      0.0396      0.2192     19.8267     92.1700
  1734.3000      8.0144      2.6532      0.0664     -0.1956     19.3345     98.6005
  1734.4000      8.0144      2.6621      0.0565     -0.7316     19.0750    101.2643
  1734.5000      8.0149      2.6748      0.0243     -1.5043     19.3202    101.8809
  1734.6000      8.0149      2.6934      0.1064     -2.6332     19.8108    103.3758
  1734.7000      8.0149      2.7048      0.0973     -3.3220     19.9140    108.2075
  1734.8000      8.0099      2.7082      0.0510     -3.5263     19.5580    112.4796
  1734.9000      8.0099      2.7101      0.1051     -3.6427     19.1269    112.6087
  1735.0000      8.0022      2.7036      0.0922     -3.2488     18.5357    112.3917
  1735.1000      8.0022      2.6840      0.0759     -2.0590     17.8236    111.7398
  1735.2000      8.0022      2.6612      0.0339     -0.6808     17.5587    110.7702
  1735.3000      8.0021      2.6540     -0.0025     -0.2400     17.9108    112.7941
  1735.4000      8.0021      2.6581      0.0453     -0.4902     18.7111    116.0504
  1735.5000      8.0055      2.6484     -0.0176      0.0943     19.5067    116.6129
  1735.6000      8.0055      2.6277     -0.0612      1.3498     19.3719    115.6818
  1735.7000      8.0055      2.6147      0.0138      2.1395     18.6437    115.8364
  1735.8000      8.0073      2.6079      0.0880      2.5507     18.8376    117.4163
  1735.9000      8.0073      2.6039      0.0126      2.7910     19.6155    119.2570
  1736.0000      8.0063      2.6058      0.0780      2.6786     19.4052    119.2763
  1736.1000      8.0063      2.6028      0.0898      2.8620     18.5755    116.6572
  1736.2000      8.0063      2.5931      0.0124      3.4485     18.1218    115.1562
  1736.3000      8.0047      2.5877      0.0553      3.7768     17.9655    118.1939
  1736.4000      8.0047      2.5857      0.0331      3.8982     18.3976    121.2160
  1736.5000      8.0073      2.5862      0.0342      3.8652     19.5681    120.1619
  1736.6000      8.0073      2.5911      0.0637      3.5717     20.3735    119.3940
  1736.7000      8.0073      2.6033      0.0247      2.8289     20.1900    121.8563
  1736.8000      8.0122      2.6265      0.0488      1.4265     19.8344    121.2348
  1736.9000      8.0122      2.6464      0.0878      0.2188     19.8501    115.4857
  1737.0000      8.0154      2.6463      0.0488      0.2268     20.0918    113.1343
  1737.1000      8.0154      2.6355      0.0299      0.8795     20.4874    113.0764
  1737.2000      8.0154      2.6311      0.0384      1.1436     20.7716    108.9700
  1737.3000      8.0142      2.6356      0.0435      0.8706     20.8422    107.2076
  1737.4000      8.0142      2.6455      0.0557      0.2712     21.0201    114.0114
  1737.5000      8.0070      2.6565      0.0692     -0.3923     21.2863    122.8449
  1737.6000      8.0070      2.6589      0.0630     -0.5407     21.0752    127.1850
  1737.7000      8.0070      2.6464      0.0417      0.2175     20.2340    123.7739
  1737.8000      8.0026      2.6299      0.0424      1.2152     19.4108    111.7029
  1737.9000      8.0026      2.6271      0.0348      1.3900     19.0716    101.4047
  1738.0000      8.0106      2.6407      0.0576      0.5617     19.0291    101.5345
  1738.1000      8.0106      2.6559      0.0670     -0.3584     19.1372    107.4505
  1738.2000      8.0106      2.6621      0.0265     -0.7362     19.4315    109.9581
  1738.3000      8.0174      2.6646      0.0241     -0.8831     19.8701    104.8142
  1738.4000      8.0174      2.6676      0.0455     -1.0654     20.0007     96.0135
  1738.5000      8.0121      2.6690      0.0511     -1.1525     19.4524     91.2826
  1738.6000      8.0121      2.6674      0.0520     -1.0536     18.9356     95.7330
  1738.7000      8.0121      2.6668      0.0599     -1.0178     18.9724    103.6024
  1738.8000      8.0025      2.6656      0.0711     -0.9437     18.8664    106.3558
  1738.9000      8.0025      2.6462      0.0565      0.2297     18.0252    104.5409
  1739.0000      7.9952      2.6058      0.0101      2.6785     16.5972    102.7479
  1739.1000      7.9952      2.5718      0.0097      4.7366     15.6265    104.2089
  1739.2000      7.9952      2.5697     -0.0380      4.8647     16.0053    106.7253
  1739.3000      7.9920      2.5941      0.0616      3.3885     17.0654    104.5639
  1739.4000      7.9920      2.6148      0.0847      2.1312     17.6964     98.2285
  1739.5000      7.9924      2.6151      0.0509      2.1147     17.9736     94.5145
  1739.6000      7.9924      2.6037      0.0369      2.8086     18.4901     94.4088
  1739.7000      7.9924      2.6006      0.0177      2.9945     19.0849     93.9201
  1739.8000      7.9949      2.6175      0.0387      1.9702     19.1879     95.1252
  1739.9000      7.9949      2.6453      0.0472      0.2844     19.1987    101.7313
  1740.0000      7.9969      2.6682      0.0839     -1.1026     19.7709    110.2024
  1740.1000      7.9969      2.6718      0.0719     -1.3194     20.4761    112.7980
  1740.2000      7.9969      2.6571      0.0645     -0.4304     20.6516    111.3803
  1740.3000      7.9991      2.6410     -0.0093      0.5431     20.6136    113.3357
  1740.4000      7.9991      2.6335      0.0178      0.9975     20.7555    114.9322
  1740.5000      8.0013      2.6330      0.0369      1.0317     20.7445    111.8617
  1740.6000      8.0013      2.6343      0.0343      0.9500     20.3392    108.2397
  1740.7000      8.0013      2.6331      0.0440      1.0231     19.9119    106.0834
  1740.8000      8.0019      2.6294      0.0250      1.2510     19.6903    104.6376
  1740.9000      8.0019      2.6223      0.0359      1.6817     19.4096    105.3177
  1741.0000      8.0025      2.6106      0.0137      2.3908     18.9659    107.0761
  1741.1000      8.0025      2.6021      0.0504      2.9025     18.5029    108.1117
  1741.2000      8.0025      2.6068      0.0559      2.6153     18.3342    112.1302
  1741.3000      8.0038      2.6261      0.0343      1.4506     18.6673    117.1210
  1741.4000      8.0038      2.6439      0.0658      0.3668     18.6593    116.0431
  1741.5000      8.0033      2.6381      0.0555      0.7228     17.6801    111.7525
  1741.6000      8.0033      2.6141      0.0151      2.1756     16.7853    109.6693
  1741.7000      8.0033      2.6010      0.0115      2.9708     16.7996    107.7221
  1741.8000      8.0009      2.6099      0.0308      2.4289     17.3783    105.9580
  1741.9000      8.0009      2.6269      0.0435      1.4021     18.2414    107.1945
