~Version Information
VERS.                      2.0: CWLS Log ASCII Standard - VERSION 2.0
WRAP.                       NO: One line per depth step
~Well Information Block
STRT.FT               754.6000: 
STOP.FT              2329.0000: 
STEP.FT                 0.1000: 
NULL.                -999.2500: 
COMP.          Petrogulf Corporation: COMPANY
WELL.           Anderson 18-42: WELL
FLD.           Purgatoire River: FIELD
LOC.           1668' FNL & 1110' FEL: LOCATION
CNTY.               Las Animas: COUNTY
SRVC.                         : SERVICE COMPANY
DATE.          Tue Dec 16 12:18:55 2003: LOG DATE
UWI.                          : UNIQUE WELL ID
STAT.                 Colorado: STATE
~Curve Information Block
DEPT.FT            0 000 00 00: Depth
DCAL.in                       : CDL Caliper
RHOB.g/cc                     : CDL Bulk Density
RHOC.g/cc                     : CDL Density Correction
DPOR.pu                       : CDL Density Porosity
NPOR.pu                       : Neutron Porosity
GR.GAPI                       : Gamma Ray
~Parameter Information Block
~A  Depth       DCAL        RHOB        RHOC        DPOR        NPOR         GR     
# ...
  1906.6000      8.1732      2.5061      0.0484      8.7211     21.9671     91.9806
  1906.7000      8.1732      2.5044      0.0151      8.8261     21.7984     94.2902
  1906.8000      8.1679      2.5111      0.0260      8.4181     21.6806     98.3019
  1906.9000      8.1679      2.5110      0.0301      8.4272     21.6722     99.9262
  1907.0000      8.1640      2.4919      0.0075      9.5797     21.6546    102.4180
  1907.1000      8.1640      2.4686     -0.0056     10.9955     21.6469    108.2360
  1907.2000      8.1640      2.4688     -0.0594     10.9815     21.8366    114.1586
  1907.3000      8.1623      2.4989      0.0271      9.1558     22.0549    114.1812
  1907.4000      8.1623      2.5337      0.0427      7.0482     22.1916    107.8989
  1907.5000      8.1643      2.5545      0.0325      5.7849     22.3374    101.1246
  1907.6000      8.1643      2.5636      0.0690      5.2339     22.3178     99.7770
  1907.7000      8.1643      2.5638      0.0593      5.2239     22.0386    104.8446
  1907.8000      8.1677      2.5554      0.0585      5.7311     21.8372    107.4830
  1907.9000      8.1677      2.5414      0.0238      6.5820     21.9369    101.9141
  1908.0000      8.1557      2.5241      0.0090      7.6277     22.1040     95.9208
  1908.1000      8.1557      2.5055      0.0190      8.7583     22.1049     95.8420
  1908.2000      8.1557      2.4859      0.0135      9.9450     22.1213     99.0587
  1908.3000      8.1632      2.4589      0.0117     11.5819     22.4147    104.8395
  1908.4000      8.1632      2.4189     -0.0096     14.0076     22.5185    111.9306
  1908.5000      8.1682      2.3770     -0.0479     16.5469     21.8798    114.2633
  1908.6000      8.1682      2.3454     -0.0203     18.4616     20.9572    111.4397
  1908.7000      8.1682      2.3174     -0.0328     20.1562     20.5538    111.0260
  1908.8000      8.1654      2.2818     -0.0037     22.3149     20.7927    112.1464
  1908.9000      8.1654      2.2398     -0.0271     24.8599     21.0573    110.7321
  1909.0000      8.1657      2.2025     -0.0457     27.1219     20.7269    109.7830
  1909.1000      8.1657      2.1725     -0.0132     28.9384     19.6617    110.1948
  1909.2000      8.1657      2.1498     -0.0353     30.3126     18.4160    108.1340
  1909.3000      8.1611      2.1444      0.0018     30.6406     17.5619    104.9837
  1909.4000      8.1611      2.1538      0.0929     30.0701     16.7791    106.2477
  1909.5000      8.1633      2.1628      0.0629     29.5250     15.7851    110.4502
  1909.6000      8.1633      2.1729      0.0585     28.9149     14.8792    115.5205
  1909.7000      8.1633      2.1922      0.1008     27.7475     14.1334    122.7927
  1909.8000      8.1632      2.2153      0.0984     26.3440     13.4716    128.2461
  1909.9000      8.1632      2.2400      0.0562     24.8467     13.0340    126.7738
  1910.0000      8.1651      2.2753      0.0619     22.7087     13.0728    121.1249
  1910.1000      8.1651      2.3210      0.0568     19.9404     13.7778    118.3276
  1910.2000      8.1651      2.3603      0.0794     17.5562     14.8119    118.1997
  1910.3000      8.1640      2.3784      0.0818     16.4634     15.6565    113.9921
  1910.4000      8.1640      2.3816      0.0449     16.2663     16.5068    105.0703
  1910.5000      8.1635      2.3904      0.0025     15.7336     17.6962    101.6458
  1910.6000      8.1635      2.4114      0.0546     14.4592     18.9575    106.9689
  1910.7000      8.1635      2.4371      0.0494     12.9028     19.9828    110.8374
  1910.8000      8.1617      2.4628      0.0635     11.3452     20.6479    107.3491
  1910.9000      8.1617      2.4860      0.0282      9.9377     20.9637    101.2733
  1911.0000      8.1642      2.5055      0.0280      8.7585     21.2791     98.4439
  1911.1000      8.1642      2.5241      0.0199      7.6287     21.9361     98.9678
  1911.2000      8.1642      2.5457      0.0633      6.3231     22.8370     98.5331
  1911.3000      8.1645      2.5699      0.0707      4.8558     23.4685     93.1634
  1911.4000      8.1645      2.5952      0.0481      3.3193     23.6988     84.7582
  1911.5000      8.1680      2.6188      0.0599      1.8884     24.0096     81.2113
  1911.6000      8.1680      2.6297      0.0755      1.2322     24.5607     83.3092
  1911.7000      8.1680      2.6204      0.0501      1.7967     25.1339     85.3741
  1911.8000      8.1637      2.6047      0.0061      2.7479     25.5285     88.7626
  1911.9000      8.1637      2.5947      0.0444      3.3486     25.6785     95.3975
  1912.0000      8.1646      2.5825      0.0394      4.0925     25.7018    100.7972
  1912.1000      8.1646      2.5637      0.0129      5.2301     25.6683    105.2632
  1912.2000      8.1646      2.5470     -0.0043      6.2448     25.4913    113.2107
  1912.3000      8.1651      2.5347      0.0458      6.9853     25.1475    119.1952
  1912.4000      8.1651      2.5230      0.0413      7.6982     24.6439    116.2127
  1912.5000      8.1611      2.5133      0.0264      8.2854     23.8704    111.0534
  1912.6000      8.1611      2.5055      0.0395      8.7557     22.9699    113.0464
  1912.7000      8.1611      2.4929      0.0489      9.5240     22.4524    120.7105
  1912.8000      8.1531      2.4812      0.0570     10.2320     22.4155    124.1200
  1912.9000      8.1531      2.4831      0.0478     10.1180     22.3192    119.1579
  1913.0000      8.1603      2.4892      0.0910      9.7431     21.8664    112.0419
  1913.1000      8.1603      2.4821      0.0305     10.1734     21.4299    109.6951
  1913.2000      8.1603      2.4689      0.0182     10.9784     21.4330    113.8592
  1913.3000      8.1646      2.4696      0.0444     10.9352     21.7877    120.7431
  1913.4000      8.1646      2.4873      0.0561      9.8616     22.0639    124.9950
  1913.5000      8.1667      2.5065      0.0516      8.6979     22.1084    125.2704
  1913.6000      8.1667      2.5162      0.0599      8.1061     22.0642    124.5169
  1913.7000      8.1667      2.5167      0.0761      8.0778     22.0642    125.3725
  1913.8000      8.1639      2.5080      0.0560      8.6071     22.2605    125.2147
  1913.9000      8.1639      2.4955      0.0484      9.3641     22.5989    121.4199
  1914.0000      8.1677      2.4873      0.0229      9.8607     22.9795    115.9589
  1914.1000      8.1677      2.4842      0.0162     10.0508     23.5496    113.3102
  1914.2000      8.1677      2.4857      0.0186      9.9601     24.2494    119.6649
  1914.3000      8.1669      2.4878      0.0425      9.8320     24.6601    131.2762
  1914.4000      8.1669      2.4865     -0.0346      9.9080     24.5167    133.1378
  1914.5000      8.1618      2.4878     -0.0030      9.8286     24.2074    123.6422
  1914.6000      8.1618      2.4934     -0.0014      9.4923     24.3236    113.6368
  1914.7000      8.1618      2.4993      0.0067      9.1363     24.8687    108.2877
  1914.8000      8.1619      2.5033      0.0080      8.8919     25.3768    108.5921
  1914.9000      8.1619      2.5077     -0.0051      8.6222     25.5326    113.0084
  1915.0000      8.1623      2.5191      0.0193      7.9361     25.3643    117.3771
  1915.1000      8.1623      2.5343      0.0282      7.0100     25.1483    121.2686
  1915.2000      8.1623      2.5457      0.0098      6.3202     25.2498    124.6736
  1915.3000      8.1607      2.5498      0.0378      6.0722     25.6537    125.1207
  1915.4000      8.1607      2.5436      0.0458      6.4495     25.9242    122.7862
  1915.5000      8.1686      2.5354      0.0028      6.9457     26.0675    124.1531
  1915.6000      8.1686      2.5369      0.0484      6.8525     26.1523    131.4958
  1915.7000      8.1686      2.5419      0.0412      6.5523     25.9330    135.4859
  1915.8000      8.1662      2.5391      0.0293      6.7231     25.5804    132.9058
  1915.9000      8.1662      2.5254      0.0145      7.5537     25.1544    129.6979
  1916.0000      8.1663      2.5074     -0.0347      8.6396     24.4188    124.2093
  1916.1000      8.1663      2.4933      0.0056      9.4953     23.7143    116.7653
