~Version Information
VERS.                      2.0: CWLS Log ASCII Standard - VERSION 2.0
WRAP.                       NO: One line per depth step
~Well Information Block
STRT.FT               510.0000: 
STOP.FT              1861.5000: 
STEP.FT                 0.1000: 
NULL.                -999.2500: 
COMP.          Pioneer Natural Resources: COMPANY
WELL.           Guajardo 24-16: WELL
FLD.           Purgatoire River: FIELD
LOC.           883' FSL & 2147' FWL: LOCATION
PROV.                 Colorado: PROVINCE
CNTY.               Las Animas: COUNTRY
SRVC.                Patterson: SERVICE COMPANY
DATE.          Mon Aug 08 09:13:01 2005: LOG DATE
UWI.           05 071 08377 00: UNIQUE WELL ID
~Curve Information Block
DEPT.FT            0 000 00 00: Depth
DCAL.in                       : CDL Caliper
RHOB.g/cc                     : CDL Bulk Density
RHOC.g/cc                     : CDL Density Correction
DPOR.pu                       : CDL Density Porosity
GR.GAPI                       : Gamma Ray
NPOR.pu                       : Neutron Porosity
~Parameter Information Block
~A  Depth       DCAL        RHOB        RHOC        DPOR         GR         NPOR    
# ...
   865.2000      8.2696      2.6084      0.1225      2.5241    107.1424     29.6974
   865.3000      8.3006      2.6850      0.1473     -2.1218    110.8719     29.5193
   865.4000      8.3006      2.7588      0.1938     -6.5952    112.8046     29.2239
   865.5000      8.3229      2.8124      0.2180     -9.8447    110.6488     29.1211
   865.6000      8.3229      2.8357      0.1988    -11.2573    105.3859     28.9261
   865.7000      8.3229      2.8280      0.1982    -10.7868    100.0291     28.7325
   865.8000      8.2454      2.8016      0.1223     -9.1861     97.5403     28.5850
   865.9000      8.2454      2.7809      0.0920     -7.9343     95.9778     28.0901
   866.0000      8.1752      2.7800      0.0276     -7.8772     90.8870     27.2396
   866.1000      8.1752      2.7883      0.0218     -8.3824     83.6835     26.4677
   866.2000      8.1752      2.7730      0.0488     -7.4538     77.8842     25.8041
   866.3000      8.1665      2.7171     -0.0004     -4.0696     73.6051     25.0391
   866.4000      8.1665      2.6496     -0.0743      0.0236     70.9083     24.6226
   866.5000      8.1530      2.6059     -0.0782      2.6725     73.4250     24.7348
   866.6000      8.1530      2.5866     -0.0141      3.8404     80.5840     24.6935
   866.7000      8.1530      2.5788     -0.0399      4.3130     86.5261     24.5037
   866.8000      8.1548      2.5757      0.0393      4.5017     92.1626     24.5764
   866.9000      8.1548      2.5635      0.0638      5.2398    102.1417     24.4197
   867.0000      8.1856      2.5375      0.0374      6.8161    114.0601     23.7275
   867.1000      8.1856      2.5082      0.0313      8.5928    122.5725     23.2866
   867.2000      8.1856      2.4884     -0.0168      9.7938    124.8377     23.5988
   867.3000      8.1947      2.4944      0.0245      9.4333    122.7007     23.9928
   867.4000      8.1947      2.5279      0.0478      7.3998    121.9765     23.9488
   867.5000      8.1844      2.5657      0.1199      5.1092    122.9910     24.0245
   867.6000      8.1844      2.5838      0.1119      4.0134    122.3616     24.6349
   867.7000      8.1844      2.5825      0.0902      4.0912    122.4369     25.2202
   867.8000      8.1630      2.5774      0.0431      4.3971    125.0779     25.2482
   867.9000      8.1630      2.5761      0.0802      4.4817    125.0812     24.9649
   868.0000      8.1847      2.5746      0.0645      4.5696    121.9898     24.6271
   868.1000      8.1847      2.5652      0.1539      5.1423    124.2286     24.1689
   868.2000      8.1847      2.5459      0.0771      6.3068    134.9505     23.9140
   868.3000      8.2293      2.5340      0.0143      7.0283    147.4531     24.1035
   868.4000      8.2293      2.5369      0.0890      6.8526    151.8134     24.5185
   868.5000      8.2357      2.5412      0.0394      6.5963    144.0566     24.8682
   868.6000      8.2357      2.5440      0.0352      6.4237    132.1617     25.1780
   868.7000      8.2357      2.5433      0.0627      6.4666    124.2136     25.5846
   868.8000      8.2314      2.5279      0.0214      7.3971    119.7207     25.7625
   868.9000      8.2314      2.5069      0.0071      8.6698    117.3709     25.6086
   869.0000      8.2329      2.5041      0.0126      8.8420    118.4094     25.5685
   869.1000      8.2329      2.5184      0.0619      7.9743    122.5970     25.8328
   869.2000      8.2329      2.5221      0.0887      7.7545    126.8216     25.8715
   869.3000      8.2419      2.5076      0.0445      8.6282    128.1850     25.1980
   869.4000      8.2419      2.5080     -0.0146      8.6083    127.5079     24.2612
   869.5000      8.2422      2.5355      0.0988      6.9410    127.5014     23.8117
   869.6000      8.2422      2.5542      0.0840      5.8036    129.6669     23.8688
   869.7000      8.2422      2.5453      0.0380      6.3467    132.7965     24.0540
   869.8000      8.2341      2.5276      0.0486      7.4210    135.8077     24.0777
   869.9000      8.2341      2.5173      0.0240      8.0401    139.5794     23.9008
   870.0000      8.2263      2.5125      0.0402      8.3310    139.9142     23.6248
   870.1000      8.2263      2.5140      0.0565      8.2405    133.9604     23.3513
   870.2000      8.2263      2.5276      0.1096      7.4175    126.8522     23.2591
   870.3000      8.2301      2.5419      0.1176      6.5540    122.0571     23.4537
   870.4000      8.2301      2.5429      0.1048      6.4885    119.9698     23.6828
   870.5000      8.2320      2.5323      0.1229      7.1344    120.5137     23.8390
   870.6000      8.2320      2.5191      0.0545      7.9352    122.5132     24.0574
   870.7000      8.2320      2.5073      0.1385      8.6513    124.0581     24.0494
   870.8000      8.2311      2.4940      0.0566      9.4566    121.9957     23.4752
   870.9000      8.2311      2.4857      0.0625      9.9567    116.4767     22.4506
   871.0000      8.2322      2.4905      0.0181      9.6682    112.9189     21.6428
   871.1000      8.2322      2.5026      0.0751      8.9325    112.3273     21.5176
   871.2000      8.2322      2.5074      0.0814      8.6430    109.3064     21.8782
   871.3000      8.2254      2.4986      0.0932      9.1785    103.0903     22.3427
   871.4000      8.2254      2.4819      0.0655     10.1873     99.0503     22.6876
   871.5000      8.2273      2.4689     -0.0130     10.9728    101.9281     22.9028
   871.6000      8.2273      2.4680      0.0479     11.0288    110.5559     22.8869
   871.7000      8.2273      2.4738      0.0642     10.6818    117.2967     22.6449
   871.8000      8.2322      2.4788      0.0601     10.3734    118.6031     22.4232
   871.9000      8.2322      2.4836      0.0336     10.0826    117.5212     22.4596
   872.0000      8.2343      2.4849      0.0438     10.0066    115.3448     22.8424
   872.1000      8.2343      2.4745      0.0383     10.6372    113.9575     23.5272
   872.2000      8.2343      2.4514      0.0013     12.0380    113.5982     23.9901
   872.3000      8.2527      2.4268     -0.0112     13.5279    110.2531     23.5764
   872.4000      8.2527      2.4119      0.0005     14.4323    106.2666     22.8303
   872.5000      8.2597      2.4067     -0.0084     14.7457    108.9289     22.8698
   872.6000      8.2597      2.4137     -0.0329     14.3192    117.6853     23.6388
   872.7000      8.2597      2.4365      0.0536     12.9382    124.8013     24.2146
   872.8000      8.2599      2.4663      0.0470     11.1328    125.5464     24.1008
   872.9000      8.2599      2.4973      0.0043      9.2523    123.0618     23.3412
   873.0000      8.2616      2.5230      0.0709      7.6948    123.7361     22.4197
   873.1000      8.2616      2.5214      0.1115      7.7966    127.8209     21.9672
   873.2000      8.2616      2.4886      0.0322      9.7843    132.5054     22.2471
   873.3000      8.2693      2.4539     -0.0092     11.8822    136.6185     23.0178
   873.4000      8.2693      2.4410      0.0371     12.6644    139.5398     23.5106
   873.5000      8.2578      2.4472      0.0529     12.2933    142.9290     23.1353
   873.6000      8.2578      2.4557      0.0680     11.7749    143.4324     22.3174
   873.7000      8.2578      2.4559      0.0284     11.7629    135.7939     21.7589
   873.8000      8.2645      2.4456      0.0173     12.3884    124.7706     21.6834
   873.9000      8.2645      2.4253      0.0896     13.6193    118.5333     21.8389
   874.0000      8.3077      2.4066      0.0326     14.7501    119.1674     21.9216
   874.1000      8.3077      2.4023      0.0852     15.0135    123.3811     22.0876
   874.2000      8.3077      2.4086      0.0978     14.6310    129.2455     22.4105
   874.3000      8.3256      2.4164      0.1176     14.1595    136.1816     22.6562
   874.4000      8.3256      2.4216      0.0329     13.8411    139.3852     22.9613
   874.5000      8.3306      2.4219      0.0851     13.8236    137.7694     23.6399
   874.6000      8.3306      2.4179      0.0686     14.0640    137.9751     24.2746
   874.7000      8.3306      2.4255      0.0705     13.6031    142.2570     24.3370
