~Version Information
VERS.                      2.0: CWLS Log ASCII Standard - VERSION 2.0
WRAP.                       NO: One line per depth step
~Well Information Block
STRT.FT               450.0000: 
STOP.FT              1642.0000: 
STEP.FT                 0.1000: 
NULL.                -999.2500: 
COMP.          Pioneer Natural Resources: COMPANY
WELL.           Buckhorn 12-21: WELL
FLD.           Purgatoire River: FIELD
LOC.           2450' FNL & 608' FWL: LOCATION
PROV.                 Colorado: PROVINCE
CNTY.               Las Animas: COUNTRY
SRVC.                Patterson: SERVICE COMPANY
DATE.          Wed Dec 01 15:08:21 2004: LOG DATE
UWI.           05 071 08129 00: UNIQUE WELL ID
~Curve Information Block
DEPT.FT            0 000 00 00: Depth
NPOR.pu                       : Neutron Porosity
CCL.                          : Casing Collar Locator
GR.GAPI                       : Gamma Ray
~Parameter Information Block
~A  Depth       NPOR        CCL          GR     
# ...
   683.8000     36.3775      0.0000     92.4698
   683.9000     36.3775      0.0000     92.4698
   684.0000     36.4527      0.0000     92.5041
   684.1000     36.4527      0.0000     92.5041
   684.2000     36.4527      0.0000     92.5041
   684.3000     36.6048      0.0000     90.7725
   684.4000     36.6048      0.0000     90.7725
   684.5000     36.8311      0.0000     87.6700
   684.6000     36.8311      0.0000     87.6700
   684.7000     36.8311      0.0000     87.6700
   684.8000     37.1276      0.0000     84.4337
   684.9000     37.1276      0.0000     84.4337
   685.0000     37.4693      0.0000     82.2188
   685.1000     37.4693      0.0000     82.2188
   685.2000     37.4693      0.0000     82.2188
   685.3000     37.8415      0.0000     81.5994
   685.4000     37.8415      0.0000     81.5994
   685.5000     38.2682      0.0000     82.7045
   685.6000     38.2682      0.0000     82.7045
   685.7000     38.2682      0.0000     82.7045
   685.8000     38.7792      0.0000     85.2698
   685.9000     38.7792      0.0000     85.2698
   686.0000     39.3466      0.0000     88.3407
   686.1000     39.3466      0.0000     88.3407
   686.2000     39.3466      0.0000     88.3407
   686.3000     39.8641      0.0000     90.4534
   686.4000     39.8641      0.0000     90.4534
   686.5000     40.2019      0.0000     90.7542
   686.6000     40.2019      0.0000     90.7542
   686.7000     40.2019      0.0000     90.7542
   686.8000     40.2994      0.0000     89.7873
   686.9000     40.2994      0.0000     89.7873
   687.0000     40.2164      0.0000     88.7946
   687.1000     40.2164      0.0000     88.7946
   687.2000     40.2164      0.0000     88.7946
   687.3000     40.0793      0.0000     88.5013
   687.4000     40.0793      0.0000     88.5013
   687.5000     39.9545      0.0000     88.8657
   687.6000     39.9545      0.0000     88.8657
   687.7000     39.9545      0.0000     88.8657
   687.8000     39.7847      0.0000     89.5378
   687.9000     39.7847      0.0000     89.5378
   688.0000     39.4600      0.0000     90.1811
   688.1000     39.4600      0.0000     90.1811
   688.2000     39.4600      0.0000     90.1811
   688.3000     38.9335      0.0000     90.6896
   688.4000     38.9335      0.0000     90.6896
   688.5000     38.2554      0.0000     91.3963
   688.6000     38.2554      0.0000     91.3963
   688.7000     38.2554      0.0000     91.3963
   688.8000     37.5032      0.0000     92.9849
   688.9000     37.5032      0.0000     92.9849
   689.0000     36.6940      0.0000     96.0755
   689.1000     36.6940      0.0000     96.0755
   689.2000     36.6940      0.0000     96.0755
   689.3000     35.7713      0.0000    100.6784
   689.4000     35.7713      0.0000    100.6784
   689.5000     34.6799      0.0000    105.7938
   689.6000     34.6799      0.0000    105.7938
   689.7000     34.6799      0.0000    105.7938
   689.8000     33.4560      0.0000    109.7574
   689.9000     33.4560      0.0000    109.7574
   690.0000     32.2381      0.0000    111.3961
   690.1000     32.2381      0.0000    111.3961
   690.2000     32.2381      0.0000    111.3961
   690.3000     31.1968      0.0000    110.8962
   690.4000     31.1968      0.0000    110.8962
   690.5000     30.4675      0.0000    109.4067
   690.6000     30.4675      0.0000    109.4067
   690.7000     30.4675      0.0000    109.4067
   690.8000     30.1304      0.0000    107.9821
   690.9000     30.1304      0.0000    107.9821
   691.0000     30.1969      0.0000    107.1711
   691.1000     30.1969      0.0000    107.1711
   691.2000     30.1969      0.0000    107.1711
   691.3000     30.5715      0.0000    107.3038
   691.4000     30.5715      0.0000    107.3038
   691.5000     31.0593      0.0000    108.5803
   691.6000     31.0593      0.0000    108.5803
   691.7000     31.0593      0.0000    108.5803
   691.8000     31.4741      0.0000    110.7126
   691.9000     31.4741      0.0000    110.7126
   692.0000     31.7448      0.0000    112.8808
   692.1000     31.7448      0.0000    112.8808
   692.2000     31.7448      0.0000    112.8808
   692.3000     31.9055      0.0000    114.3790
   692.4000     31.9055      0.0000    114.3790
   692.5000     32.0230      0.0000    115.1282
   692.6000     32.0230      0.0000    115.1282
   692.7000     32.0230      0.0000    115.1282
   692.8000     32.1612      0.0000    115.3587
   692.9000     32.1612      0.0000    115.3587
   693.0000     32.3622      0.0000    115.1127
   693.1000     32.3622      0.0000    115.1127
   693.2000     32.3622      0.0000    115.1127
   693.3000     32.6162      0.0000    114.2314
   693.4000     32.6162      0.0000    114.2314
   693.5000     32.8742      0.0000    112.5269
   693.6000     32.8742      0.0000    112.5269
   693.7000     32.8742      0.0000    112.5269
   693.8000     33.1125      0.0000    109.9511
   693.9000     33.1125      0.0000    109.9511
   694.0000     33.3462      0.0000    106.8148
   694.1000     33.3462      0.0000    106.8148
   694.2000     33.3462      0.0000    106.8148
   694.3000     33.5698      0.0000    103.6581
   694.4000     33.5698      0.0000    103.6581
   694.5000     33.7369      0.0000    100.7323
   694.6000     33.7369      0.0000    100.7323
   694.7000     33.7369      0.0000    100.7323
   694.8000     33.7975      0.0000     98.0665
   694.9000     33.7975      0.0000     98.0665
   695.0000     33.6917      0.0000     96.1694
   695.1000     33.6917      0.0000     96.1694
   695.2000     33.6917      0.0000     96.1694
   695.3000     33.3034     -2.0000     95.8252
   695.4000     33.3034      2.0000     95.8252
   695.5000     32.5032      0.0000     96.6860
   695.6000     32.5032      0.0000     96.6860
   695.7000     32.5032      0.0000     96.6860
   695.8000     31.2927      0.0000     96.6855
   695.9000     31.2927      0.0000     96.6855
   696.0000     29.8747      0.0000     93.5292
   696.1000     29.8747      0.0000     93.5292
   696.2000     29.8747      0.0000     93.5292
   696.3000     28.5375      0.0000     86.7243
   696.4000     28.5375      0.0000     86.7243
   696.5000     27.4739      0.0000     77.9800
   696.6000     27.4739      0.0000     77.9800
   696.7000     27.4739      0.0000     77.9800
   696.8000     26.7237      0.0000     69.7215
   696.9000     26.7237      0.0000     69.7215
   697.0000     26.2567      0.0000     63.4027
   697.1000     26.2567      0.0000     63.4027
   697.2000     26.2567      0.0000     63.4027
   697.3000     26.0717      0.0000     59.2700
   697.4000     26.0717      0.0000     59.2700
   697.5000     26.2030      0.0000     57.3165
   697.6000     26.2030      0.0000     57.3165
   697.7000     26.2030      0.0000     57.3165
   697.8000     26.6396      0.0000     57.7946
   697.9000     26.6396      0.0000     57.7946
   698.0000     27.2584      0.0000     60.6442
   698.1000     27.2584      0.0000     60.6442
   698.2000     27.2584      0.0000     60.6442
   698.3000     27.8684      0.0000     65.0112
   698.4000     27.8684      0.0000     65.0112
   698.5000     28.3344      0.0000     69.7940
   698.6000     28.3344      0.0000     69.7940
   698.7000     28.3344      0.0000     69.7940
   698.8000     28.6584      0.0000     74.3732
   698.9000     28.6584      0.0000     74.3732
   699.0000     28.9530      0.0000     78.5223
   699.1000     28.9530      0.0000     78.5223
   699.2000     28.9530      0.0000     78.5223
   699.3000     29.3428      0.0000     82.0322
   699.4000     29.3428      0.0000     82.0322
   699.5000     29.8637      0.0000     84.8089
   699.6000     29.8637      0.0000     84.8089
   699.7000     29.8637      0.0000     84.8089
   699.8000     30.4174      0.0000     86.9817
   699.9000     30.4174      0.0000     86.9817
   700.0000     30.8115      0.0000     88.5898
   700.1000     30.8115      0.0000     88.5898
   700.2000     30.8115      0.0000     88.5898
   700.3000     30.8674      0.0000     89.4305
   700.4000     30.8674      0.0000     89.4305
