~Version Information
VERS.                      2.0: CWLS Log ASCII Standard - VERSION 2.0
WRAP.                       NO: One line per depth step
~Well Information Block
STRT.FT               840.0000: 
STOP.FT              2019.0000: 
STEP.FT                 0.2500: 
NULL.                -999.2500: 
COMP.          Petrogulf Corporation: COMPANY
WELL.           Lavedure 7-44R: WELL
FLD.           Purgatorie River: FIELD
LOC.           946' FSL & 521' FEL: LOCATION
PROV.                 Colorado: PROVINCE
CNTY.               Las Animas: COUNTRY
SRVC.                Patterson: SERVICE COMPANY
DATE.          Mon Sep 26 08:35:42 2005: LOG DATE
UWI.                          : UNIQUE WELL ID
~Curve Information Block
DEPT.FT            0 000 00 00: Depth
SP.mV                         : DIL Spontaneous Potential
RILD.Ohm-m                    : DIL Deep Resistivity
RILM.Ohm-m                    : DIL Medium Resistivity
RLL3.Ohm-m                    : DIL Shallow Resistivity
GR.GAPI                       : Gamma Ray
~Parameter Information Block
~A  Depth        SP         RILD        RILM        RLL3         GR     
# ...
   924.0000   2000.0000     26.8944     23.4684   2000.0000     49.2885
   924.2500   2000.0000     26.5251     21.4555   2000.0000     53.6435
   924.5000   2000.0000     26.5608     21.1131   2000.0000     71.0524
   924.7500   2000.0000     26.7007     21.5494   2000.0000     74.6171
   925.0000   2000.0000     26.8724     22.0632   2000.0000     92.4908
   925.2500   2000.0000     25.8654     23.7496   2000.0000    108.1409
   925.5000   2000.0000     26.1730     26.3030   2000.0000    141.6873
   925.7500   2000.0000     26.2754     28.7095   2000.0000    136.1152
   926.0000   2000.0000     25.7121     30.6987   2000.0000    112.8413
   926.2500   2000.0000     25.9131     32.7560   2000.0000    112.4530
   926.5000   2000.0000     26.7730     35.9261   2000.0000     96.8910
   926.7500   2000.0000     27.8932     39.3442   2000.0000     92.3703
   927.0000   2000.0000     29.0595     43.5962   2000.0000     95.5671
   927.2500   2000.0000     29.1265     47.5755   2000.0000     89.7690
   927.5000   2000.0000     30.0004     51.1337   2000.0000     89.9505
   927.7500   2000.0000     29.4842     54.5853   2000.0000     81.6956
   928.0000   2000.0000     28.7210     50.5227   2000.0000     73.8571
   928.2500   2000.0000     26.6966     46.2281   2000.0000     73.5939
   928.5000   2000.0000     24.8906     38.8694   2000.0000     57.6027
   928.7500   2000.0000     22.9448     32.3884   2000.0000     61.9994
   929.0000   2000.0000     21.5115     26.7045   2000.0000     63.9728
   929.2500   2000.0000     19.8056     22.3261   2000.0000     65.8630
   929.5000   2000.0000     18.2964     19.5792   2000.0000     75.7748
   929.7500   2000.0000     17.9105     17.4876   2000.0000     86.5047
   930.0000   2000.0000     16.9862     15.8174   2000.0000    123.3849
   930.2500   2000.0000     16.3118     14.5783   2000.0000    126.4460
   930.5000   2000.0000     15.5586     13.6501   2000.0000    123.3445
   930.7500     92.5487     15.2217     12.9366     13.9727    142.7483
   931.0000     92.3532     14.4588     12.5305     14.2614    139.2958
   931.2500     92.1865     14.1236     12.2240     15.1923    137.8823
   931.5000     92.0371     13.6467     12.2601     15.7893    141.0244
   931.7500     91.9001     13.2110     12.1322     16.4809    140.4611
   932.0000     91.9063     13.4060     12.0698     16.1646    142.9176
   932.2500     92.0332     13.3447     12.1083     15.9573    137.9420
   932.5000     92.1397     13.3900     12.2519     16.2478    119.4146
   932.7500     92.2486     13.4839     12.4836     17.0410    129.8904
   933.0000     92.3683     13.5871     12.8668     20.3557    139.5444
   933.2500     92.5619     13.8793     13.1944     22.3852    140.4080
   933.5000     92.8080     13.9799     13.5051     21.6622    117.0282
   933.7500     93.2659     14.2355     13.4994     20.1791     94.6076
   934.0000     93.7602     14.3410     13.5301     17.7910     96.0417
   934.2500     94.2579     14.3510     13.4485     15.2973    130.5812
   934.5000     94.7175     14.3319     13.4244     15.8695    147.5597
   934.7500     95.1145     14.6930     13.4863     16.6760    165.9895
   935.0000     95.2266     15.1812     13.7763     17.5765    149.2407
   935.2500     95.1619     15.6036     13.7906     19.0948    148.8564
   935.5000     94.8895     16.0197     13.9253     18.6122    146.2737
   935.7500     94.5548     16.2653     13.7977     16.4155    143.4906
   936.0000     94.2128     16.4612     14.1796     12.6424    135.1551
   936.2500     93.9204     16.6177     15.1249     12.9906    135.3056
   936.5000     93.7449     16.6130     16.7238     21.2132    153.0354
   936.7500     93.6225     16.0855     18.5463     56.1593    133.8436
   937.0000     93.5781     15.5592     19.8994    149.1015    118.5402
   937.2500     93.5392     14.8064     20.6283    250.6586    113.0077
   937.5000     93.3753     13.9994     19.2236    233.5896     89.4105
   937.7500     93.2835     13.5013     17.6428    126.5330     84.7406
   938.0000     93.3538     13.3501     15.8116     49.0645     60.3419
   938.2500     93.5726     13.1034     13.9490     23.8872     55.2972
   938.5000     93.9277     12.9067     12.5430     15.5998     59.8516
   938.7500     94.4125     12.8513     11.6825     12.1742     63.7131
   939.0000     95.0636     12.5488     11.0709     11.4184    101.4532
   939.2500     95.6942     12.2554     10.6137     12.0777    109.0944
   939.5000     96.2465     11.9003     10.2270     12.4761    100.8434
   939.7500     96.5463     11.5909      9.8952     12.6880    106.7981
   940.0000     96.6225     11.4778      9.6232     12.0383    103.3943
   940.2500     96.5113     11.2874      9.4055     11.9522     93.2301
   940.5000     96.2733     11.0905      9.3563     11.7890     91.1910
   940.7500     95.9349     11.2356      9.4175     12.1829     96.9661
   941.0000     95.6279     11.5565      9.7423     12.2004    112.0719
   941.2500     95.3271     11.8941     10.3415     14.0348    115.0934
   941.5000     94.9798     12.3546     11.1726     16.2256    105.6502
   941.7500     94.6532     12.8952     12.0288     19.3848    121.8484
   942.0000     94.3775     13.7139     13.2175     22.6542    135.5527
   942.2500     94.1428     14.4872     14.6494     27.4493    143.1055
   942.5000     93.9204     15.3770     16.0089     34.7888    144.0192
   942.7500     93.8257     16.2830     18.0113     43.2772    132.3575
   943.0000     93.9212     17.4479     20.3504     58.8886     99.9316
   943.2500     94.2494     18.6205     22.0192     78.0957     94.4890
   943.5000     94.8514     20.2530     23.8671     74.7680     99.1098
   943.7500     95.5710     21.4320     25.7059     54.8703     96.7477
   944.0000     96.3069     22.2448     26.6790     46.1476     73.8508
   944.2500     97.0960     23.1485     27.0924     39.4522     72.4405
   944.5000     97.6446     23.5788     27.8595     41.8073     84.5803
   944.7500     98.0373     23.7800     28.3430     49.1690     80.6662
   945.0000     98.3031     24.2663     27.1007     44.3219     87.8238
   945.2500     98.5690     24.8857     25.1013     38.2197     87.2891
   945.5000     98.7868     24.7253     24.1485     27.5564     87.8094
   945.7500     98.9430     24.8937     23.6373     19.0237     81.0372
   946.0000     99.1010     25.2516     23.4980     19.3544     87.0534
   946.2500     99.2180     25.1192     23.5938     26.8627    105.2073
   946.5000     99.2710     25.0404     24.8165     39.1538     97.7760
   946.7500     99.2494     24.9029     25.7044     37.9683     84.9246
   947.0000     99.1916     25.0965     26.3096     35.0018     98.0650
   947.2500     99.0974     24.4801     25.8280     35.5379    104.5388
   947.5000     99.0674     24.3169     25.8729     37.9481     81.2386
   947.7500     99.0542     24.4469     27.2408     39.7019     66.8812
   948.0000     99.2053     24.5472     27.4245     41.3591     79.7720
   948.2500     99.4326     25.4683     27.7106     43.9651     87.9977
   948.5000     99.6382     26.1827     27.6502     44.0172     81.0102
   948.7500     99.7785     26.5893     28.4676     39.5483     73.7413
   949.0000     99.8641     26.7375     28.1292     32.8957     81.1120
   949.2500     99.8462     26.6076     27.8369     29.1170     92.6128
   949.5000     99.6686     26.1241     28.0332     30.1335    107.7439
   949.7500     99.4433     26.4299     27.7338     33.0878    102.3470
   950.0000     99.2815     26.1255     28.1958     33.9779     96.2529
   950.2500     99.2105     25.4019     28.0513     33.2514     96.3201
   950.5000     99.1743     24.8116     27.6971     32.3796     98.5606
   950.7500     99.1216     23.8110     27.4959     33.4125     95.9171
   951.0000     99.1822     23.2880     27.1646     36.3362     87.4325
   951.2500     99.2946     23.3041     25.7770     36.0307     88.2264
   951.5000     99.5277     23.0156     24.9612     31.5295    102.1989
   951.7500     99.8534     22.5575     24.1835     26.9172     95.6532
