~Version Information
VERS.                      2.0: CWLS Log ASCII Standard - VERSION 2.0
WRAP.                       NO: One line per depth step
~Well Information Block
STRT.FT               460.0000: 
STOP.FT               961.2000: 
STEP.FT                 0.1000: 
NULL.                -999.2500: 
COMP.          Pioneer Natural Resources: COMPANY
WELL.                Pug 33-19: WELL
FLD.           Purgatoire River: FIELD
LOC.           1381' FSL & 2140' FEL: LOCATION
PROV.                 Colorado: PROVINCE
CNTY.               Las Animas: COUNTRY
SRVC.                Patterson: SERVICE COMPANY
DATE.          Wed Dec 15 07:19:20 2004: LOG DATE
UWI.           05 071 08193 00: UNIQUE WELL ID
~Curve Information Block
DEPT.FT            0 000 00 00: Depth
DCAL.in                       : CDL Caliper
RHOB.g/cc                     : CDL Bulk Density
RHOC.g/cc                     : CDL Density Correction
DPOR.pu                       : CDL Density Porosity
NPOR.pu                       : Neutron Porosity
GR.GAPI                       : Gamma Ray
~Parameter Information Block
~A  Depth       DCAL        RHOB        RHOC        DPOR        NPOR         GR     
# ...
   527.2000      7.9767      2.5775      0.1310      4.3923     26.0350    167.1841
   527.3000      7.9830      2.5890      0.1337      3.6962     25.6665    166.2473
   527.4000      7.9830      2.5954      0.1100      3.3104     25.0766    166.4293
   527.5000      7.9871      2.5947      0.1520      3.3540     24.2720    167.0349
   527.6000      7.9871      2.5785      0.1432      4.3328     23.6738    167.2862
   527.7000      7.9871      2.5590      0.0632      5.5135     23.5824    165.4379
   527.8000      7.9853      2.5506      0.1071      6.0225     23.6638    160.3670
   527.9000      7.9853      2.5420      0.0724      6.5439     23.5859    153.9644
   528.0000      7.9842      2.5247     -0.0273      7.5926     23.4218    147.4621
   528.1000      7.9842      2.5070     -0.0339      8.6678     23.3631    144.2424
   528.2000      7.9842      2.4932     -0.0062      9.5005     23.2326    148.9389
   528.3000      7.9900      2.4881      0.0097      9.8094     22.8192    156.2530
   528.4000      7.9900      2.4954      0.0335      9.3708     22.3978    159.2338
   528.5000      7.9952      2.5027      0.0410      8.9290     22.5251    161.5535
   528.6000      7.9952      2.5028      0.0251      8.9201     23.3379    166.0374
   528.7000      7.9952      2.5059      0.0414      8.7304     24.1039    167.1817
   528.8000      7.9971      2.5087      0.0863      8.5662     24.1659    161.1064
   528.9000      7.9971      2.4950      0.0387      9.3931     23.9900    151.0655
   529.0000      7.9980      2.4688      0.0193     10.9813     24.4049    145.1209
   529.1000      7.9980      2.4454     -0.0004     12.4008     24.9909    145.5063
   529.2000      7.9980      2.4356     -0.0199     12.9942     24.8177    148.6808
   529.3000      7.9988      2.4395      0.0400     12.7551     24.5491    152.9734
   529.4000      7.9988      2.4503      0.0448     12.1001     24.8923    151.7233
   529.5000      8.0013      2.4689      0.0496     10.9763     24.9222    142.1955
   529.6000      8.0013      2.4897      0.1103      9.7141     23.9464    131.9221
   529.7000      8.0013      2.5039      0.0946      8.8546     22.3457    121.6531
   529.8000      8.0036      2.5171      0.1193      8.0516     20.7775    109.9777
   529.9000      8.0036      2.5355      0.1053      6.9397     19.8021    100.0442
   530.0000      8.0025      2.5574      0.0934      5.6108     19.4549     92.3577
   530.1000      8.0025      2.5745      0.1183      4.5788     19.6305     84.9746
   530.2000      8.0025      2.5753      0.0940      4.5243     19.7466     77.7688
   530.3000      8.0008      2.5639      0.0710      5.2210     19.1148     72.7275
   530.4000      8.0008      2.5518      0.0069      5.9526     18.3948     68.8849
   530.5000      8.0010      2.5413      0.0276      6.5880     18.3998     64.3650
   530.6000      8.0010      2.5380     -0.0292      6.7887     19.0522     62.8862
   530.7000      8.0010      2.5513      0.0371      5.9807     19.9149     65.9442
   530.8000      8.0007      2.5740      0.0393      4.6033     20.3748     69.8356
   530.9000      8.0007      2.5949      0.0403      3.3369     20.3510     73.5279
   531.0000      7.9991      2.6077      0.0617      2.5609     20.4382     76.5252
   531.1000      7.9991      2.6116      0.0316      2.3287     21.1734     79.9041
   531.2000      7.9991      2.6159      0.0460      2.0670     22.6038     84.3012
   531.3000      7.9986      2.6220      0.0598      1.6990     24.2389     87.0359
   531.4000      7.9986      2.6156      0.0487      2.0844     25.4772     88.6517
   531.5000      7.9996      2.5866      0.0311      3.8454     26.0909     92.0210
   531.6000      7.9996      2.5371      0.0095      6.8428     26.3336     95.8795
   531.7000      7.9996      2.4901     -0.0159      9.6905     26.4398    101.1975
   531.8000      8.0009      2.4728      0.0020     10.7415     26.3022    112.7163
   531.9000      8.0009      2.4774      0.0528     10.4602     26.0993    131.7453
   532.0000      8.0019      2.4737      0.0475     10.6845     26.2671    150.3441
   532.1000      8.0019      2.4560      0.0260     11.7577     26.8632    156.6723
   532.2000      8.0019      2.4473      0.0330     12.2874     27.6802    152.5888
   532.3000      8.0022      2.4636      0.0339     11.2974     28.2800    150.6393
   532.4000      8.0022      2.4932      0.1065      9.5057     28.3370    155.5527
   532.5000      8.0019      2.5108      0.1124      8.4365     28.1152    160.8190
   532.6000      8.0019      2.5115      0.0610      8.3924     27.6743    161.7467
   532.7000      8.0019      2.5093      0.0515      8.5287     26.8165    157.7443
   532.8000      8.0026      2.5058      0.0588      8.7381     26.0811    148.8830
   532.9000      8.0026      2.4969      0.0231      9.2768     26.0264    142.1354
   533.0000      8.0027      2.4918      0.0439      9.5885     26.5269    142.9365
   533.1000      8.0027      2.5015      0.0487      8.9972     27.1832    146.5058
   533.2000      8.0027      2.5211      0.0756      7.8130     27.6553    148.6950
   533.3000      8.0003      2.5268      0.0594      7.4676     27.8704    148.7047
   533.4000      8.0003      2.5037      0.0604      8.8666     27.9858    145.2681
   533.5000      7.9986      2.4655      0.0253     11.1828     28.1749    140.5271
   533.6000      7.9986      2.4330      0.0296     13.1523     28.7235    138.7775
   533.7000      7.9986      2.4148     -0.0059     14.2559     29.4299    143.5794
   533.8000      8.0003      2.4062      0.0375     14.7751     29.6793    153.6472
   533.9000      8.0003      2.3975      0.0141     15.3049     29.6759    159.9940
   534.0000      8.0023      2.3917      0.0125     15.6542     29.7986    156.1470
   534.1000      8.0023      2.3974      0.0135     15.3113     29.7206    148.7827
   534.2000      8.0023      2.4036      0.1024     14.9346     29.3862    143.5430
   534.3000      8.0030      2.3934      0.0591     15.5509     29.3430    140.8539
   534.4000      8.0030      2.3787      0.0241     16.4431     29.5144    142.8521
   534.5000      8.0014      2.3811      0.0344     16.2946     29.3353    147.2635
   534.6000      8.0014      2.3958      0.0948     15.4082     28.9746    148.8953
   534.7000      8.0014      2.4032      0.0698     14.9580     28.7543    149.0354
   534.8000      7.9991      2.3958      0.0772     15.4034     28.5448    153.3213
   534.9000      7.9991      2.3780      0.0640     16.4846     28.4254    161.4628
   535.0000      8.0000      2.3612      0.0684     17.5055     28.6611    163.8487
   535.1000      8.0000      2.3591      0.0491     17.6276     29.1188    154.2841
   535.2000      8.0000      2.3746      0.1038     16.6890     29.5810    139.2865
   535.3000      8.0050      2.3971      0.0854     15.3285     29.7965    128.4087
   535.4000      8.0050      2.4179      0.0935     14.0688     29.4655    123.6609
   535.5000      8.0089      2.4287      0.1144     13.4147     28.8147    121.1801
   535.6000      8.0089      2.4256      0.1209     13.5987     28.3546    119.4319
   535.7000      8.0089      2.4189      0.0694     14.0077     28.2323    119.8866
   535.8000      8.0055      2.4168      0.0781     14.1332     28.3798    123.7365
   535.9000      8.0055      2.4146      0.0785     14.2638     28.5407    132.4853
   536.0000      8.0014      2.4071      0.0684     14.7216     28.3947    139.3526
   536.1000      8.0014      2.3950      0.0706     15.4518     28.0133    134.1212
   536.2000      8.0014      2.3834      0.0652     16.1573     27.9632    123.9177
   536.3000      8.0011      2.3774      0.0284     16.5185     28.2024    123.2259
   536.4000      8.0011      2.3775      0.0605     16.5129     28.0132    131.5088
   536.5000      8.0016      2.3832      0.0260     16.1699     27.3321    138.2524
   536.6000      8.0016      2.3984      0.0515     15.2507     26.7074    139.0419
   536.7000      8.0016      2.4214      0.0868     13.8533     26.2108    136.6851
