~Version Information
 VERS.                                  2.0 : CWLS LAS VERSION
 WRAP.                                   NO : WRAPING MODE
 SWARE .                 MController 2.5.0J : SOFTWARE VERSION
~Well Information
 WELL.                         Sliva 01-43V : WELL
 COMP.                Petrogulf Corporation : COMPANY
 FLD.                      Purgatoire River : FIELD
 LOC.                 NE/SE Sec 1 T33S R68W : LOCATION
 DATE.                          08/26-27/05 : DATE(S) LOGGED
 SRVC.       BLANCO Geological Services LLC : SERVICE COMPANY
 STAT.                                   CO : STATE
 CNTY.                           Las Animas : COUNTY
 CTRY.                                  USA : COUNTRY
 API.                       05-071-08371-00 : API NUMBER
 STRT.FT                             503.00 : START DEPTH
 STOP.FT                            2764.00 : STOP DEPTH
 STEP.FT                               1.00 : DEPTH INCREMENT
 NULL.                                -9999 : NULL VALUE
~Curve information
 DEPTH.FT                                   :
 ROP.MIN/FT                                 :
 GAS.UNITS                                  :
~ASCII Log data
# ...
       903.0         0.23          5.0 
       904.0         0.20          4.7 
       905.0         0.27          5.0 
       906.0         0.23          5.2 
       907.0         0.23          5.4 
       908.0         0.23          5.8 
       909.0         0.17          5.2 
       910.0         0.18          5.6 
       911.0         0.20          5.7 
       912.0         0.20          5.6 
       913.0         0.20          5.6 
       914.0         0.20          6.1 
       915.0         0.23          6.2 
       916.0         0.20          6.2 
       917.0         0.20          6.4 
       918.0         0.17          6.9 
       919.0         0.20          6.8 
       920.0         0.20          6.9 
       921.0         0.23          7.1 
       922.0         0.20          7.1 
       923.0         0.23          7.2 
       924.0         0.23          7.5 
       925.0         0.20          7.4 
       926.0         0.25          7.3 
       927.0         0.27          7.5 
       928.0         2.00          8.7 
       929.0         0.37          9.0 
       930.0         0.27          9.7 
       931.0         0.32         10.8 
       932.0         0.20         11.0 
       933.0         0.30         11.0 
       934.0         0.23         11.1 
       935.0         0.20         11.6 
       936.0         0.17         11.6 
       937.0         0.20         11.4 
       938.0         0.17         11.4 
       939.0         0.17         11.1 
       940.0         0.17         11.0 
       941.0         0.17         10.8 
       942.0         0.17         10.4 
       943.0         0.17         10.4 
       944.0         0.20         10.6 
       945.0         0.13          9.6 
       946.0         0.15          9.7 
       947.0         0.13          9.8 
       948.0         0.20          9.7 
       949.0         0.17          9.6 
       950.0         0.20          9.4 
       951.0         0.13          8.9 
       952.0         0.20          8.8 
       953.0         0.13          9.2 
       954.0         0.17          8.9 
       955.0         0.17          9.2 
       956.0         0.17          8.8 
       957.0         0.20          9.1 
       958.0         1.68         12.9 
       959.0         0.30         12.6 
       960.0         0.30         12.9 
       961.0         0.30         11.7 
       962.0         0.30         11.2 
       963.0         0.30         10.8 
       964.0         0.30         10.6 
       965.0         0.30         10.2 
       966.0         0.27          9.5 
       967.0         0.23          9.5 
       968.0         0.23         10.0 
       969.0         0.22          9.7 
       970.0         0.23          9.2 
       971.0         0.27          9.6 
       972.0         0.33          9.2 
       973.0         0.20          9.2 
       974.0         0.17          8.7 
       975.0         0.20          9.3 
       976.0         0.17          9.1 
       977.0         0.17          9.0 
       978.0         0.17          9.2 
       979.0         0.20          9.2 
       980.0         0.20          9.2 
       981.0         0.20          9.0 
       982.0         0.17          9.0 
       983.0         0.17          9.0 
       984.0         0.20          8.7 
       985.0         0.18          8.8 
       986.0         0.17          9.0 
       987.0         0.17          8.6 
       988.0         2.53          9.2 
       989.0         0.55         10.3 
       990.0         0.40         10.9 
       991.0         0.37         10.3 
       992.0         0.23          9.8 
       993.0         0.23          9.7 
       994.0         0.23         10.7 
       995.0         0.30         11.3 
       996.0         0.20         12.0 
       997.0         0.17         12.5 
       998.0         0.17         11.7 
       999.0         0.13         11.9 
      1000.0         0.13         10.8 
      1001.0         0.13         10.7 
      1002.0         0.17         10.4 
      1003.0         0.13         10.7 
      1004.0         0.10         10.3 
      1005.0         0.15         10.0 
      1006.0         0.13         10.0 
      1007.0         0.13          9.6 
      1008.0         0.23          9.6 
      1009.0         0.20          8.7 
      1010.0         0.20          8.8 
      1011.0         0.20         10.5 
      1012.0         0.17         12.8 
      1013.0         0.20         17.9 
      1014.0         0.17         25.8 
      1015.0         0.17         39.1 
      1016.0         0.17         61.7 
      1017.0         0.17         87.7 
      1018.0         1.82         99.0 
      1019.0         0.20         15.5 
      1020.0         0.33         13.2 
      1021.0         0.30         11.5 
      1022.0         0.23         10.8 
      1023.0         0.30          9.6 
      1024.0         0.23         10.3 
      1025.0         0.17          9.7 
      1026.0         0.20          9.9 
      1027.0         0.20          9.4 
      1028.0         0.20          9.3 
      1029.0         0.22          9.6 
      1030.0         0.17          9.4 
      1031.0         0.20          9.8 
      1032.0         0.20          9.4 
      1033.0         0.13          9.7 
      1034.0         0.17          9.3 
      1035.0         0.17          9.1 
      1036.0         0.17          8.9 
      1037.0         0.13          8.6 
      1038.0         0.17          8.5 
      1039.0         0.17          8.2 
      1040.0         0.20          7.8 
      1041.0         0.17          9.3 
      1042.0         0.20         13.0 
      1043.0         0.20         21.4 
      1044.0         0.17         33.0 
      1045.0         0.17         45.5 
      1046.0         0.10         53.8 
      1047.0         0.10         63.5 
      1048.0         2.85        127.0 
      1049.0         0.43          9.7 
      1050.0         0.35         11.1 
      1051.0         0.23         11.6 
      1052.0         0.27         11.8 
      1053.0         0.20         11.4 
      1054.0         0.23         11.2 
      1055.0         0.57         10.3 
      1056.0         0.23          9.9 
      1057.0         0.20         10.0 
      1058.0         0.20          9.5 
      1059.0         0.20          9.3 
      1060.0         0.20          8.9 
      1061.0         0.17          8.9 
      1062.0         0.17          8.2 
      1063.0         0.17          8.3 
      1064.0         0.18          7.8 
      1065.0         0.17          8.1 
      1066.0         0.17          8.2 
      1067.0         0.20          7.7 
      1068.0         0.17          7.9 
      1069.0         0.17          7.7 
      1070.0         0.23          7.1 
      1071.0         0.23          8.2 
      1072.0         0.20          9.6 
      1073.0         0.17         13.1 
      1074.0         0.17         19.8 
      1075.0         0.20         31.2 
      1076.0         0.20         42.9 
      1077.0         0.17         59.8 
      1078.0         2.32        115.2 
      1079.0         0.40         12.6 
      1080.0         0.30          8.2 
      1081.0         0.30          6.8 
      1082.0         0.27          6.9 
      1083.0         0.27          7.2 
      1084.0         0.28          7.1 
      1085.0         0.27          7.0 
      1086.0         0.23          6.6 
      1087.0         0.20          7.1 
      1088.0         0.20          6.6 
      1089.0         0.23          6.9 
      1090.0         0.23          6.4 
      1091.0         0.13          6.6 
      1092.0         0.13          6.7 
      1093.0         0.10          6.1 
      1094.0         0.10          6.8 
      1095.0         0.13          6.9 
      1096.0         0.20          6.7 
      1097.0         0.20          6.1 
      1098.0         0.17          6.5 
      1099.0         0.17          6.6 
      1100.0         0.13          6.4 
      1101.0         0.20          7.5 
      1102.0         0.18         11.1 
