~Version Information
VERS.                      2.0: CWLS Log ASCII Standard - VERSION 2.0
WRAP.                       NO: One line per depth step
~Well Information Block
STRT.FT               250.0000: 
STOP.FT              1017.5000: 
STEP.FT                 0.1000: 
NULL.                -999.2500: 
COMP.          Pioneer Natural Resources: COMPANY
WELL.              Oscar 41-31: WELL
FLD.           Purgatoire River: FIELD
LOC.           412' FNL & 1216' FEL: LOCATION
PROV.                 Colorado: PROVINCE
CNTY.               Las Animas: COUNTRY
SRVC.                Patterson: SERVICE COMPANY
DATE.          Thu Feb 24 15:11:09 2005: LOG DATE
UWI.           05 071 08290 00: UNIQUE WELL ID
~Curve Information Block
DEPT.FT            0 000 00 00: Depth
DCAL.in                       : CDL Caliper
RHOB.g/cc                     : CDL Bulk Density
RHOC.g/cc                     : CDL Density Correction
DPOR.pu                       : CDL Density Porosity
GR.GAPI                       : Gamma Ray
NPOR.pu                       : Neutron Porosity
~Parameter Information Block
~A  Depth       DCAL        RHOB        RHOC        DPOR         GR         NPOR    
   250.0000      2.2478      2.2152      0.1481     26.3516    101.3824     16.5465
   250.1000      2.2478      2.2150      0.1388     26.3656    102.9242     17.2501
   250.2000      2.2478      2.2155      0.1362     26.3332    105.7983     17.9232
   250.3000      2.2477      2.2179      0.1567     26.1874    108.5501     18.7615
   250.4000      2.2477      2.2213      0.1596     25.9840    109.5811     19.5481
   250.5000      2.2474      2.2200      0.1600     26.0608    110.8181     19.6784
   250.6000      2.2474      2.2141      0.1709     26.4184    115.0142     19.3998
   250.7000      2.2474      2.2128      0.1375     26.4970    122.2202     19.1853
   250.8000      2.2470      2.2204      0.1767     26.0379    128.0897     19.3930
   250.9000      2.2470      2.2237      0.1911     25.8364    131.4351     19.9350
   251.0000      2.2460      2.2158      0.1298     26.3156    132.9231     20.1465
   251.1000      2.2460      2.2070      0.1554     26.8477    131.6056     20.2214
   251.2000      2.2460      2.2074      0.1084     26.8227    128.9939     20.9033
   251.3000      2.2453      2.2161      0.1562     26.2982    125.8176     21.8840
   251.4000      2.2453      2.2222      0.1613     25.9267    120.4840     22.0671
   251.5000      2.2462      2.2202      0.1834     26.0492    113.0293     21.1143
   251.6000      2.2462      2.2099      0.1620     26.6699    106.6153     20.0745
   251.7000      2.2462      2.1921      0.1478     27.7490    104.7302     20.2356
   251.8000      2.2481      2.1706      0.1114     29.0534    103.6083     21.0725
   251.9000      2.2481      2.1530      0.1143     30.1191     97.9752     21.0859
   252.0000      2.2486      2.1491      0.1310     30.3567     89.4901     20.5956
   252.1000      2.2486      2.1662      0.1061     29.3187     82.4451     20.8692
   252.2000      2.2486      2.1982      0.1534     27.3793     77.9623     21.4055
   252.3000      2.2477      2.2223      0.2216     25.9190     74.9596     21.1931
   252.4000      2.2477      2.2209      0.1673     26.0056     73.9378     20.7231
   252.5000      2.2466      2.2007      0.1191     27.2330     76.6951     20.3926
   252.6000      2.2466      2.1804      0.1291     28.4576     81.9983     20.0971
   252.7000      2.2466      2.1650      0.1136     29.3935     86.9137     20.3368
   252.8000      2.2461      2.1455      0.1103     30.5734     92.3848     21.2285
   252.9000      2.2461      2.1236      0.0885     31.9000     99.9201     21.8635
   253.0000      2.2465      2.1090      0.0966     32.7863    105.2240     21.5151
   253.1000      2.2465      2.0983      0.1090     33.4384    102.9936     20.5059
   253.2000      2.2465      2.0833      0.1292     34.3455     93.7796     20.0296
   253.3000      2.2479      2.0647      0.1062     35.4726     85.6933     20.6856
   253.4000      2.2479      2.0411      0.1176     36.9008     86.4303     21.8543
   253.5000      2.2493      2.0107      0.0725     38.7439     92.0109     23.1567
   253.6000      2.2493      1.9810      0.0739     40.5450     93.2330     24.9385
   253.7000      2.2493      1.9584      0.0622     41.9154     89.9600     26.8311
   253.8000      2.2501      1.9466      0.0208     42.6319     87.6719     28.0148
   253.9000      2.2501      1.9496      0.0399     42.4495     87.7502     28.4890
   254.0000      2.2504      1.9642      0.0843     41.5656     89.4032     28.5996
   254.1000      2.2504      1.9875      0.0477     40.1510     92.8868     28.4588
   254.2000      2.2504      2.0216      0.0946     38.0837     98.5681     28.5099
   254.3000      2.2501      2.0606      0.0983     35.7215    106.2061     28.7955
   254.4000      2.2501      2.0959      0.1201     33.5833    110.0450     28.7453
   254.5000      2.2489      2.1270      0.1221     31.6990    105.5347     28.2848
   254.6000      2.2489      2.1520      0.1051     30.1823     99.3303     28.0120
   254.7000      2.2489      2.1628      0.1579     29.5278     97.7705     27.8434
   254.8000      2.2476      2.1598      0.0994     29.7104    100.6608     27.0149
   254.9000      2.2476      2.1624      0.0842     29.5496    106.3930     25.9822
   255.0000      2.2471      2.1833      0.1473     28.2820    112.3488     25.5277
   255.1000      2.2471      2.2117      0.1485     26.5644    115.7743     25.2475
   255.2000      2.2471      2.2311      0.1559     25.3883    116.6795     24.8595
   255.3000      2.2469      2.2361      0.1544     25.0874    117.5057     24.8881
   255.4000      2.2469      2.2376      0.1308     24.9941    119.4263     24.9516
   255.5000      2.2463      2.2440      0.1995     24.6050    121.5289     24.0717
   255.6000      2.2463      2.2457      0.1828     24.5039    122.1186     22.7717
   255.7000      2.2463      2.2360      0.1602     25.0917    121.8361     22.3116
   255.8000      2.2459      2.2208      0.1753     26.0102    121.5255     22.9392
   255.9000      2.2459      2.2118      0.1471     26.5599    117.6524     23.8070
   256.0000      2.2463      2.2186      0.1450     26.1478    110.9435     23.8260
   256.1000      2.2463      2.2353      0.1457     25.1320    111.5059     23.0848
   256.2000      2.2463      2.2446      0.1839     24.5689    118.3631     22.7153
   256.3000      2.2464      2.2433      0.1173     24.6496    117.8621     23.1927
   256.4000      2.2464      2.2440      0.1547     24.6074    111.7068     23.9772
   256.5000      2.2457      2.2512      0.1582     24.1694    111.9359     24.3271
   256.6000      2.2457      2.2587      0.1825     23.7174    115.7538     24.1847
   256.7000      2.2457      2.2586      0.1831     23.7188    115.9800     23.6827
   256.8000      2.2459      2.2548      0.1360     23.9514    115.4535     22.9237
   256.9000      2.2459      2.2561      0.1764     23.8732    118.4953     22.3878
   257.0000      2.2466      2.2571      0.1805     23.8128    123.4618     22.5933
   257.1000      2.2466      2.2504      0.1767     24.2164    124.9863     23.6668
   257.2000      2.2466      2.2424      0.1349     24.7057    121.8494     24.9112
   257.3000      2.2470      2.2475      0.1481     24.3935    118.4638     25.0306
   257.4000      2.2470      2.2643      0.1953     23.3763    116.5062     23.9355
   257.5000      2.2472      2.2700      0.2021     23.0279    113.4445     23.1835
   257.6000      2.2472      2.2566      0.1504     23.8420    110.2205     23.3132
   257.7000      2.2472      2.2381      0.1876     24.9654    110.6334     22.9447
   257.8000      2.2467      2.2213      0.1656     25.9845    116.4381     21.8440
   257.9000      2.2467      2.2048      0.1501     26.9795    124.4071     21.4279
   258.0000      2.2459      2.1927      0.1411     27.7181    129.9578     21.7945
   258.1000      2.2459      2.1846      0.1781     28.2039    130.8701     21.8664
   258.2000      2.2459      2.1799      0.1363     28.4926    127.3555     21.5047
   258.3000      2.2465      2.1864      0.1211     28.0981    121.2118     21.1248
   258.4000      2.2465      2.2006      0.1538     27.2367    115.4201     20.7577
   258.5000      2.2473      2.2040      0.1602     27.0288    113.5208     20.0687
   258.6000      2.2473      2.1968      0.1241     27.4661    117.5182     19.2795
   258.7000      2.2473      2.1946      0.1557     27.6029    123.2236     19.5009
   258.8000      2.2467      2.1976      0.1471     27.4196    125.1367     20.8960
   258.9000      2.2467      2.2000      0.1098     27.2731    123.0989     22.0562
   259.0000      2.2459      2.2009      0.1473     27.2168    118.2300     22.5146
   259.1000      2.2459      2.2047      0.0990     26.9876    116.2744     22.9771
   259.2000      2.2459      2.2204      0.1327     26.0387    118.9270     23.4495
   259.3000      2.2456      2.2432      0.1665     24.6561    118.1733     23.3321
   259.4000      2.2456      2.2589      0.1564     23.7010    112.3258     22.8252
   259.5000      2.2455      2.2648      0.1588     23.3465    107.2938     22.5692
