~Version Information
 VERS.                                  2.0 : CWLS LAS VERSION
 WRAP.                                   NO : WRAPING MODE
 SWARE .                 MController 2.5.0J : SOFTWARE VERSION
~Well Information
 WELL.                       Ei-Ei-Oh 31-24 : WELL
 COMP.    Pioneer Natural Resources USA Inc : COMPANY
 FLD.                      Purgatoire River : FIELD
 LOC.                NW/NE Sec 24 T32S R67W : LOCATION
 DATE.                         6/12-13/2005 : DATE(S) LOGGED
 SRVC.       Blanco Geological Services LLC : SERVICE COMPANY
 STAT.                                   CO : STATE
 CNTY.                           Las Animas : COUNTY
 CTRY.                                  USA : COUNTRY
 API.                       05-071-08403-00 : API NUMBER
 STRT.FT                             436.00 : START DEPTH
 STOP.FT                            2853.00 : STOP DEPTH
 STEP.FT                               1.00 : DEPTH INCREMENT
 NULL.                                -9999 : NULL VALUE
~Curve information
 DEPTH.FT                                   :
 ROP.MIN/FT                                 :
 GAS.UNITS                                  :
~ASCII Log data
# ...
      2636.0         0.40        433.3 
      2637.0         0.37        425.5 
      2638.0         0.33        397.7 
      2639.0         0.33        253.5 
      2640.0         0.23        136.8 
      2641.0         0.23         89.5 
      2642.0         0.23         58.9 
      2643.0         0.27         40.2 
      2644.0         0.22         29.8 
      2645.0         0.17         26.6 
      2646.0         0.23         23.2 
      2647.0         0.23         22.4 
      2648.0         0.17         22.5 
      2649.0         0.17         24.6 
      2650.0         0.23         26.6 
      2651.0         0.23         30.6 
      2652.0         0.30         34.9 
      2653.0         0.27         39.6 
      2654.0         0.30         45.0 
      2655.0         0.33         52.2 
      2656.0         0.50         59.3 
      2657.0         8.28        153.4 
      2658.0         0.30        220.4 
      2659.0         0.40        326.6 
      2660.0         0.37        415.1 
      2661.0         0.33        479.9 
      2662.0         0.45        854.0 
      2663.0         0.43        858.6 
      2664.0         0.43        796.4 
      2665.0         0.47        767.3 
      2666.0         0.37        687.5 
      2667.0         0.30        690.8 
      2668.0         0.33        620.4 
      2669.0         0.37        440.0 
      2670.0         0.28        130.8 
      2671.0         0.23         80.8 
      2672.0         0.27         59.4 
      2673.0         0.30         42.1 
      2674.0         0.27         32.0 
      2675.0         0.23         26.4 
      2676.0         0.30         24.9 
      2677.0         0.23         20.9 
      2678.0         0.27         21.3 
      2679.0         0.27         25.2 
      2680.0         0.27         31.2 
      2681.0         0.27         35.4 
      2682.0         0.27         38.5 
      2683.0         0.28         42.0 
      2684.0         0.33         46.2 
      2685.0         0.23         48.2 
      2686.0         0.23         48.5 
      2687.0        15.22       1240.4 
      2688.0         0.17        580.2 
      2689.0         0.33        440.0 
      2690.0         0.30        136.3 
      2691.0         0.37         64.7 
      2692.0         0.37         30.1 
      2693.0         0.33         18.4 
      2694.0         0.30         17.7 
      2695.0         0.33         26.1 
      2696.0         0.33         38.0 
      2697.0         0.35         48.7 
      2698.0         0.33         56.6 
      2699.0         0.33         61.1 
      2700.0         0.23         63.0 
      2701.0         0.20         64.4 
      2702.0         0.17         64.9 
      2703.0         0.17         64.3 
      2704.0         0.27         64.1 
      2705.0         0.23         63.5 
      2706.0         0.20         62.0 
      2707.0         0.23         60.6 
      2708.0         0.17         59.9 
      2709.0         0.20         58.6 
      2710.0         0.20         53.8 
      2711.0         0.17         50.5 
      2712.0         0.18         46.6 
      2713.0         0.27         43.9 
      2714.0         0.23         43.1 
      2715.0         0.27         48.0 
      2716.0         0.23         50.7 
      2717.0        12.67       1323.1 
      2718.0         0.37       1343.8 
      2719.0         0.33       1309.1 
      2720.0         0.20        901.8 
      2721.0         0.30        626.6 
      2722.0         0.33        440.0 
      2723.0         0.30        113.4 
      2724.0         0.27         62.2 
      2725.0         0.30         41.1 
      2726.0         0.25         30.3 
      2727.0         0.10         30.8 
      2728.0         0.13         34.3 
      2729.0         0.13         40.0 
      2730.0         0.20         48.9 
      2731.0         0.27         58.0 
      2732.0         0.23         61.8 
      2733.0         0.23         64.8 
      2734.0         0.20         66.0 
      2735.0         0.20         66.1 
      2736.0         0.27         65.6 
      2737.0         0.23         63.4 
      2738.0         0.23         60.5 
      2739.0         0.17         58.8 
      2740.0         0.23         61.6 
      2741.0         0.30         63.3 
      2742.0         0.35         63.0 
      2743.0         0.30         56.2 
      2744.0         0.27         48.0 
      2745.0         0.30         44.2 
      2746.0         0.37         41.6 
      2747.0        13.77       1216.2 
      2748.0         0.80       1037.2 
      2749.0         0.42        123.5 
      2750.0         0.43         51.0 
      2751.0         0.33         30.5 
      2752.0         0.47         25.1 
      2753.0         0.43         38.4 
      2754.0         0.37         44.9 
      2755.0         0.40         49.2 
      2756.0         0.40         50.6 
      2757.0         0.45         51.8 
      2758.0         0.43         54.6 
      2759.0         0.30         54.6 
      2760.0         0.30         53.8 
      2761.0         0.30         48.9 
      2762.0         0.23         44.4 
      2763.0         0.40         41.5 
      2764.0         0.53         32.9 
      2765.0         0.23         27.9 
      2766.0         0.32         25.4 
      2767.0         0.30         25.0 
      2768.0         0.33         24.2 
      2769.0         0.33         26.8 
      2770.0         0.33         30.9 
      2771.0         0.33         31.3 
      2772.0         0.27         31.0 
      2773.0         0.40         31.3 
      2774.0         0.40         34.6 
      2775.0         0.30         36.1 
      2776.0         0.28         37.2 
      2777.0        13.10       1269.5 
      2778.0         0.43       1304.2 
      2779.0         0.70       1122.3 
      2780.0         0.40        440.0 
      2781.0         0.33         72.7 
      2782.0         0.33         43.2 
      2783.0         0.40         30.7 
      2784.0         0.33         27.3 
      2785.0         0.48         39.4 
      2786.0         0.63         49.1 
      2787.0         0.67         51.4 
      2788.0         0.60         52.1 
      2789.0         0.43         50.9 
      2790.0         0.37         48.2 
      2791.0         0.32         44.4 
      2792.0         0.33         40.7 
      2793.0         0.37         37.3 
      2794.0         0.33         33.7 
      2795.0         0.33         31.3 
      2796.0         0.33         31.7 
      2797.0         0.37         32.2 
      2798.0         0.33         34.1 
      2799.0         0.33         36.2 
      2800.0         0.30         37.2 
      2801.0         0.38         38.0 
      2802.0         0.33         39.4 
      2803.0         0.33         39.5 
      2804.0         0.33         39.9 
      2805.0         0.30         39.2 
      2806.0         0.33         38.7 
      2807.0        16.12       1427.2 
      2808.0         0.17        847.8 
      2809.0         0.20        583.8 
      2810.0         0.33        440.0 
      2811.0         0.37        114.1 
      2812.0         0.33         48.6 
      2813.0         0.35         29.0 
      2814.0         0.30         22.7 
      2815.0         0.33         28.6 
      2816.0         0.30         37.5 
      2817.0         0.30         43.8 
      2818.0         0.33         48.7 
      2819.0         0.33         52.1 
      2820.0         0.37         55.5 
      2821.0         0.33         56.2 
      2822.0         0.33         56.6 
      2823.0         0.38         55.2 
      2824.0         0.33         52.9 
      2825.0         0.33         51.7 
      2826.0         0.37         47.9 
      2827.0         0.50         42.4 
      2828.0         0.43         35.8 
      2829.0         0.33         30.8 
      2830.0         0.33         30.9 
      2831.0         0.33         30.5 
      2832.0         0.35         32.9 
      2833.0         0.37         34.0 
      2834.0         0.37         36.8 
      2835.0         0.33         37.6 
