~Version Information
VERS.                      2.0: CWLS Log ASCII Standard - VERSION 2.0
WRAP.                       NO: One line per depth step
~Well Information Block
STRT.FT               630.0000: 
STOP.FT              1155.5000: 
STEP.FT                 0.1000: 
NULL.                -999.2500: 
COMP.          Pioneer Natural Resources: COMPANY
WELL.          Drewmeister 34-34: WELL
FLD.           Purgatoire River: FIELD
LOC.           958' FSL & 1857' FEL: LOCATION
STAT.                 Colorado: State
CNTY.               Las Animas: COUNTY
CTRY. USA : Country
SECT. 34 : Section
TOWN. 32S : Township
RANG. 65W : Range
SRVC.                Patterson: SERVICE COMPANY
DATE.          Tue Oct 04 08:23:16 2005: LOG DATE
API.           05 071 08131 00: UNIQUE WELL ID
~Curve Information Block
DEPT.FT            0 000 00 00: Depth
DCAL.in                       : CDL Caliper
RHOB.g/cc                     : CDL Bulk Density
RHOC.g/cc                     : CDL Density Correction
DPOR.pu                       : CDL Density Porosity
GR.GAPI                       : Gamma Ray
NPOR.pu                       : Neutron Porosity
~Parameter Information Block
~A  Depth       DCAL        RHOB        RHOC        DPOR         GR         NPOR    
# ...
  1004.4000      7.9072      2.4145     -0.0142     14.2735     72.7473     17.5903
  1004.5000      7.9072      2.4221     -0.0450     13.8106     71.7355     17.7583
  1004.6000      7.9072      2.4411     -0.0147     12.6620     73.5040     18.1717
  1004.7000      7.9072      2.4636      0.0443     11.2947     78.7322     18.6018
  1004.8000      7.9079      2.4713      0.0622     10.8285     83.3942     19.5635
  1004.9000      7.9079      2.4582      0.0458     11.6213     86.1504     20.9264
  1005.0000      7.9079      2.4441      0.0215     12.4812     91.8627     21.6702
  1005.1000      7.9079      2.4496      0.0155     12.1463    102.1241     21.8678
  1005.2000      7.9079      2.4660      0.0807     11.1494    109.2730     22.2144
  1005.3000      7.9076      2.4754      0.0231     10.5832    107.7719     22.5776
  1005.4000      7.9076      2.4860     -0.0048      9.9410    106.6684     22.2816
  1005.5000      7.9080      2.5121      0.0639      8.3578    114.7086     21.5171
  1005.6000      7.9080      2.5429      0.0951      6.4897    125.6844     21.6151
  1005.7000      7.9080      2.5639      0.0218      5.2198    127.8681     22.8021
  1005.8000      7.9077      2.5754      0.0680      4.5229    119.8943     23.8867
  1005.9000      7.9077      2.5711      0.0949      4.7809    113.9416     24.3343
  1006.0000      7.9067      2.5440      0.0823      6.4245    117.7646     24.4984
  1006.1000      7.9067      2.5129      0.0112      8.3075    124.7662     25.0531
  1006.2000      7.9067      2.5076     -0.0026      8.6278    130.1755     26.1982
  1006.3000      7.9065      2.5252      0.0488      7.5649    137.1948     27.2786
  1006.4000      7.9065      2.5400      0.0289      6.6643    145.3762     27.7563
  1006.5000      7.9069      2.5527      0.0253      5.8947    149.2664     27.5685
  1006.6000      7.9069      2.5694      0.1174      4.8829    151.2651     27.0916
  1006.7000      7.9069      2.5795      0.0690      4.2716    159.8082     26.8963
  1006.8000      7.9070      2.5879      0.0363      3.7634    168.2069     27.1008
  1006.9000      7.9070      2.6021      0.1103      2.9026    163.5989     27.2858
  1007.0000      7.9071      2.6070      0.1259      2.6083    148.4742     26.9043
  1007.1000      7.9071      2.5940      0.0965      3.3920    133.7894     25.9667
  1007.2000      7.9071      2.5701      0.0958      4.8421    125.8182     25.0249
  1007.3000      7.9078      2.5333      0.0761      7.0734    121.6609     24.4401
  1007.4000      7.9078      2.4882      0.0633      9.8079    116.6084     24.1811
  1007.5000      7.9085      2.4529      0.0253     11.9472    110.6361     23.8939
  1007.6000      7.9085      2.4266      0.0681     13.5380    105.6849     23.1775
  1007.7000      7.9085      2.4025     -0.0266     14.9990    100.2980     22.1661
  1007.8000      7.9088      2.3941      0.0141     15.5076     91.3262     21.2466
  1007.9000      7.9088      2.4013      0.0325     15.0722     84.3445     20.9464
  1008.0000      7.9089      2.4051      0.0735     14.8412     84.8442     21.3017
  1008.1000      7.9089      2.4009      0.0696     15.0963     87.4309     21.4319
  1008.2000      7.9089      2.4005      0.0518     15.1199     86.6773     20.9870
  1008.3000      7.9092      2.4072      0.0941     14.7177     83.7254     20.3789
  1008.4000      7.9092      2.4094      0.0633     14.5835     81.5079     19.7745
  1008.5000      7.9092      2.4034      0.0326     14.9467     81.9863     19.1144
  1008.6000      7.9092      2.4000      0.0426     15.1489     84.7836     18.5592
  1008.7000      7.9092      2.4078      0.0164     14.6768     89.0275     18.4162
  1008.8000      7.9084      2.4246      0.0437     13.6619     93.3760     18.8232
  1008.9000      7.9084      2.4454      0.0223     12.3973     95.9306     19.4633
  1009.0000      7.9071      2.4682      0.0541     11.0161     98.5949     20.3199
  1009.1000      7.9071      2.4937      0.0202      9.4704    103.0421     21.6717
  1009.2000      7.9071      2.5197      0.0653      7.8975    108.8633     23.0272
  1009.3000      7.9072      2.5326      0.0567      7.1124    114.3551     23.6712
  1009.4000      7.9072      2.5263      0.0290      7.4979    118.5537     23.6859
  1009.5000      7.9068      2.5039      0.0322      8.8557    120.9169     23.5515
  1009.6000      7.9068      2.4675      0.0202     11.0631    117.8905     23.5187
  1009.7000      7.9068      2.4301     -0.0076     13.3269    110.6519     23.4913
  1009.8000      7.9025      2.4085      0.0053     14.6346    104.9427     23.2113
  1009.9000      7.9025      2.4011      0.0318     15.0860    102.2757     22.7723
  1010.0000      7.8955      2.3947     -0.0217     15.4753    101.2503     22.3544
  1010.1000      7.8955      2.3823     -0.0062     16.2234    102.0151     22.0255
  1010.2000      7.8955      2.3697      0.0045     16.9904    102.7297     22.0095
  1010.3000      7.8914      2.3704      0.0158     16.9466     98.9379     22.0075
  1010.4000      7.8914      2.3849      0.0533     16.0691     90.9801     21.4739
  1010.5000      7.8902      2.3949      0.0517     15.4607     83.1253     20.7189
  1010.6000      7.8902      2.3923      0.0503     15.6199     79.1031     19.9321
  1010.7000      7.8902      2.3851      0.0448     16.0516     79.0323     18.9997
  1010.8000      7.8894      2.3823      0.0240     16.2252     79.9022     18.3622
  1010.9000      7.8894      2.3893      0.0433     15.8005     78.2491     18.5672
  1011.0000      7.8882      2.4048      0.0548     14.8601     72.9497     19.1449
  1011.1000      7.8882      2.4216      0.0492     13.8410     67.1784     19.2266
  1011.2000      7.8882      2.4309      0.0649     13.2792     67.6625     19.1709
  1011.3000      7.8879      2.4193      0.0812     13.9818     77.1167     19.4693
  1011.4000      7.8879      2.3810      0.0689     16.3046     89.8240     19.7588
  1011.5000      7.8894      2.3363      0.0526     19.0115     97.3555     20.1190
  1011.6000      7.8894      2.3175      0.0318     20.1517     95.9909     20.7695
  1011.7000      7.8894      2.3364      0.0594     19.0050     89.5020     21.3656
  1011.8000      7.8905      2.3852      0.0827     16.0487     84.1867     21.7359
  1011.9000      7.8905      2.4586      0.0856     11.5987     80.6075     22.1714
  1012.0000      7.8905      2.5515      0.1580      5.9688     75.5846     22.9677
  1012.1000      7.8905      2.6427      0.2267      0.4448     69.8554     23.8617
  1012.2000      7.8905      2.7017      0.2897     -3.1338     66.5645     24.3164
  1012.3000      7.8900      2.7160      0.2925     -3.9988     65.2272     24.4104
  1012.4000      7.8900      2.6969      0.2317     -2.8447     63.3985     24.2541
  1012.5000      7.8891      2.6640      0.1842     -0.8456     62.1395     23.7888
  1012.6000      7.8891      2.6339      0.1626      0.9756     61.8438     23.2594
  1012.7000      7.8891      2.6158      0.1002      2.0710     61.5156     22.9452
  1012.8000      7.8888      2.6108      0.0609      2.3733     60.5766     22.4767
  1012.9000      7.8888      2.6238     -0.0116      1.5863     58.4051     21.6124
  1013.0000      7.8891      2.6514      0.1029     -0.0863     56.3342     20.7942
  1013.1000      7.8891      2.6663      0.0737     -0.9879     54.1439     20.3114
  1013.2000      7.8891      2.6462      0.0703      0.2327     51.1907     19.8600
  1013.3000      7.8894      2.5980      0.0032      3.1499     50.8795     18.8724
  1013.4000      7.8894      2.5514      0.0199      5.9755     54.6297     17.8344
  1013.5000      7.8898      2.5263      0.0262      7.4970     58.2155     17.6603
  1013.6000      7.8898      2.5205      0.0402      7.8501     58.8904     17.9717
  1013.7000      7.8898      2.5253      0.0362      7.5555     60.0442     17.8983
  1013.8000      7.8902      2.5308      0.0644      7.2257     64.8968     17.5667
  1013.9000      7.8902      2.5213      0.0693      7.7970     72.2566     17.3951
