~Version Information
VERS.                      2.0: CWLS Log ASCII Standard - VERSION 2.0
WRAP.                       NO: One line per depth step
~Well Information Block
STRT.FT               742.0000: 
STOP.FT              2582.0000: 
STEP.FT                 0.2500: 
NULL.                -999.2500: 
COMP.          Petrogulf Corporation: COMPANY
WELL.            Montoya 7-12V: WELL
FLD.           Purgatorie River: FIELD
LOC.           728' FWL & 1764' FNL: LOCATION
CNTY.               Las Animas: COUNTY
SRVC.                         : SERVICE COMPANY
DATE.          Thu Feb 19 20:58:32 2004: LOG DATE
UWI.           05-071-07887-00: UNIQUE WELL ID
STAT.                 Colorado: STATE
~Curve Information Block
DEPT.FT            0 000 00 00: Depth
SP.mV                         : DIL Spontaneous Potential
RILD.Ohm-m                    : DIL Deep Resistivity
RILM.Ohm-m                    : DIL Medium Resistivity
RLL3.Ohm-m                    : DIL Shallow Resistivity
GR.GAPI                       : Gamma Ray
~Parameter Information Block
~A  Depth        SP         RILD        RILM        RLL3         GR     
# ...
  2198.0000    -37.8962     29.4410     28.3692     35.3017     69.6831
  2198.2500    -38.3084     29.5887     27.9341     33.5109     71.5825
  2198.5000    -38.6910     29.7790     27.6157     31.6733     75.1929
  2198.7500    -39.0656     29.9847     27.4567     30.2306     77.6837
  2199.0000    -39.4682     30.1773     27.4579     29.5035     80.7697
  2199.2500    -39.9503     30.3351     27.5762     29.4356     81.9437
  2199.5000    -40.5710     30.4444     27.7401     29.6757     82.3217
  2199.7500    -41.3845     30.4968     27.8824     29.8832     82.1361
  2200.0000    -42.4316     30.4916     27.9704     29.9375     82.0612
  2200.2500    -43.7354     30.4375     28.0150     29.9079     82.1887
  2200.5000    -45.2954     30.3529     28.0561     29.8962     82.3197
  2200.7500    -47.0809     30.2603     28.1389     29.9436     82.4521
  2201.0000    -49.0281     30.1823     28.2952     30.0746     83.2226
  2201.2500    -51.0511     30.1362     28.5324     30.3749     84.1127
  2201.5000    -53.0639     30.1300     28.8288     30.9691     85.3061
  2201.7500    -55.0045     30.1636     29.1380     31.9143     85.5250
  2202.0000    -56.8440     30.2348     29.4041     33.1351     84.3300
  2202.2500    -58.5786     30.3458     29.5811     34.4515     82.2752
  2202.5000    -60.2130     30.5014     29.6442     35.6312     77.7733
  2202.7500    -61.7465     30.7017     29.5887     36.4167     74.7801
  2203.0000    -63.1650     30.9359     29.4246     36.5707     72.2164
  2203.2500    -64.4359     31.1807     29.1783     35.9817     72.4533
  2203.5000    -65.5005     31.4022     28.8973     34.7657     75.7713
  2203.7500    -66.2635     31.5598     28.6436     33.2542     79.3952
  2204.0000    -66.5818     31.6127     28.4692     31.8620     85.2095
  2204.2500    -66.2608     31.5308     28.3894     30.9454     88.3522
  2204.5000    -65.0624     31.3067     28.3722     30.7256     91.3055
  2204.7500    -62.7356     30.9606     28.3506     31.2412     92.2286
  2205.0000    -59.0799     30.5350     28.2475     32.3237     92.2957
  2205.2500    -54.0532     30.0799     27.9995     33.6598     91.6500
  2205.5000    -47.9078     29.6407     27.5699     34.9232     90.6371
  2205.7500    -41.2635     29.2575     26.9544     35.8594     90.7424
  2206.0000    -34.9889     28.9761     26.1857     36.2527     92.7701
  2206.2500    -29.8724     28.8550     25.3348     35.8574     95.0770
  2206.5000    -26.2815     28.9564     24.5050     34.4443     98.7355
  2206.7500    -24.0712     29.3243     23.8189     32.0083    100.6567
  2207.0000    -22.7820     29.9618     23.4044     28.9733    102.3323
  2207.2500    -21.9235     30.8168     23.3875     26.2287    102.7535
  2207.5000    -21.1381     31.7773     23.8911     25.1452    102.7449
  2207.7500    -20.2131     32.6764     25.0359     28.0183    102.4816
  2208.0000    -19.0285     33.3129     26.9340     39.1547    101.2858
  2208.2500    -17.5150     33.4949     29.6539     66.0372     99.0208
  2208.5000    -15.6372     33.0975     33.1282    118.8383     91.3127
  2208.7500    -13.3911     32.1086     36.9829    205.8573     82.7769
  2209.0000    -10.8032     30.6339     40.3641    324.4867     66.4372
  2209.2500     -7.9250     28.8616     42.0442    453.0305     55.1545
  2209.5000     -4.8258     27.0025     41.0885    553.0295     40.9797
  2209.7500     -1.5869     25.2331     37.6334    586.4971     34.6052
  2210.0000      1.7000     23.6624     32.8009    538.5621     30.6097
  2210.2500      4.9306     22.3280     27.8418    427.5926     31.8077
  2210.5000      7.9836     21.2095     23.5250    293.7018     39.1464
  2210.7500     10.7214     20.2508     20.1097    175.2997     47.1775
  2211.0000     13.0087     19.3838     17.5620     92.1860     62.1168
  2211.2500     14.7526     18.5514     15.7382     44.4440     72.4753
  2211.5000     15.9414     17.7242     14.4784     21.7784     85.7798
  2211.7500     16.6486     16.9036     13.6407     13.0186     92.0883
  2212.0000     16.9983     16.1122     13.1060     10.5455     98.0202
  2212.2500     17.1164     15.3803     12.7766     10.4448    100.7987
  2212.5000     17.0986     14.7375     12.5749     11.0941    104.9150
  2212.7500     17.0026     14.2104     12.4445     11.9037    107.7345
  2213.0000     16.8550     13.8222     12.3531     12.6466    111.2701
  2213.2500     16.6617     13.5893     12.2923     13.2216    112.7132
  2213.5000     16.4181     13.5182     12.2712     13.6121    113.2875
  2213.7500     16.1179     13.6025     12.3077     13.8774    112.8456
  2214.0000     15.7578     13.8232     12.4186     14.1165    111.5692
  2214.2500     15.3364     14.1531     12.6133     14.4209    110.3803
  2214.5000     14.8479     14.5615     12.8916     14.8486    107.6444
  2214.7500     14.2746     15.0186     13.2441     15.4197    105.1222
  2215.0000     13.5856     15.4960     13.6533     16.1204    101.0540
  2215.2500     12.7385     15.9647     14.0944     16.9051     98.7214
  2215.5000     11.6832     16.3966     14.5381     17.6950     96.1183
  2215.7500     10.3648     16.7711     14.9556     18.3858     94.7728
  2216.0000      8.7265     17.0824     15.3254     18.8762     92.8434
  2216.2500      6.7211     17.3417     15.6372     19.1103     91.5525
  2216.5000      4.3318     17.5699     15.8915     19.1089     89.9623
  2216.7500      1.5959     17.7869     16.0949     18.9589     89.2139
  2217.0000     -1.3856     18.0045     16.2560     18.7550     87.6933
  2217.2500     -4.4635     18.2242     16.3837     18.5347     85.7126
  2217.5000     -7.4806     18.4387     16.4891     18.2703     81.5517
  2217.7500    -10.3153     18.6349     16.5858     17.9396     79.2007
  2218.0000    -12.9058     18.7984     16.6874     17.6095     78.3256
  2218.2500    -15.2439     18.9198     16.8032     17.4418     79.5782
  2218.5000    -17.3549     19.0003     16.9339     17.5954     82.4213
  2218.7500    -19.2781     19.0536     17.0699     18.1057     83.6955
  2219.0000    -21.0542     19.1015     17.1940     18.8475     83.8782
  2219.2500    -22.7180     19.1639     17.2870     19.6005     83.4641
  2219.5000    -24.2947     19.2517     17.3361     20.1434     83.6826
  2219.7500    -25.7977     19.3648     17.3412     20.3210     84.7208
  2220.0000    -27.2302     19.4989     17.3163     20.0934     86.8209
  2220.2500    -28.5875     19.6523     17.2869     19.5634     88.0695
  2220.5000    -29.8602     19.8270     17.2841     18.9371     89.7328
  2220.7500    -31.0332     20.0244     17.3384     18.4229     90.8677
  2221.0000    -32.0837     20.2400     17.4755     18.1564     92.1808
  2221.2500    -32.9836     20.4647     17.7145     18.2137     92.3566
  2221.5000    -33.7064     20.6903     18.0683     18.6619     91.6317
  2221.7500    -34.2388     20.9155     18.5430     19.5757     90.9884
  2222.0000    -34.5912     21.1484     19.1343     21.0056     90.1716
  2222.2500    -34.7989     21.4034     19.8221     22.9146     89.2442
  2222.5000    -34.9109     21.6965     20.5691     25.1184     85.9984
  2222.7500    -34.9727     22.0426     21.3262     27.2822     82.3789
  2223.0000    -35.0161     22.4567     22.0483     29.0045     75.9105
  2223.2500    -35.0593     22.9567     22.7131     29.9621     72.0267
  2223.5000    -35.1114     23.5598     23.3323     30.0715     68.2315
  2223.7500    -35.1747     24.2732     23.9480     29.5955     67.1146
  2224.0000    -35.2450     25.0831     24.6131     29.0847     66.5577
  2224.2500    -35.3131     25.9547     25.3651     29.1158     66.2159
  2224.5000    -35.3664     26.8409     26.2028     29.9655     65.1000
  2224.7500    -35.3925     27.6964     27.0794     31.4558     63.9362
  2225.0000    -35.3836     28.4868     27.9187     33.1000     61.7925
  2225.2500    -35.3398     29.1942     28.6510     34.4370     60.2241
  2225.5000    -35.2682     29.8192     29.2487     35.2875     57.7019
  2225.7500    -35.1758     30.3778     29.7346     35.7609     55.8731
