~Version Information
VERS.                      2.0: CWLS Log ASCII Standard - VERSION 2.0
WRAP.                       NO: One line per depth step
~Well Information Block
STRT.FT              2983.0000: 
STOP.FT              3214.7500: 
STEP.FT                 0.0500: 
NULL.                -999.2500: 
COMP.          Pioner Natural Resources: COMPANY
WELL.              Vespar 43-7: WELL
FLD.           Purgatoire River: FIELD
LOC.           2338' FSL & 1141' FEL------: LOCATION
PROV.                 Colorado: PROVINCE
CNTY.               Las Animas: COUNTRY
SRVC.                         : SERVICE COMPANY
DATE.          Fri Apr 15 15:31:19 2005: LOG DATE
UWI.                          : UNIQUE WELL ID
~Curve Information Block
DEPT.FT            0 000 00 00: Depth
GR.GAPI                       : Gamma Ray
CCL.                          : Casing Collar Locator
TT3.usec                      : CBL 3' Travel Time
AMP3.mV                       : CBL 3' Amplitude
AMP5.mV                       : CBL 5' Amplitude
~Parameter Information Block
~A  Depth        GR         CCL         TT3         AMP3        AMP5    
# ...
  2999.8000     89.1491      0.0000    260.0661     76.6082    120.7197
  2999.8500     89.1491      0.0000    260.0661     76.6082    120.7197
  2999.9000     89.1491      0.0000    260.0661     76.6082    120.7197
  2999.9500     89.1491      0.0000    260.0661     76.6082    120.7197
  3000.0000     89.9741      0.0000    260.0781     75.1523    111.5830
  3000.0500     89.9741      0.0000    260.0781     75.1523    111.5830
  3000.1000     89.9741      0.0000    260.0781     75.1523    111.5830
  3000.1500     89.9741      0.0000    260.0781     75.1523    111.5830
  3000.2000     89.9741      0.0000    260.0781     75.1523    111.5830
  3000.2500     89.0925      0.0000    260.0945     73.3721    100.7589
  3000.3000     89.0925      0.0000    260.0945     73.3721    100.7589
  3000.3500     89.0925      0.0000    260.0945     73.3721    100.7589
  3000.4000     89.0925      0.0000    260.0945     73.3721    100.7589
  3000.4500     89.0925      0.0000    260.0945     73.3721    100.7589
  3000.5000     87.1493      0.0000    260.1379     71.1487     89.0393
  3000.5500     87.1493      0.0000    260.1379     71.1487     89.0393
  3000.6000     87.1493      0.0000    260.1379     71.1487     89.0393
  3000.6500     87.1493      0.0000    260.1379     71.1487     89.0393
  3000.7000     87.1493      0.0000    260.1379     71.1487     89.0393
  3000.7500     85.4394      0.0000    260.2890     68.3689     77.0202
  3000.8000     85.4394      0.0000    260.2890     68.3689     77.0202
  3000.8500     85.4394      0.0000    260.2890     68.3689     77.0202
  3000.9000     85.4394      0.0000    260.2890     68.3689     77.0202
  3000.9500     85.4394      0.0000    260.2890     68.3689     77.0202
  3001.0000     84.3688      0.0000    260.8194     64.9921     65.0598
  3001.0500     84.3688      0.0000    260.8194     64.9921     65.0598
  3001.1000     84.3688      0.0000    260.8194     64.9921     65.0598
  3001.1500     84.3688      0.0000    260.8194     64.9921     65.0598
  3001.2000     84.3688      0.0000    260.8194     64.9921     65.0598
  3001.2500     83.4923      0.0000    262.4193     61.0449     53.5028
  3001.3000     83.4923      0.0000    262.4193     61.0449     53.5028
  3001.3500     83.4923      0.0000    262.4193     61.0449     53.5028
  3001.4000     83.4923      0.0000    262.4193     61.0449     53.5028
  3001.4500     83.4923      0.0000    262.4193     61.0449     53.5028
  3001.5000     82.4626      0.0000    266.7100     56.5550     42.7866
  3001.5500     82.4626      0.0000    266.7100     56.5550     42.7866
  3001.6000     82.4626      0.0000    266.7100     56.5550     42.7866
  3001.6500     82.4626      0.0000    266.7100     56.5550     42.7866
  3001.7000     82.4626      0.0000    266.7100     56.5550     42.7866
  3001.7500     81.3401      0.0000    277.1837     51.4997     33.3043
  3001.8000     81.3401      0.0000    277.1837     51.4997     33.3043
  3001.8500     81.3401      0.0000    277.1837     51.4997     33.3043
  3001.9000     81.3401      0.0000    277.1837     51.4997     33.3043
  3001.9500     81.3401      0.0000    277.1837     51.4997     33.3043
  3002.0000     80.1898      0.0000    300.5115     45.8350     25.2658
  3002.0500     80.1898      0.0000    300.5115     45.8350     25.2658
  3002.1000     80.1898      0.0000    300.5115     45.8350     25.2658
  3002.1500     80.1898      0.0000    300.5115     45.8350     25.2658
  3002.2000     80.1898      0.0000    300.5115     45.8350     25.2658
  3002.2500     78.8666      0.0000    346.5013     39.6073     18.7296
  3002.3000     78.8666      0.0000    346.5013     39.6073     18.7296
  3002.3500     78.8666      0.0000    346.5013     39.6073     18.7296
  3002.4000     78.8666      0.0000    346.5013     39.6073     18.7296
  3002.4500     78.8666      0.0000    346.5013     39.6073     18.7296
  3002.5000     77.2920      0.0000    423.0931     33.0627     13.6836
  3002.5500     77.2920      0.0000    423.0931     33.0627     13.6836
  3002.6000     77.2920      0.0000    423.0931     33.0627     13.6836
  3002.6500     77.2920      0.0000    423.0931     33.0627     13.6836
  3002.7000     77.2920      0.0000    423.0931     33.0627     13.6836
  3002.7500     75.7531      0.0000    526.4686     26.6341     10.0238
  3002.8000     75.7531      0.0000    526.4686     26.6341     10.0238
  3002.8500     75.7531      0.0000    526.4686     26.6341     10.0238
  3002.9000     75.7531      0.0000    526.4686     26.6341     10.0238
  3002.9500     75.7531      0.0000    526.4686     26.6341     10.0238
  3003.0000     74.9205      0.0000    636.0431     20.7909      7.5017
  3003.0500     74.9205      0.0000    636.0431     20.7909      7.5017
  3003.1000     74.9205      0.0000    636.0431     20.7909      7.5017
  3003.1500     74.9205      0.0000    636.0431     20.7909      7.5017
  3003.2000     74.9205      0.0000    636.0431     20.7909      7.5017
  3003.2500     75.6099      0.0000    724.4564     15.8877      5.7784
  3003.3000     75.6099      0.0000    724.4564     15.8877      5.7784
  3003.3500     75.6099      0.0000    724.4564     15.8877      5.7784
  3003.4000     75.6099      0.0000    724.4564     15.8877      5.7784
  3003.4500     75.6099      0.0000    724.4564     15.8877      5.7784
  3003.5000     78.4064      0.0000    775.4376     12.1207      4.5528
  3003.5500     78.4064      0.0000    775.4376     12.1207      4.5528
  3003.6000     78.4064      0.0000    775.4376     12.1207      4.5528
  3003.6500     78.4064      0.0000    775.4376     12.1207      4.5528
  3003.7000     78.4064      0.0000    775.4376     12.1207      4.5528
  3003.7500     83.2349      0.0000    791.3715      9.5351      3.6317
  3003.8000     83.2349      0.0000    791.3715      9.5351      3.6317
  3003.8500     83.2349      0.0000    791.3715      9.5351      3.6317
  3003.9000     83.2349      0.0000    791.3715      9.5351      3.6317
  3003.9500     83.2349      0.0000    791.3715      9.5351      3.6317
  3004.0000     89.0457      0.0000    785.9974      8.0129      2.9092
  3004.0500     89.0457      0.0000    785.9974      8.0129      2.9092
  3004.1000     89.0457      0.0000    785.9974      8.0129      2.9092
  3004.1500     89.0457      0.0000    785.9974      8.0129      2.9092
  3004.2000     89.0457      0.0000    785.9974      8.0129      2.9092
  3004.2500     93.9059      0.0000    773.3562      7.2935      2.3277
  3004.3000     93.9059      0.0000    773.3562      7.2935      2.3277
  3004.3500     93.9059      0.0000    773.3562      7.2935      2.3277
  3004.4000     93.9059      0.0000    773.3562      7.2935      2.3277
  3004.4500     93.9059      0.0000    773.3562      7.2935      2.3277
  3004.5000     95.8679      0.0000    761.4246      7.0696      1.8576
  3004.5500     95.8679      0.0000    761.4246      7.0696      1.8576
  3004.6000     95.8679      0.0000    761.4246      7.0696      1.8576
  3004.6500     95.8679      0.0000    761.4246      7.0696      1.8576
  3004.7000     95.8679      0.0000    761.4246      7.0696      1.8576
  3004.7500     94.3759      0.0000    750.8616      7.0932      1.4839
  3004.8000     94.3759      0.0000    750.8616      7.0932      1.4839
  3004.8500     94.3759      0.0000    750.8616      7.0932      1.4839
  3004.9000     94.3759      0.0000    750.8616      7.0932      1.4839
  3004.9500     94.3759      0.0000    750.8616      7.0932      1.4839
  3005.0000     90.9524      0.0000    737.9646      7.2192      1.1923
  3005.0500     90.9524      0.0000    737.9646      7.2192      1.1923
  3005.1000     90.9524      0.0000    737.9646      7.2192      1.1923
  3005.1500     90.9524      0.0000    737.9646      7.2192      1.1923
  3005.2000     90.9524      0.0000    737.9646      7.2192      1.1923
  3005.2500     88.0305      0.0000    719.2621      7.3936      0.9690
  3005.3000     88.0305      0.0000    719.2621      7.3936      0.9690
  3005.3500     88.0305      0.0000    719.2621      7.3936      0.9690
