~Version Information
VERS.                      2.0: CWLS Log ASCII Standard - VERSION 2.0
WRAP.                       NO: One line per depth step
~Well Information Block
STRT.FT               840.0000: 
STOP.FT              2266.0000: 
STEP.FT                 0.1000: 
NULL.                -999.2500: 
COMP.          Pioneer Natural Resources: COMPANY
WELL.              Tonto 42-23: WELL
FLD.           Purgatoire River: FIELD
LOC.           2217' FNL & 423' FEL: LOCATION
PROV.                 Colorado: PROVINCE
CNTY.               Las Animas: COUNTRY
SRVC.                Patterson: SERVICE COMPANY
DATE.          Mon Apr 18 07:15:48 2005: LOG DATE
UWI.           05 071 08335 00: UNIQUE WELL ID
~Curve Information Block
DEPT.FT            0 000 00 00: Depth
DCAL.in                       : CDL Caliper
RHOB.g/cc                     : CDL Bulk Density
RHOC.g/cc                     : CDL Density Correction
DPOR.pu                       : CDL Density Porosity
GR.GAPI                       : Gamma Ray
NPOR.pu                       : Neutron Porosity
~Parameter Information Block
~A  Depth       DCAL        RHOB        RHOC        DPOR         GR         NPOR    
# ...
   936.0000      8.0416      2.5310      0.0509      7.2151    103.0915     20.1626
   936.1000      8.0416      2.5631      0.0242      5.2694     99.0369     20.2998
   936.2000      8.0416      2.5990      0.1341      3.0921     94.5370     21.8049
   936.3000      8.0100      2.6024      0.1092      2.8842     94.6722     24.0762
   936.4000      8.0100      2.5722      0.0072      4.7161     96.2709     25.2179
   936.5000      8.0028      2.5455     -0.0053      6.3361     97.8387     24.2972
   936.6000      8.0028      2.5455      0.0176      6.3340    103.0080     22.4116
   936.7000      8.0028      2.5580      0.0654      5.5786    110.7023     21.5220
   936.8000      8.0426      2.5589      0.0184      5.5185    116.3158     22.8848
   936.9000      8.0426      2.5478      0.0373      6.1951    118.8061     25.8971
   937.0000      8.0564      2.5421      0.0161      6.5412    117.0360     28.5591
   937.1000      8.0564      2.5479      0.1005      6.1897    109.7145     29.6761
   937.2000      8.0564      2.5515      0.0642      5.9723    101.3140     29.6086
   937.3000      8.0904      2.5399      0.0789      6.6738     98.0436     28.9409
   937.4000      8.0904      2.5130      0.0510      8.3047     98.6387     27.6094
   937.5000      8.1187      2.4845      0.0296     10.0331     98.6364     25.9328
   937.6000      8.1187      2.4666      0.0088     11.1144     96.9784     25.3401
   937.7000      8.1187      2.4562      0.0406     11.7456     94.9453     26.4479
   937.8000      8.1399      2.4486      0.0472     12.2037     94.1914     28.0850
   937.9000      8.1399      2.4492      0.0584     12.1705     95.4725     28.6104
   938.0000      8.1396      2.4557      0.1130     11.7745    100.2321     27.1240
   938.1000      8.1396      2.4562      0.1468     11.7442    105.6664     24.2156
   938.2000      8.1396      2.4545      0.1163     11.8485    105.0102     21.6710
   938.3000      8.1418      2.4691      0.0977     10.9615     98.9955     20.9695
   938.4000      8.1418      2.5097      0.1482      8.5054     93.9020     22.3079
   938.5000      8.1419      2.5708      0.1696      4.7970     92.1471     24.3492
   938.6000      8.1419      2.6255      0.2949      1.4834     90.7358     25.3948
   938.7000      8.1419      2.6480      0.2355      0.1216     86.4157     25.4363
   938.8000      8.1485      2.6530      0.1848     -0.1793     81.5698     25.4088
   938.9000      8.1485      2.6556      0.2429     -0.3413     78.7397     25.0922
   939.0000      8.1650      2.6374      0.2512      0.7620     75.5306     23.4994
   939.1000      8.1650      2.5886      0.1503      3.7183     72.6211     20.8886
   939.2000      8.1650      2.5284      0.1054      7.3727     72.7029     18.8230
   939.3000      8.1677      2.4804      0.0410     10.2787     72.9094     18.1837
   939.4000      8.1677      2.4556      0.0601     11.7828     70.8908     19.0666
   939.5000      8.1535      2.4479     -0.0141     12.2476     72.4724     21.2449
   939.6000      8.1535      2.4440      0.0201     12.4861     78.7375     23.2348
   939.7000      8.1535      2.4282      0.0624     13.4402     80.6161     23.6430
   939.8000      8.1376      2.4011      0.0480     15.0819     76.9826     23.1274
   939.9000      8.1376      2.3812      0.0076     16.2910     76.8259     22.8993
   940.0000      8.1306      2.3710      0.0406     16.9119     82.8894     23.1053
   940.1000      8.1306      2.3497      0.0258     18.1999     88.3591     23.3206
   940.2000      8.1306      2.3169     -0.0364     20.1897     89.0823     23.4801
   940.3000      8.1276      2.3024     -0.0061     21.0657     86.4456     23.2367
   940.4000      8.1276      2.3221      0.0494     19.8717     82.3305     22.2093
   940.5000      8.1285      2.3626      0.1283     17.4203     80.4868     21.2500
   940.6000      8.1285      2.4050      0.1402     14.8505     82.1778     21.2949
   940.7000      8.1285      2.4383      0.2050     12.8312     83.2406     21.8965
   940.8000      8.1165      2.4676      0.1831     11.0518     81.7131     22.2218
   940.9000      8.1165      2.5091      0.1875      8.5403     79.1278     21.9898
   941.0000      8.1027      2.5523      0.2474      5.9223     74.6093     21.6070
   941.1000      8.1027      2.5681      0.2366      4.9656     68.3711     21.8542
   941.2000      8.1027      2.5495      0.1763      6.0889     64.3587     22.5119
   941.3000      8.0964      2.5160      0.1227      8.1209     63.2116     22.4761
   941.4000      8.0964      2.4876      0.1242      9.8430     62.6599     22.0681
   941.5000      8.0946      2.4686      0.0752     10.9914     61.8729     22.5319
   941.6000      8.0946      2.4658      0.0134     11.1615     60.9522     23.4376
   941.7000      8.0946      2.4849      0.0720     10.0084     61.7689     23.3432
   941.8000      8.0847      2.5045      0.0836      8.8166     66.7732     22.0901
   941.9000      8.0847      2.5029      0.0902      8.9166     74.0965     20.8880
   942.0000      8.0791      2.4913      0.0582      9.6182     79.8624     20.9395
   942.1000      8.0791      2.4920      0.0737      9.5747     84.7054     22.1352
   942.2000      8.0791      2.5034      0.1150      8.8835     92.9659     22.9580
   942.3000      8.0975      2.5096      0.1108      8.5110    104.5414    -42.3550
   942.4000      8.0975      2.5056      0.0930      8.7491    114.0878    -54.6690
   942.5000      8.0984      2.4936      0.0831      9.4780    119.8722    -55.3653
   942.6000      8.0984      2.4767     -0.0000     10.5037    122.3601    -36.4347
   942.7000      8.0984      2.4765      0.0264     10.5182    122.8310    -18.8428
   942.8000      8.1061      2.5083      0.1139      8.5882    124.0663    -10.9053
   942.9000      8.1061      2.5506      0.1791      6.0223    125.1081     -8.0693
   943.0000      8.1084      2.5703      0.2193      4.8316    125.0256     -6.5808
   943.1000      8.1084      2.5589      0.1898      5.5239    126.5978     -4.9210
   943.2000      8.1084      2.5380      0.1115      6.7876    129.4052     -3.6097
   943.3000      8.1149      2.5363      0.0446      6.8922    130.7002     -3.3376
   943.4000      8.1149      2.5567      0.0547      5.6531    130.1904     -3.4564
   943.5000      8.1213      2.5694      0.0839      4.8823    129.4312     -2.6626
   943.6000      8.1213      2.5597      0.0565      5.4729    128.9745     -1.2759
   943.7000      8.1213      2.5474      0.0970      6.2188    126.6921     -0.3678
   943.8000      8.1231      2.5446      0.0949      6.3901    121.7546     -0.1784
   943.9000      8.1231      2.5525      0.0153      5.9080    115.9678     -0.6013
   944.0000      8.1245      2.5695      0.0944      4.8795    113.9788     -2.0381
   944.1000      8.1245      2.5925      0.0454      3.4828    115.4159     -4.9063
   944.2000      8.1245      2.6300      0.0710      1.2148    112.6922     -7.0288
   944.3000      8.1028      2.6813      0.1241     -1.8967    106.6838     -5.0099
   944.4000      8.1028      2.7346      0.1511     -5.1295    104.7937     -1.7885
   944.5000      8.0943      2.7826      0.1636     -8.0347    107.5781     -0.2507
   944.6000      8.0943      2.8063      0.2343     -9.4726    110.5685      0.3367
   944.7000      8.0943      2.7837      0.1412     -8.1048    109.3380      1.1139
   944.8000      8.0874      2.7222      0.1352     -4.3754    105.2972      1.9540
   944.9000      8.0874      2.6528      0.0254     -0.1719    103.5538      2.0993
   945.0000      8.0617      2.6028      0.0959      2.8609    102.6047      1.0083
   945.1000      8.0617      2.5790     -0.0009      4.3010    100.2914     -0.7369
   945.2000      8.0617      2.5796      0.0235      4.2695     97.0432     -1.1565
   945.3000      8.0523      2.5874      0.0220      3.7920     94.4057      0.6002
   945.4000      8.0523      2.5780      0.0907      4.3629     94.9827      2.7184
   945.5000      8.0388      2.5564     -0.0211      5.6720     96.9114      4.0825
