~Version Information
VERS.                      2.0: CWLS Log ASCII Standard - VERSION 2.0
WRAP.                       NO: One line per depth step
~Well Information Block
STRT.FT               845.0000: 
STOP.FT              2308.2000: 
STEP.FT                 0.1000: 
NULL.                -999.2500: 
COMP.          Pioneer Natural Resources: COMPANY
WELL.             Vector 33-23: WELL
FLD.           Purgatoire River: FIELD
LOC.           1560' FEL & 1988' FSL----: LOCATION
PROV.                 Colorado: PROVINCE
CNTY.               Las Animas: COUNTRY
SRVC.                Patterson: SERVICE COMPANY
DATE.          Mon Mar 28 08:17:25 2005: LOG DATE
UWI.           05 071 08336 00: UNIQUE WELL ID
~Curve Information Block
DEPT.FT            0 000 00 00: Depth
DCAL.in                       : CDL Caliper
RHOB.g/cc                     : CDL Bulk Density
RHOC.g/cc                     : CDL Density Correction
DPOR.pu                       : CDL Density Porosity
NPOR.pu                       : Neutron Porosity
GR.GAPI                       : Gamma Ray
~Parameter Information Block
~A  Depth       DCAL        RHOB        RHOC        DPOR        NPOR         GR     
# ...
  2179.4000      7.9740      2.4597      0.0644     11.5332     18.7133     87.8587
  2179.5000      7.9748      2.4759      0.0736     10.5506     18.4087     91.8759
  2179.6000      7.9748      2.4801      0.0663     10.2960     18.2711     98.0375
  2179.7000      7.9748      2.4810      0.0472     10.2437     18.4888     98.7192
  2179.8000      7.9756      2.4837      0.0745     10.0772     18.6925     93.2184
  2179.9000      7.9756      2.4855      0.0697      9.9693     18.7915     87.1925
  2180.0000      7.9746      2.4866      0.0588      9.9012     19.2397     86.3561
  2180.1000      7.9746      2.4871      0.0760      9.8751     19.7991     89.7807
  2180.2000      7.9746      2.4834      0.0696     10.0959     19.6054     91.1413
  2180.3000      7.9713      2.4768      0.0538     10.4999     18.5766     90.2446
  2180.4000      7.9713      2.4722      0.0386     10.7749     17.8264     92.5809
  2180.5000      7.9698      2.4734      0.0723     10.7053     17.8437     97.7769
  2180.6000      7.9698      2.4770      0.0680     10.4852     17.7754    101.5659
  2180.7000      7.9698      2.4752      0.0929     10.5917     17.3352    101.3152
  2180.8000      7.9710      2.4671      0.0563     11.0861     17.2611     96.6996
  2180.9000      7.9710      2.4660      0.0334     11.1521     17.9193     90.7163
  2181.0000      7.9717      2.4804      0.0397     10.2808     18.7137     85.1480
  2181.1000      7.9717      2.4989      0.0905      9.1602     19.1220     80.3340
  2181.2000      7.9717      2.5063      0.0967      8.7119     19.4686     79.7867
  2181.3000      7.9710      2.5026      0.0724      8.9337     19.8530     84.1336
  2181.4000      7.9710      2.4951      0.0593      9.3851     19.7543     87.4995
  2181.5000      7.9722      2.4871      0.0530      9.8754     18.9950     88.4494
  2181.6000      7.9722      2.4823      0.0470     10.1614     18.2359     91.6596
  2181.7000      7.9722      2.4840      0.0408     10.0616     17.9938     96.5451
  2181.8000      7.9739      2.4925      0.0174      9.5449     18.0632    101.3138
  2181.9000      7.9739      2.5036      0.0602      8.8755     18.3022    105.0061
  2182.0000      7.9727      2.5088      0.0542      8.5550     18.6810    105.8406
  2182.1000      7.9727      2.5069      0.0747      8.6747     19.0822    104.7883
  2182.2000      7.9727      2.5009      0.0561      9.0366     19.3445    101.8978
  2182.3000      7.9723      2.5007      0.0241      9.0505     19.5141     95.4596
  2182.4000      7.9723      2.5139      0.0435      8.2457     19.7263     88.0382
  2182.5000      7.9747      2.5317      0.0445      7.1712     19.8904     86.4795
  2182.6000      7.9747      2.5358      0.0636      6.9209     19.8777     89.8157
  2182.7000      7.9747      2.5158      0.0402      8.1339     19.6774     93.3811
  2182.8000      7.9763      2.4837      0.0229     10.0810     19.1431     99.2644
  2182.9000      7.9763      2.4639      0.0235     11.2793     18.3547    102.5847
  2183.0000      7.9761      2.4623      0.0363     11.3748     17.7090     96.4779
  2183.1000      7.9761      2.4665      0.0285     11.1230     17.2223     89.0757
  2183.2000      7.9761      2.4719      0.0356     10.7937     16.9198     88.9993
  2183.3000      7.9753      2.4811      0.0377     10.2350     16.5902     92.7136
  2183.4000      7.9753      2.4864      0.0751      9.9173     16.1671     94.6114
  2183.5000      7.9752      2.4840      0.0293     10.0618     16.0665     96.1505
  2183.6000      7.9752      2.4841      0.0805     10.0555     16.3620     99.7200
  2183.7000      7.9752      2.4843      0.0700     10.0402     16.7542    101.5078
  2183.8000      7.9749      2.4703      0.0707     10.8912     17.0010    100.2228
  2183.9000      7.9749      2.4478      0.0136     12.2539     17.3523    101.2529
  2184.0000      7.9733      2.4421     -0.0032     12.6011     17.9261    106.6556
  2184.1000      7.9733      2.4570      0.0521     11.6941     18.3607    112.3681
  2184.2000      7.9733      2.4705      0.0586     10.8770     18.2852    113.5957
  2184.3000      7.9719      2.4749      0.0613     10.6145     17.7017    107.2896
  2184.4000      7.9719      2.4829      0.0642     10.1274     16.8284     95.1427
  2184.5000      7.9728      2.4973      0.0874      9.2576     15.9574     86.1775
  2184.6000      7.9728      2.5076      0.0790      8.6282     15.4415     86.8698
  2184.7000      7.9728      2.5063      0.0942      8.7111     15.4070     93.7268
  2184.8000      7.9746      2.4911      0.0834      9.6283     15.7508     98.6851
  2184.9000      7.9746      2.4693      0.0451     10.9485     16.1247    100.6835
  2185.0000      7.9741      2.4550      0.0156     11.8188     16.0342    105.0871
  2185.1000      7.9741      2.4598      0.0496     11.5283     15.5469    110.4139
  2185.2000      7.9741      2.4830      0.0426     10.1194     15.2847    109.9062
  2185.3000      7.9727      2.5143      0.0908      8.2228     15.4216    102.4461
  2185.4000      7.9727      2.5376      0.1037      6.8130     15.6812     93.6952
  2185.5000      7.9715      2.5405      0.0748      6.6364     15.8079     91.2089
  2185.6000      7.9715      2.5252      0.0979      7.5627     15.8719     94.0120
  2185.7000      7.9715      2.5041      0.0735      8.8445     16.2188     95.8937
  2185.8000      7.9713      2.4901      0.0627      9.6902     16.6280     95.0639
  2185.9000      7.9713      2.4853      0.0418      9.9842     16.5337     92.3496
  2186.0000      7.9727      2.4843      0.0623     10.0448     16.0261     88.2637
  2186.1000      7.9727      2.4864      0.0705      9.9182     15.5761     86.7868
  2186.2000      7.9727      2.4922      0.0553      9.5661     15.2310     92.6708
  2186.3000      7.9741      2.4959      0.0996      9.3385     15.1737    100.0532
  2186.4000      7.9741      2.4900      0.0624      9.6992     15.5543     98.4966
  2186.5000      7.9745      2.4748      0.0430     10.6198     15.9399     91.8710
  2186.6000      7.9745      2.4577      0.0287     11.6572     15.8291     89.7001
  2186.7000      7.9745      2.4421      0.0815     12.6000     15.2456     91.2770
  2186.8000      7.9759      2.4248      0.0605     13.6480     14.6930     89.2923
  2186.9000      7.9759      2.4093      0.0506     14.5874     14.3211     82.9046
  2187.0000      7.9772      2.4072      0.0321     14.7177     13.9448     79.9646
  2187.1000      7.9772      2.4231      0.0821     13.7498     13.7059     83.2067
  2187.2000      7.9772      2.4485      0.0880     12.2124     13.8495     88.5969
  2187.3000      7.9802      2.4664      0.1446     11.1254     14.1885     90.2481
  2187.4000      7.9802      2.4651      0.1476     11.2034     14.3441     88.4806
  2187.5000      7.9949      2.4576      0.1033     11.6623     14.3688     90.9379
  2187.6000      7.9949      2.4611      0.1222     11.4499     14.3630     97.2476
  2187.7000      7.9949      2.4654      0.1477     11.1905     14.2021     97.6537
  2187.8000      8.0363      2.4559      0.0792     11.7619     14.1852     90.4690
  2187.9000      8.0363      2.4475      0.0569     12.2744     14.5407     84.2189
  2188.0000      8.1031      2.4598      0.0608     11.5258     14.9995     83.4073
  2188.1000      8.1031      2.4778      0.1050     10.4367     15.3809     85.8056
  2188.2000      8.1031      2.4730      0.0419     10.7285     15.5955     88.8559
  2188.3000      8.1672      2.4549      0.0058     11.8251     15.5535     91.6082
  2188.4000      8.1672      2.4556      0.0124     11.7821     15.3202     96.4402
  2188.5000      8.2092      2.4675      0.0928     11.0580     15.0646    102.7572
  2188.6000      8.2092      2.4589      0.0460     11.5801     14.7665    103.3405
  2188.7000      8.2092      2.4394      0.0315     12.7610     14.4256     99.3719
  2188.8000      8.2397      2.4379      0.0503     12.8559     14.2553    100.6772
  2188.9000      8.2397      2.4555      0.0743     11.7877     14.2222    106.8005
