~Version Information
VERS.                      2.0: CWLS Log ASCII Standard - VERSION 2.0
WRAP.                       NO: One line per depth step
~Well Information Block
STRT.FT               962.7000: 
STOP.FT              2435.5000: 
STEP.FT                 0.1000: 
NULL.                -999.2500: 
COMP.          Petrogulf Corporation: COMPANY
WELL.              Hand 8-44 V: WELL
FLD.           Purgatorie River: FIELD
LOC.           1076' FEL & 820' FSL: LOCATION
CNTY.               Las Animas: COUNTY
SRVC.                         : SERVICE COMPANY
DATE.          Fri Nov 21 14:12:41 2003: LOG DATE
UWI.                          : UNIQUE WELL ID
STAT.                 Colorado: STATE
~Curve Information Block
DEPT.FT            0 000 00 00: Depth
DCAL.in                       : CDL Caliper
RHOB.g/cc                     : CDL Bulk Density
RHOC.g/cc                     : CDL Density Correction
DPOR.pu                       : CDL Density Porosity
GR.GAPI                       : Gamma Ray
NPOR.pu                       : Neutron Porosity
~Parameter Information Block
~A  Depth       DCAL        RHOB        RHOC        DPOR         GR         NPOR    
# ...
  2229.9000      8.1903      2.5896      0.0605      3.6595     81.6696     18.1693
  2230.0000      8.1861      2.6144      0.0532      2.1599     81.0706     18.4078
  2230.1000      8.1861      2.6354      0.1099      0.8874     81.9391     18.5963
  2230.2000      8.1861      2.6378      0.1008      0.7370     82.4972     18.4114
  2230.3000      8.1800      2.6268     -0.0006      1.4058     80.3051     17.7515
  2230.4000      8.1800      2.6254      0.0528      1.4939     77.2345     17.1128
  2230.5000      8.1779      2.6325      0.1018      1.0580     75.6560     16.9195
  2230.6000      8.1779      2.6282      0.1353      1.3214     77.6253     17.1232
  2230.7000      8.1779      2.6112      0.0757      2.3541     84.2006     17.7049
  2230.8000      8.1871      2.6033      0.0499      2.8319     91.3855     18.6714
  2230.9000      8.1871      2.6028      0.1248      2.8592     93.4579     19.7073
  2231.0000      8.1925      2.5926      0.0497      3.4775     90.9041     20.5164
  2231.1000      8.1925      2.5812      0.0685      4.1675     85.4061     20.9429
  2231.2000      8.1925      2.5693      0.0904      4.8938     78.0135     20.8623
  2231.3000      8.1736      2.5412      0.0675      6.5951     75.1542     20.2900
  2231.4000      8.1736      2.5101      0.0210      8.4785     80.6116     19.7354
  2231.5000      8.1685      2.5036      0.0454      8.8743     89.1297     19.6620
  2231.6000      8.1685      2.5225      0.0584      7.7251     96.5007     19.6842
  2231.7000      8.1685      2.5545      0.0624      5.7881    101.0600     19.4821
  2231.8000      8.1508      2.5949      0.1078      3.3375    101.7290     19.1966
  2231.9000      8.1508      2.6364      0.1510      0.8262    100.9640     18.9052
  2232.0000      8.1450      2.6641      0.2144     -0.8565    101.0970     18.6836
  2232.1000      8.1450      2.6728      0.1528     -1.3797     99.4854     18.6216
  2232.2000      8.1450      2.6752      0.1407     -1.5288     94.8257     18.7287
  2232.3000      8.1443      2.6749      0.1303     -1.5097     90.9888     18.6838
  2232.4000      8.1443      2.6618      0.1153     -0.7180     92.5713     17.9924
  2232.5000      8.1427      2.6368      0.0807      0.8001     97.7833     17.0676
  2232.6000      8.1427      2.6072      0.0643      2.5951     97.0704     16.8260
  2232.7000      8.1427      2.5787      0.0284      4.3199     86.9519     17.0553
  2232.8000      8.1436      2.5619      0.0149      5.3421     75.2476     16.8303
  2232.9000      8.1436      2.5656      0.0416      5.1171     66.6768     16.4612
  2233.0000      8.1476      2.5863      0.0276      3.8610     60.6333     16.9589
  2233.1000      8.1476      2.6061      0.0794      2.6634     57.6315     17.9311
  2233.2000      8.1476      2.6025      0.1047      2.8784     59.4592     18.3943
  2233.3000      8.1651      2.5823      0.0369      4.1052     64.7426     18.2285
  2233.4000      8.1651      2.5782      0.0370      4.3542     66.8384     17.6084
  2233.5000      8.1718      2.6022      0.0328      2.8992     64.6696     17.1002
  2233.6000      8.1718      2.6314      0.1138      1.1291     64.6262     17.2694
  2233.7000      8.1718      2.6432      0.0502      0.4149     69.5772     17.8833
  2233.8000      8.1606      2.6430      0.0731      0.4218     75.7474     18.4129
  2233.9000      8.1606      2.6355      0.1025      0.8805     79.0763     18.5449
  2234.0000      8.1495      2.6164      0.0848      2.0347     77.5255     18.2874
  2234.1000      8.1495      2.5989      0.0504      3.0948     71.4844     17.8156
  2234.2000      8.1495      2.5915      0.1515      3.5484     65.3623     17.3321
  2234.3000      8.1221      2.5885      0.0335      3.7286     61.5388     17.2464
  2234.4000      8.1221      2.5961      0.0495      3.2646     61.2106     17.4900
  2234.5000      8.1179      2.6146      0.0960      2.1460     64.4895     17.6643
  2234.6000      8.1179      2.6257      0.0752      1.4701     68.3875     17.7026
  2234.7000      8.1179      2.6121      0.0859      2.2941     73.2021     17.5044
  2234.8000      8.1525      2.5869      0.0003      3.8265     78.9569     17.1801
  2234.9000      8.1525      2.5870     -0.0221      3.8162     83.0841     17.2716
  2235.0000      8.1746      2.6050      0.1372      2.7246     84.1829     17.8691
  2235.1000      8.1746      2.5963      0.0836      3.2543     79.9368     18.3661
  2235.2000      8.1746      2.5573      0.0639      5.6200     70.6897     18.4338
  2235.3000      8.1649      2.5221      0.0148      7.7488     60.5742     18.2069
  2235.4000      8.1649      2.5084      0.0592      8.5842     55.1033     17.9653
  2235.5000      8.1398      2.5135     -0.0100      8.2755     59.5204     17.8720
  2235.6000      8.1398      2.5349      0.0495      6.9765     72.3184     17.8201
  2235.7000      8.1398      2.5635      0.0292      5.2401     82.9199     17.7021
  2235.8000      8.0772      2.5924      0.0748      3.4894     84.7851     17.4122
  2235.9000      8.0772      2.6151      0.0964      2.1146     80.7395     16.6515
  2236.0000      8.1607      2.6208      0.1060      1.7725     74.3117     15.5385
  2236.1000      8.1607      2.6134      0.0595      2.2212     68.1895     14.6476
  2236.2000      8.1607      2.6083      0.1014      2.5255     66.0673     14.2374
  2236.3000      8.1652      2.6091      0.0480      2.4766     69.5532     14.0484
  2236.4000      8.1652      2.6121      0.0354      2.2989     75.7228     13.7452
  2236.5000      8.0906      2.6153      0.1014      2.1015     79.6465     13.1833
  2236.6000      8.0906      2.6190      0.0565      1.8802     80.1414     12.5702
  2236.7000      8.0906      2.6289      0.0513      1.2789     80.5497     12.2994
  2236.8000      8.0771      2.6421      0.0811      0.4774     78.2823     12.3989
  2236.9000      8.0771      2.6404      0.0785      0.5825     69.7189     12.9714
  2237.0000      8.1732      2.6092      0.0672      2.4722     61.4770     14.2237
  2237.1000      8.1732      2.5694     -0.0667      4.8867     58.9936     15.6284
  2237.2000      8.1732      2.5643     -0.0526      5.1966     57.7797     16.6124
  2237.3000      8.1715      2.5914      0.0801      3.5518     51.3496     17.0581
  2237.4000      8.1715      2.6063      0.0884      2.6505     41.1993     16.9872
  2237.5000      8.1473      2.5880      0.0281      3.7599     34.1608     16.4294
  2237.6000      8.1473      2.5562      0.0208      5.6877     33.4837     15.4242
  2237.7000      8.1473      2.5375      0.0002      6.8180     35.5465     14.5984
  2237.8000      8.1439      2.5311      0.0398      7.2039     36.3809     14.4863
  2237.9000      8.1439      2.5168      0.1061      8.0717     38.0796     15.2667
  2238.0000      8.1035      2.4957      0.0180      9.3527     42.3223     17.1837
  2238.1000      8.1035      2.4922      0.0143      9.5659     44.1049     19.4646
  2238.2000      8.1035      2.5073      0.0482      8.6511     39.6782     20.9522
  2238.3000      8.0912      2.5168      0.0319      8.0710     33.7496     21.8946
  2238.4000      8.0912      2.5053      0.0449      8.7674     33.5752     23.0073
  2238.5000      8.1153      2.4689     -0.0133     10.9778     39.0887     24.5273
  2238.6000      8.1153      2.4008     -0.0011     15.1019     45.7020     26.3744
  2238.7000      8.1153      2.2858      0.0461     22.0740     49.6228     27.9397
  2238.8000      8.1213      2.1306     -0.0034     31.4812     49.2443     29.0411
  2238.9000      8.1213      1.9844     -0.1234     40.3384     45.8444     30.1646
  2239.0000      8.1181      1.8812     -0.1127     46.5928     42.2257     31.3032
  2239.1000      8.1181      1.7873     -0.1049     52.2875     39.6701     32.0928
  2239.2000      8.1181      1.6616     -0.1341     59.9004     38.8374     32.3611
  2239.3000      8.1372      1.5430     -0.1800     67.0928     39.4426     32.1853
  2239.4000      8.1372      1.5047     -0.0765     69.4137     40.9478     31.5166
