~Version Information
VERS.                      2.0: CWLS Log ASCII Standard - VERSION 2.0
WRAP.                       NO: One line per depth step
~Well Information Block
STRT.FT              1736.0000: 
STOP.FT              1964.5000: 
STEP.FT                 0.2500: 
NULL.                -999.2500: 
COMP.          Petrogulf Corporation: COMPANY
WELL.              Royal 8-33R: WELL
FLD.           Purgatorie River: FIELD
LOC.           2401' FSL & 2270' FEL: LOCATION
CNTY.               Las Animas: COUNTY
SRVC.                         : SERVICE COMPANY
DATE.          Mon Apr 26 06:49:48 2004: LOG DATE
UWI.           05 071 08041 00: UNIQUE WELL ID
STAT.                 Colorado: STATE
~Curve Information Block
DEPT.FT            0 000 00 00: Depth
SP.mV                         : DIL Spontaneous Potential
RILD.Ohm-m                    : DIL Deep Resistivity
RILM.Ohm-m                    : DIL Medium Resistivity
RLL3.Ohm-m                    : DIL Shallow Resistivity
GR.GAPI                       : Gamma Ray
~Parameter Information Block
~A  Depth        SP         RILD        RILM        RLL3         GR     
# ...
  1820.0000     39.0869     10.1585     10.6713     17.6350    154.5760
  1820.2500     38.3543      9.9491     10.3722     16.7043    156.7733
  1820.5000     37.5213      9.7796     10.1345     16.1883    158.1066
  1820.7500     36.6390      9.6433      9.9641     16.0075    158.2594
  1821.0000     35.7535      9.5320      9.8522     16.0910    157.5503
  1821.2500     34.8841      9.4421      9.7803     16.3813    156.2420
  1821.5000     34.0249      9.3739      9.7285     16.8156    153.5616
  1821.7500     33.1660      9.3290      9.6837     17.3416    152.2259
  1822.0000     32.3133      9.3090      9.6460     17.9382    152.0799
  1822.2500     31.4977      9.3148      9.6278     18.5894    153.0117
  1822.5000     30.7659      9.3478      9.6450     19.2118    154.4881
  1822.7500     30.1568      9.4104      9.7041     19.6121    154.8254
  1823.0000     29.6803      9.5083      9.7943     19.5708    154.6351
  1823.2500     29.3213      9.6509      9.8911     19.0219    154.9245
  1823.5000     29.0653      9.8492      9.9712     18.1578    156.9362
  1823.7500     28.9205     10.1110     10.0297     17.3346    158.8586
  1824.0000     28.9163     10.4349     10.0883     16.8713    160.7887
  1824.2500     29.0849     10.8097     10.1890     16.9398    160.6022
  1824.5000     29.4403     11.2192     10.3775     17.6166    157.6017
  1824.7500     29.9712     11.6523     10.6891     18.9768    153.9650
  1825.0000     30.6508     12.1096     11.1422     21.0725    146.9672
  1825.2500     31.4507     12.6010     11.7396     23.7973    141.8270
  1825.5000     32.3444     13.1392     12.4713     26.7911    133.9405
  1825.7500     33.3000     13.7357     13.3158     29.5159    128.8813
  1826.0000     34.2763     14.4065     14.2368     31.5000    122.4611
  1826.2500     35.2337     15.1769     15.1840     32.6432    119.2373
  1826.5000     36.1510     16.0748     16.1097     33.4062    115.2989
  1826.7500     37.0284     17.1082     16.9976     34.7289    112.4887
  1827.0000     37.8764     18.2347     17.8834     37.6520    106.9711
  1827.2500     38.7055     19.3404     18.8415     42.8206    102.1488
  1827.5000     39.5278     20.2508     19.9303     50.1922     93.3715
  1827.7500     40.3597     20.7890     21.1130     59.1714     87.3507
  1828.0000     41.2122     20.8540     22.1911     68.9375     80.8268
  1828.2500     42.0713     20.4618     22.8297     78.3534     79.4705
  1828.5000     42.8885     19.7185     22.7317     85.3881     81.6215
  1828.7500     43.5982     18.7595     21.8428     87.1381     84.4440
  1829.0000     44.1566     17.7056     20.3712     81.3991     89.0598
  1829.2500     44.5719     16.6485     18.6303     68.7418     92.8899
  1829.5000     44.8971     15.6515     16.8973     52.7883    102.0278
  1829.7500     45.1870     14.7524     15.3588     38.0720    110.7193
  1830.0000     45.4627     13.9657     14.1056     27.4605    124.6984
  1830.2500     45.7144     13.2865     13.1473     21.2786    131.8537
  1830.5000     45.9307     12.6970     12.4395     18.2417    136.2996
  1830.7500     46.1134     12.1749     11.9161     16.8447    135.1986
  1831.0000     46.2702     11.7011     11.5160     16.1326    130.1613
  1831.2500     46.4036     11.2649     11.1982     15.7456    126.7890
  1831.5000     46.5149     10.8645     10.9430     15.6484    124.7809
  1831.7500     46.6170     10.5043     10.7426     15.8717    125.6186
  1832.0000     46.7389     10.1892     10.5910     16.3580    127.1876
  1832.2500     46.9106      9.9216     10.4779     16.9097    126.3527
  1832.5000     47.1371      9.6997     10.3889     17.2602    121.6837
  1832.7500     47.3832      9.5191     10.3112     17.2346    117.9477
  1833.0000     47.5832      9.3745     10.2379     16.8666    114.6479
  1833.2500     47.6712      9.2609     10.1690     16.3534    114.6355
  1833.5000     47.6117      9.1721     10.1077     15.8946    117.2123
  1833.7500     47.4119      9.1000     10.0557     15.5709    120.2218
  1834.0000     47.1089      9.0339     10.0101     15.3565    126.5580
  1834.2500     46.7437      8.9634      9.9646     15.2027    131.9643
  1834.5000     46.3445      8.8812      9.9135     15.0848    141.2345
  1834.7500     45.9281      8.7854      9.8540     14.9883    147.5923
  1835.0000     45.5120      8.6795      9.7844     14.8919    156.5007
  1835.2500     45.1188      8.5697      9.7008     14.7812    161.5819
  1835.5000     44.7690      8.4624      9.5959     14.6623    167.2184
  1835.7500     44.4748      8.3631      9.4635     14.5428    169.4807
  1836.0000     44.2427      8.2752      9.3054     14.4072    171.1548
  1836.2500     44.0804      8.1997      9.1333     14.2227    171.8058
  1836.5000     43.9963      8.1365      8.9646     13.9720    173.4146
  1836.7500     43.9862      8.0845      8.8155     13.6825    175.4859
  1837.0000     44.0201      8.0427      8.6968     13.4260    179.8284
  1837.2500     44.0441      8.0100      8.6125     13.2789    182.2752
  1837.5000     44.0028      7.9858      8.5617     13.2708    182.0464
  1837.7500     43.8649      7.9698      8.5392     13.3678    178.1025
  1838.0000     43.6255      7.9619      8.5380     13.5061    167.5218
  1838.2500     43.2883      7.9613      8.5502     13.6365    159.4189
  1838.5000     42.8500      7.9670      8.5694     13.7425    149.1885
  1838.7500     42.3078      7.9783      8.5912     13.8288    144.5807
  1839.0000     41.6757      7.9960      8.6138     13.9011    141.1618
  1839.2500     40.9825      8.0221      8.6378     13.9576    141.4269
  1839.5000     40.2504      8.0583      8.6653     13.9959    145.9280
  1839.7500     39.4816      8.1047      8.6991     14.0202    150.6047
  1840.0000     38.6724      8.1595      8.7420     14.0358    156.2352
  1840.2500     37.8409      8.2206      8.7961     14.0449    157.3409
  1840.5000     37.0380      8.2875      8.8631     14.0582    155.1744
  1840.7500     36.3274      8.3615      8.9441     14.1058    152.4999
  1841.0000     35.7570      8.4453      9.0394     14.2180    148.8946
  1841.2500     35.3422      8.5420      9.1495     14.3904    147.4431
  1841.5000     35.0678      8.6551      9.2771     14.5775    146.5208
  1841.7500     34.8988      8.7879      9.4282     14.7310    146.2482
  1842.0000     34.7973      8.9437      9.6115     14.8469    145.8140
  1842.2500     34.7395      9.1255      9.8358     14.9724    145.3563
  1842.5000     34.7220      9.3365     10.1068     15.1752    143.6876
  1842.7500     34.7490      9.5812     10.4252     15.5138    141.2951
  1843.0000     34.8157      9.8643     10.7877     16.0215    135.6376
  1843.2500     34.9091     10.1904     11.1891     16.6905    131.3573
  1843.5000     35.0192     10.5616     11.6265     17.4512    126.2970
  1843.7500     35.1409     10.9764     12.1038     18.1790    124.3698
  1844.0000     35.2688     11.4301     12.6346     18.7512    122.6635
  1844.2500     35.4008     11.9164     13.2420     19.1377    121.3101
  1844.5000     35.5465     12.4300     13.9543     19.4660    117.8507
  1844.7500     35.7273     12.9699     14.7980     19.9857    114.4489
  1845.0000     35.9652     13.5395     15.7902     20.9222    108.3339
  1845.2500     36.2731     14.1433     16.9306     22.3180    104.3706
  1845.5000     36.6525     14.7822     18.1958     24.0191     99.8608
  1845.7500     37.0893     15.4505     19.5383     25.8286     98.1203
  1846.0000     37.5465     16.1393     20.8983     27.6458     97.1999
  1846.2500     37.9669     16.8415     22.2273     29.4127     97.1061
  1846.5000     38.2952     17.5548     23.5126     30.9737     96.0895
  1846.7500     38.5057     18.2808     24.7795     32.1331     94.1039
  1847.0000     38.6077     19.0226     26.0680     32.9209     88.9667
  1847.2500     38.6284     19.7833     27.4020     33.6904     84.2371
  1847.5000     38.5913     20.5667     28.7792     34.8030     75.4733
  1847.7500     38.5111     21.3749     30.1881     36.2190     69.0734
