~Version Information
VERS.                      2.0: CWLS Log ASCII Standard - VERSION 2.0
WRAP.                       NO: One line per depth step
~Well Information Block
STRT.FT               840.0000: 
STOP.FT              2266.0000: 
STEP.FT                 0.1000: 
NULL.                -999.2500: 
COMP.          Pioneer Natural Resources: COMPANY
WELL.              Tonto 42-23: WELL
FLD.           Purgatoire River: FIELD
LOC.           2217' FNL & 423' FEL: LOCATION
PROV.                 Colorado: PROVINCE
CNTY.               Las Animas: COUNTRY
SRVC.                Patterson: SERVICE COMPANY
DATE.          Mon Apr 18 07:15:48 2005: LOG DATE
UWI.           05 071 08335 00: UNIQUE WELL ID
~Curve Information Block
DEPT.FT            0 000 00 00: Depth
DCAL.in                       : CDL Caliper
RHOB.g/cc                     : CDL Bulk Density
RHOC.g/cc                     : CDL Density Correction
DPOR.pu                       : CDL Density Porosity
GR.GAPI                       : Gamma Ray
NPOR.pu                       : Neutron Porosity
~Parameter Information Block
~A  Depth       DCAL        RHOB        RHOC        DPOR         GR         NPOR    
# ...
  1118.4000      8.0779      2.5414     -0.0013      6.5842    133.6883     31.5284
  1118.5000      8.0450      2.5187      0.0123      7.9567    132.7891     32.2421
  1118.6000      8.0450      2.5023     -0.0025      8.9486    132.7055     31.7043
  1118.7000      8.0450      2.5067     -0.0505      8.6819    135.6715     31.1180
  1118.8000      8.0480      2.5378     -0.0245      6.8014    138.2168     31.4757
  1118.9000      8.0480      2.5709      0.0344      4.7930    135.0197     32.1343
  1119.0000      8.0469      2.5747      0.0464      4.5628    129.2433     32.1082
  1119.1000      8.0469      2.5515      0.0213      5.9725    127.7936     31.3186
  1119.2000      8.0469      2.5238     -0.0071      7.6484    130.6533     30.0023
  1119.3000      8.0453      2.5012      0.0138      9.0192    134.3288     28.6719
  1119.4000      8.0453      2.4820     -0.0237     10.1796    137.9861     27.9961
  1119.5000      8.0510      2.4723     -0.0049     10.7717    143.2489     28.2530
  1119.6000      8.0510      2.4755      0.0240     10.5732    147.8497     29.2970
  1119.7000      8.0510      2.4867      0.0255      9.8963    146.5381     30.5478
  1119.8000      8.0698      2.5031      0.0526      8.9018    141.1942     31.0707
  1119.9000      8.0698      2.5168      0.0588      8.0741    134.9924     30.9082
  1120.0000      8.0883      2.5216      0.0585      7.7829    127.6594     30.7697
  1120.1000      8.0883      2.5199      0.0261      7.8827    122.4308     30.5024
  1120.2000      8.0883      2.5143      0.0406      8.2252    121.9318     30.0038
  1120.3000      8.1141      2.5048     -0.0034      8.8002    124.0404     29.7312
  1120.4000      8.1141      2.4964     -0.0334      9.3105    129.1554     29.8098
  1120.5000      8.1496      2.5033     -0.0508      8.8895    138.2682     29.8385
  1120.6000      8.1496      2.5293      0.0323      7.3156    144.9726     29.9493
  1120.7000      8.1496      2.5556      0.0445      5.7186    146.5896     30.1338
  1120.8000      8.1627      2.5683      0.0856      4.9502    148.2262     30.0975
  1120.9000      8.1627      2.5713      0.1059      4.7697    151.4235     30.0607
  1121.0000      8.1374      2.5733      0.1364      4.6499    153.4285     30.4747
  1121.1000      8.1374      2.5651      0.1940      5.1437    155.3064     31.3864
  1121.2000      8.1374      2.5319      0.1267      7.1579    159.9064     32.3219
  1121.3000      8.0416      2.4939      0.0461      9.4605    165.3496     32.4917
  1121.4000      8.0416      2.4787      0.0809     10.3795    167.2724     31.5508
  1121.5000      8.0052      2.4740      0.0584     10.6691    164.5944     29.9523
  1121.6000      8.0052      2.4608      0.0756     11.4680    160.3549     28.7831
  1121.7000      8.0052      2.4528      0.0278     11.9532    156.6645     28.8876
  1121.8000      8.0291      2.4648      0.0626     11.2231    154.6824     29.9928
  1121.9000      8.0291      2.4796      0.0777     10.3281    153.0767     31.1347
  1122.0000      8.0462      2.4800      0.0006     10.3019    149.8942     31.8491
  1122.1000      8.0462      2.4741      0.0135     10.6629    146.5372     32.4367
  1122.2000      8.0462      2.4645      0.0274     11.2406    141.3038     32.6126
  1122.3000      8.0507      2.4459      0.0523     12.3710    130.8216     31.7837
  1122.4000      8.0507      2.4237      0.1047     13.7134    116.0118     30.7503
  1122.5000      8.0665      2.4045      0.0854     14.8791    102.4404     30.7287
  1122.6000      8.0665      2.3819      0.0774     16.2464     94.5092     31.4210
  1122.7000      8.0665      2.3501      0.0389     18.1765     91.4954     31.6914
  1122.8000      8.0365      2.3198      0.0068     20.0136     90.3514     31.4405
  1122.9000      8.0365      2.3062      0.0415     20.8382     86.8782     31.0538
  1123.0000      8.0036      2.3158      0.0298     20.2576     79.7797     30.5837
  1123.1000      8.0036      2.3412      0.0322     18.7155     73.1791     30.3584
  1123.2000      8.0036      2.3679      0.0286     17.0972     69.5883     30.5481
  1123.3000      8.0098      2.3960      0.0005     15.3948     66.4197     30.2707
  1123.4000      8.0098      2.4368      0.0495     12.9206     61.4533     29.0128
  1123.5000      8.0043      2.4899      0.1469      9.7057     56.3185     27.6584
  1123.6000      8.0043      2.5439      0.1850      6.4324     53.1185     27.0092
  1123.7000      8.0043      2.5909      0.1124      3.5810     51.4781     27.0908
  1123.8000      7.9738      2.6222      0.0694      1.6841     51.3296     27.5716
  1123.9000      7.9738      2.6354     -0.0162      0.8818     53.5271     27.6419
  1124.0000      7.9707      2.6492      0.0044      0.0479     56.7525     26.9070
  1124.1000      7.9707      2.6771      0.0709     -1.6445     59.3800     26.3342
  1124.2000      7.9707      2.7093      0.0859     -3.5956     61.6992     26.6505
  1124.3000      7.9304      2.7350      0.0921     -5.1541     64.1878     27.4007
  1124.4000      7.9304      2.7615      0.0530     -6.7573     65.2822     27.5121
  1124.5000      7.9206      2.7899      0.0947     -8.4775     63.3679     26.5021
  1124.6000      7.9206      2.8013      0.0872     -9.1705     61.5400     25.2963
  1124.7000      7.9206      2.7991      0.0445     -9.0359     60.8726     24.5911
  1124.8000      7.9346      2.8106      0.0442     -9.7303     57.5371     23.8094
  1124.9000      7.9346      2.8301      0.1199    -10.9141     51.2841     22.5171
  1125.0000      7.9225      2.8286      0.0833    -10.8272     46.8589     21.2903
  1125.1000      7.9225      2.8097      0.0142     -9.6811     45.7975     20.4783
  1125.2000      7.9225      2.7972      0.0759     -8.9189     46.2066     20.1128
  1125.3000      7.9205      2.7959      0.0300     -8.8441     47.8206     20.4087
  1125.4000      7.9205      2.7972     -0.0043     -8.9220     49.6606     21.1859
  1125.5000      7.9169      2.7995     -0.0061     -9.0591     50.0002     22.0323
  1125.6000      7.9169      2.8038      0.0066     -9.3229     48.2012     22.7489
  1125.7000      7.9169      2.8040     -0.0011     -9.3310     45.0393     23.0149
  1125.8000      7.9377      2.7923     -0.0225     -8.6231     42.3472     22.8334
  1125.9000      7.9377      2.7690      0.0159     -7.2092     40.9128     22.7480
  1126.0000      7.9265      2.7518     -0.0576     -6.1685     41.5479     22.6359
  1126.1000      7.9265      2.7704     -0.0461     -7.2980     43.6974     21.7945
  1126.2000      7.9265      2.8199      0.0230    -10.2947     44.2404     20.7967
  1126.3000      7.9381      2.8490      0.0475    -12.0626     42.6057     20.6243
  1126.4000      7.9381      2.8255     -0.0029    -10.6349     42.5130     21.0292
  1126.5000      7.9600      2.7690     -0.0389     -7.2132     45.6890     21.7489
  1126.6000      7.9600      2.7169     -0.0435     -4.0532     49.5311     22.5844
  1126.7000      7.9600      2.6903     -0.0907     -2.4414     51.4798     22.8183
  1126.8000      7.9812      2.6843     -0.0225     -2.0817     52.8357     22.8480
  1126.9000      7.9812      2.6718     -0.0002     -1.3217     57.3262     23.4690
  1127.0000      8.0356      2.6410     -0.1096      0.5430     65.1739     24.4604
  1127.1000      8.0356      2.6162     -0.0606      2.0492     73.8253     25.3258
  1127.2000      8.0356      2.6070     -0.0004      2.6066     81.6604     25.8977
  1127.3000      8.0485      2.5919      0.0731      3.5196     88.5512     26.3754
  1127.4000      8.0485      2.5614      0.0211      5.3711     95.3720     27.0975
  1127.5000      7.9944      2.5176      0.0638      8.0221    101.8276     28.5154
  1127.6000      7.9944      2.4462      0.1049     12.3531    108.4570     30.7257
  1127.7000      7.9944      2.3564     -0.0035     17.7915    116.6689     32.9315
  1127.8000      7.9090      2.2946     -0.0085     21.5406    126.2032     33.9532
  1127.9000      7.9090      2.2792      0.0145     22.4743    134.5376     33.4639
