~Version Information
 VERS.                                  2.0 : CWLS LAS VERSION
 WRAP.                                   NO : WRAPING MODE
 SWARE .                 MController 2.5.0E : SOFTWARE VERSION
~Well Information
 WELL.                          Patten 22-2 : WELL
 COMP.           Pionneer Natural Resources : COMPANY
 FLD.                      Purgatoire River : FIELD
 LOC.                 SE/NW Sec 2 T35S R65W : LOCATION
 DATE.                             12/09/04 : DATE(S) LOGGED
 SRVC.                Blanco Geological LLC : SERVICE COMPANY
 STAT.                                   CO : STATE
 CNTY.                           Las Aminas : COUNTY
 CTRY.                                  USA : COUNTRY
 API.                          05-071-08168 : API NUMBER
 STRT.FT                             276.00 : START DEPTH
 STOP.FT                            1707.00 : STOP DEPTH
 STEP.FT                               1.00 : DEPTH INCREMENT
 NULL.                                -9999 : NULL VALUE
~Curve information
 DEPTH.FT                                   :
 ROP.MIN/FT                                 :
 GAS.UNITS                                  :
~ASCII Log data
# ...
      876.00        0.200          2.7 
      877.00        0.200          3.0 
      878.00        0.250          2.8 
      879.00        0.200          3.0 
      880.00        0.200          3.0 
      881.00        0.233          2.9 
      882.00        0.233          2.9 
      883.00        0.267          3.1 
      884.00        0.167          2.9 
      885.00        0.200          2.8 
      886.00        0.167          2.7 
      887.00        0.100          2.8 
      888.00        0.100          3.1 
      889.00        0.100          2.9 
      890.00        0.100          2.7 
      891.00        0.133          2.9 
      892.00        0.167          3.1 
      893.00        0.267          2.9 
      894.00        0.100          3.3 
      895.00        0.200          3.3 
      896.00        3.183          4.9 
      897.00        0.317          5.8 
      898.00        0.300          5.2 
      899.00        0.300          4.0 
      900.00        0.367          2.9 
      901.00        0.267          3.1 
      902.00        0.233          2.9 
      903.00        0.267          3.0 
      904.00        0.367          3.1 
      905.00        0.233          2.8 
      906.00        0.267          3.1 
      907.00        0.250          3.0 
      908.00        0.267          3.0 
      909.00        0.167          3.0 
      910.00        0.167          3.1 
      911.00        0.233          2.7 
      912.00        0.200          3.1 
      913.00        0.233          2.9 
      914.00        0.267          3.0 
      915.00        0.200          2.9 
      916.00        0.133          2.8 
      917.00        0.100          2.4 
      918.00        0.200          3.0 
      919.00        0.167          3.1 
      920.00        0.200          3.0 
      921.00        0.200          2.9 
      922.00        0.133          2.7 
      923.00        0.183          3.0 
      924.00        0.100          2.8 
      925.00        0.200          2.6 
      926.00        2.683          3.7 
      927.00        0.333          6.0 
      928.00        0.200          8.4 
      929.00        0.233          9.7 
      930.00        0.167         10.9 
      931.00        0.133         10.2 
      932.00        0.133         10.2 
      933.00        0.167          9.9 
      934.00        0.200          8.4 
      935.00        0.267          7.3 
      936.00        0.300          8.2 
      937.00        0.300         10.5 
      938.00        0.267         13.1 
      939.00        0.167         13.1 
      940.00        0.250         12.7 
      941.00        0.167         12.2 
      942.00        0.167         11.3 
      943.00        0.133         10.8 
      944.00        0.167          9.8 
      945.00        0.200          8.8 
      946.00        0.167          8.1 
      947.00        0.233          7.4 
      948.00        0.233          7.6 
      949.00        0.167          8.3 
      950.00        0.267         10.2 
      951.00        0.267         11.6 
      952.00        0.200         15.6 
      953.00        0.233         16.0 
      954.00        0.233         14.5 
      955.00        0.283         13.3 
      956.00        2.633         45.7 
      957.00        0.317         52.7 
      958.00        0.300         53.3 
      959.00        0.333         49.7 
      960.00        0.300         39.6 
      961.00        0.367         29.5 
      962.00        0.233         20.5 
      963.00        0.233         17.3 
      964.00        0.200         14.6 
      965.00        0.200         13.2 
      966.00        0.200         12.4 
      967.00        0.233         11.7 
      968.00        0.200         10.7 
      969.00        0.267         10.3 
      970.00        0.250          9.5 
      971.00        0.200          9.2 
      972.00        0.167          9.0 
      973.00        0.133         10.0 
      974.00        0.167         10.4 
      975.00        0.133          9.6 
      976.00        0.167          8.7 
      977.00        0.167          8.3 
      978.00        0.233          7.7 
      979.00        0.167          6.7 
      980.00        0.100          6.4 
      981.00        5.433          8.8 
      982.00        0.900          5.3 
      983.00        0.233          7.5 
      984.00        0.267          8.3 
      985.00        0.267          8.4 
      986.00        3.317         21.9 
      987.00        0.267         28.0 
      988.00        0.317         29.1 
      989.00        0.333         26.7 
      990.00        0.267         21.0 
      991.00        0.333         17.1 
      992.00        0.267         13.8 
      993.00        0.233         11.9 
      994.00        0.267         10.3 
      995.00        0.267          8.5 
      996.00        0.267          7.1 
      997.00        0.233          6.0 
      998.00        0.300          5.0 
      999.00        0.233          4.1 
     1000.00        0.250          4.0 
     1001.00        0.200          3.8 
     1002.00        0.233          3.4 
     1003.00        0.233          3.4 
     1004.00        0.300          3.1 
     1005.00        0.200          3.2 
     1006.00        0.333          3.5 
     1007.00        0.200          3.4 
     1008.00        0.200          3.7 
     1009.00        0.200          3.6 
     1010.00        0.167          3.5 
     1011.00        0.200          3.3 
     1012.00        0.167          3.8 
     1013.00        0.167          3.9 
     1014.00        0.200          3.3 
     1015.00        0.317          3.0 
     1016.00        3.083         28.4 
     1017.00        0.367         35.2 
     1018.00        0.400         34.8 
     1019.00        0.267         25.8 
     1020.00        0.200         19.5 
     1021.00        0.167         15.7 
     1022.00        0.233         13.6 
     1023.00        0.200         11.4 
     1024.00        0.167          9.3 
     1025.00        0.133          7.9 
     1026.00        0.200          7.1 
     1027.00        0.267          6.1 
     1028.00        0.233          5.2 
     1029.00        0.250          4.7 
     1030.00        0.233          4.3 
     1031.00        0.200          3.8 
     1032.00        0.167          3.3 
     1033.00        0.200          3.3 
     1034.00        0.267          3.2 
     1035.00        0.300          3.2 
     1036.00        0.233          3.1 
     1037.00        0.233          3.1 
     1038.00        0.200          2.9 
     1039.00        0.167          2.7 
     1040.00        0.133          3.2 
     1041.00        0.200          3.3 
     1042.00        0.200          3.9 
     1043.00        0.200          3.6 
     1044.00        0.217          3.0 
     1045.00        0.267          2.7 
     1046.00        3.250         23.3 
     1047.00        0.367         26.3 
     1048.00        0.267         25.4 
     1049.00        0.267         21.0 
     1050.00        0.233         15.1 
     1051.00        0.233         11.4 
     1052.00        0.200          9.6 
     1053.00        0.300          8.7 
     1054.00        0.200          6.4 
     1055.00        0.233          6.1 
     1056.00        0.267          5.4 
     1057.00        0.250          5.0 
     1058.00        0.200          4.0 
     1059.00        0.200          3.8 
     1060.00        0.233          3.3 
     1061.00        0.233          2.9 
     1062.00        0.200          2.7 
     1063.00        0.233          2.4 
     1064.00        0.267          2.3 
     1065.00        0.233          2.3 
     1066.00        0.200          2.5 
     1067.00        0.233          2.4 
     1068.00        0.167          2.4 
     1069.00        0.233          2.3 
     1070.00        0.233          2.3 
     1071.00        0.250          2.6 
     1072.00        0.233          3.0 
     1073.00        0.233          2.6 
     1074.00        0.167          2.0 
     1075.00        0.367          2.6 
