~Version Information
VERS.                      2.0: CWLS Log ASCII Standard - VERSION 2.0
WRAP.                       NO: One line per depth step
~Well Information Block
STRT.FT                -6.7500: 
STOP.FT               983.2500: 
STEP.FT                 0.2500: 
NULL.                -999.2500: 
COMP.          Pioneer Natural Resources: COMPANY
WELL.          Run-Away-Train 43-26: WELL
FLD.           Purgatorie River: FIELD
LOC.           1693' FSL & 1195' FWL------------: LOCATION
PROV.                       CO: PROVINCE
CNTY.               Las Animas: COUNTRY
SRVC.          Patterson Wireline: SERVICE COMPANY
DATE.          Thu Apr 14 12:30:00 2005: LOG DATE
UWI.           05 071 08188 00: UNIQUE WELL ID
~Curve Information Block
DEPT.FT            0 000 00 00: Depth
CCL.                          : Casing Collar Locator
TT3.usec                      : CBL 3' Travel Time
AMP3.mV                       : CBL 3' Amplitude
GR.GAPI                       : Gamma Ray
~Parameter Information Block
~A  Depth       CCL         TT3         AMP3         GR     
    -6.7500   -999.2500   -999.2500   -999.2500    103.9799
    -6.5000   -999.2500   -999.2500   -999.2500    104.5569
    -6.2500   -999.2500   -999.2500   -999.2500    102.7808
    -6.0000   -999.2500   -999.2500   -999.2500     99.1755
    -5.7500   -999.2500   -999.2500   -999.2500     94.3471
    -5.5000   -999.2500   -999.2500   -999.2500     89.3017
    -5.2500   -999.2500   -999.2500   -999.2500     85.3877
    -5.0000   -999.2500   -999.2500   -999.2500     83.4410
    -4.7500   -999.2500   -999.2500   -999.2500     83.1081
    -4.5000   -999.2500   -999.2500   -999.2500     83.3660
    -4.2500   -999.2500   -999.2500   -999.2500     83.6383
    -4.0000   -999.2500   -999.2500   -999.2500     84.0105
    -3.7500   -999.2500   -999.2500   -999.2500     84.4628
    -3.5000   -999.2500   -999.2500   -999.2500     84.5759
    -3.2500   -999.2500   -999.2500   -999.2500     84.1521
    -3.0000   -999.2500   -999.2500   -999.2500     83.5194
    -2.7500   -999.2500   -999.2500   -999.2500     83.0096
    -2.5000   -999.2500   -999.2500   -999.2500     82.6107
    -2.2500   -999.2500   -999.2500   -999.2500     82.4118
    -2.0000   -999.2500   -999.2500   -999.2500     82.8639
    -1.7500   -999.2500   1167.0000      1.3963     84.0154
    -1.5000   -999.2500   1167.0000      1.3881     84.9176
    -1.2500   -999.2500   1167.0000      1.3756     84.3946
    -1.0000   -999.2500   1167.0000      1.3581     82.1181
    -0.7500   -999.2500   1167.0000      1.3367     78.5629
    -0.5000   -999.2500   1167.0000      1.3144     74.2833
    -0.2500   -999.2500   1167.0000      1.2954     69.5869
     0.0000   -999.2500   1167.0000      1.2823     64.5958
     0.2500   -999.2500   1167.0000      1.2748     53.6141
     0.5000   -999.2500   1167.0000      1.2813     48.1302
     0.7500   -999.2500   1167.0000      1.2967     43.6887
     1.0000   -999.2500   1167.0000      1.3190     40.6659
     1.2500   -999.2500   1167.0000      1.3419     38.4893
     1.5000   -999.2500   1167.0000      1.3581     36.3035
     1.7500   -999.2500   1167.0000      1.3640     33.8671
     2.0000   -999.2500   1167.0000      1.3606     31.6700
     2.2500   -999.2500   1167.0000      1.3502     30.3551
     2.5000   -999.2500   1167.0000      1.3354     30.2047
     2.7500   -999.2500   1167.0000      1.3208     31.1580
     3.0000   -999.2500   1167.0000      1.3129     33.1575
     3.2500   -999.2500   1167.0000      1.3133     36.2496
     3.5000      0.0000   1167.0000      1.3154     40.2386
     3.7500      0.0000   1167.0000      1.3117     44.3663
     4.0000      0.0000   1167.0000      1.3046     47.4918
     4.2500      0.0000   1167.0000      1.3054     48.6817
     4.5000      0.0000   1167.0000      1.3226     47.8416
     4.7500      0.0000   1166.9427      1.3535     45.9934
     5.0000      0.0000   1166.5912      1.3895     44.7362
     5.2500      0.0000   1164.8629      1.4482     45.1015
     5.5000      0.0000   1158.2504      1.6214     46.9634
     5.7500      0.0000   1138.8418      2.1251     49.6094
     6.0000      0.0000   1095.5096      3.2810     52.5955
     6.2500      0.0000   1023.1354      5.3238     55.8212
     6.5000      0.0000    935.8741      8.0741     59.0738
     6.7500      0.0000    867.0079     10.8132     62.0004
     7.0000      0.0000    845.7487     12.6509     64.5596
     7.2500      0.0000    872.2796     13.1168     66.9347
     7.5000      0.0000    920.1388     12.3875     68.7235
     7.7500      0.0000    961.2062     11.0066     68.7019
     8.0000      0.0000    983.8562      9.4920     65.9141
     8.2500      0.0000    991.2949      8.1553     60.9045
     8.5000      0.0000    990.9930      7.1212     55.5540
     8.7500      0.0000    987.8878      6.4004     51.6025
     9.0000      0.0000    983.9245      5.9390     49.2768
     9.2500      0.0000    979.8719      5.6530     47.4083
     9.5000      0.0000    975.9360      5.4625     45.0299
     9.7500      0.0000    970.9131      5.3207     42.6941
    10.0000      0.0000    962.3291      5.2134     41.8237
    10.2500      0.0000    949.0663      5.1387     42.8094
    10.5000      0.0000    934.5274      5.0898     44.2893
    10.7500      0.0000    925.5255      5.0553     44.6388
    11.0000      0.0000    926.0680      5.0287     43.7765
    11.2500      0.0000    933.4333      5.0108     43.0465
    11.5000      0.0000    942.1525      5.0040     43.5555
    11.7500      0.0000    949.9998      5.0049     45.0046
    12.0000      0.0000    958.1176      5.0058     45.9755
    12.2500      0.0000    967.3613      5.0009     45.1711
    12.5000      0.0000    976.9784      4.9909     42.5706
    12.7500      0.0000    985.9240      4.9810     39.5320
    13.0000      0.0000    993.7421      4.9755     37.6751
    13.2500      0.0000   1000.1849      4.9737     37.5892
    13.5000      0.0000   1004.7175      4.9707     38.5409
    13.7500      0.0000   1006.6151      4.9605     39.2589
    14.0000      0.0000   1005.6686      4.9392     39.0651
    14.2500      0.0000   1002.6699      4.9071     38.4370
    14.5000      0.0000    999.0400      4.8700     38.4540
    14.7500      0.0000    995.9243      4.8349     39.6043
    15.0000      0.0000    993.3662      4.8038     41.2578
    15.2500      0.0000    990.0251      4.7708     42.5073
    15.5000      0.0000    983.7378      4.7290     43.3450
    15.7500      0.0000    972.9330      4.6813     44.6197
    16.0000      0.0000    958.5499      4.6410     46.9114
    16.2500      0.0000    945.1794      4.6202     49.8526
    16.5000      0.0000    939.0124      4.6165     52.6098
    16.7500      0.0000    942.7853      4.6149     54.7709
    17.0000      0.0000    952.9363      4.6022     56.5271
    17.2500      0.0000    962.5992      4.5784     57.9327
    17.5000      0.0000    966.5211      4.5527     58.3318
    17.7500      0.0000    963.0483      4.5307     57.0234
    18.0000      0.0000    954.1478      4.5082     54.4650
    18.2500      0.0000    945.3483      4.4788     52.3236
    18.5000      0.0000    943.3904      4.4472     52.1348
    18.7500      0.0000    950.9780      4.4318     54.0268
    19.0000      0.0000    964.3674      4.4538     56.8017
    19.2500      0.0000    977.6741      4.5195     59.1021
    19.5000      0.0000    988.4910      4.6118     60.4153
    19.7500      0.0000    998.2594      4.6998     61.1229
    20.0000      0.0000   1009.0399      4.7592     61.8930
    20.2500      0.0000   1021.6936      4.7869     63.0657
    20.5000      0.0000   1036.2445      4.7970     64.3833
    20.7500      0.0000   1052.4958      4.8045     65.1282
    21.0000      0.0000   1070.3215      4.8124     64.7080
    21.2500      0.0000   1089.3368      4.8101     63.2843
    21.5000      0.0000   1107.2300      4.7841     61.6521
    21.7500      0.0000   1119.0188      4.7314     60.5009
    22.0000      0.0000   1120.4810      4.6651     60.1265
    22.2500      0.0000   1113.4354      4.6067     60.7919
    22.5000      0.0000   1106.0612      4.5693     62.9299
    22.7500      0.0000   1106.0225      4.5458     66.9379
    23.0000      0.0000   1112.7748      4.5161     72.7746
    23.2500      0.0000   1117.3947      4.4680     79.5183
    23.5000      0.0000   1110.6318      4.4111     85.4455
    23.7500      0.0000   1091.8781      4.3697     88.9502
    24.0000      0.0000   1071.3242      4.3618     89.4575
    24.2500      0.0000   1062.9980      4.3847     87.4752
    24.5000      0.0000   1073.9930      4.4196     84.1073
    24.7500      0.0000   1099.3729      4.4514     80.5127
    25.0000      0.0000   1127.2594      4.4819     77.4239
    25.2500      0.0000   1148.2251      4.5260     75.0941
    25.5000      0.0000   1159.9066      4.5953     73.7436
    25.7500      0.0000   1164.8673      4.6896     73.6752
    26.0000      0.0000   1166.4919      4.8005     74.7678
    26.2500      0.0000   1166.9055      4.9194     76.3061
    26.5000      0.0000   1166.9847      5.0359     77.6364
