~Version Information
VERS.                      2.0: CWLS Log ASCII Standard - VERSION 2.0
WRAP.                       NO: One line per depth step
~Well Information Block
STRT.FT                -3.7500: 
STOP.FT               930.7500: 
STEP.FT                 0.2500: 
NULL.                -999.2500: 
COMP.          Pioneer Natural Resources: COMPANY
WELL.                Pug 33-19: WELL
FLD.           Purgatorie River: FIELD
LOC.           1381' FSL & 2140' FEL--: LOCATION
PROV.                       CO: PROVINCE
CNTY.               Las Animas: COUNTRY
SRVC.                         : SERVICE COMPANY
DATE.          Mon Dec 20 15:44:45 2004: LOG DATE
UWI.                          : UNIQUE WELL ID
~Curve Information Block
DEPT.FT            0 000 00 00: Depth
GR.GAPI                       : Gamma Ray
CCL.                          : Casing Collar Locator
TT3.usec                      : CBL 3' Travel Time
AMP3.mV                       : CBL 3' Amplitude
~Parameter Information Block
~A  Depth        GR         CCL         TT3         AMP3    
# ...
   163.7500     83.9907      0.0000    724.7432      9.8092
   164.0000     83.8016      0.0000    733.7990      9.6676
   164.2500     84.8960      0.0000    742.1477      9.5395
   164.5000     88.0746      0.0000    750.1506      9.4237
   164.7500     93.5310      0.0000    757.6449      9.3160
   165.0000     99.7175      0.0000    763.4972      9.2310
   165.2500    103.9877      0.0000    766.9668      9.1970
   165.5000    104.5758      0.0000    768.3962      9.2324
   165.7500    101.5599      0.0000    768.6628      9.3280
   166.0000     96.1782      0.0000    768.5118      9.4516
   166.2500     90.0294      0.0000    768.3597      9.5666
   166.5000     84.8466      0.0000    768.3560      9.6485
   166.7500     81.9923      0.0000    768.4766      9.6961
   167.0000     81.6124      0.0000    768.6259      9.7320
   167.2500     82.6912      0.0000    768.7387      9.7845
   167.5000     84.1818      0.0000    768.8568      9.8633
   167.7500     85.8705      0.0000    769.1232      9.9608
   168.0000     88.2041      0.0000    769.7573     10.0764
   168.2500     91.5312      0.0000    771.1004     10.2296
   168.5000     95.5928      0.0000    773.6335     10.4435
   168.7500     99.7185      0.0000    777.6749     10.7171
   169.0000    103.3316      0.0000    782.8273     11.0167
   169.2500    105.9458      0.0000    787.8794     11.2905
   169.5000    106.7839      0.0000    791.5553     11.4881
   169.7500    104.8992      0.0000    793.2831     11.5710
   170.0000    100.0106      0.0000    793.1714     11.5168
   170.2500     93.1700      0.0000    791.7227     11.3171
   170.5000     86.3482      0.0000    789.9355     10.9775
   170.7500     81.1492      0.0000    789.3331     10.5325
   171.0000     77.9531      0.0000    791.7831     10.0687
   171.2500     76.4236      0.0000    799.3756      9.7056
   171.5000     76.4516      0.0000    813.5247      9.5212
   171.7500     77.9258      0.0000    832.9665      9.4941
   172.0000     79.7193      0.0000    852.8560      9.5431
   172.2500     79.9395      0.0000    866.9863      9.6200
   172.5000     77.6283      0.0000    871.8964      9.7329
   172.7500     73.7404      0.0000    869.8028      9.8828
   173.0000     70.3683      0.0000    867.5916     10.0206
   173.2500     69.4788     -2.0000    871.2640     10.0843
   173.5000     72.2406      0.0000    880.0859     10.0616
   173.7500     78.5937      0.0000    886.5887     10.0174
   174.0000     86.9224      0.0000    882.6420     10.0788
   174.2500     94.5544      0.0000    865.6367     10.3859
   174.5000     99.2339      0.0000    839.9527     11.0112
   174.7500    100.4421      0.0000    813.5662     11.8889
   175.0000     99.2782      0.0000    792.9769     12.8403
   175.2500     97.1109      0.0000    780.2952     13.6862
   175.5000     94.6381      0.0000    773.9794     14.3180
   175.7500     92.2370      0.0000    771.3527     14.6737
   176.0000     90.5490      0.0000    770.3640     14.7259
   176.2500     90.2656      0.0000    769.9391     14.5234
   176.5000     91.5389      0.0000    769.6569     14.1921
   176.7500     93.6391      0.0000    769.4089     13.8549
   177.0000     94.9768      0.0000    769.2002     13.5574
   177.2500     93.8706      0.0000    769.0545     13.2772
   177.5000     89.9449      0.0000    768.9776     12.9903
   177.7500     84.6392      0.0000    768.9565     12.7133
   178.0000     79.8851      0.0000    768.9686     12.4826
   178.2500     76.4403      0.0000    768.9932     12.3054
   178.5000     73.8303      0.0000    769.0213     12.1441
   178.7500     71.5947      0.0000    769.0523     11.9510
   179.0000     70.0194      0.0000    769.0816     11.7130
   179.2500     69.5628      0.0000    769.1027     11.4589
   179.5000     69.9663      0.0000    769.1198     11.2212
   179.7500     70.2703      0.0000    769.1526     11.0002
   180.0000     69.6411      0.0000    769.2222     10.7684
   180.2500     68.0199      0.0000    769.3324     10.5080
   180.5000     66.1227      0.0000    769.4661     10.2392
   180.7500     64.9116      0.0000    769.5977     10.0143
   181.0000     64.9286      0.0000    769.7106      9.8835
   181.2500     65.9863      0.0000    769.8046      9.8569
   181.5000     67.4960      0.0000    769.8909      9.8989
   181.7500     69.0712      0.0000    769.9840      9.9644
   182.0000     70.7570      0.0000    770.0928     10.0356
   182.2500     72.6414      0.0000    770.2114     10.1201
   182.5000     74.2168      0.0000    770.3155     10.2181
   182.7500     74.2764      0.0000    770.3727     10.3075
   183.0000     71.7689      0.0000    770.3598     10.3593
   183.2500     66.9293      0.0000    770.2766     10.3649
   183.5000     61.4944      0.0000    770.1490     10.3442
   183.7500     57.6576      0.0000    770.0147     10.3302
   184.0000     56.7951      0.0000    769.8898     10.3389
   184.2500     59.0076      0.0000    769.7500     10.3510
   184.5000     63.4255      0.0000    769.5609     10.3282
   184.7500     68.7527      0.0000    769.3291     10.2484
   185.0000     73.8819      0.0000    769.1030     10.1237
   185.2500     78.2348      0.0000    768.9233      9.9838
   185.5000     81.5477      0.0000    768.7944      9.8535
   185.7500     83.4594      0.0000    768.6978      9.7444
   186.0000     83.3536      0.0000    768.6058      9.6559
   186.2500     80.5851      0.0000    768.4803      9.5791
   186.5000     75.2330      0.0000    768.2855      9.5014
   186.7500     68.9071      0.0000    768.0153      9.4131
   187.0000     64.3676      0.0000    767.6732      9.3123
   187.2500     63.7872      0.0000    767.1837      9.2056
   187.5000     67.2151      0.0000    766.2953      9.1062
   187.7500     72.7617      0.0000    764.6703      9.0324
   188.0000     78.2911      0.0000    762.3138      9.0014
   188.2500     82.9232      0.0000    760.0229      9.0172
   188.5000     86.9815      0.0000    759.0938      9.0647
   188.7500     90.7287      0.0000    760.2150      9.1184
   189.0000     93.4914      0.0000    762.7634      9.1551
   189.2500     94.0976      0.0000    765.4189      9.1591
   189.5000     92.0492      0.0000    767.2830      9.1244
   189.7500     88.3000      0.0000    768.2560      9.0585
   190.0000     84.8427      0.0000    768.6594      8.9827
   190.2500     83.1857      0.0000    768.8546      8.9234
   190.5000     83.1006      0.0000    769.1775      8.8954
   190.7500     83.0349      0.0000    769.9949      8.8908
   191.0000     81.6641      0.0000    771.6105      8.8846
   191.2500     78.8488      0.0000    773.9302      8.8543
   191.5000     75.4816      0.0000    776.1558      8.7923
   191.7500     72.9959      0.0000    777.1145      8.7042
   192.0000     72.7349      0.0000    776.2321      8.6038
   192.2500     75.0549      0.0000    774.1066      8.5107
   192.5000     78.9857      0.0000    771.9241      8.4419
   192.7500     83.1641      0.0000    770.4603      8.3996
   193.0000     86.9844      0.0000    769.7667      8.3713
   193.2500     90.4557      0.0000    769.5361      8.3463
   193.5000     93.3173      0.0000    769.4920      8.3337
   193.7500     95.0539      0.0000    769.5017      8.3610
   194.0000     95.7489      0.0000    769.5234      8.4553
   194.2500     96.1862      0.0000    769.5359      8.6235
   194.5000     96.9034      0.0000    769.5038      8.8462
   194.7500     97.6191      0.0000    769.3996      9.0894
   195.0000     97.9068      0.0000    769.2412      9.3207
   195.2500     98.1122      0.0000    769.0978      9.5179
   195.5000     99.2562      0.0000    769.0386      9.6702
   195.7500    102.1106      0.0000    769.0721      9.7777
   196.0000    106.5245      0.0000    769.1418      9.8475
   196.2500    111.3908      0.0000    769.1819      9.8864
   196.5000    114.9561      0.0000    769.1680      9.8975
   196.7500    115.5507      0.0000    769.1152      9.8888
   197.0000    112.8535      0.0000    769.0507      9.8817
