~Version Information
VERS.                      2.0: CWLS Log ASCII Standard - VERSION 2.0
WRAP.                       NO: One line per depth step
~Well Information Block
STRT.FT               520.0000: 
STOP.FT              1105.5000: 
STEP.FT                 0.1000: 
NULL.                -999.2500: 
COMP.          Pioneer Natural Resources: COMPANY
WELL.            Redland 23-24: WELL
FLD.           Purgatoire River: FIELD
LOC.           2356' FSL & 1880' FWL: LOCATION
PROV.                 Colorado: PROVINCE
CNTY.               Las Animas: COUNTRY
SRVC.                Patterson: SERVICE COMPANY
DATE.          Mon Mar 21 07:08:20 2005: LOG DATE
UWI.           05 071 08221 00: UNIQUE WELL ID
~Curve Information Block
DEPT.FT            0 000 00 00: Depth
DCAL.in                       : CDL Caliper
RHOB.g/cc                     : CDL Bulk Density
RHOC.g/cc                     : CDL Density Correction
DPOR.pu                       : CDL Density Porosity
GR.GAPI                       : Gamma Ray
NPOR.pu                       : Neutron Porosity
~Parameter Information Block
~A  Depth       DCAL        RHOB        RHOC        DPOR         GR         NPOR    
   520.0000      8.1615      2.3422     -0.4887     18.6565     75.3398     15.1838
   520.1000      8.1615      2.3568     -0.4478     17.7680     81.4741     15.4505
   520.2000      8.1615      2.3548     -0.4259     17.8894     86.0290     15.7452
   520.3000      8.1649      2.3317     -0.4409     19.2925     85.1823     16.1475
   520.4000      8.1649      2.3113     -0.4809     20.5265     83.8521     16.7364
   520.5000      8.1641      2.3140     -0.4850     20.3626     84.1671     17.1282
   520.6000      8.1641      2.3378     -0.4480     18.9208     81.6916     17.2825
   520.7000      8.1641      2.3688     -0.3927     17.0408     77.2376     17.0279
   520.8000      8.1649      2.3916     -0.3807     15.6593     79.1947     16.4121
   520.9000      8.1649      2.4029     -0.4749     14.9740     88.4600     15.8966
   521.0000      8.1653      2.4114     -0.4302     14.4619     98.6577     15.7205
   521.1000      8.1653      2.4113     -0.3810     14.4690    107.8043     15.8851
   521.2000      8.1653      2.3918     -0.4258     15.6467    115.0493     16.4497
   521.3000      8.1638      2.3697     -0.4634     16.9890    117.5798     17.4369
   521.4000      8.1638      2.3679     -0.4716     17.0993    117.6050     18.3949
   521.5000      8.1629      2.3858     -0.4288     16.0115    122.6825     18.8212
   521.6000      8.1629      2.4092     -0.4580     14.5954    133.2473     18.8023
   521.7000      8.1629      2.4172     -0.3847     14.1105    142.0771     18.5383
   521.8000      8.1639      2.3946     -0.3958     15.4780    148.2319     18.1591
   521.9000      8.1639      2.3601     -0.5026     17.5700    153.1095     18.0073
   522.0000      8.1619      2.3505     -0.4916     18.1540    153.6298     18.2325
   522.1000      8.1619      2.3703     -0.4245     16.9504    151.3978     18.8893
   522.2000      8.1619      2.3886     -0.4108     15.8440    152.5258     19.8057
   522.3000      8.1628      2.3809     -0.3785     16.3067    158.2230     20.5213
   522.4000      8.1628      2.3450     -0.3701     18.4833    161.6498     20.7524
   522.5000      8.1620      2.2910     -0.4160     21.7588    157.9871     20.4666
   522.6000      8.1620      2.2481     -0.5189     24.3562    151.0572     20.1803
   522.7000      8.1620      2.2353     -0.4935     25.1362    146.3975     20.2972
   522.8000      8.1649      2.2229     -0.4001     25.8844    143.5550     20.5260
   522.9000      8.1649      2.1865     -0.5372     28.0902    140.1284     20.6739
   523.0000      8.1633      2.1610     -0.5601     29.6346    140.3322     21.0166
   523.1000      8.1633      2.1832     -0.5798     28.2896    148.7531     21.6927
   523.2000      8.1633      2.2244     -0.4299     25.7924    161.8701     21.8863
   523.3000      8.1621      2.2325     -0.4636     25.3001    172.5959     21.0697
   523.4000      8.1621      2.2080     -0.4915     26.7852    177.0234     20.3656
   523.5000      8.1616      2.1838     -0.5627     28.2550    176.9398     20.5985
   523.6000      8.1616      2.1789     -0.5726     28.5513    174.6785     21.0259
   523.7000      8.1616      2.1970     -0.5303     27.4562    169.4031     21.2176
   523.8000      8.1622      2.2263     -0.4863     25.6808    162.1991     21.7412
   523.9000      8.1622      2.2452     -0.4945     24.5315    154.9090     22.5236
   524.0000      8.1606      2.2367     -0.4945     25.0477    149.9415     23.2551
   524.1000      8.1606      2.1997     -0.4426     27.2929    148.2509     23.4656
   524.2000      8.1606      2.1723     -0.6157     28.9496    145.2715     22.4164
   524.3000      8.1612      2.1984     -0.5169     27.3712    140.5685     21.0824
   524.4000      8.1612      2.2519     -0.4735     24.1250    139.4650     20.9759
   524.5000      8.1611      2.2767     -0.4201     22.6224    142.7249     21.7152
   524.6000      8.1611      2.2676     -0.5785     23.1785    148.7491     22.5237
   524.7000      8.1611      2.2545     -0.4985     23.9707    156.9545     23.4411
   524.8000      8.1629      2.2534     -0.5033     24.0388    162.1879     23.9118
   524.9000      8.1629      2.2624     -0.4831     23.4914    161.3860     23.4375
   525.0000      8.1632      2.2687     -0.4617     23.1102    159.2722     22.8340
   525.1000      8.1632      2.2644     -0.4192     23.3687    159.6131     22.2351
   525.2000      8.1632      2.2568     -0.4853     23.8319    162.2901     21.3817
   525.3000      8.1625      2.2464     -0.4387     24.4581    167.0552     21.0617
   525.4000      8.1625      2.2259     -0.5196     25.7014    171.9563     21.6795
   525.5000      8.1580      2.2075     -0.5026     26.8163    172.0502     22.2620
   525.6000      8.1580      2.2004     -0.5017     27.2482    168.2586     22.2216
   525.7000      8.1580      2.1963     -0.5313     27.4983    168.7867     22.3067
   525.8000      8.1620      2.1982     -0.4816     27.3840    173.9191     22.7320
   525.9000      8.1620      2.2204     -0.4864     26.0359    175.7580     22.7570
   526.0000      8.1590      2.2623     -0.4220     23.4987    172.3828     22.0730
   526.1000      8.1590      2.3019     -0.4114     21.0943    170.3652     21.3811
   526.2000      8.1590      2.3173     -0.4164     20.1649    174.2732     21.3729
   526.3000      8.1555      2.3078     -0.4221     20.7383    180.4055     21.9308
   526.4000      8.1555      2.2897     -0.4285     21.8372    181.3050     22.4596
   526.5000      8.1563      2.2685     -0.4738     23.1183    174.4692     22.3754
   526.6000      8.1563      2.2384     -0.4481     24.9459    164.7527     22.1566
   526.7000      8.1563      2.2090     -0.5078     26.7288    157.2657     22.4605
   526.8000      8.1552      2.2000     -0.4929     27.2724    155.8242     22.6888
   526.9000      8.1552      2.2027     -0.4733     27.1074    162.9850     22.2593
   527.0000      8.1526      2.1933     -0.4526     27.6812    173.3893     21.6982
   527.1000      8.1526      2.1693     -0.5080     29.1356    180.2402     21.8167
   527.2000      8.1526      2.1518     -0.5603     30.1964    180.9352     22.8213
   527.3000      8.1543      2.1545     -0.5132     30.0292    179.6147     23.6290
   527.4000      8.1543      2.1597     -0.4958     29.7145    181.7203     23.1160
   527.5000      8.1526      2.1505     -0.5565     30.2715    180.7117     21.8542
   527.6000      8.1526      2.1458     -0.5901     30.5581    176.2940     21.3437
   527.7000      8.1526      2.1681     -0.5377     29.2041    181.5527     21.9584
   527.8000      8.1513      2.2124     -0.5239     26.5220    192.1391     22.6249
   527.9000      8.1513      2.2509     -0.4385     24.1867    188.2975     22.6539
   528.0000      8.1503      2.2555     -0.4491     23.9086    168.6393     22.5793
   528.1000      8.1503      2.2388     -0.4926     24.9190    149.7884     22.6191
   528.2000      8.1503      2.2341     -0.4671     25.2058    143.4519     22.0193
   528.3000      8.1513      2.2442     -0.5055     24.5956    147.8316     20.7355
   528.4000      8.1513      2.2570     -0.4401     23.8164    153.3377     19.8814
   528.5000      8.1522      2.2709     -0.5006     22.9741    153.9591     19.7701
   528.6000      8.1522      2.2916     -0.4900     21.7231    151.9660     19.6690
   528.7000      8.1522      2.3050     -0.4027     20.9082    151.6659     19.3072
   528.8000      8.1519      2.2907     -0.4263     21.7755    151.5227     18.8861
   528.9000      8.1519      2.2663     -0.4876     23.2537    145.5807     18.8023
   529.0000      8.1524      2.2633     -0.5217     23.4347    134.7380     19.3895
   529.1000      8.1524      2.2870     -0.4997     21.9991    127.5770     19.8157
   529.2000      8.1524      2.3121     -0.4341     20.4798    126.7502     19.6119
   529.3000      8.1298      2.3026     -0.4448     21.0569    128.5621     19.7472
   529.4000      8.1298      2.2580     -0.4854     23.7546    131.2122     20.5814
   529.5000      8.1522      2.2157     -0.5441     26.3218    133.0126     21.4848
