~Version Information
VERS.                      2.0: CWLS Log ASCII Standard - VERSION 2.0
WRAP.                       NO: One line per depth step
~Well Information Block
STRT.FT               250.0000: 
STOP.FT              1687.7000: 
STEP.FT                 0.1000: 
NULL.                -999.2500: 
COMP.          Pioneer Natural Resources: COMPANY
WELL.          Moneypenny 31-36: WELL
FLD.           Purgatoire River: FIELD
LOC.           280' FNL & 1976' FEL: LOCATION
PROV.                 Colorado: PROVINCE
CNTY.               Las Animas: COUNTRY
SRVC.                Patterson: SERVICE COMPANY
DATE.          Fri Oct 01 13:54:40 2004: LOG DATE
UWI.           05 071 08183 00: UNIQUE WELL ID
~Curve Information Block
DEPT.FT            0 000 00 00: Depth
DCAL.in                       : CDL Caliper
RHOB.g/cc                     : CDL Bulk Density
RHOC.g/cc                     : CDL Density Correction
DPOR.pu                       : CDL Density Porosity
NPOR.pu                       : Neutron Porosity
GR.GAPI                       : Gamma Ray
~Parameter Information Block
~A  Depth       DCAL        RHOB        RHOC        DPOR        NPOR         GR     
# ...
  1565.2000      7.9466      2.5763      0.0661      4.4694     16.0582    125.3666
  1565.3000      7.9394      2.5838      0.0777      4.0122     15.3788    121.9928
  1565.4000      7.9394      2.5789      0.0289      4.3067     15.3753    125.0129
  1565.5000      7.9409      2.5691      0.0637      4.9044     16.2161    134.3763
  1565.6000      7.9409      2.5487      0.0617      6.1396     17.3564    143.8934
  1565.7000      7.9409      2.5150     -0.0092      8.1791     17.9609    146.0084
  1565.8000      7.9450      2.4904      0.0248      9.6752     18.0951    142.8411
  1565.9000      7.9450      2.4960      0.0452      9.3322     18.2033    138.6372
  1566.0000      7.9471      2.5290      0.0469      7.3339     18.3871    133.8208
  1566.1000      7.9471      2.5633      0.0739      5.2563     18.3331    130.4429
  1566.2000      7.9471      2.5769      0.0522      4.4315     17.6472    125.5629
  1566.3000      7.9500      2.5759      0.0933      4.4891     16.7900    119.8563
  1566.4000      7.9500      2.5740      0.0912      4.6079     16.4711    125.4521
  1566.5000      7.9589      2.5717      0.0985      4.7455     16.8622    142.0975
  1566.6000      7.9589      2.5644      0.0876      5.1875     17.3773    157.1136
  1566.7000      7.9589      2.5530      0.0743      5.8775     17.0935    168.6394
  1566.8000      7.9759      2.5454      0.0557      6.3404     16.2071    177.3307
  1566.9000      7.9759      2.5411      0.0811      6.6019     15.7600    178.8912
  1567.0000      7.9700      2.5297      0.0453      7.2888     16.0245    175.2361
  1567.1000      7.9700      2.5181      0.0126      7.9920     16.5901    167.6736
  1567.2000      7.9700      2.5176      0.0403      8.0269     16.9129    156.0819
  1567.3000      7.9148      2.5205      0.0403      7.8480     16.4089    149.8138
  1567.4000      7.9148      2.5292      0.0141      7.3198     15.2416    151.6382
  1567.5000      7.8604      2.5561      0.1035      5.6885     14.3447    149.2740
  1567.6000      7.8604      2.5911      0.1089      3.5709     14.4242    139.6875
  1567.7000      7.8604      2.6156      0.1115      2.0837     15.2866    130.5521
  1567.8000      7.8442      2.6268      0.1289      1.4091     16.0665    121.5165
  1567.9000      7.8442      2.6297      0.1483      1.2288     16.3266    111.1341
  1568.0000      7.8447      2.6286      0.1043      1.2992     16.0285    106.1795
  1568.1000      7.8447      2.6225      0.0873      1.6682     15.1375    110.3368
  1568.2000      7.8447      2.6065      0.0832      2.6336     14.3043    117.3980
  1568.3000      7.8476      2.5842      0.0512      3.9874     14.2935    121.9407
  1568.4000      7.8476      2.5640      0.0595      5.2129     14.9698    124.1202
  1568.5000      7.8504      2.5481      0.0532      6.1750     15.6349    125.0602
  1568.6000      7.8504      2.5368      0.0489      6.8585     15.6752    125.2390
  1568.7000      7.8504      2.5258      0.0511      7.5260     15.2366    120.7683
  1568.8000      7.8525      2.5115      0.0226      8.3954     15.0823    113.2038
  1568.9000      7.8525      2.5059      0.0015      8.7353     15.5045    113.0740
  1569.0000      7.8581      2.5188      0.0369      7.9527     15.8033    120.9376
  1569.1000      7.8581      2.5377      0.0951      6.8084     15.3961    128.0514
  1569.2000      7.8581      2.5505      0.0796      6.0316     14.6938    129.6781
  1569.3000      7.8599      2.5600      0.0773      5.4540     14.1028    129.2222
  1569.4000      7.8599      2.5640      0.0991      5.2102     13.5567    133.7018
  1569.5000      7.8459      2.5577      0.0958      5.5963     13.0751    140.6395
  1569.6000      7.8459      2.5481      0.0603      6.1739     12.7688    141.2502
  1569.7000      7.8459      2.5481      0.0420      6.1735     12.8065    132.3444
  1569.8000      7.8329      2.5649      0.0497      5.1573     13.1029    120.2084
  1569.9000      7.8329      2.5928      0.0851      3.4676     13.1290    116.6339
  1570.0000      7.8359      2.6162      0.0979      2.0459     12.8085    124.6362
  1570.1000      7.8359      2.6225      0.1346      1.6686     12.6015    133.6492
  1570.2000      7.8359      2.6102      0.0716      2.4108     12.5812    132.6483
  1570.3000      7.8408      2.5885      0.0735      3.7277     12.7113    120.7180
  1570.4000      7.8408      2.5621      0.0605      5.3299     12.9615    103.7744
  1570.5000      7.8414      2.5382      0.0166      6.7765     13.1117     93.2595
  1570.6000      7.8414      2.5306      0.0212      7.2351     13.1269     96.5894
  1570.7000      7.8414      2.5401      0.0320      6.6582     13.0708    105.1879
  1570.8000      7.8393      2.5530      0.0516      5.8759     13.2951    109.2276
  1570.9000      7.8393      2.5537      0.0216      5.8365     14.3603    110.2895
  1571.0000      7.8383      2.5368      0.0492      6.8577     15.8314    113.3784
  1571.1000      7.8383      2.5122      0.0241      8.3507     16.1966    122.0927
  1571.2000      7.8383      2.4952      0.0242      9.3806     15.4411    133.5019
  1571.3000      7.8410      2.4972      0.0185      9.2578     14.9073    142.0109
  1571.4000      7.8410      2.5176      0.0480      8.0232     15.0966    152.0779
  1571.5000      7.8445      2.5369      0.0917      6.8554     15.8659    164.6651
  1571.6000      7.8445      2.5371      0.0671      6.8437     16.7035    170.4430
  1571.7000      7.8445      2.5264      0.0868      7.4880     16.8769    167.2241
  1571.8000      7.8465      2.5257      0.0291      7.5311     16.2990    163.5430
  1571.9000      7.8465      2.5384      0.1201      6.7647     15.4105    165.9019
  1572.0000      7.8475      2.5501      0.1173      6.0568     14.6925    167.2905
  1572.1000      7.8475      2.5563      0.0688      5.6770     14.4103    161.9446
  1572.2000      7.8475      2.5638      0.0728      5.2217     14.4583    154.6826
  1572.3000      7.8467      2.5701      0.0919      4.8416     14.5136    146.6179
  1572.4000      7.8467      2.5688      0.0628      4.9220     14.3541    136.8656
  1572.5000      7.8428      2.5640      0.0662      5.2132     13.8882    124.0575
  1572.6000      7.8428      2.5616      0.0950      5.3580     13.4465    109.4527
  1572.7000      7.8428      2.5655      0.0592      5.1230     13.3914    103.1538
  1572.8000      7.8420      2.5821      0.0343      4.1125     13.2263    111.4159
  1572.9000      7.8420      2.6029      0.0824      2.8567     12.5639    125.7750
  1573.0000      7.8446      2.6018      0.0985      2.9195     12.0315    137.2898
  1573.1000      7.8446      2.5763      0.0339      4.4639     11.9063    141.4653
  1573.2000      7.8446      2.5560      0.0216      5.6996     11.7168    134.4070
  1573.3000      7.8448      2.5586      0.0290      5.5403     11.4033    121.0005
  1573.4000      7.8448      2.5697      0.0531      4.8687     11.3328    109.8586
  1573.5000      7.8440      2.5677      0.0560      4.9853     11.4986    104.3089
  1573.6000      7.8440      2.5555      0.0216      5.7290     11.6713    103.3443
  1573.7000      7.8440      2.5483      0.0278      6.1651     11.7831    107.3733
  1573.8000      7.8426      2.5439      0.0209      6.4304     11.8214    115.5290
  1573.9000      7.8426      2.5325      0.0290      7.1209     11.8967    123.4909
  1574.0000      7.8400      2.5178      0.0155      8.0151     12.1100    124.9672
  1574.1000      7.8400      2.5070      0.0137      8.6693     12.4198    117.2237
  1574.2000      7.8400      2.5023      0.0055      8.9538     12.7574    108.3968
  1574.3000      7.8393      2.5091      0.0187      8.5365     13.1147    109.0210
  1574.4000      7.8393      2.5284      0.0351      7.3711     13.4600    118.0000
  1574.5000      7.8422      2.5447      0.0527      6.3790     13.7735    127.7926
  1574.6000      7.8422      2.5480      0.0590      6.1799     14.2642    131.0358
  1574.7000      7.8422      2.5511      0.0197      5.9915     14.9634    126.3829
