~Version Information
 VERS.                                  2.0 : CWLS LAS VERSION
 WRAP.                                   NO : WRAPING MODE
 SWARE .                 MController 2.5.0J : SOFTWARE VERSION
~Well Information
 WELL.                      Bucksnort 41-35 : WELL
 COMP.   Pioneer Natural Resources USA Inc. : COMPANY
 FLD.                      Purgatoire River : FIELD
 LOC.                NE/NE Sec 35 T32S R66W : LOCATION
 DATE.                              7/22/05 : DATE(S) LOGGED
 SRVC.       BLANCO Geological Services LLC : SERVICE COMPANY
 STAT.                             Colorado : STATE
 CNTY.                           Las Animas : COUNTY
 CTRY.                               U.S.A. : COUNTRY
 API.                                   N/A : API NUMBER
 STRT.FT                             581.00 : START DEPTH
 STOP.FT                            2010.00 : STOP DEPTH
 STEP.FT                               1.00 : DEPTH INCREMENT
 NULL.                                -9999 : NULL VALUE
~Curve information
 DEPTH.FT                                   :
 ROP.MIN/FT                                 :
 GAS.UNITS                                  :
~ASCII Log data
# ...
       981.0         1.07          2.6 
       982.0         0.58          2.1 
       983.0         0.77          2.8 
       984.0         0.67          2.2 
       985.0         0.70          3.0 
       986.0         0.40          2.3 
       987.0         0.20          2.1 
       988.0         0.32          2.0 
       989.0         0.33          1.7 
       990.0         0.50          2.7 
       991.0         5.87          3.5 
       992.0         0.33          2.8 
       993.0         0.60          2.4 
       994.0         0.63          1.5 
       995.0         0.50          1.8 
       996.0         0.20          0.7 
       997.0         0.13          0.0 
       998.0         0.13          0.6 
       999.0         0.17          0.7 
      1000.0         0.17          0.9 
      1001.0         0.13          0.9 
      1002.0         0.17          1.5 
      1003.0         0.18          2.5 
      1004.0         0.23          3.1 
      1005.0         0.17          2.7 
      1006.0         0.13          2.9 
      1007.0         0.23          2.8 
      1008.0         0.20          1.0 
      1009.0         0.20          1.0 
      1010.0         0.20          0.7 
      1011.0         0.23          0.8 
      1012.0         0.37          0.6 
      1013.0         0.30          0.2 
      1014.0         0.37         -0.3 
      1015.0         0.33          0.3 
      1016.0         0.23         -0.7 
      1017.0         0.28         -0.3 
      1018.0         0.23         -0.5 
      1019.0         0.20          0.1 
      1020.0         0.20          0.2 
      1021.0         5.08          2.7 
      1022.0         0.20          2.2 
      1023.0         1.18          2.7 
      1024.0         0.83          1.8 
      1025.0         0.23          1.7 
      1026.0         0.93          1.9 
      1027.0         0.17          1.5 
      1028.0         0.13          2.4 
      1029.0         0.17          1.9 
      1030.0         0.20          1.7 
      1031.0         0.28          2.0 
      1032.0         0.13          2.5 
      1033.0         0.20          3.2 
      1034.0         0.17          4.9 
      1035.0         0.23          6.7 
      1036.0         0.20          8.5 
      1037.0         0.20         11.5 
      1038.0         0.17         13.7 
      1039.0         0.20         16.2 
      1040.0         0.13         16.1 
      1041.0         0.17         15.1 
      1042.0         0.20         11.3 
      1043.0         0.37          7.5 
      1044.0         0.23          3.5 
      1045.0         0.27          2.4 
      1046.0         0.28          2.3 
      1047.0         0.47          1.2 
      1048.0         0.30          1.7 
      1049.0         0.23          1.6 
      1050.0         0.33          1.2 
      1051.0         5.37         15.3 
      1052.0         0.57         19.6 
      1053.0         0.43         17.3 
      1054.0         0.40          8.9 
      1055.0         0.27          5.9 
      1056.0         0.43          4.5 
      1057.0         0.50          1.4 
      1058.0         0.23          1.0 
      1059.0         0.27          0.6 
      1060.0         0.28          1.2 
      1061.0         0.53          2.6 
      1062.0         0.40          3.4 
      1063.0         0.60          2.6 
      1064.0         0.60          0.7 
      1065.0         0.37          1.1 
      1066.0         0.33          0.9 
      1067.0         0.20          0.1 
      1068.0         0.32          2.5 
      1069.0         0.23          2.4 
      1070.0         0.17          2.7 
      1071.0         0.20          3.0 
      1072.0         0.17          2.1 
      1073.0         0.23          2.1 
      1074.0         0.23          2.0 
      1075.0         0.27          2.2 
      1076.0         0.27          1.6 
      1077.0         0.33          1.4 
      1078.0         0.23          1.7 
      1079.0         0.23          1.6 
      1080.0         0.23          1.9 
      1081.0         4.70         23.3 
      1082.0         0.30         25.0 
      1083.0         0.43         25.8 
      1084.0         0.53         18.1 
      1085.0         1.00          5.1 
      1086.0         0.65          1.1 
      1087.0         0.20          0.9 
      1088.0         0.17          0.9 
      1089.0         0.17          0.8 
      1090.0         0.20          1.2 
      1091.0         0.20          1.3 
      1092.0         0.20          1.4 
      1093.0         0.20          1.1 
      1094.0         0.13          0.9 
      1095.0         0.10          1.0 
      1096.0         0.07          0.7 
      1097.0         0.10          0.9 
      1098.0         0.10          0.4 
      1099.0         0.10          0.8 
      1100.0         0.20          1.0 
      1101.0         0.20          1.6 
      1102.0         0.13          4.5 
      1103.0         0.10          7.5 
      1104.0         0.17         16.2 
      1105.0         0.32         30.5 
      1106.0         0.20         31.5 
      1107.0         0.20         29.6 
      1108.0         0.20         22.7 
      1109.0         0.20         16.6 
      1110.0         0.20         10.3 
      1111.0         5.22         13.6 
      1112.0         0.42         17.8 
      1113.0         0.30         17.0 
      1114.0         0.27         12.5 
      1115.0         0.30          6.8 
      1116.0         0.33          2.7 
      1117.0         0.30          1.3 
      1118.0         0.20          0.5 
      1119.0         0.17          0.1 
      1120.0         0.13          0.1 
      1121.0         0.10          2.0 
      1122.0         0.10          1.9 
      1123.0         0.10          1.8 
      1124.0         0.13          1.5 
      1125.0         0.10          1.8 
      1126.0         0.13          1.8 
      1127.0         0.20          3.4 
      1128.0         0.13          5.3 
      1129.0         0.10          7.9 
      1130.0         0.12         14.5 
      1131.0         0.10         18.9 
      1132.0         0.07         21.4 
      1133.0         0.30         32.0 
      1134.0         0.33         32.8 
      1135.0         0.33         50.5 
      1136.0         0.30         79.9 
      1137.0         0.30         93.5 
      1138.0         0.33         95.3 
      1139.0         0.30         95.2 
      1140.0         0.23         94.8 
      1141.0         6.00       1639.5 
      1142.0         0.70       1406.9 
      1143.0         0.60        440.0 
      1144.0         0.52         30.0 
      1145.0         0.57          7.5 
      1146.0         0.60          4.7 
      1147.0         0.60          9.6 
      1148.0         0.47         16.2 
      1149.0         0.57         27.4 
      1150.0         0.52         35.1 
      1151.0         0.57         39.2 
      1152.0         0.53         44.7 
      1153.0         0.50         45.3 
      1154.0         0.60         44.7 
      1155.0         0.70         46.6 
      1156.0         0.75         52.6 
      1157.0         0.47         57.1 
      1158.0         0.27         59.3 
      1159.0         0.23         60.6 
      1160.0         0.30         61.9 
      1161.0         0.23         62.7 
      1162.0         0.20         62.7 
      1163.0         0.20         62.1 
      1164.0         0.30         60.6 
      1165.0         0.27         57.9 
      1166.0         0.25         55.5 
      1167.0         0.27         52.5 
      1168.0         0.23         50.0 
      1169.0         0.17         47.5 
      1170.0         0.20         47.0 
      1171.0         4.35        333.0 
      1172.0         0.10        343.4 
      1173.0         0.23        375.6 
      1174.0         0.27        428.1 
      1175.0         0.98        977.7 
      1176.0         0.73        548.1 
      1177.0         0.50         57.3 
      1178.0         0.47         13.4 
      1179.0         0.70         11.9 
      1180.0         0.53         24.2 
