~Version Information
VERS.                      2.0: CWLS Log ASCII Standard - VERSION 2.0
WRAP.                       NO: One line per depth step
~Well Information Block
STRT.FT               260.0000: 
STOP.FT              2611.5000: 
STEP.FT                 0.2500: 
NULL.                -999.2500: 
COMP.          Pioneer Natural Resources: COMPANY
WELL.           Costello 44-24: WELL
FLD.           Purgatoire River: FIELD
LOC.           327' FSL & 378' FEL: LOCATION
PROV.                 Colorado: PROVINCE
CNTY.               Las Animas: COUNTRY
SRVC.                Patterson: SERVICE COMPANY
DATE.          Mon Jul 11 00:49:32 2005: LOG DATE
UWI.           05 071 08413 00: UNIQUE WELL ID
~Curve Information Block
DEPT.FT            0 000 00 00: Depth
SN.Ohm-m                      : IEL Short Normal
SP.mV                         : IEL Spontaneous Potential
DIR.Ohm-m                     : IEL Induction Resistivity
GR.GAPI                       : Gamma Ray
~Parameter Information Block
~A  Depth        SN          SP         DIR          GR     
# ...
  2270.0000   2000.0000    200.0000     26.9494     76.3742
  2270.2500   2000.0000    200.0000     27.0040     76.8029
  2270.5000   2000.0000    200.0000     27.1465     77.7241
  2270.7500   2000.0000    200.0000     27.3463     77.9787
  2271.0000   2000.0000    200.0000     27.5514     77.3330
  2271.2500   2000.0000    200.0000     27.6992     76.3246
  2271.5000   2000.0000    200.0000     27.7336     74.3323
  2271.7500   2000.0000    200.0000     27.6308     72.8511
  2272.0000   2000.0000    200.0000     27.4175     70.7585
  2272.2500   2000.0000    200.0000     27.1654     69.7471
  2272.5000   2000.0000    200.0000     26.9603     69.1049
  2272.7500   2000.0000    200.0000     26.8651     69.1886
  2273.0000   2000.0000    200.0000     26.8998     69.8083
  2273.2500   2000.0000    200.0000     27.0468     70.4462
  2273.5000   2000.0000    200.0000     27.2750     71.5951
  2273.7500   2000.0000    200.0000     27.5646     72.4202
  2274.0000   2000.0000    200.0000     27.9163     73.7207
  2274.2500   2000.0000    200.0000     28.3370     74.5383
  2274.5000   2000.0000    200.0000     28.8154     75.2553
  2274.7500   2000.0000    200.0000     29.3089     75.2485
  2275.0000   2000.0000    200.0000     29.7564     74.9177
  2275.2500   2000.0000    200.0000     30.1144     74.8515
  2275.5000   2000.0000    200.0000     30.3860     75.0111
  2275.7500   2000.0000    200.0000     30.6204     74.9153
  2276.0000   2000.0000    200.0000     30.8819     73.9054
  2276.2500   2000.0000    200.0000     31.2194     72.7219
  2276.5000   2000.0000    200.0000     31.6519     70.8544
  2276.7500   2000.0000    200.0000     32.1672     69.8885
  2277.0000   2000.0000    200.0000     32.7186     68.7144
  2277.2500   2000.0000    200.0000     33.2238     67.6290
  2277.5000   2000.0000    200.0000     33.5846     64.8137
  2277.7500   2000.0000    200.0000     33.7411     62.2340
  2278.0000   2000.0000    200.0000     33.7209     58.4500
  2278.2500   2000.0000    200.0000     33.6306     56.8788
  2278.5000   2000.0000    200.0000     33.5878     57.1014
  2278.7500   2000.0000    200.0000     33.6537     59.1661
  2279.0000   2000.0000    200.0000     33.8160     64.6563
  2279.2500   2000.0000    200.0000     34.0269     69.4246
  2279.5000   2000.0000    200.0000     34.2605     77.5700
  2279.7500   2000.0000    200.0000     34.5388     83.2824
  2280.0000   2000.0000    200.0000     34.9038     91.0447
  2280.2500   2000.0000    200.0000     35.3595     94.6775
  2280.5000   2000.0000    200.0000     35.8373     96.6443
  2280.7500   2000.0000    200.0000     36.2210     95.6806
  2281.0000   2000.0000    200.0000     36.4164     91.6523
  2281.2500   2000.0000    200.0000     36.4077     87.5833
  2281.5000   2000.0000    200.0000     36.2506     79.5342
  2281.7500   2000.0000    200.0000     36.0211     73.1415
  2282.0000   2000.0000    200.0000     35.7754     63.4667
  2282.2500   2000.0000    200.0000     35.5454     58.1363
  2282.5000   2000.0000    200.0000     35.3496     53.4009
  2282.7500   2000.0000    200.0000     35.1920     52.7447
  2283.0000   2000.0000    200.0000     35.0583     55.0472
  2283.2500   2000.0000    200.0000     34.9249     58.1907
  2283.5000   2000.0000    200.0000     34.7713     64.6633
  2283.7500   2000.0000    200.0000     34.5676     70.2299
  2284.0000   2000.0000    200.0000     34.2369     80.8559
  2284.2500   2000.0000    200.0000     33.6437     89.2268
  2284.5000   2000.0000    200.0000     32.6452    101.9314
  2284.7500   2000.0000    200.0000     31.1842    108.9431
  2285.0000   2000.0000    200.0000     29.3403    114.9183
  2285.2500   2000.0000    200.0000     27.2946    115.2638
  2285.5000   2000.0000    200.0000     25.2468    111.1821
  2285.7500   2000.0000    200.0000     23.3510    107.0436
  2286.0000   2000.0000    200.0000     21.6946    102.4319
  2286.2500   2000.0000    200.0000     20.3095    101.9139
  2286.5000   2000.0000    200.0000     19.1911    104.6844
  2286.7500   2000.0000    200.0000     18.3114    107.4056
  2287.0000   2000.0000    200.0000     17.6256    110.3062
  2287.2500   2000.0000    200.0000     17.0776    110.9572
  2287.5000   2000.0000    200.0000     16.6086    110.7326
  2287.7500   2000.0000    200.0000     16.1703    110.6239
  2288.0000   2000.0000    200.0000     15.7331    111.8197
  2288.2500   2000.0000    200.0000     15.2867    113.7132
  2288.5000   2000.0000    200.0000     14.8341    116.9775
  2288.7500   2000.0000    200.0000     14.3851    118.2193
  2289.0000   2000.0000    200.0000     13.9527    117.5386
  2289.2500   2000.0000    200.0000     13.5501    115.8129
  2289.5000   2000.0000    200.0000     13.1878    113.1609
  2289.7500   2000.0000    200.0000     12.8710    112.3295
  2290.0000   2000.0000    200.0000     12.6003    113.4054
  2290.2500   2000.0000    200.0000     12.3749    115.8037
  2290.5000   2000.0000    200.0000     12.1941    121.5370
  2290.7500   2000.0000    200.0000     12.0568    126.1713
  2291.0000   2000.0000    200.0000     11.9587    132.8954
  2291.2500   2000.0000    200.0000     11.8923    136.5610
  2291.5000   2000.0000    200.0000     11.8489    140.5147
  2291.7500   2000.0000    200.0000     11.8222    142.1910
  2292.0000   2000.0000    200.0000     11.8117    143.2200
  2292.2500   2000.0000    200.0000     11.8233    142.9763
  2292.5000   2000.0000    200.0000     11.8678    142.1006
  2292.7500   2000.0000    200.0000     11.9575    141.9517
  2293.0000   2000.0000    200.0000     12.1025    143.0683
  2293.2500   2000.0000    200.0000     12.3093    144.2808
  2293.5000   2000.0000    200.0000     12.5810    144.3762
  2293.7500   2000.0000    200.0000     12.9181    141.3616
  2294.0000   2000.0000    200.0000     13.3192    130.5552
  2294.2500   2000.0000    200.0000     13.7790    120.4113
  2294.5000   2000.0000    200.0000     14.2887    105.8797
  2294.7500   2000.0000    200.0000     14.8379     99.3010
  2295.0000   2000.0000    200.0000     15.4224     95.2203
  2295.2500   2000.0000    200.0000     16.0509     95.2089
  2295.5000   2000.0000    200.0000     16.7458     96.3256
  2295.7500   2000.0000    200.0000     17.5300     96.3597
  2296.0000   2000.0000    200.0000     18.4050     93.8049
  2296.2500   2000.0000    200.0000     19.3293     90.3185
  2296.5000   2000.0000    200.0000     20.2148     83.9904
  2296.7500   2000.0000    200.0000     20.9542     80.3740
  2297.0000   2000.0000    200.0000     21.4708     77.2488
  2297.2500   2000.0000    200.0000     21.7530     76.6439
  2297.5000   2000.0000    200.0000     21.8484     77.0337
  2297.7500   2000.0000    200.0000     21.8308     77.6663
  2298.0000   2000.0000    200.0000     21.7695     78.9354
  2298.2500   2000.0000    200.0000     21.7162     80.1303
  2298.5000   2000.0000    200.0000     21.7040     82.5968
  2298.7500   2000.0000    200.0000     21.7511     84.5750
  2299.0000   2000.0000    200.0000     21.8608     87.7624
  2299.2500   2000.0000    200.0000     22.0172     89.9259
  2299.5000   2000.0000    200.0000     22.1808     92.8039
  2299.7500   2000.0000    200.0000     22.2960     93.9475
  2300.0000   2000.0000    200.0000     22.3118     93.6345
  2300.2500   2000.0000    200.0000     22.2099     92.0869
  2300.5000   2000.0000    200.0000     22.0161     88.9607
  2300.7500   2000.0000    200.0000     21.7917     87.2082
  2301.0000   2000.0000    200.0000     21.6078     85.4182
  2301.2500   2000.0000    200.0000     21.5205     84.1625
  2301.5000   2000.0000    200.0000     21.5541     81.1395
  2301.7500   2000.0000    200.0000     21.6999     78.5639
  2302.0000   2000.0000    200.0000     21.9246     75.3044
  2302.2500   2000.0000    200.0000     22.1832     74.1985
  2302.5000   2000.0000    200.0000     22.4292     74.1043
  2302.7500   2000.0000    200.0000     22.6247     74.5997
  2303.0000   2000.0000    200.0000     22.7484     75.3063
  2303.2500   2000.0000    200.0000     22.7990     75.4140
