~Version Information
VERS.                      2.0: CWLS Log ASCII Standard - VERSION 2.0
WRAP.                       NO: One line per depth step
~Well Information Block
STRT.FT               350.0000: 
STOP.FT              2264.0000: 
STEP.FT                 0.1000: 
NULL.                -999.2500: 
COMP.          Pioneer Natural Resources: COMPANY
WELL.             Warrior 32-1: WELL
FLD.           Purgatoire River: FIELD
LOC.           2624' FNL & 2392' FEL: LOCATION
PROV.                 Colorado: PROVINCE
CNTY.               Las Animas: COUNTRY
SRVC.                Patterson: SERVICE COMPANY
DATE.          Tue Oct 05 06:54:20 2004: LOG DATE
UWI.           05 071 08176 00: UNIQUE WELL ID
~Curve Information Block
DEPT.FT            0 000 00 00: Depth
DCAL.in                       : CDL Caliper
RHOB.g/cc                     : CDL Bulk Density
RHOC.g/cc                     : CDL Density Correction
DPOR.pu                       : CDL Density Porosity
NPOR.pu                       : Neutron Porosity
GR.GAPI                       : Gamma Ray
~Parameter Information Block
~A  Depth       DCAL        RHOB        RHOC        DPOR        NPOR         GR     
# ...
  1607.6000      7.9502      2.5491      0.0907      6.1129     26.1555    113.0937
  1607.7000      7.9502      2.5374      0.0725      6.8267     26.2652    117.4054
  1607.8000      7.9499      2.5187      0.0403      7.9589     25.7917    120.7523
  1607.9000      7.9499      2.5090      0.0610      8.5464     24.9288    119.6038
  1608.0000      7.9497      2.5088      0.0553      8.5547     24.3198    118.3623
  1608.1000      7.9497      2.5155      0.0547      8.1514     23.9271    118.8181
  1608.2000      7.9497      2.5295      0.0629      7.3001     23.3021    118.5461
  1608.3000      7.9500      2.5425      0.0656      6.5150     22.5517    114.2240
  1608.4000      7.9500      2.5495      0.0467      6.0926     22.0072    105.5255
  1608.5000      7.9514      2.5594      0.0739      5.4917     21.7839     97.7082
  1608.6000      7.9514      2.5740      0.0807      4.6063     21.7395     96.5271
  1608.7000      7.9514      2.5830      0.0433      4.0596     21.5461     97.7919
  1608.8000      7.9530      2.5821      0.0799      4.1126     21.2323     94.5673
  1608.9000      7.9530      2.5745      0.0799      4.5727     21.0893     87.9330
  1609.0000      7.9524      2.5712      0.0240      4.7764     21.2855     81.3745
  1609.1000      7.9524      2.5830      0.0331      4.0598     21.7999     77.5509
  1609.2000      7.9524      2.5990      0.0915      3.0887     22.3481     75.7088
  1609.3000      7.9517      2.6058      0.0314      2.6802     22.4768     74.6336
  1609.4000      7.9517      2.6048      0.0572      2.7415     22.2204     76.9562
  1609.5000      7.9527      2.5930      0.0462      3.4538     21.9573     83.1506
  1609.6000      7.9527      2.5710      0.0063      4.7893     21.6426     86.7886
  1609.7000      7.9527      2.5479      0.0434      6.1877     21.1496     84.3551
  1609.8000      7.9536      2.5371     -0.0002      6.8434     20.6244     80.4394
  1609.9000      7.9536      2.5552      0.0390      5.7441     20.1459     77.9114
  1610.0000      7.9537      2.5957      0.0849      3.2885     19.6464     75.6436
  1610.1000      7.9537      2.6311      0.1040      1.1478     19.2042     72.7535
  1610.2000      7.9537      2.6480      0.0810      0.1226     19.0504     70.6688
  1610.3000      7.9548      2.6503      0.0830     -0.0209     19.2155     71.2519
  1610.4000      7.9548      2.6394      0.0987      0.6397     19.5778     75.8713
  1610.5000      7.9556      2.6232      0.0439      1.6247     20.1680     81.9345
  1610.6000      7.9556      2.6168      0.0959      2.0109     20.7413     85.0156
  1610.7000      7.9556      2.6209      0.0848      1.7620     21.0028     83.8153
  1610.8000      7.9536      2.6278      0.0527      1.3430     21.1922     81.8334
  1610.9000      7.9536      2.6281      0.1025      1.3265     21.4767     84.6270
  1611.0000      7.9514      2.6151      0.0667      2.1124     22.0338     90.0002
  1611.1000      7.9514      2.5921      0.0754      3.5086     22.7483     89.4138
  1611.2000      7.9514      2.5677      0.0345      4.9899     22.9257     84.1206
  1611.3000      7.9519      2.5568      0.0386      5.6498     22.6647     82.2839
  1611.4000      7.9519      2.5627      0.0530      5.2880     22.6404     85.1771
  1611.5000      7.9525      2.5707      0.1070      4.8076     22.7401     89.5926
  1611.6000      7.9525      2.5786      0.0541      4.3268     22.5548     91.6877
  1611.7000      7.9525      2.5966      0.1055      3.2368     22.2423     90.5293
  1611.8000      7.9517      2.6119      0.1358      2.3105     21.8337     90.6907
  1611.9000      7.9517      2.6090      0.1036      2.4834     21.2429     94.8989
  1612.0000      7.9511      2.5992      0.0448      3.0798     20.9001    101.0269
  1612.1000      7.9511      2.5991      0.0617      3.0873     21.0667    106.0599
  1612.2000      7.9511      2.6111      0.0925      2.3597     21.2565    105.8028
  1612.3000      7.9530      2.6385      0.0777      0.6979     21.1099     98.0891
  1612.4000      7.9530      2.6859      0.0742     -2.1755     21.1199     88.8329
  1612.5000      7.9595      2.7381      0.1417     -5.3378     21.5047     84.8018
  1612.6000      7.9595      2.7772      0.0960     -7.7073     21.7399     84.9095
  1612.7000      7.9595      2.8006      0.1364     -9.1292     21.5525     84.9562
  1612.8000      7.9701      2.7989      0.1584     -9.0256     21.3914     84.7172
  1612.9000      7.9701      2.7659      0.0827     -7.0260     21.8186     85.1782
  1613.0000      7.9843      2.7260      0.0554     -4.6055     22.5507     84.4476
  1613.1000      7.9843      2.7059      0.0431     -3.3876     22.8775     80.0635
  1613.2000      7.9843      2.7044      0.0087     -3.2947     22.3240     75.2120
  1613.3000      7.9999      2.7062      0.0099     -3.4039     21.1637     76.1545
  1613.4000      7.9999      2.6931      0.0184     -2.6095     20.1116     79.9611
  1613.5000      8.0112      2.6549     -0.0503     -0.2984     19.3377     76.4815
  1613.6000      8.0112      2.6116     -0.0577      2.3278     18.6378     63.9314
  1613.7000      8.0112      2.5988     -0.0310      3.1035     18.1938     53.7479
  1613.8000      8.0153      2.6229      0.0567      1.6453     18.3010     52.8700
  1613.9000      8.0153      2.6498      0.0936      0.0122     18.7746     56.6998
  1614.0000      8.0033      2.6559      0.0733     -0.3562     19.2947     61.5634
  1614.1000      8.0033      2.6479      0.0491      0.1276     19.6634     68.4423
  1614.2000      8.0033      2.6384      0.0256      0.7043     19.6942     77.0490
  1614.3000      7.9783      2.6322      0.0561      1.0771     19.4349     83.9256
  1614.4000      7.9783      2.6204      0.0693      1.7917     19.2422     84.0274
  1614.5000      7.9522      2.6008      0.0122      2.9834     19.4847     77.4001
  1614.6000      7.9522      2.5955      0.0334      3.3059     20.3172     72.1890
  1614.7000      7.9522      2.6114      0.0756      2.3404     21.4195     75.2788
  1614.8000      7.9340      2.6274      0.0701      1.3706     22.0097     83.1806
  1614.9000      7.9340      2.6307      0.0747      1.1698     22.0572     87.3281
  1615.0000      7.9238      2.6210      0.0776      1.7568     22.0919     84.3869
  1615.1000      7.9238      2.5991      0.0806      3.0826     21.8442     79.0136
  1615.2000      7.9238      2.5705      0.0610      4.8186     21.2581     77.2423
  1615.3000      7.9179      2.5448      0.0172      6.3780     20.8411     76.3891
  1615.4000      7.9179      2.5309     -0.0241      7.2211     20.4773     72.2557
  1615.5000      7.9133      2.5282      0.0256      7.3812     19.9353     66.5284
  1615.6000      7.9133      2.5251      0.0476      7.5688     19.4860     62.4714
  1615.7000      7.9133      2.5198      0.0512      7.8939     19.3529     62.8547
  1615.8000      7.9039      2.5182      0.0620      7.9885     19.2285     66.6981
  1615.9000      7.9039      2.5168      0.0519      8.0747     18.8266     67.4852
  1616.0000      7.8904      2.5151      0.0189      8.1730     18.4739     62.3076
  1616.1000      7.8904      2.5231      0.0289      7.6908     18.4852     55.0176
  1616.2000      7.8904      2.5312      0.0834      7.2020     18.5104     50.8765
  1616.3000      7.8762      2.5209      0.0658      7.8223     18.3192     51.1849
  1616.4000      7.8762      2.5002      0.0490      9.0774     18.1893     53.9539
  1616.5000      7.8633      2.4900      0.0401      9.6998     18.1873     55.5824
  1616.6000      7.8633      2.4964      0.0578      9.3080     17.9665     54.1848
  1616.7000      7.8633      2.5039      0.0506      8.8524     17.4228     51.9340
  1616.8000      7.8530      2.4968      0.0614      9.2847     16.9303     51.5563
  1616.9000      7.8530      2.4890      0.0175      9.7576     16.5539     53.0727
  1617.0000      7.8488      2.4977      0.0769      9.2287     16.1713     52.9917
  1617.1000      7.8488      2.5116      0.0657      8.3902     15.8686     49.3649
