~Version Information
VERS.                      2.0: CWLS Log ASCII Standard - VERSION 2.0
WRAP.                       NO: One line per depth step
~Well Information Block
STRT.FT               240.0000: 
STOP.FT              1453.0000: 
STEP.FT                 0.2500: 
NULL.                -999.2500: 
COMP.          Petrogulf Corporation: COMPANY
WELL.          Robinson 15-12R: WELL
FLD.           Purgatorie River: FIELD
LOC.           1752' FNL & 561' FWL: LOCATION
PROV.                 Colorado: PROVINCE
CNTY.               Las Animas: COUNTRY
SRVC.                Patterson: SERVICE COMPANY
DATE.          Tue Sep 13 15:11:42 2005: LOG DATE
UWI.                          : UNIQUE WELL ID
~Curve Information Block
DEPT.FT            0 000 00 00: Depth
SP.mV                         : DIL Spontaneous Potential
RILD.Ohm-m                    : DIL Deep Resistivity
RILM.Ohm-m                    : DIL Medium Resistivity
RLL3.Ohm-m                    : DIL Shallow Resistivity
GR.GAPI                       : Gamma Ray
~Parameter Information Block
~A  Depth        SP         RILD        RILM        RLL3         GR     
# ...
  1108.0000    195.9984     15.0633     19.0250     20.4675    146.3148
  1108.2500    196.2078     15.2521     19.2503     19.1106    136.4870
  1108.5000    196.4143     15.1143     19.8697     18.9108    128.1370
  1108.7500    196.3256     15.3571     20.8214     18.8747    119.9597
  1109.0000    195.7087     15.0473     20.9442     22.3550    120.6743
  1109.2500    195.3681     14.2896     19.6554     26.6998    120.2729
  1109.5000    195.3566     13.2973     18.2352     25.6803    118.5141
  1109.7500    195.2476     12.9184     16.2715     20.2789    142.5564
  1110.0000    194.5688     12.3284     14.4851     14.9645    161.2154
  1110.2500    194.0609     11.7014     13.1141     12.1123    171.5323
  1110.5000    193.8779     11.0238     12.2109     10.7487    162.8159
  1110.7500    193.6609     10.4561     11.4034      9.8408    159.0859
  1111.0000    193.5453     10.1844     10.5637      9.5746    181.8874
  1111.2500    193.3115      9.9683     10.1020      9.4058    165.1925
  1111.5000    192.9471      9.5407      9.6167      9.3015    175.2684
  1111.7500    192.8453      9.1398      9.2727      8.9220    193.4859
  1112.0000    192.9145      9.0215      9.0127      8.8190    170.8020
  1112.2500    193.0842      8.6578      8.7775      9.2393    168.7015
  1112.5000    193.1908      8.2674      8.5004      9.5809    170.1746
  1112.7500    193.2627      8.1869      8.3282      9.6347    151.9316
  1113.0000    193.3389      8.1709      8.1369      9.7672    164.0043
  1113.2500    193.2463      8.1280      8.0715      9.9421    180.5380
  1113.5000    192.9446      8.0756      7.7668      9.7345    173.1690
  1113.7500    192.4227      8.2871      7.5863      8.9694    164.0486
  1114.0000    192.0670      8.4363      7.6163      8.0884    185.1683
  1114.2500    191.8531      8.7676      7.7120      7.4460    167.5801
  1114.5000    191.5750      8.9110      8.0602      7.4347    175.8894
  1114.7500    190.9695      9.1405      8.4861      8.3894    179.2257
  1115.0000    190.3871      9.4632      9.0448     10.6176    134.4743
  1115.2500    189.8582      9.8099      9.6576     13.9518    128.7735
  1115.5000    189.5042     10.1166     10.2452     17.2334    134.7103
  1115.7500    189.1664     10.5721     10.4338     17.2044    126.4889
  1116.0000    188.8463     11.1065     11.0570     13.8393    139.5489
  1116.2500    188.6835     11.6230     12.1421     11.8199    135.3713
  1116.5000    188.6875     12.2274     12.9366     13.0607    125.7698
  1116.7500    188.7089     12.8624     14.0333     17.5972     91.9219
  1117.0000    188.8702     14.0589     15.5764     23.2477     85.1451
  1117.2500    189.0892     14.7558     17.3547     23.6740     80.9356
  1117.5000    189.2628     15.7260     19.3990     22.1151     72.2316
  1117.7500    189.2308     16.0224     21.6295     26.2107     75.7788
  1118.0000    188.9080     17.2411     23.1031     34.7894     66.3445
  1118.2500    188.5376     18.7654     25.9767     40.8439     69.9656
  1118.5000    188.1868     19.4198     29.2612     46.6727     65.1797
  1118.7500    187.8644     19.1766     30.9968     53.6810     61.3864
  1119.0000    187.7496     19.4727     33.0131     60.6485     60.0143
  1119.2500    187.7978     19.6352     34.4227     64.2733     56.9976
  1119.5000    187.7999     18.4012     33.4623     62.9220     60.5587
  1119.7500    188.0590     17.7687     31.9509     59.9585     73.0501
  1120.0000    188.4948     17.0650     29.5198     60.8617     71.8736
  1120.2500    188.9974     15.8943     25.5833     62.2693     86.9731
  1120.5000    189.5526     15.4793     21.5070     53.5218    111.7676
  1120.7500    190.2085     14.7843     18.3325     32.5132    131.3069
  1121.0000    191.0111     14.8667     16.1333     18.2690    170.5890
  1121.2500    191.8961     14.5266     14.3070     12.4748    188.2139
  1121.5000    192.5334     14.2374     13.5067     10.8295    185.1423
  1121.7500    193.0911     14.3079     13.1692     10.1906    191.0843
  1122.0000    193.4205     13.9837     12.8220     10.4152    187.6942
  1122.2500    193.6816     13.9923     12.9111     10.6003    172.6827
  1122.5000    193.8094     13.7360     13.6407     11.6347    163.5265
  1122.7500    193.8700     13.4029     13.9329     16.1164    140.6075
  1123.0000    194.0073     13.0937     14.5048     23.2077    121.0854
  1123.2500    194.4209     12.9587     14.7736     26.6558    138.0599
  1123.5000    194.9876     12.9601     15.2056     25.5309    114.5015
  1123.7500    195.4859     13.2054     15.4870     25.5090    124.3173
  1124.0000    195.9416     13.6076     15.7951     26.4410    145.2379
  1124.2500    196.5214     13.8204     15.5389     24.8511    148.3184
  1124.5000    197.0688     14.6727     15.5875     19.7182    123.6263
  1124.7500    197.5830     15.4863     15.7161     16.0463    138.5069
  1125.0000    198.3165     16.0771     16.7531     15.8791    133.9364
  1125.2500    199.1228     16.9659     17.6022     19.8959    132.8338
  1125.5000    200.0533     17.3002     18.9268     25.1431    106.5249
  1125.7500    201.1423     17.2890     19.8887     24.8200     95.7164
  1126.0000    202.1850     17.1782     20.1409     23.3135    115.1935
  1126.2500    202.7061     16.7676     21.0789     23.5682    120.6512
  1126.5000    203.2652     16.8423     21.6942     25.2150    111.9768
  1126.7500    203.6814     17.2457     22.6444     28.8470    111.6130
  1127.0000    203.8857     16.5689     23.4772     31.7795    121.8131
  1127.2500    203.9037     17.3325     23.1442     29.7841    120.6160
  1127.5000    203.7786     17.5461     22.7128     25.9501    127.9329
  1127.7500    203.3909     17.6342     21.8892     24.2806    127.7121
  1128.0000    203.0609     17.8578     22.4469     23.6736    125.3644
  1128.2500    202.5949     18.0921     21.4260     23.0961    123.6528
  1128.5000    202.1714     17.8883     20.5853     21.8426    127.0177
  1128.7500    201.8350     17.6495     19.9548     19.5568    122.5795
  1129.0000    201.3103     17.7763     19.2681     17.6510    149.6017
  1129.2500    200.4220     17.7729     19.2362     17.1463    154.3176
  1129.5000    199.7359     17.5727     19.7340     18.5850    134.8119
  1129.7500    199.2670     17.5982     19.9448     22.2105    130.6559
  1130.0000    198.9698     17.7358     20.5044     23.3853    133.7956
  1130.2500    198.6749     17.7847     21.0316     21.6293    106.1083
  1130.5000    198.3707     17.7477     21.0205     23.7562    123.7969
  1130.7500    198.2220     18.0639     22.5471     29.5411    136.5412
  1131.0000    198.1098     18.7869     21.7801     31.3940    121.7738
  1131.2500    198.0424     19.7985     21.7078     27.2057    120.0330
  1131.5000    197.8431     20.5942     22.6944     24.3114    105.2710
  1131.7500    197.3674     20.9717     23.5055     22.1507    104.8274
  1132.0000    197.0391     21.6458     25.2017     24.2845    108.2635
  1132.2500    196.7787     22.6309     28.0869     32.4929    104.1063
  1132.5000    196.9069     23.8720     30.4391     44.6035     76.9057
  1132.7500    197.2320     23.9913     32.9773     55.9464     75.1746
  1133.0000    197.4535     24.1558     35.9984     59.8529     74.3312
  1133.2500    197.7407     23.0145     38.6770     60.2281     75.5409
  1133.5000    198.0872     22.8651     37.4640     59.9839     68.4448
  1133.7500    198.5098     20.7213     35.7499     58.7102     66.7601
  1134.0000    198.7951     20.4657     33.4178     56.7593     71.0726
  1134.2500    199.1966     19.9586     29.1599     54.4411     72.3345
  1134.5000    199.7788     19.3299     25.5727     49.4490     91.6998
  1134.7500    200.3374     18.1684     22.0450     36.1697    111.3579
  1135.0000    200.9509     17.6281     19.0843     20.3175    119.9688
  1135.2500    201.4371     17.8493     17.0409     13.3482    154.0947
  1135.5000    201.7836     17.4640     15.6962     12.1503    177.5998
  1135.7500    202.0432     17.5419     15.1415     12.1891    176.8454
