~Version Information
VERS.                      2.0: CWLS Log ASCII Standard - VERSION 2.0
WRAP.                       NO: One line per depth step
~Well Information Block
STRT.FT               -12.5000: 
STOP.FT              2284.7500: 
STEP.FT                 0.2500: 
NULL.                -999.2500: 
COMP.          Pioneer Natural Resources: COMPANY
WELL.          Hill Climb 22-2: WELL
FLD.           Purgatorie River: FIELD
LOC.           1820' FNL & 2193' FWL--: LOCATION
PROV.                       CO: PROVINCE
CNTY.               Las Animas: COUNTRY
SRVC.                         : SERVICE COMPANY
DATE.          Fri Oct 22 11:44:16 2004: LOG DATE
UWI.                          : UNIQUE WELL ID
~Curve Information Block
DEPT.FT            0 000 00 00: Depth
GR.GAPI                       : Gamma Ray
CCL.                          : Casing Collar Locator
TT3.usec                      : CBL 3' Travel Time
AMP3.mV                       : CBL 3' Amplitude
~Parameter Information Block
~A  Depth        GR         CCL         TT3         AMP3    
# ...
   155.0000     66.6266      0.0000    258.9043     82.5043
   155.2500     68.6537      0.0000    258.8867     82.7908
   155.5000     71.2843      0.0000    258.8884     82.8623
   155.7500     74.5206      0.0000    258.9044     82.8494
   156.0000     77.6699      0.0000    258.9310     82.8060
   156.2500     79.7089      0.0000    258.9611     82.7519
   156.5000     80.3710      0.0000    258.9846     82.7062
   156.7500     80.8686      0.0000    258.9936     82.6935
   157.0000     83.2078      0.0000    258.9887     82.7250
   157.2500     88.6450      0.0000    258.9786     82.7741
   157.5000     96.8544      0.0000    258.9726     82.7878
   157.7500    106.3644      0.0000    258.9735     82.7377
   158.0000    115.3791      0.0000    258.9780     82.6495
   158.2500    122.1678      0.0000    258.9794     82.5723
   158.5000    125.2394      0.0000    258.9740     82.5318
   158.7500    123.7332      0.0000    258.9640     82.5259
   159.0000    118.0090      0.0000    258.9550     82.5508
   159.2500    109.9559      0.0000    258.9502     82.6042
   159.5000    102.2115      0.0000    258.9490     82.6713
   159.7500     96.3707      0.0000    258.9513     82.7252
   160.0000     91.8779      0.0000    258.9587     82.7470
   160.2500     87.0249      0.0000    258.9713     82.7412
   160.5000     81.0083      0.0000    258.9863     82.7394
   160.7500     74.7522      0.0000    258.9986     82.7822
   161.0000     69.8994      0.0000    259.0018     82.8806
   161.2500     67.4197      0.0000    258.9918     82.9933
   161.5000     67.1982      0.0000    258.9713     83.0566
   161.7500     68.7335      0.0000    258.9487     83.0442
   162.0000     72.2205      0.0000    258.9312     82.9920
   162.2500     78.7287      0.0000    258.9211     82.9589
   162.5000     88.9765      0.0000    258.9207     82.9637
   162.7500    102.1936      0.0000    258.9338     82.9686
   163.0000    116.4360      0.0000    258.9600     82.9282
   163.2500    129.4309      0.0000    258.9906     82.8424
   163.5000    138.7377      0.0000    259.0127     82.7545
   163.7500    142.0596      0.0000    259.0162     82.7113
   164.0000    138.6255      0.0000    258.9993     82.7339
   164.2500    130.3707      0.0000    258.9707     82.8074
   164.5000    121.2761      0.0000    258.9457     82.8818
   164.7500    115.2708      0.0000    258.9374     82.9030
   165.0000    114.4141      0.0000    258.9495     82.8625
   165.2500    118.2816      0.0000    258.9743     82.8082
   165.5000    124.4376      0.0000    258.9991     82.7945
   165.7500    129.8891      0.0000    259.0147     82.8364
   166.0000    132.9105      0.0000    259.0177     82.9108
   166.2500    133.4507      0.0000    259.0085     82.9801
   166.5000    131.7340      0.0000    258.9903     83.0130
   166.7500    127.3939      0.0000    258.9699     83.0058
   167.0000    120.4714      0.0000    258.9547     82.9899
   167.2500    112.4490      0.0000    258.9487     83.0033
   167.5000    105.5346      0.0000    258.9525     83.0560
   167.7500    100.9274      0.0000    258.9663     83.1257
   168.0000     97.9593      0.0000    258.9894     83.1778
   168.2500     95.0135      0.0000    259.0151     83.1843
   168.5000     91.3804      0.0000    259.0333     83.1388
   168.7500     88.0974      0.0000    259.0386     83.0648
   169.0000     86.9692      0.0000    259.0351     82.9950
   169.2500     89.0048      0.0000    259.0304     82.9410
   169.5000     93.6337      0.0000    259.0271     82.8914
   169.7500     98.8037      0.0000    259.0226     82.8343
   170.0000    101.8496      0.0000    259.0141     82.7746
   170.2500    101.0777      0.0000    259.0023     82.7337
   170.5000     97.0783      0.0000    258.9888     82.7395
   170.7500     92.3332      0.0000    258.9729     82.8051
   171.0000     89.3322      0.0000    258.9534     82.9103
   171.2500     88.9914      0.0000    258.9321     83.0123
   171.5000     90.4356      0.0000    258.9131     83.0782
   171.7500     91.7795      0.0000    258.9001     83.1045
   172.0000     91.3618      0.0000    258.8952     83.1047
   172.2500     88.9031      0.0000    258.8990     83.0925
   172.5000     85.7563      0.0000    258.9097     83.0712
   172.7500     83.9356      0.0000    258.9227     83.0278
   173.0000     84.7555      0.0000    258.9357     82.9432
   173.2500     88.0282      0.0000    258.9509     82.8221
   173.5000     92.2819      0.0000    258.9701     82.7041
   173.7500     95.8708      0.0000    258.9892     82.6367
   174.0000     98.1146      0.0000    259.0016     82.6427
   174.2500     99.4906      0.0000    259.0035     82.7145
   174.5000    100.6972      0.0000    258.9939     82.8224
   174.7500    101.5054      0.0000    258.9745     82.9300
   175.0000    100.7236      0.0000    258.9499     83.0151
   175.2500     97.5807      0.0000    258.9270     83.0741
   175.5000     93.1558      0.0000    258.9124     83.1052
   175.7500     90.0818      0.0000    258.9113     83.0971
   176.0000     90.5220      0.0000    258.9250     83.0401
   176.2500     94.4517      0.0000    258.9482     82.9390
   176.5000    100.0213      0.0000    258.9693     82.8196
   176.7500    105.4359      0.0000    258.9789     82.7218
   177.0000    110.0866      0.0000    258.9756     82.6763
   177.2500    113.7256      0.0000    258.9649     82.6829
   177.5000    115.5320      0.0000    258.9539     82.7205
   177.7500    114.9476      0.0000    258.9459     82.7766
   178.0000    112.8253      0.0000    258.9412     82.8513
   178.2500    110.7828      0.0000    258.9393     82.9340
   178.5000    109.5847      0.0000    258.9422     82.9930
   178.7500    108.6447      0.0000    258.9521     82.9960
   179.0000    107.0415      0.0000    258.9675     82.9323
   179.2500    104.8230      0.0000    258.9814     82.8197
   179.5000    103.0839      0.0000    258.9860     82.7023
   179.7500    102.7697      0.0000    258.9779     82.6395
   180.0000    103.7303      0.0000    258.9600     82.6748
   180.2500    104.9939      0.0000    258.9401     82.7981
   180.5000    105.6640      0.0000    258.9268     82.9468
   180.7500    105.4599      0.0000    258.9245     83.0545
   181.0000    104.6053      0.0000    258.9320     83.0991
   181.2500    103.4643      0.0000    258.9454     83.1002
   181.5000    102.5255      0.0000    258.9614     83.0786
   181.7500    102.6416      0.0000    258.9753     83.0357
   182.0000    104.8367      0.0000    258.9812     82.9753
   182.2500    109.5068      0.0000    258.9759     82.9298
   182.5000    115.7599      0.0000    258.9637     82.9372
   182.7500    121.6773      0.0000    258.9537     82.9928
   183.0000    125.4423      0.0000    258.9530     83.0475
   183.2500    126.4916      0.0000    258.9607     83.0591
   183.5000    125.5871      0.0000    258.9709     83.0285
   183.7500    123.6939      0.0000    258.9794     82.9862
   184.0000    120.9364      0.0000    258.9855     82.9690
   184.2500    116.8900      0.0000    258.9899     83.0026
   184.5000    111.7068      0.0000    258.9933     83.0799
   184.7500    106.5254      0.0000    258.9986     83.1569
   185.0000    102.6777      0.0000    259.0078     83.1869
   185.2500    100.7467      0.0000    259.0170     83.1639
   185.5000    100.4112      0.0000    259.0175     83.1243
   185.7500    100.6601      0.0000    259.0052     83.1055
   186.0000     99.9480      0.0000    258.9854     83.1095
   186.2500     96.8869      0.0000    258.9670     83.1104
   186.5000     91.3363      0.0000    258.9566     83.0924
   186.7500     84.4852      0.0000    258.9573     83.0646
   187.0000     77.6765      0.0000    258.9693     83.0433
   187.2500     71.6169      0.0000    258.9886     83.0400
   187.5000     66.8341      0.0000    259.0074     83.0634
   187.7500     64.1618      0.0000    259.0175     83.1096
   188.0000     64.1262      0.0000    259.0127     83.1545
   188.2500     66.0006      0.0000    258.9922     83.1814
