~Version Information
VERS.                      2.0: CWLS Log ASCII Standard - VERSION 2.0
WRAP.                       NO: One line per depth step
~Well Information Block
STRT.FT                -7.7500: 
STOP.FT               973.7500: 
STEP.FT                 0.2500: 
NULL.                -999.2500: 
COMP.          Pioneer Natural Resources: COMPANY
WELL.              Dylan 42-25: WELL
FLD.           Purgatorie River: FIELD
LOC.           2160' FNL & 855' FEL: LOCATION
PROV.                 Colorado: PROVINCE
CNTY.               Las Animas: COUNTRY
SRVC.          Patterson Wireline: SERVICE COMPANY
DATE.          Fri Apr 29 16:36:17 2005: LOG DATE
UWI.           05-071-08229-00: UNIQUE WELL ID
~Curve Information Block
DEPT.FT            0 000 00 00: Depth
CCL.                          : Casing Collar Locator
TT3.usec                      : CBL 3' Travel Time
AMP3.mV                       : CBL 3' Amplitude
GR.GAPI                       : Gamma Ray
~Parameter Information Block
~A  Depth       CCL         TT3         AMP3         GR     
# ...
   863.2500      0.0000    854.6877      6.9169     46.6722
   863.5000      0.0000    852.7780      6.9079     48.0031
   863.7500      0.0000    848.0685      6.9172     51.4737
   864.0000      0.0000    842.0344      6.9384     55.2570
   864.2500      0.0000    839.1026      6.9522     57.9620
   864.5000      0.0000    843.4248      6.9465     59.2812
   864.7500      0.0000    854.6856      6.9266     59.5985
   865.0000      0.0000    868.2092      6.9081     59.3052
   865.2500      0.0000    879.2917      6.9066     58.6519
   865.5000      0.0000    886.1711      6.9314     58.1181
   865.7500      0.0000    888.9703      6.9856     58.5348
   866.0000      0.0000    887.6031      7.0637     60.4628
   866.2500      0.0000    881.6823      7.1497     63.4217
   866.5000      0.0000    872.0612      7.2199     66.0017
   866.7500      0.0000    861.7447      7.2530     66.9155
   867.0000      0.0000    854.7047      7.2376     65.9233
   867.2500      0.0000    853.2348      7.1738     63.7900
   867.5000      0.0000    856.1232      7.0692     61.6099
   867.7500      0.0000    859.5256      6.9317     60.2359
   868.0000      0.0000    860.0364      6.7650     60.0024
   868.2500      0.0000    856.8407      6.5738     60.6839
   868.5000      0.0000    850.8697      6.3701     61.8542
   868.7500      0.0000    842.8715      6.1697     63.5208
   869.0000      0.0000    833.2006      5.9816     66.3734
   869.2500      0.0000    822.6031      5.8088     71.0812
   869.5000      0.0000    812.0116      5.6549     77.0911
   869.7500      0.0000    801.8568      5.5261     82.4012
   870.0000      0.0000    792.2611      5.4266     84.9505
   870.2500      0.0000    783.6478      5.3530     84.1348
   870.5000      0.0000    776.7386      5.2973     80.8342
   870.7500      0.0000    772.0052      5.2543     76.5373
   871.0000      0.0000    769.2972      5.2292     72.8140
   871.2500      0.0000    767.9753      5.2367     70.8939
   871.5000      0.0000    767.3084      5.2865     70.9750
   871.7500      0.0000    766.7266      5.3674     72.1983
   872.0000      0.0000    765.8211      5.4447     73.6450
   872.2500      0.0000    764.1705      5.4800     75.1106
   872.5000      0.0000    761.2795      5.4605     76.9028
   872.7500      0.0000    756.9271      5.4110     79.2934
   873.0000      0.0000    751.8495      5.3748     82.1284
   873.2500      0.0000    747.7522      5.3754     84.5932
   873.5000      0.0000    745.9803      5.3958     85.4332
   873.7500      0.0000    746.1077      5.3946     83.8125
   874.0000      0.0000    746.3769      5.3471     80.1556
   874.2500      0.0000    745.6381      5.2719     76.0949
   874.5000      0.0000    744.5492      5.2186     73.4757
   874.7500      0.0000    744.9947      5.2227     73.1807
   875.0000      0.0000    748.5917      5.2722     74.7327
   875.2500      0.0000    755.6971      5.3251     76.9909
   875.5000      0.0000    765.6141      5.3590     79.0990
   875.7500      0.0000    777.0714      5.3939     80.6769
   876.0000      0.0000    787.6927      5.4610     81.5184
   876.2500      0.0000    793.6817      5.5593     81.5730
   876.5000      0.0000    792.0575      5.6576     81.1017
   876.7500      0.0000    783.9686      5.7380     80.5265
   877.0000      0.0000    774.6119      5.8254     80.1049
   877.2500      0.0000    769.1952      5.9639     79.8104
   877.5000      0.0000    769.5883      6.1654     79.4019
   877.7500      0.0000    774.6020      6.3880     78.5066
   878.0000      0.0000    781.8588      6.5636     76.7542
   878.2500      0.0000    788.7415      6.6440     74.1059
   878.5000      0.0000    792.8035      6.6320     71.3193
   878.7500      0.0000    792.6804      6.5755     69.8749
   879.0000      0.0000    788.9904      6.5325     70.7040
   879.2500      0.0000    784.0726      6.5317     72.8016
   879.5000      0.0000    780.3517      6.5585     73.8739
   879.7500      0.0000    778.5898      6.5718     72.7062
   880.0000      0.0000    777.7806      6.5364     70.2212
   880.2500      0.0000    776.8328      6.4479     68.0301
   880.5000      0.0000    775.9764      6.3367     66.8082
   880.7500      0.0000    776.2502      6.2429     66.3703
   881.0000      0.0000    778.1031      6.1798     66.4024
   881.2500      0.0000    781.0079      6.1207     66.7001
   881.5000      0.0000    784.0219      6.0276     67.2878
   881.7500      0.0000    785.9963      5.8933     68.4538
   882.0000      0.0000    785.6265      5.7507     70.2939
   882.2500      0.0000    782.3790      5.6384     72.4201
   882.5000      0.0000    777.3926      5.5638     74.4863
   882.7500      0.0000    772.6886      5.5115     76.6847
   883.0000      0.0000    769.5219      5.4785     79.2700
   883.2500      0.0000    767.8531      5.4815     81.7274
   883.5000      0.0000    767.0530      5.5215     82.8948
   883.7500      0.0000    766.5957      5.5643     82.1356
   884.0000      0.0000    766.1990      5.5688     80.1982
   884.2500      0.0000    765.7026      5.5295     78.6769
   884.5000      0.0000    764.9188      5.4760     78.5589
   884.7500      0.0000    763.4437      5.4359     79.3458
   885.0000      0.0000    760.5645      5.4123     79.5341
   885.2500      0.0000    755.5874      5.3963     77.9464
   885.5000      0.0000    748.6636      5.3829     74.8802
   885.7500      0.0000    741.4269      5.3665     72.2301
   886.0000      0.0000    736.5198      5.3367     72.1710
   886.2500      0.0000    736.0508      5.2917     75.1864
   886.5000      0.0000    740.1682      5.2484     79.3946
   886.7500      0.0000    746.9485      5.2253     82.1641
   887.0000      0.0000    753.7056      5.2206     82.3381
   887.2500      0.0000    758.6040      5.2166     80.5986
   887.5000      0.0000    761.2583      5.2057     78.1774
   887.7500      0.0000    762.1447      5.2010     76.1217
   888.0000      0.0000    761.7409      5.2203     75.4453
   888.2500      0.0000    760.2399      5.2605     76.6802
   888.5000      0.0000    757.9461      5.2891     79.0126
   888.7500      0.0000    755.7567      5.2697     80.6873
   889.0000      0.0000    754.9040      5.2046     80.5879
   889.2500      0.0000    755.9525      5.1410     79.1833
   889.5000      0.0000    758.2092      5.1264     78.0198
   889.7500      0.0000    760.3076      5.1649     78.3888
   890.0000      0.0000    761.1019      5.2244     80.1896
   890.2500      0.0000    759.8727      5.2710     82.0195
   890.5000      0.0000    756.2015      5.2851     82.5678
   890.7500      0.0000    750.2632      5.2620     81.8988
   891.0000      0.0000    743.2014      5.2164     81.3523
   891.2500      0.0000    736.7178      5.1796     82.2644
   891.5000      0.0000    731.9926      5.1729     84.6419
   891.7500      0.0000    729.0533      5.1821     87.0933
   892.0000      0.0000    727.0597      5.1657     88.3404
   892.2500      0.0000    724.9954      5.0905     88.6000
   892.5000      0.0000    722.2421      4.9560     88.9900
   892.7500      0.0000    718.9985      4.7778     89.8672
   893.0000      0.0000    716.4468      4.5517     90.3813
   893.2500      0.0000    716.3803      4.2565     89.4729
   893.5000      0.0000    720.3047      3.9097     86.6798
   893.7500      0.0000    728.3466      3.6130     82.0599
   894.0000      0.0000    738.6449      3.5114     76.0641
   894.2500      0.0000    748.3943      3.6879     69.8191
   894.5000      0.0000    756.5143      4.0995     65.0995
   894.7500      5.0000    765.1620      4.6166     63.3591
   895.0000      5.0000    777.3576      5.1099     64.5280
   895.2500      0.0000    792.8862      5.5134     66.9930
   895.5000      0.0000    807.2720      5.8497     68.9449
   895.7500      0.0000    814.6357      6.2115     69.6847
   896.0000      0.0000    811.3872      6.6704     69.6750
   896.2500      0.0000    798.3685      7.1888     69.7145
   896.5000      0.0000    780.2972      7.6686     70.3134
