
~Version Information
 VERS.                                  2.0 : CWLS LAS VERSION
 WRAP.                                   NO : WRAPING MODE
 SWARE .                 MController 2.5.0N : SOFTWARE VERSION
~Well Information
 WELL.                          Whinny 42-4 : WELL
 COMP.                                  N/A : COMPANY
 FLD.                      Purgatoire River : FIELD
 LOC.                SE/NE Sec 2 T33S  R67W : LOCATION
 DATE.                           8/19-20/05 : DATE(S) LOGGED
 SRVC.       BLANCO Geological Services LLC : SERVICE COMPANY
 STAT.                                   CO : STATE
 CNTY.                           Las Animas : COUNTY
 CTRY.                                  USA : COUNTRY
 API.                       05-071-08406-00 : API NUMBER
 STRT.FT                             574.00 : START DEPTH
 STOP.FT                            2360.00 : STOP DEPTH
 STEP.FT                               1.00 : DEPTH INCREMENT
 NULL.                                -9999 : NULL VALUE
~Curve information
 DEPTH.FT                                   :
 ROP.MIN/FT                                 :
 GAS.UNITS                                  :
~ASCII Log data
# ...
      2174.0         0.27        168.1 
      2175.0         0.27        167.2 
      2176.0         0.27        165.0 
      2177.0         0.28        163.3 
      2178.0         0.27        160.2 
      2179.0         0.27        156.5 
      2180.0         0.27        154.7 
      2181.0         0.27        163.9 
      2182.0         0.27        174.5 
      2183.0         0.27        183.0 
      2184.0         0.30        184.8 
      2185.0         0.53        172.1 
      2186.0         0.37        154.7 
      2187.0         0.13        149.0 
      2188.0         0.27        150.0 
      2189.0         0.42        164.7 
      2190.0         0.27        170.3 
      2191.0         0.27        166.6 
      2192.0         0.40        146.4 
      2193.0         0.27        139.8 
      2194.0         0.27        144.9 
      2195.0         0.27        152.4 
      2196.0         0.17        163.4 
      2197.0         0.30        179.7 
      2198.0         0.27        186.3 
      2199.0         0.27        186.4 
      2200.0         0.28        178.9 
      2201.0         0.27        173.5 
      2202.0         0.40        161.0 
      2203.0         0.30        144.0 
      2204.0         0.27        136.1 
      2205.0         0.27        136.8 
      2206.0         0.27        146.8 
      2207.0         0.27        158.9 
      2208.0         0.27        168.7 
      2209.0         0.27        174.1 
      2210.0         0.27        173.9 
      2211.0         0.27        170.1 
      2212.0         0.28        161.3 
      2213.0         0.27        150.4 
      2214.0         0.27        149.6 
      2215.0         0.27        151.3 
      2216.0         0.53        151.7 
      2217.0         0.27        146.8 
      2218.0         0.27        149.9 
      2219.0         0.27        159.9 
      2220.0         0.27        168.1 
      2221.0         0.27        174.7 
      2222.0         0.27        171.2 
      2223.0         0.28        165.7 
      2224.0         0.53        160.7 
      2225.0         0.27        167.1 
      2226.0         0.27        168.0 
      2227.0         0.27        166.9 
      2228.0         0.27        155.1 
      2229.0         0.27        158.2 
      2230.0         0.27        166.3 
      2231.0         0.27        175.4 
      2232.0         0.27        176.5 
      2233.0         0.27        167.1 
      2234.0         0.27        157.2 
      2235.0         0.28        155.3 
      2236.0         0.27        160.2 
      2237.0         0.27        161.2 
      2238.0         0.53        159.3 
      2239.0         0.27        159.1 
      2240.0         0.53        169.0 
      2241.0         0.57        180.0 
      2242.0         0.27        175.9 
      2243.0         0.52        128.3 
      2244.0         0.53        163.4 
      2245.0         0.53        211.9 
      2246.0         0.17        189.1 
      2247.0         0.53        130.0 
      2248.0         0.27        116.0 
      2249.0         0.53        105.5 
      2250.0         0.53        108.1 
      2251.0         0.28        113.8 
      2252.0         0.27        129.7 
      2253.0         0.27        136.2 
      2254.0         0.53        137.2 
      2255.0         0.30        143.0 
      2256.0         0.27        144.7 
      2257.0         0.53        133.4 
      2258.0         0.27        135.5 
      2259.0         0.27        138.5 
      2260.0         0.27        144.9 
      2261.0         0.27        144.9 
      2262.0         0.28        138.1 
      2263.0         0.37        128.3 
      2264.0         0.53        127.6 
      2265.0         0.27        129.6 
      2266.0         0.27        130.5 
      2267.0         0.53        131.6 
      2268.0         0.53        130.4 
      2269.0         0.27        129.4 
      2270.0         0.55        125.3 
      2271.0         0.53        119.1 
      2272.0         0.23        115.0 
      2273.0         0.53        109.5 
      2274.0         0.53        119.4 
      2275.0         0.40        126.9 
      2276.0         0.27        130.6 
      2277.0         0.27        131.0 
      2278.0         0.27        125.9 
      2279.0         0.42        113.7 
      2280.0         0.53        103.3 
      2281.0         0.37         99.6 
      2282.0         0.27         98.4 
      2283.0         0.27         99.8 
      2284.0         0.53        102.9 
      2285.0         0.27        102.4 
      2286.0         0.27        100.6 
      2287.0         0.27        100.9 
      2288.0         0.28         99.3 
      2289.0         0.27         95.5 
      2290.0         0.50         88.6 
      2291.0         0.27         86.4 
      2292.0         0.27         84.6 
      2293.0         0.47         78.5 
      2294.0         0.33         73.9 
      2295.0         0.27         70.4 
      2296.0         0.53         67.8 
      2297.0         0.27         68.7 
      2298.0         0.55         66.9 
      2299.0         0.33         63.2 
      2300.0         0.53         61.1 
      2301.0         0.27         61.3 
      2302.0         0.27         62.3 
      2303.0         0.27         62.3 
      2304.0         0.53         60.7 
      2305.0         0.27         60.7 
      2306.0         0.27         61.6 
      2307.0         0.28         62.6 
      2308.0         0.27         63.1 
      2309.0         0.27         63.0 
      2310.0         0.53         62.6 
      2311.0         0.27         61.8 
      2312.0         0.43         59.3 
      2313.0         0.53         57.0 
      2314.0         0.27         56.3 
      2315.0         0.55         53.4 
      2316.0         0.33         52.6 
      2317.0         0.27         51.9 
      2318.0         0.27         51.6 
      2319.0         0.53         52.9 
      2320.0         0.27         54.0 
      2321.0         0.27         54.5 
      2322.0         0.53         53.3 
      2323.0         0.27         54.3 
      2324.0         0.55         54.5 
      2325.0         0.27         54.1 
      2326.0         0.27         53.4 
      2327.0         0.27         53.7 
      2328.0         0.27         53.8 
      2329.0         0.27         53.0 
      2330.0         0.27         51.6 
      2331.0         0.27         49.9 
      2332.0         0.27         47.9 
      2333.0         0.27         47.5 
      2334.0         0.40         47.4 
      2335.0         0.27         47.9 
      2336.0         0.55         48.3 
      2337.0         0.27         48.6 
      2338.0         0.53         48.7 
      2339.0         0.27         47.5 
      2340.0         0.53         48.3 
      2341.0         0.53         48.3 
      2342.0         0.53         47.1 
      2343.0         0.27         46.6 
      2344.0         0.55         48.8 
      2345.0         0.27         49.9 
      2346.0         0.53         49.3 
      2347.0         0.53         50.0 
      2348.0         0.43         55.3 
      2349.0         0.53         57.0 
      2350.0         0.47         58.4 
      2351.0         0.28         60.7 
      2352.0         0.27         62.9 
      2353.0         0.27         64.1 
      2354.0         0.53         61.6 
      2355.0         0.27         58.9 
      2356.0         0.53         55.5 
      2357.0         0.53         55.3 
      2358.0         0.27         54.6 
      2359.0         0.27         54.0 
      2360.0         0.55         54.6 
