~Version Information
VERS.                      2.0: CWLS Log ASCII Standard - VERSION 2.0
WRAP.                       NO: One line per depth step
~Well Information Block
STRT.FT               480.0000: 
STOP.FT              1994.2000: 
STEP.FT                 0.1000: 
NULL.                -999.2500: 
COMP.          Evergreen Operating Corporation: COMPANY
WELL.          McCullough 34-32 Tr: WELL
FLD.           Purgatoire River: FIELD
LOC.           394' FSL & 2077' FEL: LOCATION
PROV.                 Colorado: PROVINCE
CNTY.               Las Animas: COUNTRY
SRVC.                Patterson: SERVICE COMPANY
DATE.          Mon Sep 20 07:30:00 2004: LOG DATE
UWI.           05 071 08157 00: UNIQUE WELL ID
~Curve Information Block
DEPT.FT            0 000 00 00: Depth
DCAL.in                       : CDL Caliper
RHOB.g/cc                     : CDL Bulk Density
RHOC.g/cc                     : CDL Density Correction
DPOR.pu                       : CDL Density Porosity
NPOR.pu                       : Neutron Porosity
GR.GAPI                       : Gamma Ray
~Parameter Information Block
~A  Depth       DCAL        RHOB        RHOC        DPOR        NPOR         GR     
# ...
   979.2000      8.0229      2.5794      0.1001      4.2818     23.4846     90.2155
   979.3000      8.0228      2.5722      0.0882      4.7138     23.8397     84.9783
   979.4000      8.0228      2.5547      0.0450      5.7734     24.2479     77.7932
   979.5000      8.0153      2.5336      0.0531      7.0547     24.3221     71.8821
   979.6000      8.0153      2.5249      0.0287      7.5790     24.5903     71.7908
   979.7000      8.0153      2.5285      0.0816      7.3613     25.0249     77.7243
   979.8000      8.0102      2.5228      0.0656      7.7118     25.2946     83.8578
   979.9000      8.0102      2.5102     -0.0018      8.4727     25.5658     85.4808
   980.0000      8.0361      2.5091      0.0781      8.5407     25.8436     85.2356
   980.1000      8.0361      2.5113      0.1017      8.4089     25.8516     86.3148
   980.2000      8.0361      2.5069      0.0493      8.6700     25.3659     88.6861
   980.3000      8.0722      2.5018      0.0726      8.9788     24.8607     92.4698
   980.4000      8.0722      2.4951      0.0527      9.3891     25.2490     98.4080
   980.5000      8.0904      2.4860      0.0783      9.9381     26.3930    103.9423
   980.6000      8.0904      2.4892      0.0036      9.7481     27.3933    105.5477
   980.7000      8.0904      2.5126      0.0677      8.3262     28.0396    106.4958
   980.8000      8.0944      2.5404      0.0578      6.6443     28.5271    110.0961
   980.9000      8.0944      2.5574      0.0410      5.6096     28.4055    114.5799
   981.0000      8.0933      2.5630      0.0683      5.2751     27.6493    119.7105
   981.1000      8.0933      2.5614      0.0586      5.3697     27.0958    123.1265
   981.2000      8.0933      2.5590      0.0641      5.5172     27.3074    117.6914
   981.3000      8.0953      2.5549      0.0755      5.7607     27.8536    104.4340
   981.4000      8.0953      2.5492      0.0360      6.1110     28.2398     95.2841
   981.5000      8.0973      2.5516      0.0144      5.9617     28.4319     96.7920
   981.6000      8.0973      2.5700      0.0158      4.8481     28.1598    102.8321
   981.7000      8.0973      2.5977      0.0352      3.1697     27.3528    107.4199
   981.8000      8.0866      2.6133      0.0386      2.2222     26.7067    110.4832
   981.9000      8.0866      2.6062     -0.0236      2.6541     26.5321    110.6951
   982.0000      8.0713      2.5925     -0.0188      3.4846     26.4677    105.9352
   982.1000      8.0713      2.5858      0.0280      3.8903     26.3299     99.1166
   982.2000      8.0713      2.5859      0.0379      3.8852     25.9565     95.5651
   982.3000      8.0645      2.5944      0.0424      3.3701     25.4448     96.6443
   982.4000      8.0645      2.6094      0.0543      2.4626     25.3093     96.7971
   982.5000      8.0632      2.6245      0.0423      1.5431     25.8361     95.8082
   982.6000      8.0632      2.6323      0.0669      1.0731     26.5781     97.8229
   982.7000      8.0632      2.6234      0.0315      1.6110     27.0139     98.7405
   982.8000      8.0618      2.5984      0.0332      3.1260     27.3269     96.6221
   982.9000      8.0618      2.5672      0.0451      5.0192     27.7154     97.1244
   983.0000      8.0607      2.5465     -0.0100      6.2701     27.7236    102.3997
   983.1000      8.0607      2.5452      0.0539      6.3530     27.2151    108.9639
   983.2000      8.0607      2.5565      0.0706      5.6665     26.6814    115.4201
   983.3000      8.0616      2.5796      0.0693      4.2646     26.4261    119.6602
   983.4000      8.0616      2.6132      0.0798      2.2283     26.8197    117.6380
   983.5000      8.0667      2.6413      0.1346      0.5289     27.8063    112.8100
   983.6000      8.0667      2.6569      0.1135     -0.4205     28.3831    113.9255
   983.7000      8.0667      2.6689      0.1277     -1.1465     27.7871    120.6005
   983.8000      8.0733      2.6696      0.1040     -1.1890     26.8139    125.2083
   983.9000      8.0733      2.6477      0.0452      0.1383     26.7389    123.3642
   984.0000      8.0779      2.6133      0.0155      2.2237     27.5075    116.4736
   984.1000      8.0779      2.5791     -0.0071      4.2945     28.2868    108.7839
   984.2000      8.0779      2.5539     -0.0231      5.8223     28.6378    102.3057
   984.3000      8.0797      2.5483      0.0140      6.1654     28.4630     99.8257
   984.4000      8.0797      2.5599      0.0521      5.4588     27.9637    106.3641
   984.5000      8.0783      2.5720      0.0290      4.7257     27.4912    117.6698
   984.6000      8.0783      2.5739      0.0532      4.6129     27.2173    125.7900
   984.7000      8.0783      2.5673      0.0589      5.0132     27.0739    130.3835
   984.8000      8.0771      2.5596      0.0041      5.4801     27.0559    130.8643
   984.9000      8.0771      2.5551      0.0088      5.7525     27.2343    128.1217
   985.0000      8.0773      2.5538      0.0046      5.8318     27.4968    128.3764
   985.1000      8.0773      2.5528      0.0288      5.8924     27.8158    130.6667
   985.2000      8.0773      2.5525      0.0411      5.9077     27.8825    126.5978
   985.3000      8.0740      2.5615      0.0389      5.3627     27.5213    115.8990
   985.4000      8.0740      2.5797      0.0735      4.2618     27.2834    110.8923
   985.5000      8.0693      2.5907      0.1194      3.5931     27.4526    116.2723
   985.6000      8.0693      2.5836      0.0392      4.0230     27.5814    124.1444
   985.7000      8.0693      2.5639      0.0789      5.2159     27.5215    127.6783
   985.8000      8.0666      2.5472      0.0335      6.2301     27.5020    125.0991
   985.9000      8.0666      2.5484      0.0523      6.1573     27.7036    120.8964
   986.0000      8.0661      2.5572      0.0823      5.6214     28.0502    121.4916
   986.1000      8.0661      2.5533      0.0551      5.8586     27.9489    124.7460
   986.2000      8.0661      2.5445      0.0535      6.3968     27.2606    124.3194
   986.3000      8.0660      2.5507      0.0580      6.0209     26.5610    120.8284
   986.4000      8.0660      2.5669      0.0704      5.0354     26.1268    119.4272
   986.5000      8.0661      2.5781      0.0825      4.3569     25.8085    121.0565
   986.6000      8.0661      2.5883      0.0457      3.7423     25.4646    121.2320
   986.7000      8.0661      2.6101      0.0369      2.4185     25.1982    116.0798
   986.8000      8.0673      2.6399      0.1122      0.6109     25.3939    108.7149
   986.9000      8.0673      2.6585      0.1060     -0.5141     25.9120    105.4425
   987.0000      8.0664      2.6615      0.0920     -0.6999     26.3066    105.0922
   987.1000      8.0664      2.6644      0.0600     -0.8738     26.4856    105.3163
   987.2000      8.0664      2.6766      0.0580     -1.6138     26.5070    109.6833
   987.3000      8.0669      2.6925      0.0988     -2.5761     26.4778    116.0409
   987.4000      8.0669      2.6986      0.1033     -2.9458     26.1644    118.0857
   987.5000      8.0741      2.6904      0.0467     -2.4458     25.5366    115.1053
   987.6000      8.0741      2.6802      0.0343     -1.8311     25.2236    110.3618
   987.7000      8.0741      2.6838     -0.0245     -2.0495     25.6043    109.0255
   987.8000      8.0827      2.6979      0.0458     -2.9035     26.1982    112.1375
   987.9000      8.0827      2.7032      0.0286     -3.2233     26.4407    113.7540
   988.0000      8.0862      2.6935      0.0285     -2.6336     26.4490    110.1760
   988.1000      8.0862      2.6730      0.0524     -1.3949     26.5918    105.0974
   988.2000      8.0862      2.6409      0.0311      0.5498     26.7359    104.4677
   988.3000      8.0864      2.5990     -0.0138      3.0893     26.6233    108.3984
   988.4000      8.0864      2.5587     -0.0770      5.5303     26.5228    115.9614
   988.5000      8.0935      2.5279     -0.0612      7.3979     26.6581    124.7882
   988.6000      8.0935      2.5065     -0.0823      8.6981     26.9691    126.8113
   988.7000      8.0935      2.5002      0.0158      9.0782     27.1676    119.9494
