~Version Information
VERS.                      2.0: CWLS Log ASCII Standard - VERSION 2.0
WRAP.                       NO: One line per depth step
~Well Information Block
STRT.FT               491.0000: 
STOP.FT              1055.5000: 
STEP.FT                 0.1000: 
NULL.                -999.2500: 
COMP.          Evergreen Operating Corporation: COMPANY
WELL.              Sunset 24-3: WELL
FLD.           Purgatorie River: FIELD
LOC.           467' FSL & 2262' FWL: LOCATION
PROV.                 Colorado: PROVINCE
CNTY.               Las Animas: COUNTRY
SRVC.                         : SERVICE COMPANY
DATE.          Wed Sep 22 14:05:09 2004: LOG DATE
UWI.           05 071 08158 00: UNIQUE WELL ID
~Curve Information Block
DEPT.FT            0 000 00 00: Depth
DCAL.in                       : CDL Caliper
RHOB.g/cc                     : CDL Bulk Density
RHOC.g/cc                     : CDL Density Correction
DPOR.pu                       : CDL Density Porosity
GR.GAPI                       : Gamma Ray
NPOR.pu                       : Neutron Porosity
~Parameter Information Block
~A  Depth       DCAL        RHOB        RHOC        DPOR         GR         NPOR    
# ...
   529.4000      8.0252      2.5896      0.0220      3.6601    110.7060     19.5809
   529.5000      8.0208      2.5683      0.0224      4.9522    110.1920     19.0206
   529.6000      8.0208      2.5601     -0.0066      5.4488    101.6189     19.6292
   529.7000      8.0208      2.5714      0.0351      4.7611     93.3162     21.4494
   529.8000      8.0335      2.5859      0.0406      3.8866     90.2418     23.2987
   529.9000      8.0335      2.5906      0.0333      3.5992     95.1567     24.3336
   530.0000      8.0364      2.5878      0.0130      3.7717    106.1302     24.3075
   530.1000      8.0364      2.5774      0.0473      4.4000    115.5105     23.5539
   530.2000      8.0364      2.5622     -0.0249      5.3197    124.0473     22.9063
   530.3000      8.0365      2.5520     -0.0015      5.9411    134.8847     22.9794
   530.4000      8.0365      2.5338      0.0258      7.0397    143.0716     23.7178
   530.5000      8.0369      2.4871     -0.0013      9.8743    146.4302     24.5043
   530.6000      8.0369      2.4275     -0.0426     13.4839    149.0545     24.8952
   530.7000      8.0369      2.3867     -0.0508     15.9580    151.4581     25.0648
   530.8000      8.0399      2.3703     -0.0385     16.9503    148.8679     25.3703
   530.9000      8.0399      2.3672     -0.0170     17.1376    142.8249     26.1063
   531.0000      8.0467      2.3725     -0.0216     16.8184    143.4431     27.3083
   531.1000      8.0467      2.3850      0.0060     16.0620    156.1929     28.3775
   531.2000      8.0467      2.3915      0.0813     15.6673    173.7311     29.0155
   531.3000      8.0750      2.3710      0.1453     16.9102    181.0564     29.5856
   531.4000      8.0750      2.3121      0.1612     20.4805    176.4969     30.3363
   531.5000      8.1591      2.2255      0.1007     25.7265    170.4699     31.0040
   531.6000      8.1591      2.1375      0.0054     31.0594    167.5028     31.3070
   531.7000      8.1591      2.0550     -0.0024     36.0601    168.4544     31.3235
   531.8000      8.0466      1.9706     -0.0716     41.1731    169.8637     31.0930
   531.9000      8.0466      1.9017     -0.0745     45.3533    165.8856     31.1514
   532.0000      8.0416      1.8718     -0.0148     47.1618    157.3611     31.9813
   532.1000      8.0416      1.8859      0.0257     46.3109    146.3775     32.9100
   532.2000      8.0416      1.9379      0.0921     43.1568    133.5419     33.1593
   532.3000      8.0719      2.0151      0.1688     38.4793    123.4973     32.7851
   532.4000      8.0719      2.0983      0.1884     33.4376    121.5835     32.3567
   532.5000      8.0947      2.1739      0.1862     28.8557    126.8547     32.0462
   532.6000      8.0947      2.2420      0.1626     24.7275    132.9242     31.4991
   532.7000      8.0947      2.3082      0.1688     20.7181    135.0607     30.8664
   532.8000      8.0464      2.3687      0.2015     17.0505    131.1984     30.7417
   532.9000      8.0464      2.4086      0.1867     14.6319    121.5514     31.0297
   533.0000      8.0252      2.4217      0.0953     13.8337    116.6801     31.1402
   533.1000      8.0252      2.4214      0.0527     13.8532    125.5436     30.8531
   533.2000      8.0252      2.4237      0.0188     13.7127    138.5134     30.2735
   533.3000      8.0151      2.4420      0.0350     12.6079    143.8907     29.6287
   533.4000      8.0151      2.4786      0.0767     10.3882    145.0040     29.1092
   533.5000      8.0166      2.5176      0.0989      8.0232    147.8732     28.8068
   533.6000      8.0166      2.5373      0.1253      6.8315    150.1507     28.7662
   533.7000      8.0166      2.5308      0.1057      7.2235    150.3677     28.7637
   533.8000      7.9995      2.5135      0.0979      8.2752    152.0280     28.8482
   533.9000      7.9995      2.5011      0.1117      9.0244    155.2578     29.1415
   534.0000      7.9987      2.4971      0.0673      9.2696    157.8519     29.4031
   534.1000      7.9987      2.5006      0.0545      9.0548    156.7854     29.3758
   534.2000      7.9987      2.5113      0.0804      8.4037    151.0585     29.3531
   534.3000      7.9953      2.5276      0.0481      7.4158    145.4482     29.6577
   534.4000      7.9953      2.5445      0.0948      6.3935    142.6282     30.0369
   534.5000      7.9937      2.5519      0.0820      5.9478    141.9149     29.9724
   534.6000      7.9937      2.5475      0.0740      6.2143    142.9120     29.4778
   534.7000      7.9937      2.5411      0.0818      6.6002    142.3275     28.8363
   534.8000      7.9929      2.5366      0.1130      6.8753    139.2634     28.2021
   534.9000      7.9929      2.5299      0.0767      7.2798    139.2128     27.4933
   535.0000      7.9932      2.5190      0.0807      7.9411    144.0876     26.6709
   535.1000      7.9932      2.5018      0.0513      8.9808    151.2020     26.0866
   535.2000      7.9932      2.4903     -0.0101      9.6799    155.6789     26.0922
   535.3000      7.9935      2.5059      0.0289      8.7342    153.4589     26.3159
   535.4000      7.9935      2.5404      0.0765      6.6425    148.4119     25.9941
   535.5000      7.9949      2.5635      0.0601      5.2411    147.0040     25.3964
   535.6000      7.9949      2.5684      0.0620      4.9432    146.5863     25.1940
   535.7000      7.9949      2.5691      0.0211      4.9013    140.8840     25.0090
   535.8000      7.9927      2.5716      0.0709      4.7503    133.8166     24.4526
   535.9000      7.9927      2.5685      0.0651      4.9411    132.0166     24.0726
   536.0000      7.9929      2.5538      0.0692      5.8287    134.3983     23.8499
   536.1000      7.9929      2.5325      0.0208      7.1206    137.0436     23.3797
   536.2000      7.9929      2.5151      0.0269      8.1767    135.7538     23.1364
   536.3000      7.9941      2.5072      0.0029      8.6526    131.4681     23.4359
   536.4000      7.9941      2.5099      0.0188      8.4916    130.2881     23.7293
   536.5000      7.9954      2.5237     -0.0229      7.6548    130.9095     23.4174
   536.6000      7.9954      2.5404      0.0456      6.6454    128.2942     22.8981
   536.7000      7.9954      2.5441      0.0484      6.4164    124.6660     22.9851
   536.8000      7.9961      2.5341      0.0803      7.0267    123.0773     23.4585
   536.9000      7.9961      2.5251      0.0666      7.5704    124.2023     23.5306
   537.0000      7.9973      2.5316      0.0643      7.1740    125.5588     23.1726
   537.1000      7.9973      2.5509      0.0863      6.0086    124.5290     23.2423
   537.2000      7.9973      2.5651      0.1180      5.1458    124.1693     24.0643
   537.3000      7.9935      2.5635      0.0903      5.2411    125.1668     24.6993
   537.4000      7.9935      2.5466      0.0937      6.2682    123.8936     24.9144
   537.5000      7.9944      2.5208      0.0847      7.8320    124.1104     25.1181
   537.6000      7.9944      2.5011      0.0408      9.0218    131.1316     24.9627
   537.7000      7.9944      2.4969      0.0425      9.2767    139.7269     24.4993
   537.8000      7.9974      2.5014      0.0408      9.0086    141.8427     24.3133
   537.9000      7.9974      2.5092      0.0241      8.5333    138.7331     24.6233
   538.0000      8.0134      2.5196      0.0424      7.9056    136.4488     25.6759
   538.1000      8.0134      2.5214      0.0649      7.7940    136.8221     27.1710
   538.2000      8.0134      2.5090      0.0685      8.5450    139.0224     27.9448
   538.3000      7.9996      2.4972      0.0591      9.2634    140.4794     27.5817
   538.4000      7.9996      2.4980      0.0570      9.2146    140.4928     26.8661
   538.5000      7.9927      2.5071      0.0658      8.6595    139.7962     26.2776
   538.6000      7.9927      2.5141      0.0941      8.2372    136.9623     25.6424
   538.7000      7.9927      2.5118      0.0468      8.3783    134.3515     25.2287
   538.8000      7.9930      2.5041      0.0520      8.8454    138.1674     25.4264
   538.9000      7.9930      2.4938      0.0521      9.4691    147.8329     25.8615
