~Version Information
VERS.                      2.0: CWLS Log ASCII Standard - VERSION 2.0
WRAP.                       NO: One line per depth step
~Well Information Block
STRT.FT               491.0000: 
STOP.FT              1055.5000: 
STEP.FT                 0.1000: 
NULL.                -999.2500: 
COMP.          Evergreen Operating Corporation: COMPANY
WELL.              Sunset 24-3: WELL
FLD.           Purgatorie River: FIELD
LOC.           467' FSL & 2262' FWL: LOCATION
PROV.                 Colorado: PROVINCE
CNTY.               Las Animas: COUNTRY
SRVC.                         : SERVICE COMPANY
DATE.          Wed Sep 22 14:05:09 2004: LOG DATE
UWI.           05 071 08158 00: UNIQUE WELL ID
~Curve Information Block
DEPT.FT            0 000 00 00: Depth
DCAL.in                       : CDL Caliper
RHOB.g/cc                     : CDL Bulk Density
RHOC.g/cc                     : CDL Density Correction
DPOR.pu                       : CDL Density Porosity
GR.GAPI                       : Gamma Ray
NPOR.pu                       : Neutron Porosity
~Parameter Information Block
~A  Depth       DCAL        RHOB        RHOC        DPOR         GR         NPOR    
# ...
   961.4000      7.8634      2.5371      0.0664      6.8450    112.8630     19.1065
   961.5000      7.8566      2.5672      0.0872      5.0168    106.7330     18.9309
   961.6000      7.8566      2.5975      0.1263      3.1838    102.1080     19.4748
   961.7000      7.8566      2.6076      0.1210      2.5673     97.8245     20.8778
   961.8000      7.8469      2.5953      0.0953      3.3131     94.7249     22.1008
   961.9000      7.8469      2.5701      0.1147      4.8413     95.4076     21.8531
   962.0000      7.8409      2.5478      0.0680      6.1945     94.2133     20.5615
   962.1000      7.8409      2.5418      0.0588      6.5586     88.7766     19.4360
   962.2000      7.8409      2.5465      0.0699      6.2737     87.6839     18.6210
   962.3000      7.8567      2.5521      0.0216      5.9358     94.7331     17.9467
   962.4000      7.8567      2.5648      0.0594      5.1634    105.8245     17.6367
   962.5000      7.8842      2.5881      0.0880      3.7494    116.2626     17.5922
   962.6000      7.8842      2.6183      0.0718      1.9184    120.0399     17.5106
   962.7000      7.8842      2.6463      0.1353      0.2264    114.7568     17.8380
   962.8000      7.9125      2.6535      0.1577     -0.2091    106.0144     18.5770
   962.9000      7.9125      2.6359      0.1306      0.8565    100.3367     18.5937
   963.0000      7.8065      2.6104      0.1061      2.3984    101.4789     18.0247
   963.1000      7.8065      2.5915      0.0923      3.5484    111.2797     18.2316
   963.2000      7.8065      2.5821      0.1114      4.1178    128.5340     19.5637
   963.3000      7.7993      2.5819      0.0961      4.1288    147.1200     21.2221
   963.4000      7.7993      2.5915      0.0938      3.5450    160.1038     22.2703
   963.5000      7.8500      2.6084      0.0788      2.5214    163.1143     22.4625
   963.6000      7.8500      2.6240      0.1118      1.5739    156.8243     22.3131
   963.7000      7.8500      2.6278      0.1382      1.3452    149.8107     22.1792
   963.8000      7.8577      2.6235      0.1258      1.6063    146.7486     21.7881
   963.9000      7.8577      2.6275      0.1213      1.3665    143.1008     21.1591
   964.0000      7.8576      2.6393      0.1299      0.6480    134.3254     20.6330
   964.1000      7.8576      2.6417      0.1324      0.5042    126.1546     20.3462
   964.2000      7.8576      2.6241      0.1125      1.5693    125.4863     20.3377
   964.3000      7.8683      2.5907      0.0820      3.5950    130.3270     20.3867
   964.4000      7.8683      2.5570      0.0512      5.6390    135.3151     20.0416
   964.5000      7.8923      2.5419      0.0520      6.5494    136.9785     19.3682
   964.6000      7.8923      2.5523      0.0846      5.9208    133.1608     18.8543
   964.7000      7.8923      2.5780      0.0505      4.3617    123.7789     18.4465
   964.8000      7.9401      2.6044      0.0856      2.7665    112.8585     17.9314
   964.9000      7.9401      2.6151      0.0781      2.1136    106.6260     18.1360
   965.0000      7.9334      2.6019      0.0967      2.9125    107.4995     19.6967
   965.1000      7.9334      2.5764      0.0404      4.4621    112.0626     21.8096
   965.2000      7.9334      2.5557      0.0949      5.7176    112.0373     23.3449
   965.3000      7.9376      2.5443      0.0859      6.4060    106.9820     24.0508
   965.4000      7.9376      2.5410      0.0903      6.6032    106.4408     24.1309
   965.5000      7.8685      2.5419      0.0837      6.5520    110.3188     23.8310
   965.6000      7.8685      2.5424      0.0587      6.5196    110.7785     23.2952
   965.7000      7.8685      2.5430      0.0933      6.4866    108.7975     22.8174
   965.8000      7.8585      2.5469      0.0595      6.2456    111.2672     23.1338
   965.9000      7.8585      2.5628      0.0562      5.2819    116.2348     24.3100
   966.0000      7.8582      2.5857      0.1201      3.8944    118.5161     25.1324
   966.1000      7.8582      2.5982      0.1201      3.1380    118.2899     25.0038
   966.2000      7.8582      2.6048      0.0971      2.7383    114.9614     24.5186
   966.3000      7.8567      2.6169      0.0993      2.0030    109.3679     23.4066
   966.4000      7.8567      2.6227      0.1079      1.6518    105.8068     21.3461
   966.5000      7.8583      2.6142      0.0683      2.1712    106.5369     19.5713
   966.6000      7.8583      2.6035      0.0279      2.8168    110.3533     18.9421
   966.7000      7.8583      2.5941      0.0520      3.3860    110.8889     18.6359
   966.8000      7.8585      2.5793      0.0462      4.2850    105.1301     17.7159
   966.9000      7.8585      2.5644      0.0724      5.1863     99.0558     16.3241
   967.0000      7.8571      2.5616      0.0011      5.3553     97.1765     15.4962
   967.1000      7.8571      2.5734      0.0809      4.6439    101.0279     15.7971
   967.2000      7.8571      2.5858      0.0599      3.8905    108.6924     16.6128
   967.3000      7.8674      2.5897      0.0599      3.6552    114.6364     17.3406
   967.4000      7.8674      2.5903      0.0099      3.6153    116.7289     18.0584
   967.5000      7.8687      2.5893      0.0814      3.6815    115.0053     18.8085
   967.6000      7.8687      2.5789      0.0868      4.3098    111.2308     19.4236
   967.7000      7.8687      2.5633      0.0815      5.2530    111.4382     19.8285
   967.8000      7.8579      2.5546      0.0814      5.7807    117.1214     20.2840
   967.9000      7.8579      2.5545      0.0731      5.7869    122.5544     21.1389
   968.0000      7.8659      2.5549      0.0551      5.7652    126.6860     21.8817
   968.1000      7.8659      2.5483      0.0680      6.1652    130.2952     21.5751
   968.2000      7.8659      2.5361      0.0309      6.9024    129.3978     20.6882
   968.3000      7.9271      2.5212      0.0522      7.8083    122.4229     20.2921
   968.4000      7.9271      2.4985      0.0258      9.1821    114.6551     20.2180
   968.5000      7.9443      2.4742     -0.0073     10.6536    112.0151     19.7829
   968.6000      7.9443      2.4614      0.0195     11.4305    113.1555     18.8744
   968.7000      7.9443      2.4572      0.0083     11.6829    111.2644     17.9800
   968.8000      7.9427      2.4545     -0.0032     11.8477    103.9982     17.3256
   968.9000      7.9427      2.4532      0.0033     11.9258     96.3308     16.6125
   969.0000      7.9196      2.4536      0.0573     11.9050     96.0386     15.8082
   969.1000      7.9196      2.4522      0.0420     11.9901    100.3339     15.3510
   969.2000      7.9196      2.4485      0.0514     12.2101     98.1278     15.2418
   969.3000      7.9172      2.4471      0.0547     12.2991     89.5622     14.8232
   969.4000      7.9172      2.4501      0.0372     12.1157     83.6866     14.0519
   969.5000      7.9179      2.4544      0.0589     11.8560     81.7397     13.4582
   969.6000      7.9179      2.4551      0.0748     11.8110     80.8583     13.4018
   969.7000      7.9179      2.4506      0.1099     12.0844     83.6284     14.0363
   969.8000      7.9196      2.4484      0.0460     12.2170     89.7915     15.0134
   969.9000      7.9196      2.4569      0.0731     11.7031     93.2354     15.5497
   970.0000      7.9193      2.4648      0.1003     11.2256     91.2549     15.4585
   970.1000      7.9193      2.4595      0.0796     11.5467     89.4232     15.4253
   970.2000      7.9193      2.4511      0.0384     12.0565     94.7636     16.0212
   970.3000      7.9182      2.4536      0.0451     11.9060    103.2626     17.0578
   970.4000      7.9182      2.4663      0.0488     11.1315    106.7728     18.1515
   970.5000      7.9177      2.4828      0.0491     10.1359    106.0729     19.3370
   970.6000      7.9177      2.4994      0.0257      9.1268    102.2386     20.4601
   970.7000      7.9177      2.5128      0.0322      8.3171     96.1220     20.7474
   970.8000      7.9171      2.5162      0.0236      8.1084     93.7111     20.3219
   970.9000      7.9171      2.5104      0.0280      8.4627     99.9842     20.0476
