~Version Information
VERS.                      2.0: CWLS Log ASCII Standard - VERSION 2.0
WRAP.                       NO: One line per depth step
~Well Information Block
STRT.FT               472.0000: 
STOP.FT              2641.5000: 
STEP.FT                 0.1000: 
NULL.                -999.2500: 
COMP.          Pioneer Natural Resources: COMPANY
WELL.              Wagner 13-9: WELL
FLD.           Purgatoire River: FIELD
LOC.           1819' FSL & 1111' FWL: LOCATION
PROV.                 Colorado: PROVINCE
CNTY.               Las Animas: COUNTRY
SRVC.                Patterson: SERVICE COMPANY
DATE.          Tue Apr 19 08:56:38 2005: LOG DATE
UWI.           05 071 08302 00: UNIQUE WELL ID
~Curve Information Block
DEPT.FT            0 000 00 00: Depth
DCAL.in                       : CDL Caliper
RHOB.g/cc                     : CDL Bulk Density
RHOC.g/cc                     : CDL Density Correction
DPOR.pu                       : CDL Density Porosity
GR.GAPI                       : Gamma Ray
NPOR.pu                       : Neutron Porosity
~Parameter Information Block
~A  Depth       DCAL        RHOB        RHOC        DPOR         GR         NPOR    
# ...
  1912.0000      7.8986      2.5143      0.0111      8.2229     74.3156     18.9510
  1912.1000      7.8986      2.5252      0.0749      7.5625     74.7248     18.9434
  1912.2000      7.8986      2.5297      0.0639      7.2913     76.2512     19.1106
  1912.3000      7.8978      2.5281      0.0822      7.3907     75.4230     19.5688
  1912.4000      7.8978      2.5237      0.0634      7.6562     72.8640     20.1157
  1912.5000      7.8974      2.5183      0.0619      7.9789     69.2779     20.0762
  1912.6000      7.8974      2.5224      0.0525      7.7309     65.7960     19.2833
  1912.7000      7.8974      2.5404      0.0840      6.6441     64.3309     18.5983
  1912.8000      7.8977      2.5562      0.0627      5.6849     65.9580     18.9727
  1912.9000      7.8977      2.5537      0.0702      5.8340     69.9285     20.2811
  1913.0000      7.8971      2.5348      0.1081      6.9815     73.7579     20.7961
  1913.1000      7.8971      2.5191      0.0309      7.9310     76.2046     19.4698
  1913.2000      7.8971      2.5220      0.0546      7.7589     77.3298     18.0318
  1913.3000      7.8936      2.5333      0.0612      7.0713     76.7261     18.4235
  1913.4000      7.8936      2.5397      0.0621      6.6834     75.1748     20.1315
  1913.5000      7.8911      2.5372      0.0388      6.8383     72.8178     21.4897
  1913.6000      7.8911      2.5312      0.0057      7.2023     68.8397     22.0988
  1913.7000      7.8911      2.5354      0.0118      6.9424     66.8088     22.1605
  1913.8000      7.8943      2.5505      0.0391      6.0280     72.5425     21.7569
  1913.9000      7.8943      2.5615      0.0586      5.3646     85.5879     21.1901
  1914.0000      7.8969      2.5592      0.0689      5.5008     97.6095     21.0929
  1914.1000      7.8969      2.5520      0.0437      5.9403    104.8027     21.7746
  1914.2000      7.8969      2.5548      0.0548      5.7716    111.2609     22.4062
  1914.3000      7.8976      2.5679      0.0638      4.9734    116.7504     22.2902
  1914.4000      7.8976      2.5779      0.0693      4.3708    120.1241     21.9829
  1914.5000      7.8972      2.5773      0.0580      4.4044    121.5611     21.8409
  1914.6000      7.8972      2.5728      0.0652      4.6778    118.4296     21.2179
  1914.7000      7.8972      2.5748      0.0408      4.5594    112.0428     20.0511
  1914.8000      7.8952      2.5809      0.1090      4.1886    104.8132     19.3423
  1914.9000      7.8952      2.5810      0.1127      4.1845     96.7430     19.5724
  1915.0000      7.8942      2.5766      0.1122      4.4507     92.1363     20.1696
  1915.1000      7.8942      2.5728      0.0718      4.6797     94.8431     20.5283
  1915.2000      7.8942      2.5698      0.0769      4.8635     97.5959     20.7418
  1915.3000      7.8952      2.5689      0.0651      4.9146     91.9455     21.2294
  1915.4000      7.8952      2.5669      0.0961      5.0352     82.0748     21.8853
  1915.5000      7.8960      2.5519      0.0666      5.9440     78.5758     22.5001
  1915.6000      7.8960      2.5221      0.0256      7.7516     82.1004     23.1665
  1915.7000      7.8960      2.4937     -0.0182      9.4719     87.3764     23.5634
  1915.8000      7.8963      2.4786      0.0116     10.3885     94.2395     23.1208
  1915.9000      7.8963      2.4782     -0.0144     10.4145    101.0216     21.6946
  1916.0000      7.8963      2.4920      0.0196      9.5745    101.0900     20.0903
  1916.1000      7.8963      2.5072      0.0740      8.6516     91.2969     19.3809
  1916.2000      7.8963      2.5136      0.0302      8.2661     79.4039     19.4765
  1916.3000      7.8959      2.5239      0.0088      7.6414     75.6897     19.6782
  1916.4000      7.8959      2.5488      0.0342      6.1323     78.2809     19.6118
  1916.5000      7.8962      2.5742      0.1235      4.5926     80.7976     19.1491
  1916.6000      7.8962      2.5848      0.0652      3.9491     84.8122     18.9314
  1916.7000      7.8962      2.5877      0.0832      3.7768     91.4389     20.0100
  1916.8000      7.9013      2.5912      0.0822      3.5631     96.7990     21.9857
  1916.9000      7.9013      2.5926      0.0891      3.4786    100.9737     22.9320
  1917.0000      7.9153      2.5878      0.0803      3.7692    105.0935     22.2336
  1917.1000      7.9153      2.5719      0.0922      4.7331    105.9937     21.0296
  1917.2000      7.9153      2.5418      0.0504      6.5579    102.9376     20.1969
  1917.3000      7.9318      2.5080      0.0025      8.6048     98.2455     20.0131
  1917.4000      7.9318      2.4903      0.0018      9.6768     93.1637     20.3979
  1917.5000      7.9355      2.4972      0.0012      9.2604     87.0028     20.8517
  1917.6000      7.9355      2.5161      0.0028      8.1131     80.8272     20.5355
  1917.7000      7.9355      2.5259      0.0283      7.5226     80.2350     19.3299
  1917.8000      7.9244      2.5131      0.0376      8.2973     86.0325     18.2061
  1917.9000      7.9244      2.4844      0.0055     10.0353     91.3462     17.7484
  1918.0000      7.9110      2.4656     -0.0219     11.1755     91.9719     17.7309
  1918.1000      7.9110      2.4732      0.0097     10.7150     87.7998     17.9538
  1918.2000      7.9110      2.4960      0.0095      9.3340     81.0333     18.1115
  1918.3000      7.9026      2.5126      0.0285      8.3297     75.7263     17.8582
  1918.4000      7.9026      2.5133      0.0086      8.2827     74.6595     17.7003
  1918.5000      7.9011      2.5085     -0.0095      8.5740     77.5940     18.0930
  1918.6000      7.9011      2.5095      0.0265      8.5136     80.1700     18.3805
  1918.7000      7.9011      2.5152      0.0513      8.1682     80.2617     18.2359
  1918.8000      7.8996      2.5191      0.0528      7.9354     81.3020     18.3476
  1918.9000      7.8996      2.5147      0.0652      8.2003     83.7619     19.1612
  1919.0000      7.8917      2.5102      0.0532      8.4700     83.9407     20.4193
  1919.1000      7.8917      2.5210      0.0154      7.8159     81.2981     21.4318
  1919.2000      7.8917      2.5391      0.0714      6.7213     79.1100     21.5765
  1919.3000      7.8829      2.5440      0.0817      6.4219     80.2635     21.0271
  1919.4000      7.8829      2.5396      0.0461      6.6926     82.7733     20.5226
  1919.5000      7.8754      2.5422      0.0576      6.5319     81.8665     20.4297
  1919.6000      7.8754      2.5502      0.0854      6.0464     77.1490     20.1952
  1919.7000      7.8754      2.5546      0.0883      5.7813     73.5191     19.4529
  1919.8000      7.8688      2.5582      0.0489      5.5644     74.4331     18.7122
  1919.9000      7.8688      2.5633      0.1096      5.2522     76.9003     18.4150
  1920.0000      7.8681      2.5692      0.0475      4.8941     76.9057     18.1729
  1920.1000      7.8681      2.5795      0.1014      4.2737     75.9506     17.7690
  1920.2000      7.8681      2.5932      0.0943      3.4443     76.5681     17.9820
  1920.3000      7.8755      2.6049      0.0504      2.7363     79.6312     18.6882
  1920.4000      7.8755      2.6031      0.1000      2.8451     86.1748     18.4500
  1920.5000      7.8896      2.5819      0.0694      4.1300     91.9890     17.1096
  1920.6000      7.8896      2.5593      0.0638      5.4948     91.6103     16.0330
  1920.7000      7.8896      2.5548      0.0350      5.7677     87.1663     15.9053
  1920.8000      7.9109      2.5645      0.0335      5.1807     82.1112     16.2766
  1920.9000      7.9109      2.5741      0.0287      4.5994     78.0332     16.6705
  1921.0000      7.9303      2.5783      0.0158      4.3468     77.6483     17.1116
  1921.1000      7.9303      2.5773      0.0243      4.4045     82.1627     17.3970
  1921.2000      7.9303      2.5674      0.0285      5.0083     87.9626     17.3144
  1921.3000      7.9334      2.5453      0.0392      6.3437     90.2375     17.1460
  1921.4000      7.9334      2.5247     -0.0268      7.5953     89.7483     16.9721
  1921.5000      7.9261      2.5258     -0.0083      7.5253     91.3209     16.9632
