~Version Information
VERS.                      2.0: CWLS Log ASCII Standard - VERSION 2.0
WRAP.                       NO: One line per depth step
~Well Information Block
STRT.FT                15.0000: 
STOP.FT              1891.7500: 
STEP.FT                 0.2500: 
NULL.                -999.2500: 
COMP.          Pioneer Natural Resources: COMPANY
WELL.          Oink Oink 14-36 Tr: WELL
FLD.           Purgatoire River: FIELD
LOC.           236' FSL & 164' FWL: LOCATION
PROV.                 Colorado: PROVINCE
CNTY.               Las Animas: COUNTRY
SRVC.                Patterson: SERVICE COMPANY
DATE.          Wed Jun 22 11:40:13 2005: LOG DATE
UWI.           05 071 08393 00: UNIQUE WELL ID
~Curve Information Block
DEPT.FT            0 000 00 00: Depth
GR.GAPI                       : Gamma Ray
CCL.                          : Casing Collar Locator
TT3.usec                      : CBL 3' Travel Time
AMP3.mV                       : CBL 3' Amplitude
~Parameter Information Block
~A  Depth        GR         CCL         TT3         AMP3    
# ...
   886.0000    120.8802      0.0000    659.9340      4.2929
   886.2500    118.2443      0.0000    657.7899      4.0743
   886.5000    113.9526      0.0000    662.1995      3.9069
   886.7500    107.5642      0.0000    671.6472      3.8041
   887.0000    100.6933      0.0000    682.1581      3.7684
   887.2500     96.3844      0.0000    690.1511      3.7863
   887.5000     96.9245      0.0000    694.1281      3.8338
   887.7500    101.9656      0.0000    693.8978      3.8937
   888.0000    108.9325      0.0000    689.2331      3.9696
   888.2500    115.3738      0.0000    679.8412      4.0794
   888.5000    120.6396      0.0000    665.4426      4.2348
   888.7500    125.2180      0.0000    644.7649      4.4280
   889.0000    129.2096      0.0000    615.6975      4.6359
   889.2500    132.2400      0.0000    578.9288      4.8277
   889.5000    134.4221      0.0000    541.5959      4.9682
   889.7500    136.4238      0.0000    515.0104      5.0223
   890.0000    138.5171      0.0000    507.1792      4.9664
   890.2500    140.0956      0.0000    517.8891      4.7979
   890.5000    140.1859      0.0000    540.7857      4.5356
   890.7500    138.0646      0.0000    568.6226      4.2154
   891.0000    133.3051      0.0000    596.1653      3.8796
   891.2500    125.7142      0.0000    620.1500      3.5645
   891.5000    115.7394      0.0000    639.2645      3.2935
   891.7500    104.8417      0.0000    654.9932      3.0812
   892.0000     94.9717      0.0000    670.4081      2.9376
   892.2500     87.4952      0.0000    686.0469      2.8646
   892.5000     82.8680      0.0000    697.7042      2.8511
   892.7500     81.2713      0.0000    700.1660      2.8781
   893.0000     82.9738      0.0000    692.8641      2.9335
   893.2500     87.8118      0.0000    680.6328      3.0192
   893.5000     94.6035      0.0000    669.4198      3.1440
   893.7500    101.4418      0.0000    662.5745      3.3111
   894.0000    106.7937      0.0000    660.6125      3.5148
   894.2500    110.5059      0.0000    662.4213      3.7459
   894.5000    113.7495      0.0000    665.2811      3.9959
   894.7500    117.8238      0.0000    664.8125      4.2544
   895.0000    122.9226      0.0000    657.3337      4.5023
   895.2500    127.9233      0.0000    643.6774      4.7093
   895.5000    131.0119      0.0000    629.9061      4.8436
   895.7500    130.5248      0.0000    623.0585      4.8891
   896.0000    125.9247      0.0000    626.2034      4.8542
   896.2500    118.2745      0.0000    637.4788      4.7632
   896.5000    109.3282      0.0000    652.7166      4.6449
   896.7500    100.2608      0.0000    668.3930      4.5276
   897.0000     91.7670      0.0000    682.8154      4.4357
   897.2500     84.8173      0.0000    695.3171      4.3826
   897.5000     80.3634      0.0000    704.6639      4.3655
   897.7500     78.5135      0.0000    708.6122      4.3711
   898.0000     78.6371      0.0000    705.2023      4.3875
   898.2500     80.0463      0.0000    694.1410      4.4121
   898.5000     82.0901      0.0000    676.3937      4.4516
   898.7500     83.8436      0.0000    652.7245      4.5183
   899.0000     84.2412      0.0000    623.3331      4.6223
   899.2500     82.6436      0.0000    589.5625      4.7619
   899.5000     79.2926      0.0000    555.9990      4.9168
   899.7500     75.3465      0.0000    530.0760      5.0539
   900.0000     72.3674      0.0000    518.7502      5.1454
   900.2500     71.4419      0.0000    525.2944      5.1796
   900.5000     72.6207      0.0000    548.3911      5.1559
   900.7500     75.1581      0.0000    582.6342      5.0785
   901.0000     78.2489      0.0000    619.7735      4.9612
   901.2500     81.7380      0.0000    651.4300      4.8328
   901.5000     86.2703      0.0000    672.3297      4.7267
   901.7500     92.5482      0.0000    681.3939      4.6645
   902.0000    100.2594      0.0000    679.9434      4.6510
   902.2500    107.9090      0.0000    669.3331      4.6800
   902.5000    114.0494      0.0000    650.4719      4.7434
   902.7500    118.6418      0.0000    625.4623      4.8332
   903.0000    122.8141      0.0000    598.8964      4.9375
   903.2500    127.2819      0.0000    576.3361      5.0378
   903.5000    131.5430      0.0000    560.9969      5.1158
   903.7500    134.6557      0.0000    552.2386      5.1634
   904.0000    136.2708      0.0000    547.4917      5.1860
   904.2500    136.8209      0.0000    545.0393      5.1964
   904.5000    137.0609      0.0000    544.5136      5.2043
   904.7500    137.4884      0.0000    545.7311      5.2138
   905.0000    138.0619      0.0000    548.8145      5.2241
   905.2500    138.4074      0.0000    555.3499      5.2224
   905.5000    138.1932      0.0000    567.4931      5.1733
   905.7500    137.3055      0.0000    585.1295      5.0385
   906.0000    135.7157      0.0000    604.7258      4.8233
   906.2500    133.1415      0.0000    621.0751      4.5918
   906.5000    128.9428      0.0000    629.6034      4.4203
   906.7500    122.7951      0.0000    628.5753      4.3412
   907.0000    115.6773      2.8134    621.1281      4.3362
   907.2500    109.7573      3.0000    613.8127      4.3700
   907.5000    106.8580      3.0000    610.8673      4.4222
   907.7500    107.1141      0.0000    610.9838      4.4992
   908.0000    109.2838      0.0000    611.2574      4.6257
   908.2500    112.0521      0.0000    612.0151      4.8167
   908.5000    114.8799      0.0000    615.2244      5.0499
   908.7500    117.9981      0.0000    619.9073      5.2737
   909.0000    121.9056      0.0000    622.1594      5.4441
   909.2500    126.6795      0.0000    619.5483      5.5499
   909.5000    131.5758      0.0000    613.7205      5.6049
   909.7500    135.3775      0.0000    608.5754      5.6288
   910.0000    137.2603      0.0000    607.3177      5.6346
   910.2500    137.3918      0.0000    611.6107      5.6238
   910.5000    136.6270      0.0000    621.8230      5.5860
   910.7500    135.5878      0.0000    636.3541      5.5039
   911.0000    134.3362      0.0000    650.9174      5.3607
   911.2500    133.1236      0.0000    660.2764      5.1503
   911.5000    132.9160      0.0000    662.0284      4.8858
   911.7500    134.3950      0.0000    658.6064      4.6007
   912.0000    136.4566      0.0000    655.2214      4.3372
   912.2500    136.3218      0.0000    656.0388      4.1284
   912.5000    131.4530      0.0000    662.3030      3.9860
   912.7500    121.4835      0.0000    673.0400      3.9037
   913.0000    108.7423      0.0000    686.2994      3.8662
   913.2500     97.2185      0.0000    699.6461      3.8568
   913.5000     90.5713      0.0000    710.5328      3.8594
   913.7500     90.3050      0.0000    717.0879      3.8620
   914.0000     95.2526      0.0000    718.7985      3.8659
   914.2500    102.5789      0.0000    716.7183      3.8931
   914.5000    109.3577      0.0000    713.3058      3.9767
   914.7500    113.8050      0.0000    711.5625      4.1344
   915.0000    115.9913      0.0000    713.1291      4.3520
   915.2500    117.6898      0.0000    716.6140      4.5911
   915.5000    120.8504      0.0000    718.3864      4.8100
   915.7500    125.6252      0.0000    715.6085      4.9785
   916.0000    130.0474      0.0000    708.4315      5.0862
   916.2500    131.8782      0.0000    699.4279      5.1419
   916.5000    130.7023      0.0000    691.4252      5.1658
   916.7500    128.2856      0.0000    685.9097      5.1771
   917.0000    127.0110      0.0000    682.8749      5.1901
   917.2500    127.8472      0.0000    681.5709      5.2125
   917.5000    129.6768      0.0000    681.2684      5.2422
   917.7500    130.6984      0.0000    681.5848      5.2673
   918.0000    130.3893      0.0000    682.4625      5.2752
   918.2500    129.7944      0.0000    683.9344      5.2596
   918.5000    130.0533      0.0000    685.6719      5.2201
   918.7500    131.2733      0.0000    686.5602      5.1619
   919.0000    132.9931      0.0000    684.9727      5.0975
   919.2500    135.0632      0.0000    679.9978      5.0456
