~Version Information
VERS.                      2.0: CWLS Log ASCII Standard - VERSION 2.0
WRAP.                       NO: One line per depth step
~Well Information Block
STRT.FT               675.0000: 
STOP.FT              2371.5000: 
STEP.FT                 0.1000: 
NULL.                -999.2500: 
COMP.          Pioneer Natural Resources: COMPANY
WELL.            Harrier 44-33: WELL
FLD.           Purgatoire River: FIELD
LOC.           456' FSL & 930' FEL: LOCATION
PROV.                 Colorado: PROVINCE
CNTY.               Las Animas: COUNTRY
SRVC.                Patterson: SERVICE COMPANY
DATE.          Mon Jun 20 10:36:59 2005: LOG DATE
UWI.           05 071 08398 00: UNIQUE WELL ID
~Curve Information Block
DEPT.FT            0 000 00 00: Depth
DCAL.in                       : CDL Caliper
RHOB.g/cc                     : CDL Bulk Density
RHOC.g/cc                     : CDL Density Correction
DPOR.pu                       : CDL Density Porosity
GR.GAPI                       : Gamma Ray
NPOR.pu                       : Neutron Porosity
~Parameter Information Block
~A  Depth       DCAL        RHOB        RHOC        DPOR         GR         NPOR    
# ...
  1011.0000      8.2043      2.6350      0.2471      0.9112    141.6217     25.3613
  1011.1000      8.2043      2.6567      0.2740     -0.4048    137.5649     25.6587
  1011.2000      8.2043      2.6464      0.2586      0.2198    133.0210     25.5093
  1011.3000      8.1337      2.6119      0.2677      2.3083    131.0474     24.9660
  1011.4000      8.1337      2.5624      0.2083      5.3115    132.2821     24.4341
  1011.5000      8.1068      2.5123      0.1164      8.3465    132.2844     24.0985
  1011.6000      8.1068      2.4743      0.0467     10.6478    129.4932     23.9882
  1011.7000      8.1068      2.4481      0.0127     12.2369    125.3822     23.9510
  1011.8000      8.1100      2.4311     -0.0104     13.2676    121.6935     23.7426
  1011.9000      8.1100      2.4328      0.0227     13.1661    121.5447     23.4291
  1012.0000      8.2161      2.4537      0.1215     11.8979    126.5489     23.0213
  1012.1000      8.2161      2.4712      0.2587     10.8340    132.7844     22.5818
  1012.2000      8.2161      2.4679      0.2519     11.0338    135.0516     22.4076
  1012.3000      8.4201      2.4516      0.2318     12.0220    136.0914     22.4116
  1012.4000      8.4201      2.4417      0.1947     12.6214    139.5874     22.3476
  1012.5000      8.4828      2.4495      0.2290     12.1520    140.7165     22.3907
  1012.6000      8.4828      2.4763      0.1674     10.5254    137.2458     22.6688
  1012.7000      8.4828      2.5251      0.2437      7.5674    134.1652     22.9603
  1012.8000      8.5868      2.5784      0.4151      4.3376    134.7392     23.0851
  1012.9000      8.5868      2.5986      0.4106      3.1177    139.3481     23.1364
  1013.0000      8.4834      2.5742      0.3928      4.5921    145.2905     23.4463
  1013.1000      8.4834      2.5254      0.3797      7.5494    147.6600     24.1795
  1013.2000      8.4834      2.4866      0.2142      9.9010    143.7027     25.1858
  1013.3000      8.2588      2.4938      0.1116      9.4663    133.4245     26.1102
  1013.4000      8.2588      2.5412      0.1907      6.5959    122.0455     26.4226
  1013.5000      8.1338      2.5820      0.2309      4.1191    117.9401     26.2089
  1013.6000      8.1338      2.5980      0.1552      3.1489    122.2353     26.1852
  1013.7000      8.1338      2.6119      0.1840      2.3096    126.8260     26.2906
  1013.8000      8.1850      2.6299      0.2143      1.2154    126.4508     26.0465
  1013.9000      8.1850      2.6305      0.2216      1.1795    124.3463     25.6944
  1014.0000      8.2864      2.6068      0.1531      2.6152    121.3064     25.6106
  1014.1000      8.2864      2.5728      0.1160      4.6795    115.3202     25.5959
  1014.2000      8.2864      2.5302      0.0693      7.2618    110.5261     25.3696
  1014.3000      8.2552      2.4752      0.0041     10.5953    111.7327     25.0529
  1014.4000      8.2552      2.4217      0.0043     13.8338    116.8936     24.8728
  1014.5000      8.3588      2.3863      0.0220     15.9839    121.9744     24.7574
  1014.6000      8.3588      2.3721      0.0012     16.8414    125.3625     24.4920
  1014.7000      8.3588      2.3788      0.0248     16.4372    128.9580     24.1366
  1014.8000      8.4728      2.4012      0.0209     15.0780    133.5263     23.7199
  1014.9000      8.4728      2.4309      0.0383     13.2807    135.5579     23.0676
  1015.0000      8.4343      2.4574      0.1501     11.6755    133.9357     22.5009
  1015.1000      8.4343      2.4847      0.1354     10.0186    131.3720     22.5905
  1015.2000      8.4343      2.5278      0.1985      7.4051    131.3257     23.2810
  1015.3000      8.4884      2.5607      0.3360      5.4151    132.4998     23.9300
  1015.4000      8.4884      2.5390      0.1560      6.7298    131.6266     23.9875
  1015.5000      8.4849      2.4643      0.0850     11.2523    132.2423     23.5120
  1015.6000      8.4849      2.3605      0.1386     17.5453    135.9708     22.7849
  1015.7000      8.4849      2.2406      0.0643     24.8100    136.7615     21.9723
  1015.8000      8.4352      2.1281     -0.0094     31.6293    133.2693     21.3702
  1015.9000      8.4352      2.0532      0.0430     36.1694    130.1725     21.1331
  1016.0000      8.3973      2.0081      0.0980     38.9039    127.9319     21.2376
  1016.1000      8.3973      1.9592      0.0374     41.8666    124.9779     21.5854
  1016.2000      8.3973      1.9267     -0.0307     43.8337    122.4959     21.9003
  1016.3000      8.4108      1.9775      0.0825     40.7550    123.2208     22.0411
  1016.4000      8.4108      2.1389      0.2620     30.9773    129.6317     22.1149
  1016.5000      8.3556      2.3731      0.4572     16.7813    137.5923     22.1530
  1016.6000      8.3556      2.6045      0.6026      2.7582    138.9444     22.1796
  1016.7000      8.3556      2.7434      0.6243     -5.6588    135.7508     22.4847
  1016.8000      8.2378      2.7480      0.5715     -5.9368    134.4586     23.1281
  1016.9000      8.2378      2.6753      0.3483     -1.5336    136.6983     23.7258
  1017.0000      8.1082      2.6105      0.3009      2.3950    140.4914     24.1705
  1017.1000      8.1082      2.5676      0.2711      4.9915    143.9333     24.6699
  1017.2000      8.1082      2.5214      0.1309      7.7926    146.7535     25.1601
  1017.3000      8.0947      2.4722      0.0368     10.7774    146.5582     25.3980
  1017.4000      8.0947      2.4186      0.0329     14.0250    143.7487     25.3799
  1017.5000      8.0776      2.3381     -0.0161     18.9051    141.6358     25.4158
  1017.6000      8.0776      2.2227     -0.0286     25.8979    140.2388     25.4704
  1017.7000      8.0776      2.0853     -0.0196     34.2236    137.2818     25.1552
  1017.8000      8.0686      1.9501     -0.0845     42.4152    133.3767     24.5921
  1017.9000      8.0686      1.8504     -0.1701     48.4589    130.3864     24.2284
  1018.0000      8.0579      1.8046     -0.1417     51.2389    125.4652     24.1057
  1018.1000      8.0579      1.8028     -0.1193     51.3475    119.0785     23.9942
  1018.2000      8.0579      1.8428     -0.0833     48.9190    119.6834     23.7387
  1018.3000      8.0451      1.9464     -0.0065     42.6419    128.4851     23.2123
  1018.4000      8.0451      2.1137      0.2726     32.5052    135.8987     22.4900
  1018.5000      8.0735      2.2934      0.4991     21.6130    138.0360     21.8725
  1018.6000      8.0735      2.4150      0.5909     14.2431    138.7028     21.3274
  1018.7000      8.0735      2.4334      0.5891     13.1301    136.6139     20.6286
  1018.8000      8.1191      2.3492      0.4595     18.2316    130.9850     19.7095
  1018.9000      8.1191      2.1995      0.3434     27.3060    128.4362     18.7360
  1019.0000      8.1044      2.0304      0.2568     37.5509    130.0228     17.8419
  1019.1000      8.1044      1.8778      0.1095     46.8009    131.1885     17.0770
  1019.2000      8.1044      1.7508      0.0789     54.4969    131.2574     16.6280
  1019.3000      8.1068      1.6412     -0.0005     61.1414    130.2553     16.4355
  1019.4000      8.1068      1.5557     -0.0302     66.3184    124.8579     16.1450
  1019.5000      8.1611      1.5034      0.0451     69.4910    113.5590     15.7449
  1019.6000      8.1611      1.4735      0.0963     71.3035    100.7915     15.4420
  1019.7000      8.1611      1.4617      0.1221     72.0183     91.3280     15.4510
  1019.8000      8.2445      1.4804      0.1422     70.8838     85.0975     15.9510
  1019.9000      8.2445      1.5338      0.1629     67.6472     79.6681     16.7030
  1020.0000      8.2904      1.6106      0.1451     62.9930     74.1118     17.3568
  1020.1000      8.2904      1.6989      0.1174     57.6402     70.2458     17.8158
  1020.2000      8.2904      1.7897      0.1683     52.1372     70.4952     18.2815
  1020.3000      8.3072      1.8710      0.1924     47.2147     74.7082     19.0318
  1020.4000      8.3072      1.9343      0.2119     43.3767     81.2174     20.0722
  1020.5000      8.3131      1.9773      0.2142     40.7675     86.7419     21.1273
