~Version Information
VERS.                      2.0: CWLS Log ASCII Standard - VERSION 2.0
WRAP.                       NO: One line per depth step
~Well Information Block
STRT.FT               -11.7500: 
STOP.FT              2025.5000: 
STEP.FT                 0.2500: 
NULL.                -999.2500: 
COMP.          Evergreen Operating Corp.: COMPANY
WELL.            Sumatra 34-22: WELL
FLD.           Purgatorie River: FIELD
LOC.           542 FSL & 2438 FEL--: LOCATION
PROV.                       CO: PROVINCE
CNTY.               Las Animas: COUNTRY
SRVC.          Patterson Wireline, Inc.: SERVICE COMPANY
DATE.          Wed Apr 02 10:17:21 2003: LOG DATE
UWI.           05 071 07804 00: UNIQUE WELL ID
~Curve Information Block
DEPT.FT            0 000 00 00: Depth
CCL.                          : Casing Collar Locator
TT3.usec                      : CBL 3' Travel Time
AMP3.mV                       : CBL 3' Amplitude
GR.GAPI                       : Gamma Ray
~Parameter Information Block
~A  Depth       CCL         TT3         AMP3         GR     
# ...
  1864.2500      0.0000    751.9564      2.4093     81.5195
  1864.5000      0.0000    752.0074      2.3000     83.9035
  1864.7500      0.0000    752.0796      2.1878     80.5963
  1865.0000      0.0000    752.2634      2.1522     73.1525
  1865.2500      0.0000    752.5810      2.1857     64.6676
  1865.5000      0.0000    752.9066      2.2388     57.9193
  1865.7500      0.0000    753.0948      2.2994     54.1962
  1866.0000      0.0000    753.1729      2.3877     53.3241
  1866.2500      0.0000    753.2325      2.4908     54.4499
  1866.5000      0.0000    753.2354      2.5776     56.6614
  1866.7500      0.0000    753.0959      2.6570     59.1081
  1867.0000      0.0000    752.8453      2.7428     61.0403
  1867.2500      0.0000    752.5356      2.7824     62.0143
  1867.5000      0.0000    751.8013      2.7181     62.0300
  1867.7500      0.0000    749.0471      2.5861     61.3654
  1868.0000      0.0000    741.0602      2.4738     60.2613
  1868.2500      0.0000    725.7028      2.4267     58.8740
  1868.5000      0.0000    706.5361      2.4299     57.5016
  1868.7500      0.0000    690.8677      2.4613     56.6664
  1869.0000      0.0000    681.5093      2.5233     56.9043
  1869.2500      0.0000    674.1789      2.5924     58.4702
  1869.5000      0.0000    662.9674      2.6204     61.1655
  1869.7500      0.0000    649.3701      2.6167     64.3967
  1870.0000      0.0000    645.4782      2.6322     67.3629
  1870.2500      0.0000    658.4863      2.6611     69.2331
  1870.5000      0.0000    678.1386      2.6579     69.4332
  1870.7500      0.0000    694.0848      2.6443     68.1545
  1871.0000      0.0000    711.1940      2.6853     66.6276
  1871.2500      0.0000    735.6160      2.7560     66.4527
  1871.5000      0.0000    760.7267      2.7311     68.1703
  1871.7500      0.0000    776.3639      2.5757     70.5564
  1872.0000      0.0000    782.2113      2.4439     71.6081
  1872.2500      0.0000    782.9584      2.4614     70.1948
  1872.5000      0.0000    779.0216      2.5440     66.7017
  1872.7500      0.0000    770.7848      2.5666     62.4227
  1873.0000      0.0000    762.8457      2.5387     58.5674
  1873.2500      0.0000    758.8654      2.5131     55.7354
  1873.5000      0.0000    758.8674      2.5084     54.2035
  1873.7500      0.0000    762.0684      2.5390     54.3798
  1874.0000      0.0000    767.4194      2.5708     56.4481
  1874.2500      0.0000    771.7848      2.5217     59.6465
  1874.5000      0.0000    771.4874      2.3886     62.5047
  1874.7500      0.0000    765.9577      2.2650     63.8827
  1875.0000      0.0000    759.1388      2.2237     63.5269
  1875.2500      0.0000    756.5940      2.2637     61.8915
  1875.5000      0.0000    759.6700      2.3359     59.8018
  1875.7500      0.0000    764.7161      2.3577     58.1467
  1876.0000      0.0000    767.6777      2.2824     57.6100
  1876.2500      0.0000    767.1413      2.1989     58.6212
  1876.5000      0.0000    765.1216      2.2462     61.2429
  1876.7500      0.0000    765.8203      2.4221     64.8146
  1877.0000      0.0000    770.8340      2.5936     67.9723
  1877.2500      0.0000    777.4223      2.6563     69.4414
  1877.5000      0.0000    783.0966      2.5858     68.8498
  1877.7500      0.0000    787.5626      2.4090     66.6380
  1878.0000      0.0000    789.6357      2.2067     63.3797
  1878.2500      0.0000    785.1002      2.0745     59.5266
  1878.5000      0.0000    770.9013      2.0340     55.7537
  1878.7500      0.0000    751.7851      2.0368     53.0624
  1879.0000      0.0000    737.5362      2.0594     52.2558
  1879.2500      0.0000    732.1841      2.1232     53.3568
  1879.5000      0.0000    731.1860      2.2348     55.5688
  1879.7500      0.0000    730.1100      2.3477     57.7908
  1880.0000      0.0000    730.5996      2.4327     59.3158
  1880.2500      0.0000    735.6880      2.5281     60.1840
  1880.5000      0.0000    743.9037      2.6212     60.8445
  1880.7500      0.0000    751.1104      2.6264     61.6095
  1881.0000      0.0000    755.7687      2.5259     62.5599
  1881.2500      0.0000    759.9095      2.3694     63.7135
  1881.5000      0.0000    765.6987      2.1838     64.9151
  1881.7500      0.0000    770.6616      2.0075     65.6997
  1882.0000      0.0000    765.4974      1.9210     65.6734
  1882.2500      0.0000    741.9118      1.9483     65.0467
  1882.5000      0.0000    705.8082      2.0219     64.6042
  1882.7500      0.0000    675.8533      2.0604     65.3167
  1883.0000      0.0000    668.3434      2.0150     68.0845
  1883.2500      0.0000    687.1254      1.8990     73.3324
  1883.5000      0.0000    720.4569      1.7647     80.2657
  1883.7500      0.0000    748.5175      1.6650     86.6685
  1884.0000      0.0000    761.9116      1.6610     90.0867
  1884.2500      0.0000    765.7872      1.7479     89.5353
  1884.5000      0.0000    765.5063      1.8375     86.0384
  1884.7500      0.0000    761.8365      1.8849     81.7890
  1885.0000      0.0000    757.6738      1.9051     79.0490
  1885.2500      0.0000    757.4170      1.9048     79.2958
  1885.5000      0.0000    760.9576      1.8856     82.5753
  1885.7500      0.0000    763.2654      1.8556     87.5913
  1886.0000      0.0000    760.6127      1.8181     92.8052
  1886.2500      0.0000    754.3142      1.7651     97.5564
  1886.5000      0.0000    746.0082      1.7060    102.1701
  1886.7500      0.0000    734.8771      1.6847    107.2475
  1887.0000      0.0000    722.0644      1.7315    112.8822
  1887.2500      0.0000    711.7473      1.8159    118.3071
  1887.5000      0.0000    706.2234      1.8770    122.2158
  1887.7500      0.0000    704.1650      1.9212    123.5926
  1888.0000      0.0000    703.5105      2.0204    122.2785
  1888.2500      0.0000    703.6827      2.1689    118.7621
  1888.5000      0.0000    706.3384      2.2545    113.8088
  1888.7500      0.0000    715.1067      2.1945    108.5104
  1889.0000      0.0000    731.4568      2.0266    104.2129
  1889.2500      0.0000    749.0653      1.8538    101.8309
  1889.5000      0.0000    756.9019      1.7741    101.2456
  1889.7500      0.0000    749.6621      1.8386    101.5921
  1890.0000      0.0000    732.7711      1.9797    102.0988
  1890.2500      0.0000    717.0222      2.0527    102.5665
  1890.5000      0.0000    708.5125      2.0226    103.2841
  1890.7500      0.0000    706.3235      2.0074    104.7985
  1891.0000      0.0000    707.8409      2.0838    107.6203
  1891.2500      0.0000    707.5405      2.1887    111.6626
  1891.5000      0.0000    692.6605      2.2521    115.9128
  1891.7500      0.0000    659.2489      2.2741    119.0560
  1892.0000      0.0000    633.8473      2.2720    120.4057
  1892.2500      0.0000    650.4472      2.2656    119.9381
  1892.5000      0.0000    704.1773      2.2791    117.7916
  1892.7500      0.0000    757.4985      2.3159    114.4664
  1893.0000      0.0000    786.7368      2.3430    111.3678
  1893.2500      0.0000    794.7636      2.3175    110.1295
  1893.5000      0.0000    787.7711      2.2551    111.0716
  1893.7500      0.0000    762.3146      2.2239    112.9749
  1894.0000      0.0000    719.1456      2.2607    114.4751
  1894.2500      0.0000    680.8050      2.3246    114.9318
  1894.5000      0.0000    675.4431      2.3519    113.8659
  1894.7500      0.0000    704.1926      2.3463    110.4381
  1895.0000      0.0000    743.5172      2.3307    104.0153
  1895.2500      0.0000    772.1444      2.2852     94.9632
  1895.5000      0.0000    783.2178      2.2111     84.6443
  1895.7500      0.0000    775.7938      2.1531     74.8284
  1896.0000      0.0000    749.4185      2.1552     67.1716
  1896.2500     -5.0000    714.9928      2.2254     62.9218
  1896.5000     -5.0000    694.5476      2.3278     62.6652
  1896.7500      0.0000    698.1476      2.4112     65.9908
  1897.0000      0.0000    717.4538      2.4345     71.4373
  1897.2500      0.0000    742.0765      2.4180     77.1467
  1897.5000      0.0000    764.4555      2.4261     81.8368
