~Version Information
VERS.                      2.0: CWLS Log ASCII Standard - VERSION 2.0
WRAP.                       NO: One line per depth step
~Well Information Block
STRT.FT               745.0000: 
STOP.FT              2945.7500: 
STEP.FT                 0.2500: 
NULL.                -999.2500: 
COMP.          Pioneer Natural Resources: COMPANY
WELL.          Old Yeller 31-32: WELL
FLD.           Purgatoire River: FIELD
LOC.           1832' FEL & 793' FNL--: LOCATION
STAT.                 Colorado: State
CNTY.               Las Animas: COUNTY
CTRY. USA : Country
SECT. 32 : Section
TOWN. 32S : Township
RANG. 67W : Range
SRVC.                Patterson: SERVICE COMPANY
DATE.          Sun Aug 28 20:20:00 2005: LOG DATE
API.           05 071 08356 00: UNIQUE WELL ID
~Curve Information Block
DEPT.FT            0 000 00 00: Depth
SN.Ohm-m                      : IEL Short Normal
SP.mV                         : IEL Spontaneous Potential
DIR.Ohm-m                     : IEL Induction Resistivity
GR.GAPI                       : Gamma Ray
~Parameter Information Block
~A  Depth        SN          SP         DIR          GR     
# ...
  1314.5000     25.5908    100.8060     20.2063     80.1730
  1314.7500     25.1560    102.5406     20.5753     76.6252
  1315.0000     24.1623    104.4609     20.4552     72.4413
  1315.2500     22.8601    106.5246     19.8053     71.0153
  1315.5000     21.5141    108.6709     18.7350     71.7838
  1315.7500     20.3054    110.8261     17.4453     73.9127
  1316.0000     19.2974    112.9122     16.1330     77.2832
  1316.2500     18.4740    114.8568     14.9265     78.0270
  1316.5000     17.8067    116.6019     13.8777     75.5033
  1316.7500     17.2942    118.1101     12.9852     71.9811
  1317.0000     16.9474    119.3676     12.2261     66.7002
  1317.2500     16.7429    120.3813     11.5783     64.8989
  1317.5000     16.5951    121.1741     11.0309     66.6118
  1317.7500     16.3821    121.7768     10.5841     70.9513
  1318.0000     16.0058    122.2213     10.2445     81.4249
  1318.2500     15.4398    122.5346     10.0209     89.9494
  1318.5000     14.7292    122.7366      9.9219    102.8740
  1318.7500     13.9597    122.8402      9.9550    110.7760
  1319.0000     13.2286    122.8528     10.1246    121.2814
  1319.2500     12.6358    122.7802     10.4284    127.3109
  1319.5000     12.2855    122.6291     10.8540    133.9109
  1319.7500     12.2735    122.4091     11.3761    135.8164
  1320.0000     12.6549    122.1338     11.9598    134.2377
  1320.2500     13.4074    121.8194     12.5675    130.7379
  1320.5000     14.4218    121.4818     13.1683    123.9317
  1320.7500     15.5353    121.1348     13.7442    119.6924
  1321.0000     16.5924    120.7867     14.2896    115.2256
  1321.2500     17.4926    120.4394     14.8037    113.7123
  1321.5000     18.1944    120.0896     15.2820    113.2117
  1321.7500     18.6928    119.7322     15.7126    113.5933
  1322.0000     19.0008    119.3666     16.0800    114.5610
  1322.2500     19.1465    119.0010     16.3729    115.3900
  1322.5000     19.1729    118.6551     16.5894    117.2719
  1322.7500     19.1285    118.3567     16.7372    119.0180
  1323.0000     19.0559    118.1326     16.8307    121.5305
  1323.2500     18.9832    117.9953     16.8854    122.2768
  1323.5000     18.9230    117.9319     16.9141    121.1162
  1323.7500     18.8758    117.8987     16.9264    119.1146
  1324.0000     18.8350    117.8260     16.9308    115.8372
  1324.2500     18.7871    117.6343     16.9370    114.3815
  1324.5000     18.7078    117.2553     16.9525    113.8763
  1324.7500     18.5624    116.6516     16.9747    114.3344
  1325.0000     18.3191    115.8266     16.9843    115.0987
  1325.2500     17.9652    114.8228     16.9445    115.1464
  1325.5000     17.5143    113.7078     16.8099    114.4764
  1325.7500     16.9995    112.5541     16.5417    113.9910
  1326.0000     16.4599    111.4211     16.1223    114.1140
  1326.2500     15.9314    110.3434     15.5619    114.8063
  1326.5000     15.4462    109.3295     14.8966    115.5573
  1326.7500     15.0337    108.3693     14.1790    114.8567
  1327.0000     14.7174    107.4449     13.4663    111.0002
  1327.2500     14.5089    106.5414     12.8101    106.6440
  1327.5000     14.4033    105.6529     12.2504     98.4110
  1327.7500     14.3750    104.7807     11.8125     92.6955
  1328.0000     14.3762    103.9265     11.5075     85.7437
  1328.2500     14.3416    103.0838     11.3344     83.2886
  1328.5000     14.2067    102.2323     11.2852     83.8532
  1328.7500     13.9328    101.3408     11.3512     86.7901
  1329.0000     13.5361    100.3784     11.5292     93.2162
  1329.2500     13.1141     99.3306     11.8256     97.3974
  1329.5000     12.8605     98.2134     12.2575    101.2993
  1329.7500     13.0510     97.0773     12.8501    101.5590
  1330.0000     13.9805     95.9971     13.6310     98.3431
  1330.2500     15.8586     95.0499     14.6220     94.4300
  1330.5000     18.7094     94.2901     15.8289     87.6816
  1330.7500     22.3345     93.7313     17.2309     83.5784
  1331.0000     26.3750     93.3438     18.7775     79.0049
  1331.2500     30.4437     93.0673     20.3973     77.1967
  1331.5000     34.2453     92.8349     22.0158     76.3349
  1331.7500     37.6034     92.5958     23.5699     76.7977
  1332.0000     40.4077     92.3298     25.0087     78.1291
  1332.2500     42.5742     92.0501     26.2884     78.6901
  1332.5000     44.0541     91.7954     27.3766     78.1669
  1332.7500     44.8419     91.6166     28.2603     76.9456
  1333.0000     44.9516     91.5641     28.9337     74.5768
  1333.2500     44.3911     91.6788     29.3648     73.1930
  1333.5000     43.1746     91.9877     29.4688     72.2270
  1333.7500     41.3579     92.5018     29.1323     72.6916
  1334.0000     39.0625     93.2170     28.2894     75.4077
  1334.2500     36.4588     94.1140     26.9859     78.5523
  1334.5000     33.7168     95.1591     25.3696     85.0109
  1334.7500     30.9616     96.3071     23.6190     90.2850
  1335.0000     28.2668     97.5047     21.8783     99.0268
  1335.2500     25.6803     98.6967     20.2383    104.8050
  1335.5000     23.2496     99.8336     18.7475    112.4844
  1335.7500     21.0338    100.8762     17.4298    116.7879
  1336.0000     19.0970    101.8006     16.2948    122.1836
  1336.2500     17.4887    102.5993     15.3395    125.1455
  1336.5000     16.2211    103.2782     14.5501    128.4837
  1336.7500     15.2616    103.8525     13.9071    129.7245
  1337.0000     14.5435    104.3404     13.3918    129.7592
  1337.2500     13.9902    104.7573     12.9916    128.7532
  1337.5000     13.5384    105.1114     12.6996    126.7328
  1337.7500     13.1525    105.4026     12.5121    125.6298
  1338.0000     12.8282    105.6227     12.4270    124.7478
  1338.2500     12.5911    105.7582     12.4400    124.6237
  1338.5000     12.4863    105.7955     12.5402    124.6133
  1338.7500     12.5514    105.7272     12.7036    124.1504
  1339.0000     12.7795    105.5567     12.8888    121.9568
  1339.2500     13.1023    105.3031     13.0422    119.6084
  1339.5000     13.4183    105.0032     13.1141    115.8866
  1339.7500     13.6484    104.7115     13.0798    113.9179
  1340.0000     13.7742    104.4972     12.9491    112.1927
  1340.2500     13.8266    104.4386     12.7568    111.9671
  1340.5000     13.8435    104.6136     12.5407    113.3271
  1340.7500     13.8388    105.0859     12.3268    115.4379
  1341.0000     13.8013    105.8895     12.1248    119.8485
  1341.2500     13.7114    107.0134     11.9345    122.9912
  1341.5000     13.5565    108.3927     11.7520    127.0319
  1341.7500     13.3394    109.9098     11.5735    129.0072
  1342.0000     13.0785    111.4099     11.3971    131.0388
  1342.2500     12.8000    112.7277     11.2222    132.0308
  1342.5000     12.5274    113.7205     11.0499    133.1631
  1342.7500     12.2719    114.2966     10.8831    133.5258
  1343.0000     12.0315    114.4311     10.7263    133.0209
  1343.2500     11.7976    114.1649     10.5840    131.7971
  1343.5000     11.5664    113.5886     10.4581    128.8652
  1343.7500     11.3467    112.8177     10.3457    126.7493
  1344.0000     11.1591    111.9671     10.2403    124.3871
  1344.2500     11.0280    111.1328     10.1355    123.4472
  1344.5000     10.9696    110.3820     10.0288    122.3354
  1344.7500     10.9828    109.7515      9.9237    121.5351
  1345.0000     11.0418    109.2533      9.8280    120.4603
  1345.2500     11.0954    108.8815      9.7515    119.9788
  1345.5000     11.0784    108.6196      9.7025    119.4002
  1345.7500     10.9336    108.4466      9.6857    118.9132
  1346.0000     10.6400    108.3406      9.7007    118.1034
  1346.2500     10.2317    108.2811      9.7421    117.7439
  1346.5000      9.7958    108.2501      9.8007    117.7360
  1346.7500      9.4463    108.2314      9.8668    118.0908
  1347.0000      9.2876    108.2100      9.9330    119.0006
  1347.2500      9.3868    108.1710      9.9968    119.6229
  1347.5000      9.7643    108.0987     10.0612    120.0522
  1347.7500     10.3981    107.9763     10.1345    119.8882
