~Version Information
VERS.                      2.0: CWLS Log ASCII Standard - VERSION 2.0
WRAP.                       NO: One line per depth step
~Well Information Block
STRT.FT               440.0000: 
STOP.FT              2735.2000: 
STEP.FT                 0.1000: 
NULL.                -999.2500: 
COMP.          Pioneer Natural Resources: COMPANY
WELL.              Cluck 21-25: WELL
FLD.           Purgatoire River: FIELD
LOC.           91' FNL & 1834' FWL--: LOCATION
PROV.                 Colorado: PROVINCE
CNTY.               Las Animas: COUNTRY
SRVC.                Patterson: SERVICE COMPANY
DATE.          Tue Jun 07 07:26:19 2005: LOG DATE
UWI.           05 071 08397 00: UNIQUE WELL ID
~Curve Information Block
DEPT.FT            0 000 00 00: Depth
DCAL.in                       : CDL Caliper
RHOB.g/cc                     : CDL Bulk Density
RHOC.g/cc                     : CDL Density Correction
DPOR.pu                       : CDL Density Porosity
NPOR.pu                       : Neutron Porosity
GR.GAPI                       : Gamma Ray
~Parameter Information Block
SNDERRM.mmho-m          0.0000: Medium Sonde Error Correction
~A  Depth       DCAL        RHOB        RHOC        DPOR        NPOR         GR     
# ...
   737.6000      8.0829      2.5797      0.1184      4.2593     22.8721     78.7323
   737.7000      8.0829      2.5843      0.1061      3.9810     22.5408     80.1284
   737.8000      8.0820      2.5627      0.0544      5.2896     22.4192     81.1829
   737.9000      8.0820      2.5260      0.0126      7.5171     21.9243     79.4796
   738.0000      8.0822      2.4932      0.0097      9.5011     21.0521     75.9669
   738.1000      8.0822      2.4814     -0.0052     10.2169     20.4120     73.4865
   738.2000      8.0822      2.4895      0.0398      9.7267     20.2238     73.2550
   738.3000      8.0840      2.5011      0.0355      9.0229     20.0754     73.6074
   738.4000      8.0840      2.5050      0.0058      8.7883     19.6896     73.6610
   738.5000      8.0866      2.5060      0.0115      8.7266     19.1819     72.1650
   738.6000      8.0866      2.5145      0.0027      8.2143     18.6529     67.7138
   738.7000      8.0866      2.5259      0.0541      7.5231     17.9852     62.4379
   738.8000      8.0930      2.5234      0.0653      7.6748     17.3267     59.7785
   738.9000      8.0930      2.5027      0.0396      8.9250     16.9769     60.5700
   739.0000      8.1031      2.4812     -0.0276     10.2303     17.0715     62.8016
   739.1000      8.1031      2.4744      0.0305     10.6441     17.6631     64.2680
   739.2000      8.1031      2.4782      0.0091     10.4101     18.5531     66.2882
   739.3000      8.1099      2.4883      0.0052      9.8024     19.3603     70.3615
   739.4000      8.1099      2.4974      0.0385      9.2506     19.6444     72.6011
   739.5000      8.1132      2.4996      0.0045      9.1147     19.3638     68.6932
   739.6000      8.1132      2.5109     -0.0051      8.4296     19.1169     61.7040
   739.7000      8.1132      2.5336      0.0505      7.0521     19.2477     57.0664
   739.8000      8.1128      2.5405      0.0354      6.6393     19.3484     54.7677
   739.9000      8.1128      2.5217      0.0357      7.7733     19.0211     54.2629
   740.0000      8.1067      2.4922      0.0477      9.5649     18.3767     56.4807
   740.1000      8.1067      2.4649      0.0285     11.2207     17.8685     60.1845
   740.2000      8.1067      2.4480      0.0224     12.2422     17.8800     64.0566
   740.3000      8.0975      2.4458      0.0036     12.3750     18.0885     67.2646
   740.4000      8.0975      2.4565      0.0242     11.7270     17.9818     67.7570
   740.5000      8.0925      2.4695      0.0299     10.9416     17.4675     66.1856
   740.6000      8.0925      2.4735      0.0458     10.6967     16.7304     66.0183
   740.7000      8.0925      2.4745      0.0204     10.6382     16.2659     67.7370
   740.8000      8.0904      2.4873      0.0335      9.8583     16.4112     69.5618
   740.9000      8.0904      2.5089      0.0656      8.5543     16.8466     71.1761
   741.0000      8.0883      2.5256      0.0444      7.5396     17.1193     71.4255
   741.1000      8.0883      2.5291      0.0948      7.3302     17.2346     68.6514
   741.2000      8.0883      2.5167      0.0674      8.0812     17.3552     65.3664
   741.3000      8.0887      2.5027      0.0629      8.9282     17.5519     65.1391
   741.4000      8.0887      2.5043      0.0546      8.8287     18.1746     67.6018
   741.5000      8.0939      2.5188      0.0948      7.9509     19.2890     71.8934
   741.6000      8.0939      2.5278      0.1031      7.4049     20.3340     75.2673
   741.7000      8.0939      2.5249      0.0577      7.5808     21.2010     74.6730
   741.8000      8.1020      2.5201      0.0763      7.8745     22.2161     73.0584
   741.9000      8.1020      2.5217      0.0866      7.7769     23.4529     74.0333
   742.0000      8.1089      2.5321      0.0993      7.1451     24.9742     77.9139
   742.1000      8.1089      2.5428      0.1190      6.4990     26.5623     84.9768
   742.2000      8.1089      2.5397      0.0815      6.6875     27.6833     94.4093
   742.3000      8.1114      2.5236      0.0656      7.6630     28.2325    101.1330
   742.4000      8.1114      2.5094      0.0018      8.5188     28.4171    102.5938
   742.5000      8.1108      2.5105     -0.0162      8.4532     28.2389    102.8717
   742.6000      8.1108      2.5245      0.0336      7.6040     28.0632    106.5933
   742.7000      8.1108      2.5389      0.0080      6.7351     28.0676    113.1073
   742.8000      8.1110      2.5418      0.0637      6.5601     27.6312    117.1020
   742.9000      8.1110      2.5272      0.0634      7.4415     26.6928    117.6077
   743.0000      8.1168      2.5027      0.0681      8.9259     26.2135    121.4908
   743.1000      8.1168      2.4825      0.0679     10.1502     26.3981    131.6775
   743.2000      8.1168      2.4844      0.0605     10.0341     26.4470    142.4699
   743.3000      8.1217      2.5102      0.1688      8.4747     26.2521    147.4640
   743.4000      8.1217      2.5331      0.1544      7.0850     26.3296    147.6806
   743.5000      8.1165      2.5377      0.1072      6.8050     26.6140    146.6260
   743.6000      8.1165      2.5328      0.0613      7.1018     26.6081    143.5558
   743.7000      8.1165      2.5234      0.0479      7.6702     26.3927    141.0570
   743.8000      8.1120      2.5076      0.0827      8.6293     26.3163    141.3428
   743.9000      8.1120      2.5019     -0.0100      8.9732     26.3120    139.8572
   744.0000      8.1148      2.5273      0.0799      7.4345     26.3167    137.6493
   744.1000      8.1148      2.5764      0.0956      4.4609     26.3158    139.9695
   744.2000      8.1148      2.6298      0.1676      1.2216     26.1242    145.1003
   744.3000      8.1156      2.6741      0.1486     -1.4602     25.9335    146.1474
   744.4000      8.1156      2.6954      0.1782     -2.7531     26.0776    142.6836
   744.5000      8.1134      2.6822      0.1274     -1.9526     26.5762    139.8332
   744.6000      8.1134      2.6429      0.0966      0.4291     27.1175    138.0773
   744.7000      8.1134      2.6038      0.0438      2.8026     27.2768    137.5532
   744.8000      8.1153      2.5889     -0.0021      3.7010     27.2338    140.6276
   744.9000      8.1153      2.5973      0.0252      3.1928     27.4088    143.3420
   745.0000      8.1211      2.5981      0.0661      3.1434     27.6200    141.7141
   745.1000      8.1211      2.5737      0.0107      4.6218     27.4221    138.9005
   745.2000      8.1211      2.5447     -0.0394      6.3792     27.0407    135.5840
   745.3000      8.1274      2.5348     -0.0037      6.9789     26.8917    129.4739
   745.4000      8.1274      2.5390      0.0205      6.7257     26.8592    126.3079
   745.5000      8.1295      2.5385      0.0546      6.7584     26.8257    130.9924
   745.6000      8.1295      2.5366     -0.0190      6.8737     26.8663    137.7473
   745.7000      8.1295      2.5523      0.0416      5.9201     26.8052    140.4581
   745.8000      8.1275      2.5765      0.0723      4.4572     26.4700    139.4895
   745.9000      8.1275      2.5778      0.0891      4.3786     25.8260    138.2707
   746.0000      8.1275      2.5498      0.0247      6.0755     24.9421    137.8039
   746.1000      8.1275      2.5192      0.0036      7.9289     24.0840    137.2193
   746.2000      8.1275      2.5106     -0.0222      8.4509     23.4836    135.0337
   746.3000      8.1302      2.5229      0.0387      7.7032     23.3398    129.1407
   746.4000      8.1302      2.5359      0.0410      6.9169     23.5462    124.2007
   746.5000      8.1317      2.5377      0.0439      6.8043     23.5275    126.1232
   746.6000      8.1317      2.5302      0.0539      7.2609     23.2150    131.2586
   746.7000      8.1317      2.5192     -0.0155      7.9265     23.1559    132.3786
   746.8000      8.1328      2.5196     -0.0237      7.9000     23.3564    127.8430
   746.9000      8.1328      2.5331      0.0491      7.0868     23.3172    122.3797
   747.0000      8.1374      2.5400      0.0095      6.6672     23.0826    121.4136
   747.1000      8.1374      2.5338      0.0323      7.0413     23.1475    122.7877
