~Version Information
VERS.                      2.0: CWLS Log ASCII Standard - VERSION 2.0
WRAP.                       NO: One line per depth step
~Well Information Block
STRT.FT               260.0000: 
STOP.FT              2269.5000: 
STEP.FT                 0.1000: 
NULL.                -999.2500: 
COMP.          Pioneer Natural Resources: COMPANY
WELL.            Moo Moo 31-36: WELL
FLD.           Purgatoire River: FIELD
LOC.           612' FNL & 2326' FEL: LOCATION
PROV.                 Colorado: PROVINCE
CNTY.               Las Animas: COUNTRY
SRVC.                Patterson: SERVICE COMPANY
DATE.          Fri Jun 17 07:04:43 2005: LOG DATE
UWI.           05 071 08395 00: UNIQUE WELL ID
~Curve Information Block
DEPT.FT            0 000 00 00: Depth
DCAL.in                       : CDL Caliper
RHOB.g/cc                     : CDL Bulk Density
RHOC.g/cc                     : CDL Density Correction
DPOR.pu                       : CDL Density Porosity
GR.GAPI                       : Gamma Ray
NPOR.pu                       : Neutron Porosity
~Parameter Information Block
~A  Depth       DCAL        RHOB        RHOC        DPOR         GR         NPOR    
# ...
  1594.4000      8.2650      2.7606      0.2424     -6.7001    141.4120     29.0500
  1594.5000      8.2984      2.7580      0.2544     -6.5456    135.2517     29.9341
  1594.6000      8.2984      2.7368      0.1833     -5.2611    133.3690     29.7468
  1594.7000      8.2984      2.7200      0.1837     -4.2420    137.8335     28.5992
  1594.8000      8.1616      2.7168      0.1193     -4.0484    151.5266     27.3299
  1594.9000      8.1616      2.7084      0.0329     -3.5368    164.0998     26.7827
  1595.0000      8.1800      2.6757      0.0152     -1.5606    164.8339     26.8486
  1595.1000      8.1800      2.6142      0.0364      2.1670    157.2347     26.9202
  1595.2000      8.1800      2.5514     -0.0680      5.9765    149.9178     26.9089
  1595.3000      8.0774      2.5316      0.0003      7.1773    150.3838     26.9621
  1595.4000      8.0774      2.5445      0.0595      6.3936    160.5871     26.8056
  1595.5000      8.0822      2.5457     -0.0060      6.3192    170.8067     26.7104
  1595.6000      8.0822      2.5240      0.0449      7.6372    172.0788     27.3126
  1595.7000      8.0822      2.4993     -0.0194      9.1338    170.6504     28.0679
  1595.8000      8.0539      2.5058      0.0792      8.7387    174.4513     27.9679
  1595.9000      8.0539      2.5513      0.2336      5.9847    183.6066     27.4596
  1596.0000      8.0607      2.6071      0.2672      2.6019    190.9435     27.8419
  1596.1000      8.0607      2.6434      0.2900      0.4023    189.0405     28.5972
  1596.2000      8.0607      2.6462      0.2641      0.2327    180.4734     28.5772
  1596.3000      8.1402      2.6246      0.2061      1.5382    174.5137     28.3045
  1596.4000      8.1402      2.6021      0.1736      2.9003    174.3104     28.3361
  1596.5000      8.2227      2.5858      0.2042      3.8933    175.9171     28.5124
  1596.6000      8.2227      2.5688      0.1583      4.9220    173.5227     29.1407
  1596.7000      8.2227      2.5542      0.1792      5.8070    168.5293     30.2690
  1596.8000      8.1932      2.5468      0.2080      6.2547    170.3588     30.7348
  1596.9000      8.1932      2.5470      0.1942      6.2416    176.0823     30.2314
  1597.0000      8.2179      2.5504      0.2313      6.0335    178.1950     29.5935
  1597.1000      8.2179      2.5478      0.2285      6.1919    180.2130     29.0241
  1597.2000      8.2179      2.5429      0.1985      6.4916    187.1656     28.8193
  1597.3000      8.1998      2.5486      0.1852      6.1454    195.5191     29.5417
  1597.4000      8.1998      2.5560      0.2410      5.6949    197.4821     30.4014
  1597.5000      8.2865      2.5523      0.1391      5.9203    194.2271     30.2486
  1597.6000      8.2865      2.5560      0.1489      5.6970    190.2899     29.4813
  1597.7000      8.2865      2.5784      0.2413      4.3369    183.7836     28.9236
  1597.8000      8.2111      2.6035      0.2155      2.8163    176.2843     28.6323
  1597.9000      8.2111      2.6278      0.2395      1.3461    174.9984     28.0248
  1598.0000      8.0777      2.6526      0.3069     -0.1563    178.8000     27.2038
  1598.1000      8.0777      2.6686      0.2360     -1.1270    179.3484     27.1476
  1598.2000      8.0777      2.6749      0.2248     -1.5096    176.4067     27.6780
  1598.3000      8.1388      2.6786      0.2127     -1.7339    170.8748     28.1230
  1598.4000      8.1388      2.6850      0.2132     -2.1203    164.7178     28.6929
  1598.5000      8.1591      2.6861      0.2368     -2.1873    167.0495     29.3298
  1598.6000      8.1591      2.6663      0.2185     -0.9900    177.1255     29.7772
  1598.7000      8.1591      2.6286      0.1392      1.2991    181.3978     30.1482
  1598.8000      8.4370      2.5984      0.0287      3.1258    176.3600     29.8879
  1598.9000      8.4370      2.5943      0.0119      3.3736    171.1218     28.6646
  1599.0000      8.5325      2.6032      0.0569      2.8394    170.0454     27.7232
  1599.1000      8.5325      2.6019      0.0516      2.9176    167.9271     27.8080
  1599.2000      8.5325      2.5846      0.0321      3.9633    160.7261     27.9474
  1599.3000      8.4442      2.5596      0.0065      5.4774    151.9880     27.2590
  1599.4000      8.4442      2.5469      0.0013      6.2506    148.1111     25.8017
  1599.5000      8.3303      2.5627      0.0234      5.2935    150.8827     24.5200
  1599.6000      8.3303      2.5936      0.0656      3.4209    154.5319     24.5379
  1599.7000      8.3303      2.6082      0.0937      2.5350    151.2245     25.5924
  1599.8000      8.1903      2.5925      0.0310      3.4878    142.2738     26.5657
  1599.9000      8.1903      2.5713     -0.0329      4.7691    136.7714     27.1615
  1600.0000      8.1407      2.5818      0.0354      4.1342    136.0724     27.4536
  1600.1000      8.1407      2.6163      0.0474      2.0427    135.6137     27.1100
  1600.2000      8.1407      2.6308      0.0596      1.1662    134.2410     25.9494
  1600.3000      8.1180      2.6171      0.0402      1.9936    131.8477     24.7276
  1600.4000      8.1180      2.6149      0.0439      2.1293    128.8834     24.5188
  1600.5000      8.0968      2.6399      0.0599      0.6146    126.6093     25.7237
  1600.6000      8.0968      2.6633      0.0886     -0.8051    126.0300     27.5730
  1600.7000      8.0968      2.6591      0.1086     -0.5504    126.1639     28.4240
  1600.8000      8.0997      2.6357      0.0164      0.8679    127.2925     27.3850
  1600.9000      8.0997      2.6155      0.0264      2.0887    131.8702     25.8335
  1601.0000      8.0991      2.6025     -0.0150      2.8788    134.5253     25.3462
  1601.1000      8.0991      2.5877      0.0546      3.7757    130.3128     25.3104
  1601.2000      8.0991      2.5684      0.0193      4.9477    126.8933     25.0008
  1601.3000      8.0964      2.5590     -0.0334      5.5171    133.9961     24.7618
  1601.4000      8.0964      2.5660      0.0026      5.0883    146.6504     24.4776
  1601.5000      8.0980      2.5713      0.0030      4.7691    152.8842     24.0797
  1601.6000      8.0980      2.5687      0.0612      4.9269    151.1079     24.3276
  1601.7000      8.0980      2.5741      0.1168      4.5979    147.2026     25.1318
  1601.8000      8.0970      2.5942      0.1341      3.3837    146.4356     25.6082
  1601.9000      8.0970      2.6179      0.1603      1.9469    148.2311     25.8854
  1602.0000      8.0858      2.6289      0.1510      1.2789    150.6096     26.6265
  1602.1000      8.0858      2.6234      0.1342      1.6137    152.9935     27.6551
  1602.2000      8.0858      2.6083      0.1323      2.5249    154.7999     28.1835
  1602.3000      8.0946      2.5907      0.0810      3.5960    157.4034     28.0948
  1602.4000      8.0946      2.5811      0.0459      4.1786    160.2497     27.6252
  1602.5000      8.0935      2.5772      0.1117      4.4110    161.5027     26.9021
  1602.6000      8.0935      2.5664      0.0650      5.0682    162.6382     26.3112
  1602.7000      8.0935      2.5562      0.0094      5.6834    163.3561     26.5624
  1602.8000      8.0932      2.5643      0.0202      5.1911    162.0533     27.3512
  1602.9000      8.0932      2.5852      0.0657      3.9275    161.3775     27.6252
  1603.0000      8.1095      2.5930      0.0507      3.4526    161.4623     27.6422
  1603.1000      8.1095      2.5741      0.0435      4.5973    158.2341     27.9322
  1603.2000      8.1095      2.5368      0.0389      6.8585    154.5866     27.9545
  1603.3000      8.1270      2.4989      0.0031      9.1564    155.2807     27.2999
  1603.4000      8.1270      2.4858     -0.0306      9.9542    155.7979     26.5510
  1603.5000      8.1380      2.5079      0.0241      8.6131    153.6298     26.5174
  1603.6000      8.1380      2.5427      0.0471      6.5017    156.3828     27.1393
  1603.7000      8.1380      2.5747      0.0272      4.5609    165.9883     27.5587
  1603.8000      8.1514      2.6102      0.1150      2.4130    173.3353     27.3938
  1603.9000      8.1514      2.6348      0.1509      0.9233    171.8925     26.8846
