~Version Information
VERS.                      2.0: CWLS Log ASCII Standard - VERSION 2.0
WRAP.                       NO: One line per depth step
~Well Information Block
STRT.FT               425.0000: 
STOP.FT              2461.0000: 
STEP.FT                 0.1000: 
NULL.                -999.2500: 
COMP.          Evergreen Operating Corporation: COMPANY
WELL.              Nomad 32-10: WELL
FLD.           Purgatorie River: FIELD
LOC.           2281' FNL & 1585' FEL: LOCATION
PROV.                 Colorado: PROVINCE
CNTY.               Las Animas: COUNTRY
SRVC.                Patterson: SERVICE COMPANY
DATE.          Thu Aug 12 11:13:52 2004: LOG DATE
UWI.           05 071 08127 00: UNIQUE WELL ID
~Curve Information Block
DEPT.FT            0 000 00 00: Depth
DCAL.in                       : CDL Caliper
RHOB.g/cc                     : CDL Bulk Density
RHOC.g/cc                     : CDL Density Correction
DPOR.pu                       : CDL Density Porosity
NPOR.pu                       : Neutron Porosity
GR.GAPI                       : Gamma Ray
~Parameter Information Block
~A  Depth       DCAL        RHOB        RHOC        DPOR        NPOR         GR     
   425.0000      1.6864      2.2877      0.3887     21.9567     44.0205     64.7580
   425.1000      1.6864      2.2836      0.3676     22.2082     43.8005     64.4896
   425.2000      1.6864      2.2839      0.3639     22.1856     43.5476     66.2763
   425.3000      1.7010      2.2867      0.3807     22.0179     43.4603     70.5469
   425.4000      1.7010      2.2826      0.4017     22.2646     43.6204     75.5848
   425.5000      1.6981      2.2611      0.4004     23.5695     43.8371     78.7631
   425.6000      1.6981      2.2285      0.3543     25.5451     43.9300     81.3505
   425.7000      1.6981      2.2041      0.3277     27.0213     44.0307     84.8008
   425.8000      1.6763      2.1961      0.3576     27.5113     44.1164     88.8846
   425.9000      1.6763      2.1991      0.3673     27.3266     44.0043     91.2511
   426.0000      1.6923      2.2093      0.3660     26.7076     43.7136     87.6692
   426.1000      1.6923      2.2243      0.3637     25.8027     43.3745     77.1955
   426.2000      1.6923      2.2376      0.3998     24.9944     43.0852     66.0701
   426.3000      1.6828      2.2444      0.3874     24.5808     42.9730     62.1356
   426.4000      1.6828      2.2482      0.3873     24.3525     43.0905     68.4162
   426.5000      1.6516      2.2503      0.4021     24.2213     43.2816     78.8913
   426.6000      1.6516      2.2485      0.3717     24.3308     43.3489     83.6294
   426.7000      1.6516      2.2476      0.3747     24.3879     43.2477     83.4067
   426.8000      1.5860      2.2480      0.3924     24.3632     43.1038     85.5504
   426.9000      1.5860      2.2420      0.3976     24.7266     42.8931     89.4935
   427.0000      1.5642      2.2304      0.3792     25.4328     42.5594     90.9167
   427.1000      1.5642      2.2239      0.3689     25.8245     42.3993     90.4399
   427.2000      1.5642      2.2274      0.3614     25.6148     42.5469     89.6582
   427.3000      1.5559      2.2307      0.3971     25.4092     42.5998     88.1753
   427.4000      1.5559      2.2206      0.3907     26.0250     42.2125     86.5441
   427.5000      1.5836      2.1954      0.3852     27.5499     41.5738     84.2129
   427.6000      1.5836      2.1612      0.3892     29.6246     41.0886     82.6325
   427.7000      1.5836      2.1273      0.3474     31.6774     40.9474     87.1649
   427.8000      1.6420      2.1071      0.3492     32.9060     41.0875     97.8992
   427.9000      1.6420      2.1039      0.3574     33.0948     41.2722    104.4299
   428.0000      1.6146      2.1103      0.3782     32.7110     41.2177    100.1578
   428.1000      1.6146      2.1195      0.3863     32.1543     40.9389     93.3574
   428.2000      1.6146      2.1316      0.4132     31.4174     40.7716     91.6698
   428.3000      1.6360      2.1494      0.4225     30.3418     40.9924     91.9567
   428.4000      1.6360      2.1702      0.4476     29.0779     41.5275     90.0787
   428.5000      1.5849      2.1847      0.4636     28.2012     41.9834     88.8753
   428.6000      1.5849      2.1857      0.4534     28.1404     42.2956     89.8822
   428.7000      1.5849      2.1791      0.4371     28.5382     42.5931     90.9272
   428.8000      1.5938      2.1727      0.4608     28.9302     42.6986     92.3557
   428.9000      1.5938      2.1641      0.4478     29.4509     42.5509     93.7994
   429.0000      1.5867      2.1530      0.4358     30.1240     42.4022     91.8708
   429.1000      1.5867      2.1422      0.4315     30.7759     42.3074     85.8461
   429.2000      1.5867      2.1325      0.4336     31.3618     42.0391     78.2724
   429.3000      1.5685      2.1264      0.4112     31.7344     41.6418     73.4092
   429.4000      1.5685      2.1228      0.4417     31.9517     41.3447     74.9175
   429.5000      1.5536      2.1117      0.4338     32.6254     41.3236     80.0520
   429.6000      1.5536      2.0889      0.4299     34.0042     41.6470     80.4999
   429.7000      1.5536      2.0658      0.4222     35.4086     41.9752     74.8537
   429.8000      1.5739      2.0493      0.3992     36.4087     41.8642     71.8429
   429.9000      1.5739      2.0146      0.4171     38.5110     41.4749     74.8888
   430.0000      1.5734      1.9074      0.4162     45.0070     41.3933     78.4769
   430.1000      1.5734      1.6946      0.3557     57.9042     41.7583     79.3094
   430.2000      1.5734      1.4068      0.2475     75.3465     41.9177     79.1986
   430.3000      1.5958      1.1140      0.1598     93.0883     41.5670     78.8895
   430.4000      1.5958      0.8780      0.0641    107.3955     41.2207     79.4087
   430.5000      1.5536      0.7338      0.0071    116.1332     41.3290     81.8365
   430.6000      1.5536      0.6751      0.1192    119.6904     41.7427     83.5781
   430.7000      1.5536      0.6517      0.1989    121.1064     42.0381     82.6265
   430.8000      1.4634      0.6134      0.1895    123.4282     42.0730     81.0638
   430.9000      1.4634      0.5458      0.1080    127.5258     41.8773     83.8989
   431.0000      1.4442      0.4628      0.0073    132.5603     41.6426     90.9514
   431.1000      1.4442      0.3859     -0.0715    137.2184     41.7322     95.1242
   431.2000      1.4442      0.3380     -0.1531    140.1213     41.9507     94.3169
   431.3000      1.4892      0.3390     -0.1736    140.0625     41.8721     92.9439
   431.4000      1.4892      0.3918     -0.1713    136.8600     41.7514     93.2897
   431.5000      1.5537      0.4743     -0.1084    131.8580     42.0544     93.1563
   431.6000      1.5537      0.5543     -0.1138    127.0100     42.5371     92.0915
   431.7000      1.5537      0.6186     -0.0817    123.1174     42.6890     93.3478
   431.8000      1.5528      0.6772     -0.0593    119.5638     42.3922     97.9808
   431.9000      1.5528      0.7368      0.0375    115.9496     42.0319    101.8818
   432.0000      1.5726      0.7866      0.1193    112.9336     42.1173    102.4671
   432.1000      1.5726      0.8211      0.1701    110.8444     42.6079    104.3696
   432.2000      1.5726      0.8563      0.1793    108.7072     42.9555    110.7029
   432.3000      1.5278      0.9082      0.2121    105.5630     42.8690    118.8978
   432.4000      1.5278      0.9633      0.2427    102.2216     42.5983    131.8017
   432.5000      1.5714      0.9948      0.2202    100.3164     42.4708    150.2115
   432.6000      1.5714      1.0006      0.2028     99.9616     42.5384    163.0320
   432.7000      1.5714      1.0022      0.1920     99.8642     42.5865    164.7885
   432.8000      1.5958      1.0163      0.1980     99.0134     42.5000    161.9383
   432.9000      1.5958      1.0408      0.2586     97.5297     42.4662    159.1725
   433.0000      1.6027      1.0635      0.2748     96.1486     42.5734    157.6739
   433.1000      1.6027      1.0787      0.2787     95.2322     42.6156    158.8010
   433.2000      1.6027      1.0881      0.2871     94.6613     42.4188    157.7644
   433.3000      1.5880      1.0931      0.2995     94.3570     42.0440    149.5896
   433.4000      1.5880      1.0899      0.3089     94.5504     41.6775    141.4213
   433.5000      1.5831      1.0777      0.2823     95.2924     41.3842    139.4603
   433.6000      1.5831      1.0659      0.2659     96.0045     41.2047    140.2954
   433.7000      1.5831      1.0621      0.2778     96.2355     41.2623    142.9004
   433.8000      1.5883      1.0635      0.2643     96.1544     41.3039    147.6953
   433.9000      1.5883      1.0668      0.2780     95.9524     40.9417    151.1087
   434.0000      1.5821      1.0731      0.2726     95.5693     40.2701    152.9291
   434.1000      1.5821      1.0844      0.2786     94.8843     39.5905    154.4864
   434.2000      1.5821      1.0994      0.2858     93.9742     38.9424    153.3142
   434.3000      1.5743      1.1114      0.2858     93.2510     38.1184    154.1635
   434.4000      1.5743      1.1094      0.2726     93.3678     37.0130    162.1358
   434.5000      1.5485      1.0814      0.2717     95.0657     35.5886    171.1468
