~Version Information
VERS.                      2.0: CWLS Log ASCII Standard - VERSION 2.0
WRAP.                       NO: One line per depth step
~Well Information Block
STRT.FT               801.5000: 
STOP.FT              2513.0000: 
STEP.FT                 0.2500: 
NULL.                -999.2500: 
COMP.          Petrogulf Corporation: COMPANY
WELL.               YWAM 7-32V: WELL
FLD.           Purgatoire River: FIELD
LOC.           2423' FNL & 2412' FEL: LOCATION
PROV.                 Colorado: PROVINCE
CNTY.               Las Animas: COUNTRY
SRVC.                Patterson: SERVICE COMPANY
DATE.          Sun Dec 14 06:58:17 2003: LOG DATE
UWI.                          : UNIQUE WELL ID
~Curve Information Block
DEPT.FT            0 000 00 00: Depth
SP.mV                         : DIL Spontaneous Potential
RILD.Ohm-m                    : DIL Deep Resistivity
RILM.Ohm-m                    : DIL Medium Resistivity
RLL3.Ohm-m                    : DIL Shallow Resistivity
GR.GAPI                       : Gamma Ray
~Parameter Information Block
~A  Depth        SP         RILD        RILM        RLL3         GR     
# ...
  2257.5000   -123.4558     20.6172     19.7012     23.2408     84.0520
  2257.7500   -124.4113     20.7883     19.8765     23.6663     81.1578
  2258.0000   -125.2282     20.9205     20.0567     24.0426     78.1107
  2258.2500   -125.8646     21.0057     20.2362     24.4161     76.9536
  2258.5000   -126.3445     21.0463     20.3904     24.8292     76.1628
  2258.7500   -126.7620     21.0405     20.4867     25.3525     76.0972
  2259.0000   -127.2513     20.9738     20.4979     26.0734     76.9460
  2259.2500   -127.9260     20.8294     20.4075     27.0384     78.4420
  2259.5000   -128.8169     20.6121     20.2051     28.1790     82.0623
  2259.7500   -129.8504     20.3620     19.8843     29.2473     84.9317
  2260.0000   -130.8857     20.1455     19.4500     29.8187     88.8133
  2260.2500   -131.7770     20.0310     18.9338     29.4479     90.6669
  2260.5000   -132.4244     20.0682     18.4014     27.9389     92.5581
  2260.7500   -132.7943     20.2785     17.9420     25.5258     93.9523
  2261.0000   -132.9104     20.6513     17.6473     22.8183     97.5102
  2261.2500   -132.8169     21.1328     17.5944     20.5954    100.8142
  2261.5000   -132.5320     21.6096     17.8386     19.6881    105.2490
  2261.7500   -132.0144     21.9069     18.4115     21.1646    106.2667
  2262.0000   -131.1595     21.8425     19.3135     26.7832    103.1746
  2262.2500   -129.8315     21.3293     20.4951     39.3153     98.1022
  2262.5000   -127.9234     20.4380     21.8239     62.0329     87.2733
  2262.7500   -125.4115     19.3416     23.0522     96.6497     78.8200
  2263.0000   -122.3673     18.2027     23.8291    139.9356     65.9456
  2263.2500   -118.9204     17.1141     23.8080    181.5183     58.2996
  2263.5000   -115.2018     16.1125     22.8319    206.7191     49.8386
  2263.7500   -111.3147     15.2147     21.0527    204.7505     46.7322
  2264.0000   -107.3492     14.4356     18.8548    176.1280     45.9883
  2264.2500   -103.4257     13.7849     16.6487    132.2776     47.8686
  2264.5000    -99.7282     13.2562     14.7180     87.8296     53.6704
  2264.7500    -96.4959     12.8254     13.1892     52.8206     59.0768
  2265.0000    -93.9621     12.4584     12.0746     30.2216     68.2583
  2265.2500    -92.2665     12.1234     11.3247     18.0982     74.2213
  2265.5000    -91.3973     11.7985     10.8632     12.8855     82.1114
  2265.7500    -91.1994     11.4733     10.6074     11.4914     86.8244
  2266.0000    -91.4290     11.1470     10.4830     11.9124     93.5802
  2266.2500    -91.8224     10.8277     10.4356     13.0170     97.7744
  2266.5000    -92.1622     10.5333     10.4348     14.1846    102.8594
  2266.7500    -92.3290     10.2874     10.4677     15.1055    105.1173
  2267.0000    -92.3143     10.1133     10.5285     15.7017    106.8489
  2267.2500    -92.1809     10.0271     10.6119     16.0445    107.1758
  2267.5000    -92.0017     10.0348     10.7118     16.2412    106.8129
  2267.7500    -91.8205     10.1315     10.8224     16.3421    106.0059
  2268.0000    -91.6494     10.3051     10.9395     16.3232    103.9952
  2268.2500    -91.4768     10.5388     11.0603     16.1363    102.5531
  2268.5000    -91.2692     10.8144     11.1827     15.7812    101.5485
  2268.7500    -90.9827     11.1134     11.3059     15.3400    102.1840
  2269.0000    -90.5959     11.4174     11.4296     14.9406    104.7051
  2269.2500    -90.1449     11.7097     11.5548     14.6834    106.4657
  2269.5000    -89.7264     11.9774     11.6860     14.5934    107.3432
  2269.7500    -89.4717     12.2146     11.8333     14.6337    106.2175
  2270.0000    -89.5156     12.4233     12.0119     14.7593    102.4913
  2270.2500    -89.9700     12.6115     12.2371     14.9742     99.4744
  2270.5000    -90.8964     12.7907     12.5173     15.3602     95.5323
  2270.7500    -92.2760     12.9720     12.8490     16.0812     93.7778
  2271.0000    -94.0008     13.1646     13.2162     17.3799     92.4384
  2271.2500    -95.9009     13.3734     13.5938     19.4962     91.8397
  2271.5000    -97.8000     13.6004     13.9527     22.3853     89.9700
  2271.7500    -99.5619     13.8468     14.2656     25.3865     87.5983
  2272.0000   -101.1104     14.1170     14.5146     27.3451     82.8500
  2272.2500   -102.4328     14.4193     14.6967     27.3803     79.7093
  2272.5000   -103.5763     14.7635     14.8277     25.6188     76.3660
  2272.7500   -104.6328     15.1562     14.9370     23.0709     75.4374
  2273.0000   -105.7070     15.5967     15.0592     20.8038     75.8702
  2273.2500   -106.8862     16.0732     15.2226     19.3064     76.9775
  2273.5000   -108.2283     16.5629     15.4429     18.5140     79.0953
  2273.7500   -109.7643     17.0380     15.7213     18.1868     80.4230
  2274.0000   -111.5019     17.4771     16.0488     18.1762     81.5696
  2274.2500   -113.4167     17.8762     16.4133     18.4380     81.4430
  2274.5000   -115.4368     18.2479     16.8077     18.9310     80.1850
  2274.7500   -117.4301     18.6112     17.2318     19.5731     79.1979
  2275.0000   -119.2140     18.9800     17.6896     20.2934     77.8805
  2275.2500   -120.5927     19.3591     18.1829     21.0851     76.5427
  2275.5000   -121.4141     19.7475     18.7071     21.9856     72.5463
  2275.7500   -121.6219     20.1457     19.2498     23.0377     68.5692
  2276.0000   -121.2737     20.5595     19.7932     24.3063     62.3721
  2276.2500   -120.5153     20.9982     20.3180     25.9015     59.3208
  2276.5000   -119.5261     21.4640     20.8060     27.9071     57.1849
  2276.7500   -118.4602     21.9389     21.2401     30.2467     56.9232
  2277.0000   -117.4002     22.3804     21.6006     32.6193     56.9629
  2277.2500   -116.3474     22.7351     21.8621     34.5675     56.8902
  2277.5000   -115.2562     22.9660     21.9972     35.6425     56.6399
  2277.7500   -114.0887     23.0756     21.9866     35.5837     56.2848
  2278.0000   -112.8478     23.1054     21.8258     34.4248     54.9603
  2278.2500   -111.5800     23.1112     21.5246     32.4665     53.5212
  2278.5000   -110.3612     23.1350     21.1011     30.1486     51.3718
  2278.7500   -109.2776     23.1863     20.5840     27.9144     50.6283
  2279.0000   -108.4010     23.2427     20.0184     26.1142     51.4201
  2279.2500   -107.7570     23.2636     19.4656     24.9456     53.4164
  2279.5000   -107.3018     23.2115     18.9876     24.4317     57.9426
  2279.7500   -106.9271     23.0713     18.6273     24.4452     60.8613
  2280.0000   -106.5036     22.8592     18.3934     24.7645     62.9082
  2280.2500   -105.9353     22.6149     18.2505     25.1398     62.1821
  2280.5000   -105.1860     22.3811     18.1182     25.3676     58.9340
  2280.7500   -104.2722     22.1800     17.8984     25.3725     56.5092
  2281.0000   -103.2435     22.0061     17.5480     25.2525     54.0945
  2281.2500   -102.1631     21.8383     17.1431     25.2049     53.5756
  2281.5000   -101.0855     21.6648     16.8507     25.3510     53.8332
  2281.7500   -100.0396     21.4988     16.8226     25.6171     54.0002
  2282.0000    -99.0413     21.3700     17.1027     25.8044     53.2538
  2282.2500    -98.1231     21.2995     17.5993     25.7606     52.0788
  2282.5000    -97.3445     21.2779     18.1247     25.4712     50.3335
  2282.7500    -96.7659     21.2617     18.4896     25.0210     49.8522
  2283.0000    -96.4112     21.1907     18.6025     24.5279     50.3987
  2283.2500    -96.2469     21.0152     18.4988     24.1108     51.3190
  2283.5000    -96.1852     20.7140     18.2926     23.8567     53.1399
  2283.7500    -96.1125     20.2960     18.1040     23.7670     54.5783
  2284.0000    -95.9365     19.7925     17.9999     23.7330     56.7417
  2284.2500    -95.6247     19.2512     17.9689     23.5777     57.8677
  2284.5000    -95.2091     18.7320     17.9382     23.1474     58.9278
  2284.7500    -94.7625     18.2932     17.8242     22.4090     59.4299
  2285.0000    -94.3672     17.9745     17.5830     21.4747     60.1743
  2285.2500    -94.0772     17.7880     17.2248     20.5042     60.6500
