~Version Information
VERS.                      2.0: CWLS Log ASCII Standard - VERSION 2.0
WRAP.                       NO: One line per depth step
~Well Information Block
STRT.FT                -8.2500: 
STOP.FT              2209.7500: 
STEP.FT                 0.2500: 
NULL.                -999.2500: 
COMP.          Petrogulf Corporation: COMPANY
WELL.          Alexander 9-43V: WELL
FLD.           Purgatorie River: FIELD
LOC.                          : LOCATION
CNTY.               Las Animas: COUNTY
SRVC.                         : SERVICE COMPANY
DATE.          Wed May 28 09:25:28 2003: LOG DATE
UWI.           05 071 07727 00: UNIQUE WELL ID
STAT.                 Colorado: STATE
~Curve Information Block
DEPT.FT            0 000 00 00: Depth
CCL.                          : Casing Collar Locator
TT3.usec                      : CBL 3' Travel Time
AMP3.mV                       : CBL 3' Amplitude
GR.GAPI                       : Gamma Ray
~Parameter Information Block
~A  Depth       CCL         TT3         AMP3         GR     
# ...
  1867.7500      0.0000    591.9125      5.1519     86.8467
  1868.0000      0.0000    553.2434      5.1800     86.0021
  1868.2500      0.0000    514.4882      5.1855     84.4818
  1868.5000      0.0000    486.0394      5.2088     82.4634
  1868.7500      0.0000    471.9799      5.2515     80.6956
  1869.0000      0.0000    468.1322      5.3081     80.0834
  1869.2500      0.0000    467.0553      5.3792     80.9455
  1869.5000      0.0000    463.5723      5.4479     82.7215
  1869.7500      0.0000    456.2805      5.4797     84.6626
  1870.0000      0.0000    446.1878      5.4570     86.7011
  1870.2500      0.0000    435.1567      5.3926     89.2447
  1870.5000      0.0000    425.3812      5.3023     92.1759
  1870.7500      0.0000    419.8489      5.1738     94.5215
  1871.0000      0.0000    422.5681      4.9772     95.4190
  1871.2500      0.0000    437.0941      4.7060     95.2303
  1871.5000      0.0000    463.8915      4.3951     95.4977
  1871.7500      0.0000    499.0876      4.0987     97.8347
  1872.0000      0.0000    536.2817      3.8581    102.7328
  1872.2500      0.0000    569.9365      3.6836    108.9459
  1872.5000      0.0000    597.6200      3.5643    113.8732
  1872.7500      0.0000    619.8964      3.4909    115.0017
  1873.0000      0.0000    638.3480      3.4630    111.5646
  1873.2500      0.0000    653.5159      3.4755    105.0358
  1873.5000      0.0000    664.8212      3.5118     97.9486
  1873.7500      0.0000    672.1960      3.5521     92.0782
  1874.0000      0.0000    677.0308      3.5823     87.6998
  1874.2500      0.0000    681.3087      3.5998     84.4531
  1874.5000      0.0000    686.2488      3.6202     82.4983
  1874.7500      0.0000    691.8818      3.6739     82.5502
  1875.0000      0.0000    697.3922      3.7907     85.0648
  1875.2500      0.0000    701.6501      3.9902     89.6730
  1875.5000      0.0000    704.0726      4.2679     95.2382
  1875.7500      0.0000    705.6229      4.5826    100.2146
  1876.0000      0.0000    708.5634      4.8702    103.2154
  1876.2500      0.0000    714.2719      5.0820    103.7548
  1876.5000      0.0000    720.9036      5.2061    102.6960
  1876.7500      0.0000    723.6465      5.2594    101.7579
  1877.0000      0.0000    718.1370      5.2771    102.2130
  1877.2500      0.0000    704.2299      5.3053    103.8056
  1877.5000      0.0000    686.3755      5.3682    104.9787
  1877.7500      0.0000    670.3863      5.4392    104.2500
  1878.0000      0.0000    660.0510      5.4727    101.1669
  1878.2500      0.0000    655.9952      5.4655     96.0560
  1878.5000      0.0000    656.3074      5.4603     89.6682
  1878.7500      0.0000    658.1926      5.4794     83.4936
  1879.0000      0.0000    660.0255      5.4793     79.7302
  1879.2500      0.0000    661.7195      5.3946     80.1567
  1879.5000      0.0000    662.4758      5.2275     84.8463
  1879.7500      0.0000    658.5593      5.0790     91.9353
  1880.0000      0.0000    644.1914      5.0711     98.6385
  1880.2500      0.0000    615.4598      5.2338    102.8621
  1880.5000      0.0000    574.1879      5.4824    104.3358
  1880.7500      0.0000    528.0652      5.6995    104.2181
  1881.0000      0.0000    486.1782      5.8190    103.5795
  1881.2500      0.0000    453.9978      5.8441    102.5352
  1881.5000      0.0000    432.3274      5.8164    100.8928
  1881.7500      0.0000    419.5446      5.7727     99.0146
  1882.0000      0.0000    413.3912      5.7199     97.4468
  1882.2500      0.0000    411.2259      5.6449     95.8892
  1882.5000      0.0000    410.4526      5.5449     93.0944
  1882.7500      0.0000    409.8416      5.4391     88.0981
  1883.0000      0.0000    410.3108      5.3455     81.6013
  1883.2500      0.0000    413.7125      5.2607     76.1029
  1883.5000      0.0000    420.5474      5.1719     74.4236
  1883.7500      0.0000    429.1158      5.0865     77.5558
  1884.0000      0.0000    437.5102      5.0357     83.5304
  1884.2500      0.0000    446.3176      5.0398     88.5868
  1884.5000      0.0000    458.2535      5.0771     89.8874
  1884.7500      0.0000    475.0307      5.1043     87.1488
  1885.0000      0.0000    496.0558      5.1067     81.8808
  1885.2500      0.0000    520.5024      5.1106     75.8730
  1885.5000      0.0000    548.3957      5.1470     70.7181
  1885.7500      0.0000    578.5720      5.2159     67.7714
  1886.0000      0.0000    607.6314      5.2882     67.4711
  1886.2500      0.0000    632.1837      5.3289     68.7263
  1886.5000      0.0000    650.9734      5.3246     69.5873
  1886.7500      0.0000    664.4220      5.2974     68.8178
  1887.0000      0.0000    673.2830      5.2822     66.7712
  1887.2500      0.0000    678.2000      5.2898     64.7048
  1887.5000      0.0000    679.8364      5.3037     63.4719
  1887.7500      0.0000    678.7141      5.3046     63.1342
  1888.0000      0.0000    675.0173      5.2797     63.7679
  1888.2500      0.0000    668.4352      5.2150     66.0393
  1888.5000      0.0000    657.7224      5.1046     70.4890
  1888.7500      0.0000    640.3558      4.9718     76.5041
  1889.0000      0.0000    613.4419      4.8659     82.6305
  1889.2500      0.0000    575.9945      4.8261     87.9034
  1889.5000      0.0000    530.9722      4.8581     92.3800
  1889.7500      0.0000    485.3338      4.9452     96.4510
  1890.0000      0.0000    447.2144      5.0524    100.2225
  1890.2500      0.0000    421.5841      5.1268    103.6415
  1890.5000      0.0000    408.0644      5.1324    106.7753
  1890.7500      0.0000    402.7232      5.0819    109.6902
  1891.0000      0.0000    401.3864      5.0065    112.1346
  1891.2500      0.0000    401.4146      4.9189    113.4706
  1891.5000      0.0000    401.6326      4.8323    113.0955
  1891.7500      0.0000    401.7159      4.7820    111.0109
  1892.0000      0.0000    401.8616      4.7891    107.8613
  1892.2500      0.0000    402.5903      4.8216    104.3474
  1892.5000      0.0000    404.2594      4.8210    100.7738
  1892.7500      0.0000    406.2694      4.7623     97.2083
  1893.0000      0.0000    406.9898      4.6812     93.7518
  1893.2500      0.0000    405.1704      4.6406     90.3995
  1893.5000      0.0000    401.6885      4.6708     87.0481
  1893.7500      0.0000    399.4550      4.7405     84.0760
  1894.0000      0.0000    401.2060      4.7823     82.4899
  1894.2500      0.0000    407.2587      4.7457     82.9470
  1894.5000      0.0000    415.2104      4.6375     84.8331
  1894.7500      0.0000    421.8860      4.5154     86.7116
  1895.0000      0.0000    426.2470      4.4442     87.7250
  1895.2500      0.0000    431.3591      4.4640     88.4688
  1895.5000      0.0000    443.8578      4.5767     90.3821
  1895.7500      0.0000    470.3503      4.7302     94.0333
  1896.0000      0.0000    512.0881      4.8453     97.9322
  1896.2500      0.0000    562.0481      4.8986     99.3269
  1896.5000      0.0000    608.3693      4.9517     96.4558
  1896.7500      0.0000    641.9749      5.0630     89.9842
  1897.0000      0.0000    661.1716      5.2057     82.3016
  1897.2500      0.0000    669.8354      5.3062     75.8264
  1897.5000      0.0000    672.8558      5.3322     71.9988
  1897.7500      0.0000    673.2236      5.3044     71.1547
  1898.0000      0.0000    671.2911      5.2496     72.7393
  1898.2500      0.0000    664.6690      5.1839     75.8101
  1898.5000      0.0000    648.6628      5.1215     79.7288
  1898.7500      0.0000    618.8951      5.0708     84.3748
  1899.0000      0.0000    575.9976      5.0335     89.5486
  1899.2500      0.0000    528.1276      5.0155     94.2789
  1899.5000      0.0000    487.1777      5.0232     97.1376
  1899.7500      0.0000    461.9095      5.0525     97.5547
  1900.0000      0.0000    454.8683      5.0937     96.4953
  1900.2500      0.0000    463.4889      5.1392     95.3682
  1900.5000      0.0000    481.4281      5.1799     94.5189
  1900.7500      0.0000    500.1612      5.1982     93.4243
  1901.0000      0.0000    512.3627      5.1625     92.1895
