~Version Information
 VERS.                                  2.0 : CWLS LAS VERSION
 WRAP.                                   NO : WRAPING MODE
 SWARE .                 MController 2.5.0E : SOFTWARE VERSION
~Well Information
 WELL.                        Rimrock 14-29 : WELL
 COMP.             Evergreen Operating Corp : COMPANY
 FLD.                      Purgatorie River : FIELD
 LOC.                SW SW Sec 29 T32S R65W : LOCATION
 DATE.                              9/20/04 : DATE(S) LOGGED
 SRVC.       Blanco Geological Services LLC : SERVICE COMPANY
 STAT.                                   CO : STATE
 CNTY.                           Las Animas : COUNTY
 CTRY.                                  USA : COUNTRY
 API.                       05-071-08136-00 : API NUMBER
 STRT.FT                             517.00 : START DEPTH
 STOP.FT                            1705.00 : STOP DEPTH
 STEP.FT                               1.00 : DEPTH INCREMENT
 NULL.                                -9999 : NULL VALUE
~Curve information
 DEPTH.FT                                   :
 ROP.MIN/FT                                 :
 GAS.UNITS                                  :
~ASCII Log data
# ...
     1517.00        0.233        769.0 
     1518.00        0.200        758.2 
     1519.00        0.233        765.0 
     1520.00        0.200        774.1 
     1521.00        0.233        781.1 
     1522.00        0.233        782.1 
     1523.00        0.200        779.4 
     1524.00        0.217        791.9 
     1525.00        0.233        942.2 
     1526.00        3.383       1303.3 
     1527.00        0.367       1335.7 
     1528.00        0.267       1307.4 
     1529.00        0.267       1277.4 
     1530.00        0.233       1277.1 
     1531.00        0.233       1266.6 
     1532.00        0.267       1233.3 
     1533.00        0.233       1175.3 
     1534.00        0.367       1120.7 
     1535.00        0.267       1058.7 
     1536.00        0.267       1030.1 
     1537.00        0.250       1002.8 
     1538.00        0.233        972.8 
     1539.00        0.233        938.8 
     1540.00        0.233        906.8 
     1541.00        0.233        876.8 
     1542.00        0.233        846.8 
     1543.00        0.200        820.9 
     1544.00        0.233        802.0 
     1545.00        0.267        780.8 
     1546.00        0.233        760.2 
     1547.00        0.233        742.7 
     1548.00        0.233        726.5 
     1549.00        0.233        711.1 
     1550.00        0.267        698.6 
     1551.00        0.283        685.4 
     1552.00        0.233        673.3 
     1553.00        0.267        665.6 
     1554.00        0.300        706.7 
     1555.00        0.267        789.2 
     1556.00        3.583       1208.3 
     1557.00        0.367       1230.9 
     1558.00        0.233       1207.3 
     1559.00        0.233       1181.4 
     1560.00        0.233       1205.6 
     1561.00        0.233       1210.7 
     1562.00        0.200       1207.7 
     1563.00        0.233       1185.8 
     1564.00        0.200       1143.3 
     1565.00        0.217       1102.2 
     1566.00        0.233       1063.1 
     1567.00        0.200       1030.1 
     1568.00        0.267       1010.9 
     1569.00        0.233        993.4 
     1570.00        0.200        974.2 
     1571.00        0.233        956.7 
     1572.00        0.200        934.8 
     1573.00        0.200        912.5 
     1574.00        0.200        887.9 
     1575.00        0.200        860.6 
     1576.00        0.200        833.4 
     1577.00        0.267        810.1 
     1578.00        0.233        785.8 
     1579.00        0.267        764.6 
     1580.00        0.250        743.7 
     1581.00        0.267        728.2 
     1582.00        0.233        710.0 
     1583.00        0.267        697.6 
     1584.00        0.233        684.8 
     1585.00        0.233        748.1 
     1586.00        2.850        805.4 
     1587.00        0.333       1118.4 
     1588.00        0.333       1402.7 
     1589.00        0.300       1577.9 
     1590.00        0.300       1629.5 
     1591.00        0.233       1621.4 
     1592.00        0.233       1549.0 
     1593.00        0.233       1435.4 
     1594.00        0.267       1320.9 
     1595.00        0.250       1195.2 
     1596.00        0.267       1104.2 
     1597.00        0.267       1024.4 
     1598.00        0.267        980.6 
     1599.00        0.267        952.6 
     1600.00        0.300        928.7 
     1601.00        0.267        899.0 
     1602.00        0.233        867.7 
     1603.00        0.233        842.4 
     1604.00        0.267        815.8 
     1605.00        0.233        788.9 
     1606.00        0.267        769.0 
     1607.00        0.267        749.1 
     1608.00        0.383        728.6 
     1609.00        0.367        706.3 
     1610.00        0.300        686.1 
     1611.00        0.300        673.3 
     1612.00        0.333        662.5 
     1613.00        0.300        652.4 
     1614.00        0.400        642.3 
     1615.00        0.367        666.2 
     1616.00        4.167       1449.2 
     1617.00        0.300       1354.6 
     1618.00        0.267       1308.4 
     1619.00        0.300       1283.1 
     1620.00        0.333       1232.6 
     1621.00        0.300       1153.4 
     1622.00        0.333       1088.1 
     1623.00        0.333       1040.2 
     1624.00        0.333       1004.5 
     1625.00        0.300        959.4 
     1626.00        0.267        919.6 
     1627.00        0.283        885.9 
     1628.00        0.267        852.2 
     1629.00        0.200        823.2 
     1630.00        0.200        804.7 
     1631.00        0.200        787.9 
     1632.00        0.233        772.4 
     1633.00        0.200        758.6 
     1634.00        0.267        748.8 
     1635.00        0.200        736.7 
     1636.00        0.233        729.2 
     1637.00        0.200        721.2 
     1638.00        0.233        713.1 
     1639.00        0.300        705.0 
     1640.00        0.233        692.9 
     1641.00        0.283        686.1 
     1642.00        0.267        682.7 
     1643.00        0.233        679.0 
     1644.00        0.300        676.3 
     1645.00        0.300        689.2 
     1646.00        3.317        779.8 
     1647.00        0.400        360.2 
     1648.00        0.300        362.2 
     1649.00        0.400        354.7 
     1650.00        0.267        370.9 
     1651.00        0.333        386.8 
     1652.00        0.267        387.5 
     1653.00        0.383        383.0 
     1654.00        0.267        371.8 
     1655.00        0.367        366.1 
     1656.00        0.333        357.5 
     1657.00        0.267        342.7 
     1658.00        0.233        326.9 
     1659.00        0.267        312.3 
     1660.00        0.267        296.8 
     1661.00        0.200        283.3 
     1662.00        0.233        274.2 
     1663.00        0.200        265.1 
     1664.00        0.233        258.3 
     1665.00        0.200        251.8 
     1666.00        0.283        246.8 
     1667.00        0.233        242.3 
     1668.00        0.233        237.9 
     1669.00        0.233        233.9 
     1670.00        0.267        230.7 
     1671.00        0.267        227.4 
     1672.00        0.233        223.7 
     1673.00        0.233        220.4 
     1674.00        0.233        217.2 
     1675.00        0.200        221.0 
     1676.00        3.217        266.1 
     1677.00        0.333        322.3 
     1678.00        0.333        337.2 
     1679.00        0.333        341.7 
     1680.00        0.317        364.8 
     1681.00        0.367        389.4 
     1682.00        0.233        391.9 
     1683.00        0.333        390.5 
     1684.00        0.367        376.2 
     1685.00        0.267        362.6 
     1686.00        0.300        356.4 
     1687.00        0.200        346.3 
     1688.00        0.300        337.7 
     1689.00        0.233        321.9 
     1690.00        0.233        309.4 
     1691.00        0.383        297.2 
     1692.00        0.233        280.6 
     1693.00        0.233        270.5 
     1694.00        0.267        261.8 
     1695.00        0.233        252.8 
     1696.00        0.233        246.0 
     1697.00        0.300        240.9 
     1698.00        0.233        234.9 
     1699.00        0.233        231.0 
     1700.00        0.200        227.9 
     1701.00        0.200        226.0 
     1702.00        0.200        224.2 
     1703.00        0.233        221.9 
     1704.00        0.333        217.9 
     1705.00        0.350        209.8 
