~Version Information
VERS.                      2.0: CWLS Log ASCII Standard - VERSION 2.0
WRAP.                       NO: One line per depth step
~Well Information Block
STRT.FT               750.0000: 
STOP.FT              2431.5000: 
STEP.FT                 0.1000: 
NULL.                -999.2500: 
COMP.          Petrogulf Corporation: COMPANY
WELL.           McDaniel 9-34V: WELL
FLD.           Purgatorie River: FIELD
LOC.           620' FSL & 1800' FEL: LOCATION
PROV.                 Colorado: PROVINCE
CNTY.               Las Animas: COUNTRY
SRVC.                Patterson: SERVICE COMPANY
DATE.          Wed Sep 28 07:18:04 2005: LOG DATE
UWI.                          : UNIQUE WELL ID
~Curve Information Block
DEPT.FT            0 000 00 00: Depth
DCAL.in                       : CDL Caliper
RHOB.g/cc                     : CDL Bulk Density
RHOC.g/cc                     : CDL Density Correction
DPOR.pu                       : CDL Density Porosity
GR.GAPI                       : Gamma Ray
NPOR.pu                       : Neutron Porosity
~Parameter Information Block
~A  Depth       DCAL        RHOB        RHOC        DPOR         GR         NPOR    
# ...
  1854.0000      7.9820      2.4209      0.0256     13.8822     38.8282     18.2547
  1854.1000      7.9820      2.4324      0.0419     13.1854     37.2958     18.3437
  1854.2000      7.9820      2.4558      0.0368     11.7706     37.0631     18.4941
  1854.3000      7.9854      2.4808      0.0978     10.2548     37.5432     18.7597
  1854.4000      7.9854      2.4898      0.0813      9.7120     36.8731     19.3285
  1854.5000      7.9808      2.4789      0.0537     10.3688     36.4304     19.9283
  1854.6000      7.9808      2.4642     -0.0007     11.2583     37.9122     20.2921
  1854.7000      7.9808      2.4615      0.0306     11.4264     40.7449     20.5058
  1854.8000      7.9801      2.4678      0.0426     11.0413     43.7908     20.5701
  1854.9000      7.9801      2.4693      0.0471     10.9523     46.2414     20.4357
  1855.0000      7.9703      2.4634      0.0182     11.3081     47.6109     19.9989
  1855.1000      7.9703      2.4563      0.0343     11.7410     46.3970     19.1346
  1855.2000      7.9703      2.4514      0.0112     12.0393     42.3566     18.2897
  1855.3000      7.9505      2.4574      0.0020     11.6744     38.9958     18.1090
  1855.4000      7.9505      2.4747      0.0110     10.6264     38.6514     18.5317
  1855.5000      7.9549      2.4900      0.0393      9.6981     40.1128     18.9557
  1855.6000      7.9549      2.4993      0.0443      9.1337     43.3617     19.1003
  1855.7000      7.9549      2.5107      0.0305      8.4453     48.2830     19.2143
  1855.8000      7.9623      2.5219      0.0657      7.7637     51.0644     19.4898
  1855.9000      7.9623      2.5228      0.0411      7.7076     50.2557     19.8183
  1856.0000      7.9650      2.5210      0.0207      7.8206     49.2752     19.9960
  1856.1000      7.9650      2.5291      0.0428      7.3268     50.9894     20.0016
  1856.2000      7.9650      2.5434      0.0515      6.4592     55.2699     19.9114
  1856.3000      7.9643      2.5550      0.0615      5.7592     59.8909     20.0091
  1856.4000      7.9643      2.5622      0.0193      5.3222     64.0808     20.5057
  1856.5000      7.9634      2.5698      0.0318      4.8582     68.5402     21.1055
  1856.6000      7.9634      2.5804      0.0627      4.2184     73.8086     21.4224
  1856.7000      7.9634      2.5871      0.0822      3.8113     81.3635     21.5075
  1856.8000      7.9577      2.5812      0.0706      4.1703     91.0267     21.3735
  1856.9000      7.9577      2.5732      0.0416      4.6560     99.2082     21.0870
  1857.0000      7.9537      2.5799      0.0586      4.2491    103.7971     21.0076
  1857.1000      7.9537      2.5872      0.1089      3.8082    106.1267     21.0599
  1857.2000      7.9537      2.5723      0.0652      4.7077    105.3276     20.9779
  1857.3000      7.9589      2.5438      0.0158      6.4385    100.9834     21.0040
  1857.4000      7.9589      2.5265     -0.0216      7.4819     97.0297     21.3365
  1857.5000      7.9572      2.5337      0.0057      7.0467     94.7905     21.5609
  1857.6000      7.9572      2.5554      0.0450      5.7360     93.2165     21.3213
  1857.7000      7.9572      2.5723      0.0646      4.7107     94.0019     21.0048
  1857.8000      7.9615      2.5775      0.0676      4.3932     96.1153     21.2000
  1857.9000      7.9615      2.5730      0.1027      4.6685     94.9271     21.9319
  1858.0000      7.9662      2.5593      0.0568      5.4997     91.2104     22.7384
  1858.1000      7.9662      2.5404      0.0485      6.6418     89.4383     23.2699
  1858.2000      7.9662      2.5256      0.0176      7.5380     89.7670     23.5741
  1858.3000      7.9673      2.5242      0.0073      7.6230     89.0979     23.7938
  1858.4000      7.9673      2.5317      0.0620      7.1709     87.5213     23.9122
  1858.5000      7.9717      2.5369      0.0147      6.8544     86.6756     23.9146
  1858.6000      7.9717      2.5404      0.0418      6.6432     87.0741     23.8496
  1858.7000      7.9717      2.5493      0.0192      6.1060     88.2427     23.8549
  1858.8000      7.9749      2.5714      0.0537      4.7643     89.1219     24.0080
  1858.9000      7.9749      2.5959      0.1002      3.2785     91.0919     24.1247
  1859.0000      7.9792      2.5980      0.1055      3.1520     95.1603     24.0190
  1859.1000      7.9792      2.5860      0.0255      3.8790     99.0154     23.7646
  1859.2000      7.9792      2.5855      0.0576      3.9085    101.9051     23.5303
  1859.3000      7.9785      2.5877      0.0408      3.7731    105.8559     23.3879
  1859.4000      7.9785      2.5781      0.0348      4.3561    112.0867     23.5258
  1859.5000      7.9755      2.5733     -0.0009      4.6512    119.5339     24.0816
  1859.6000      7.9755      2.5829      0.0726      4.0688    126.0371     24.7311
  1859.7000      7.9755      2.5848      0.1050      3.9522    129.4868     25.1023
  1859.8000      7.9684      2.5698      0.0384      4.8594    129.8198     25.0843
  1859.9000      7.9684      2.5563      0.0518      5.6767    128.8563     24.6902
  1860.0000      7.9552      2.5543      0.0313      5.8019    127.7090     24.0121
  1860.1000      7.9552      2.5611      0.0510      5.3878    127.5425     23.3196
  1860.2000      7.9552      2.5752      0.0483      4.5352    129.5648     22.9742
  1860.3000      7.9512      2.5919      0.0850      3.5231    133.4137     23.0485
  1860.4000      7.9512      2.5998      0.1113      3.0418    136.8302     23.4657
  1860.5000      7.9416      2.5973      0.1177      3.1951    137.9724     24.0936
  1860.6000      7.9416      2.5991      0.0699      3.0830    138.5327     24.5606
  1860.7000      7.9416      2.6070      0.1358      2.6056    139.6324     24.5577
  1860.8000      7.9389      2.5981      0.0816      3.1451    139.8771     24.1204
  1860.9000      7.9389      2.5697      0.0496      4.8687    141.5342     23.5914
  1861.0000      7.9363      2.5480      0.0077      6.1811    146.8480     23.3703
  1861.1000      7.9363      2.5484      0.0182      6.1589    151.8224     23.6276
  1861.2000      7.9363      2.5608      0.0472      5.4045    153.2356     24.3483
  1861.3000      7.9411      2.5708      0.0394      4.8018    151.0851     25.2686
  1861.4000      7.9411      2.5749      0.0339      4.5504    145.8783     26.0326
  1861.5000      7.9421      2.5767      0.0481      4.4415    139.3826     26.2310
  1861.6000      7.9421      2.5795      0.0789      4.2704    133.2941     25.8727
  1861.7000      7.9421      2.5837      0.0273      4.0195    128.7878     25.7113
  1861.8000      7.9436      2.5841      0.0281      3.9947    126.9499     25.9400
  1861.9000      7.9436      2.5782      0.0007      4.3541    126.8242     25.9116
  1862.0000      7.9397      2.5774     -0.0382      4.3999    126.8210     25.5209
  1862.1000      7.9397      2.5827      0.0226      4.0775    127.9774     25.3921
  1862.2000      7.9397      2.5760      0.0239      4.4845    130.9817     25.6500
  1862.3000      7.9414      2.5599     -0.0017      5.4609    133.5351     25.7570
  1862.4000      7.9414      2.5501      0.0200      6.0544    133.8001     25.5866
  1862.5000      7.9578      2.5488     -0.0050      6.1320    131.6007     25.4726
  1862.6000      7.9578      2.5523     -0.0177      5.9202    127.8398     25.4463
  1862.7000      7.9578      2.5468      0.0414      6.2531    125.2831     25.3066
  1862.8000      7.9593      2.5268     -0.0491      7.4691    122.5682     25.0575
  1862.9000      7.9593      2.5120      0.0063      8.3630    116.4690     24.8441
  1863.0000      7.9623      2.5140     -0.0226      8.2452    110.1193     24.6077
  1863.1000      7.9623      2.5280     -0.0211      7.3927    108.6777     24.3004
  1863.2000      7.9623      2.5448      0.0096      6.3736    111.2870     23.9955
  1863.3000      7.9691      2.5537      0.0234      5.8343    113.5203     23.7368
  1863.4000      7.9691      2.5569     -0.0276      5.6410    112.8204     23.6662
  1863.5000      7.9567      2.5652     -0.0152      5.1408    109.5150     23.7078
