~Version Information
VERS.                      2.0: CWLS Log ASCII Standard - VERSION 2.0
WRAP.                       NO: One line per depth step
~Well Information Block
STRT.FT               640.0000: 
STOP.FT               927.0000: 
STEP.FT                 0.2500: 
NULL.                -999.2500: 
COMP.          Pioneer Natural Resources: COMPANY
WELL.          Claim Jumper 41-22: WELL
FLD.           Purgatoire River: FIELD
LOC.           1120' FNL & 977' FEL: LOCATION
PROV.                 Colorado: PROVINCE
CNTY.               Las Animas: COUNTRY
SRVC.                Patterson: SERVICE COMPANY
DATE.          Wed Jun 22 15:44:21 2005: LOG DATE
UWI.           05-071-08405-00: UNIQUE WELL ID
~Curve Information Block
DEPT.FT            0 000 00 00: Depth
DIR.Ohm-m                     : IEL Induction Resistivity
GR.GAPI                       : Gamma Ray
~Parameter Information Block
~A  Depth       DIR          GR     
   640.0000      8.1900     51.3756
   640.2500      8.1845     50.1019
   640.5000      8.1798     48.4041
   640.7500      8.1757     48.1026
   641.0000      8.1714     49.3844
   641.2500      8.1676     50.8841
   641.5000      8.1672     52.5797
   641.7500      8.1737     52.8123
   642.0000      8.1900     52.0294
   642.2500      8.2160     51.2025
   642.5000      8.2483     50.1126
   642.7500      8.2800     49.5873
   643.0000      8.3033     48.8777
   643.2500      8.3114     48.2890
   643.5000      8.3019     47.3239
   643.7500      8.2769     46.8899
   644.0000      8.2420     46.8878
   644.2500      8.2027     47.2096
   644.5000      8.1622     47.4899
   644.7500      8.1225     47.1325
   645.0000      8.0857     45.6968
   645.2500      8.0552     44.5596
   645.5000      8.0352     43.7411
   645.7500      8.0283     44.4008
   646.0000      8.0348     47.5337
   646.2500      8.0521     50.6650
   646.5000      8.0761     55.8028
   646.7500      8.1027     59.1927
   647.0000      8.1277     64.6394
   647.2500      8.1470     68.9332
   647.5000      8.1576     76.2859
   647.7500      8.1591     81.0258
   648.0000      8.1540     85.9436
   648.2500      8.1457     86.9816
   648.5000      8.1363     85.3758
   648.7500      8.1249     83.0597
   649.0000      8.1097     79.4690
   649.2500      8.0906     77.6886
   649.5000      8.0701     76.1218
   649.7500      8.0511     75.4501
   650.0000      8.0343     74.2721
   650.2500      8.0180     73.2433
   650.5000      7.9999     71.8865
   650.7500      7.9815     71.6883
   651.0000      7.9685     72.8310
   651.2500      7.9680     73.9220
   651.5000      7.9842     74.1306
   651.7500      8.0156     72.6803
   652.0000      8.0551     68.9500
   652.2500      8.0924     66.6977
   652.5000      8.1166     65.5571
   652.7500      8.1186     66.4925
   653.0000      8.0904     69.0823
   653.2500      8.0262     70.3290
   653.5000      7.9236     69.8876
   653.7500      7.7886     67.9559
   654.0000      7.6390     63.5820
   654.2500      7.5033     60.3949
   654.5000      7.4112     56.2305
   654.7500      7.3828     54.4749
   655.0000      7.4185     54.3201
   655.2500      7.4968     55.9737
   655.5000      7.5810     60.2283
   655.7500      7.6329     63.5149
   656.0000      7.6281     68.2290
   656.2500      7.5652     70.9364
   656.5000      7.4677     73.9871
   656.7500      7.3809     75.2964
   657.0000      7.3637     76.5012
   657.2500      7.4744     76.9895
   657.5000      7.7509     76.9277
   657.7500      8.1853     75.8689
   658.0000      8.7009     72.4710
   658.2500      9.1598     69.5556
   658.5000      9.4366     65.8158
   658.7500      9.5128     64.4422
   659.0000      9.4890     64.3507
   659.2500      9.5240     65.2858
   659.5000      9.8096     67.0340
   659.7500     10.6532     67.7003
   660.0000     12.7700     67.4249
   660.2500     18.5559     66.6194
   660.5000     44.6866     65.1153
   660.7500 100000.0000     64.0097
   661.0000 100000.0000     61.8659
   661.2500 100000.0000     59.9575
   661.5000 100000.0000     56.6248
   661.7500 100000.0000     54.5548
   662.0000 100000.0000     52.9632
   662.2500 100000.0000     53.8475
   662.5000 100000.0000     59.3249
   662.7500 100000.0000     65.7381
   663.0000 100000.0000     77.8209
   663.2500 100000.0000     85.9059
   663.5000 100000.0000     95.6516
   663.7500 100000.0000     99.9391
   664.0000 100000.0000    103.1432
   664.2500     25.1243    103.3715
   664.5000      6.6361    101.4509
   664.7500      4.1296     99.4018
   665.0000      3.4797     97.0463
   665.2500      3.5367     96.8631
   665.5000      4.1048     98.8633
   665.7500      5.2826    100.9425
   666.0000      7.5608    103.2359
   666.2500     12.8756    103.3966
   666.5000     34.8337    101.3013
   666.7500 100000.0000     98.6516
   667.0000 100000.0000     93.5935
   667.2500 100000.0000     89.9547
   667.5000 100000.0000     84.6055
   667.7500 100000.0000     81.1585
   668.0000     69.9090     76.0680
   668.2500     31.9037     72.8418
   668.5000     23.9830     68.8767
   668.7500     21.5174     67.2191
   669.0000     20.8761     66.4451
   669.2500     20.9486     66.8088
   669.5000     21.3237     67.8824
   669.7500     21.8945     68.6719
   670.0000     22.7558     70.0947
   670.2500     24.1705     71.4345
   670.5000     26.5019     74.4023
   670.7500     30.0114     77.1822
   671.0000     34.3681     82.4131
   671.2500     37.9873     86.1567
   671.5000     38.6036     91.3164
   671.7500     35.8212     94.2784
   672.0000     31.5582     97.9863
   672.2500     27.5749     99.8197
   672.5000     24.4495    101.2623
   672.7500     22.1141    101.3493
   673.0000     20.3834    100.4874
   673.2500     19.1441     99.4905
   673.5000     18.3534     98.0290
   673.7500     17.9755     97.7126
   674.0000     17.9321     99.0908
   674.2500     18.0894    101.1117
   674.5000     18.2909    104.6736
   674.7500     18.4179    106.8477
   675.0000     18.4348    109.4348
   675.2500     18.3813    110.4656
   675.5000     18.3291    110.1387
   675.7500     18.3441    108.3300
   676.0000     18.4727    103.7632
   676.2500     18.7400    100.3779
   676.5000     19.1510     96.3268
   676.7500     19.6923     94.7528
   677.0000     20.3331     94.0031
   677.2500     21.0276     94.1435
   677.5000     21.7214     93.9110
   677.7500     22.3654     92.3739
   678.0000     22.9341     86.7738
   678.2500     23.4365     81.2232
   678.5000     23.9130     72.6062
   678.7500     24.4200     68.0994
   679.0000     25.0147     63.8374
   679.2500     25.7460     62.0982
   679.5000     26.6496     60.3609
   679.7500     27.7477     60.0073
   680.0000     29.0535     61.4124
   680.2500     30.5646     63.5840
   680.5000     32.2208     67.6297
   680.7500     33.8311     70.0380
   681.0000     35.0473     71.9673
   681.2500     35.4985     71.6205
   681.5000     35.0505     68.5497
   681.7500     33.9272     65.3917
   682.0000     32.5418     60.9987
   682.2500     31.2495     59.7522
   682.5000     30.2365     62.4268
   682.7500     29.5366     67.5023
   683.0000     29.0795     78.3589
   683.2500     28.7348     85.9740
   683.5000     28.3667     95.1572
   683.7500     27.8991     98.8342
   684.0000     27.3503    100.4356
   684.2500     26.8032     99.5768
   684.5000     26.3384     97.4890
   684.7500     25.9913     96.5833
   685.0000     25.7544     96.3678
   685.2500     25.6035     96.7398
   685.5000     25.5143     98.1326
   685.7500     25.4595    100.2082
   686.0000     25.3951    106.2254
   686.2500     25.2597    112.2560
   686.5000     24.9944    122.6304
   686.7500     24.5689    128.5942
   687.0000     24.0016    133.2357
   687.2500     23.3670    132.9385
   687.5000     22.7856    128.7515
   687.7500     22.3919    124.7635
   688.0000     22.2843    118.5271
   688.2500     22.4784    114.4801
   688.5000     22.8876    108.6225
   688.7500     23.3483    105.0881
   689.0000     23.6941    101.2628
   689.2500     23.8341    100.1026
   689.5000     23.7647    100.1056
   689.7500     23.5167    100.6863
   690.0000     23.1072    101.7661
   690.2500     22.5495    102.5108
   690.5000     21.8904    103.4653
   690.7500     21.2209    103.9307
   691.0000     20.6443    104.8251
   691.2500     20.2365    106.0401
   691.5000     20.0262    109.3294
   691.7500     19.9972    112.4002
   692.0000     20.1001    117.2659
   692.2500     20.2611    119.5913
   692.5000     20.3843    120.0102
   692.7500     20.3561    118.2482
   693.0000     20.0723    114.5517
   693.2500     19.4953    112.7080
   693.5000     18.6963    111.4815
   693.7500     17.8294    111.1463
   694.0000     17.0489    110.3304
   694.2500     16.4429    109.2462
   694.5000     16.0216    106.0578
   694.7500     15.7478    102.2764
   695.0000     15.5765     94.0981
   695.2500     15.4822     88.1921
   695.5000     15.4636     81.9584
