~Version Information
VERS.                      2.0: CWLS Log ASCII Standard - VERSION 2.0
WRAP.                       NO: One line per depth step
~Well Information Block
STRT.FT               580.0000: 
STOP.FT              1756.0000: 
STEP.FT                 0.1000: 
NULL.                -999.2500: 
COMP.          Pioneer Natural Resources: COMPANY
WELL.          Lookout Point 31-23 Tr: WELL
FLD.           Purgatoire River: FIELD
LOC.           541' FNL & 1768' FEL: LOCATION
PROV.                 Colorado: PROVINCE
CNTY.               Las Animas: COUNTRY
SRVC.                Patterson: SERVICE COMPANY
DATE.          Mon Jan 24 07:20:20 2005: LOG DATE
UWI.           05 071 08260 00: UNIQUE WELL ID
~Curve Information Block
DEPT.FT            0 000 00 00: Depth
DCAL.in                       : CDL Caliper
DPOR.pu                       : CDL Density Porosity
GR.GAPI                       : Gamma Ray
NPOR.pu                       : Neutron Porosity
RHOB.g/cc                     : CDL Bulk Density
RHOC.g/cc                     : CDL Density Correction
~Parameter Information Block
~A  Depth       DCAL        DPOR         GR         NPOR        RHOB        RHOC    
# ...
  1040.8000      7.9657     -1.7124     73.1728     26.3310      2.6783      0.0929
  1040.9000      7.9657     -2.3007     73.6537     26.1712      2.6880      0.0952
  1041.0000      7.9656     -1.6748     75.0034     26.1835      2.6776      0.0931
  1041.1000      7.9656     -0.3728     79.1692     26.3309      2.6562      0.0749
  1041.2000      7.9656      0.8796     84.0810     27.0814      2.6355      0.0692
  1041.3000      7.9628      1.9938     86.4668     28.0779      2.6171      0.0540
  1041.4000      7.9628      2.8975     84.3010     28.4128      2.6022      0.0512
  1041.5000      7.9532      3.3279     79.5152     27.8440      2.5951      0.0409
  1041.6000      7.9532      3.3133     76.3064     26.9263      2.5953      0.0541
  1041.7000      7.9532      3.5138     74.5899     26.5534      2.5920      0.0829
  1041.8000      7.9451      3.9403     73.8182     27.0412      2.5850      0.0520
  1041.9000      7.9451      3.6180     74.9144     27.7792      2.5903      0.0363
  1042.0000      7.9527      3.3341     76.7899     28.1246      2.5950      0.1077
  1042.1000      7.9527      4.3179     77.3359     27.9163      2.5788      0.0077
  1042.2000      7.9527      4.8017     76.3925     27.4116      2.5708     -0.0126
  1042.3000      7.9629      3.4677     76.0097     26.8722      2.5928      0.0639
  1042.4000      7.9629      1.8280     77.0692     26.2715      2.6198      0.0722
  1042.5000      7.9665      1.2937     76.4370     25.8596      2.6287      0.0862
  1042.6000      7.9665      2.1334     72.9224     25.9746      2.6148      0.1035
  1042.7000      7.9665      3.6117     69.5603     26.2913      2.5904      0.0193
  1042.8000      7.9660      4.3197     68.3233     26.4524      2.5787      0.0571
  1042.9000      7.9660      3.7579     69.6712     26.7386      2.5880      0.0434
  1043.0000      7.9635      2.5307     74.7256     27.3274      2.6082      0.0869
  1043.1000      7.9635      1.2580     81.7523     27.9027      2.6292      0.0708
  1043.2000      7.9635     -0.0885     84.6154     28.1448      2.6515      0.0968
  1043.3000      7.9613     -1.4363     80.7018     27.9896      2.6737      0.1048
  1043.4000      7.9613     -1.6723     75.4715     27.6055      2.6776      0.1413
  1043.5000      7.9621      0.2980     73.6285     27.3867      2.6451      0.1128
  1043.6000      7.9621      3.5255     73.9709     27.2130      2.5918      0.0431
  1043.7000      7.9621      5.6960     73.2658     26.5138      2.5560      0.0016
  1043.8000      7.9642      5.9298     71.5232     25.7279      2.5522      0.0295
  1043.9000      7.9642      4.9880     72.4738     25.9137      2.5677      0.0535
  1044.0000      7.9662      3.5831     76.8891     27.1790      2.5909      0.0564
  1044.1000      7.9662      2.6811     81.2068     28.5666      2.6058      0.1112
  1044.2000      7.9662      2.9722     83.7793     29.4241      2.6010      0.0554
  1044.3000      7.9668      3.7435     85.1969     30.1313      2.5882      0.0936
  1044.4000      7.9668      4.3824     85.6335     30.9826      2.5777      0.0675
  1044.5000      7.9656      5.0192     86.3832     31.3121      2.5672      0.0822
  1044.6000      7.9656      6.2154     89.0570     30.8237      2.5474      0.1055
  1044.7000      7.9656      8.2233     92.5015     30.2700      2.5143      0.0733
  1044.8000      7.9682     10.2491     96.3274     29.7221      2.4809      0.0447
  1044.9000      7.9682     11.8003     99.9507     28.8732      2.4553      0.0811
  1045.0000      7.9875     13.3153    100.7243     28.5800      2.4303      0.0509
  1045.1000      7.9875     14.4731     99.5880     29.3457      2.4112      0.0376
  1045.2000      7.9875     14.3301     98.9775     30.3330      2.4136      0.0448
  1045.3000      8.0190     12.9431     99.5304     30.8646      2.4364      0.1235
  1045.4000      8.0190     11.4837    104.2892     30.8595      2.4605      0.1421
  1045.5000      8.0335     11.0484    112.8491     30.4718      2.4677      0.1298
  1045.6000      8.0335     11.9117    119.0083     30.3790      2.4535      0.1190
  1045.7000      8.0335     13.2817    117.9847     30.6855      2.4309      0.0879
  1045.8000      8.0341     13.8486    111.3197     30.9523      2.4215      0.0976
  1045.9000      8.0341     13.2751    104.9960     31.4282      2.4310      0.1016
  1046.0000      8.0454     12.4540    102.4675     31.8504      2.4445      0.1275
  1046.1000      8.0454     12.0969    100.8728     31.6298      2.4504      0.1239
  1046.2000      8.0454     11.8823     98.6181     31.2341      2.4539      0.1189
  1046.3000      8.0621     11.4043     98.6521     31.0387      2.4618      0.1344
  1046.4000      8.0621     10.9317    103.2719     30.6978      2.4696      0.1083
  1046.5000      8.0772     10.7936    109.8671     30.1841      2.4719      0.1106
  1046.6000      8.0772     10.9372    112.2121     29.7837      2.4695      0.1163
  1046.7000      8.0772     10.9149    110.1691     29.4041      2.4699      0.1076
  1046.8000      8.0962     10.3811    108.4621     29.0274      2.4787      0.1270
  1046.9000      8.0962      9.6904    105.1609     29.0795      2.4901      0.1484
  1047.0000      8.1150      9.2880     97.7564     29.6518      2.4967      0.1228
  1047.1000      8.1150      9.2140     91.9156     30.2697      2.4980      0.1428
  1047.2000      8.1150      9.3811     91.7303     30.9158      2.4952      0.1429
  1047.3000      8.1246      9.6017     92.4959     31.5175      2.4916      0.1808
  1047.4000      8.1246     10.1834     91.1380     31.6890      2.4820      0.1836
  1047.5000      8.1297     11.7752     92.3541     31.6886      2.4557      0.1161
  1047.6000      8.1297     14.4412     97.9691     31.9109      2.4117      0.0622
  1047.7000      8.1297     18.1413    104.0755     32.3556      2.3507      0.0833
  1047.8000      8.1382     23.3487    105.8392     32.9627      2.2647      0.0605
  1047.9000      8.1382     29.8406    101.5893     33.6345      2.1576     -0.0287
  1048.0000      8.1480     35.8624     98.0400     33.9477      2.0583     -0.0685
  1048.1000      8.1480     39.5982    100.7714     33.7872      1.9966     -0.0734
  1048.2000      8.1480     40.6448    104.6850     33.6600      1.9794     -0.0632
  1048.3000      8.1515     39.8702    103.8955     33.5990      1.9921     -0.0175
  1048.4000      8.1515     38.5907     99.7948     33.1628      2.0133      0.0249
  1048.5000      8.1498     37.4483     95.7763     32.4854      2.0321      0.0586
  1048.6000      8.1498     35.7314     93.1656     32.1796      2.0604      0.0808
  1048.7000      8.1498     32.2659     92.1203     32.3193      2.1176      0.1173
  1048.8000      8.1423     26.8298     90.9199     32.4401      2.2073      0.2084
  1048.9000      8.1423     20.4637     88.3902     32.3317      2.3123      0.2729
  1049.0000      8.1251     14.8185     86.8157     31.7015      2.4055      0.2977
  1049.1000      8.1251     11.3321     87.6577     30.5203      2.4630      0.2532
  1049.2000      8.1251     10.2130     87.1575     29.4717      2.4815      0.1591
  1049.3000      8.1078     10.5379     82.4752     29.1581      2.4761      0.1350
  1049.4000      8.1078     11.5426     78.4172     29.3231      2.4595      0.0663
  1049.5000      8.1009     12.6880     80.1339     29.2861      2.4406      0.0628
  1049.6000      8.1009     13.2787     85.2828     29.0262      2.4309      0.0259
  1049.7000      8.1009     13.0424     89.4450     29.1080      2.4348      0.0734
  1049.8000      8.1011     12.4652     90.0100     29.6293      2.4443      0.0704
  1049.9000      8.1011     12.0651     86.6070     30.2004      2.4509      0.1146
  1050.0000      8.1008     11.9050     81.7614     30.4786      2.4536      0.0810
  1050.1000      8.1008     11.8668     77.5774     30.3554      2.4542      0.1198
  1050.2000      8.1008     12.0180     75.4186     29.9239      2.4517      0.0953
  1050.3000      8.0999     12.3396     78.5269     29.2870      2.4464      0.0938
