~Version Information
 VERS.                                  2.0 : CWLS LAS VERSION
 WRAP.                                   NO : WRAPING MODE
 SWARE .                 MController 2.5.0N : SOFTWARE VERSION
~Well Information
 WELL.                      Piggyback 33-25 : WELL
 COMP.    Pioneer Natural Resources USA Inc : COMPANY
 FLD.                      Purgatoire River : FIELD
 LOC.                NW/SE Sec 25 T34S R65W : LOCATION
 DATE.                               4/29/05: DATE(S) LOGGED
 SRVC.       Blanco Geological Services LLC : SERVICE COMPANY
 STAT.                                   CO : STATE
 CNTY.                           Las Animas : COUNTY
 CTRY.                                  USA : COUNTRY
 API.                       05-071-08233-00 : API NUMBER
 STRT.FT                             260.00 : START DEPTH
 STOP.FT                            1000.00 : STOP DEPTH
 STEP.FT                               1.00 : DEPTH INCREMENT
 NULL.                                -9999 : NULL VALUE
~Curve information
 DEPTH.FT                                   :
 ROP.MIN/FT                                 :
 GAS.UNITS                                  :
~ASCII Log data
# ...
       460.0         0.23          6.7 
       461.0         0.22          5.6 
       462.0         0.20          5.8 
       463.0         0.20          6.7 
       464.0         0.17          7.3 
       465.0         0.17          7.3 
       466.0         0.20          7.2 
       467.0         0.20          7.9 
       468.0         0.20          7.4 
       469.0         0.23          8.4 
       470.0         0.23          8.2 
       471.0         0.20          8.1 
       472.0         0.20         22.3 
       473.0         0.20         22.1 
       474.0         0.23         22.3 
       475.0         0.20         23.0 
       476.0         0.23         23.6 
       477.0         1.88         24.7 
       478.0         0.33         28.0 
       479.0         0.23         27.4 
       480.0         0.23         26.7 
       481.0         0.23         24.6 
       482.0         0.23         23.9 
       483.0         0.28         20.1 
       484.0         0.20         20.2 
       485.0         0.30         22.0 
       486.0         0.33         22.9 
       487.0         0.27         22.7 
       488.0         0.20         21.9 
       489.0         0.27         21.9 
       490.0         0.20         21.7 
       491.0         0.20         21.9 
       492.0         0.27         21.0 
       493.0         0.23         21.2 
       494.0         0.23         20.7 
       495.0         0.23         21.3 
       496.0         0.23         21.1 
       497.0         0.28         21.2 
       498.0         0.23         21.1 
       499.0         0.23         21.0 
       500.0         0.23         20.6 
       501.0         0.30         20.5 
       502.0         0.20         20.6 
       503.0         0.20         20.6 
       504.0         0.23         20.4 
       505.0         0.23         20.4 
       506.0         3.55         20.7 
       507.0         0.20         20.0 
       508.0         0.47         22.9 
       509.0         0.40         28.0 
       510.0         0.32         29.3 
       511.0         0.23         26.5 
       512.0         0.23         25.3 
       513.0         0.27         24.9 
       514.0         0.23         22.0 
       515.0         0.13         21.3 
       516.0         0.20         25.2 
       517.0         0.17         50.1 
       518.0         0.27        176.0 
       519.0         0.27        375.4 
       520.0         0.27        441.6 
       521.0         0.27        462.4 
       522.0         0.23        462.4 
       523.0         0.27        453.8 
       524.0         0.28        439.0 
       525.0         0.27        401.7 
       526.0         0.27        396.8 
       527.0         0.23        387.5 
       528.0         0.27        357.1 
       529.0         0.23        355.8 
       530.0         0.20        345.6 
       531.0         0.27        334.9 
       532.0         0.30        325.0 
       533.0         0.23        321.1 
       534.0         0.27        308.5 
       535.0         0.30        292.9 
       536.0         1.62        331.0 
       537.0         0.47        442.8 
       538.0         0.10        440.0 
       539.0         0.53       1331.8 
       540.0         0.37       1124.5 
       541.0         0.27        446.2 
       542.0         0.28        641.5 
       543.0         0.17        493.5 
       544.0         0.23        440.0 
       545.0         0.30        440.0 
       546.0         0.17        330.9 
       547.0         0.37        317.8 
       548.0         0.20        287.1 
       549.0         0.30        284.9 
       550.0         0.30        274.9 
       551.0         0.20        272.6 
       552.0         0.13        268.6 
       553.0         0.13        268.6 
       554.0         0.20        263.2 
       555.0         0.23        258.2 
       556.0         0.17        256.1 
       557.0         0.20        251.1 
       558.0         0.25        248.5 
       559.0         0.23        247.3 
       560.0         0.23        246.8 
       561.0         0.17        244.5 
       562.0         0.23        243.7 
       563.0         0.23        242.7 
       564.0         0.10        239.2 
       565.0         0.27        230.0 
       566.0         6.97        254.1 
       567.0         0.10        264.7 
       568.0         0.30        361.7 
       569.0         0.53        440.0 
       570.0         0.23        751.9 
       571.0         0.20        440.0 
       572.0         0.32        581.2 
       573.0         0.27        393.8 
       574.0         0.23        380.5 
       575.0         0.23        305.6 
       576.0         0.20        222.2 
       577.0         0.20        219.1 
       578.0         0.20        197.3 
       579.0         0.30        195.9 
       580.0         0.23        185.4 
       581.0         0.20        181.0 
       582.0         0.17        177.8 
       583.0         0.20        176.5 
       584.0         0.17        176.2 
       585.0         0.13        175.0 
       586.0         0.10        175.3 
       587.0         0.13        177.5 
       588.0         0.18        179.0 
       589.0         0.20        180.1 
       590.0         0.20        180.1 
       591.0         0.20        179.3 
       592.0         0.17        177.9 
       593.0         0.13        175.9 
       594.0         0.17        175.9 
       595.0         0.17        175.3 
       596.0         2.25        245.1 
       597.0         0.20        287.4 
       598.0         0.40        327.0 
       599.0         0.30        440.0 
       600.0         0.33        715.2 
       601.0         0.27        659.2 
       602.0         0.30        440.0 
       603.0         0.27        440.0 
       604.0         0.20        281.7 
       605.0         0.27        265.3 
       606.0         0.30        205.5 
       607.0         0.23        186.8 
       608.0         0.25        172.1 
       609.0         0.20        161.0 
       610.0         0.23        160.6 
       611.0         0.23        157.6 
       612.0         0.27        155.1 
       613.0         0.30        154.9 
       614.0         0.27        151.7 
       615.0         0.30        150.5 
       616.0         0.27        149.6 
       617.0         0.27        148.5 
       618.0         0.27        147.9 
       619.0         0.23        147.0 
       620.0         0.30        146.8 
       621.0         0.25        146.8 
       622.0         0.17        146.7 
       623.0         0.27        146.4 
       624.0         0.20        146.1 
       625.0         0.20        146.1 
       626.0         2.32        171.5 
       627.0         0.20        192.1 
       628.0         0.30        235.7 
       629.0         0.53        440.0 
       630.0         0.53        440.0 
       631.0         0.33        388.6 
       632.0         0.27        281.8 
       633.0         0.27        213.9 
       634.0         0.27        177.4 
       635.0         0.30        145.1 
       636.0         0.27        141.4 
       637.0         0.35        127.9 
       638.0         0.40        132.5 
       639.0         0.23        133.5 
       640.0         0.27        133.2 
       641.0         0.23        131.4 
       642.0         0.27        125.0 
       643.0         0.23        119.6 
       644.0         0.20         53.9 
       645.0         0.20         51.3 
       646.0         0.20         45.6 
       647.0         0.23         43.7 
       648.0         0.20         43.2 
       649.0         0.27         43.4 
       650.0         0.38         43.5 
       651.0         0.23         25.7 
       652.0         0.23          2.6 
       653.0         0.20          2.3 
       654.0         0.27          2.3 
       655.0         0.43         36.2 
       656.0         2.58        115.6 
       657.0         0.33        145.4 
       658.0         0.50        337.1 
       659.0         0.47        355.9 
