~Version Information
VERS.                      2.0: CWLS Log ASCII Standard - VERSION 2.0
WRAP.                       NO: One line per depth step
~Well Information Block
STRT.FT                -7.0000: 
STOP.FT              2736.0000: 
STEP.FT                 0.2500: 
NULL.                -999.2500: 
COMP.          Pioneer Natural Resources: COMPANY
WELL.              Getem 21-23: WELL
FLD.           Purgatorie River: FIELD
LOC.           2623' FWL & 790' FNL----: LOCATION
PROV.                       CO: PROVINCE
CNTY.               Las Animas: COUNTRY
SRVC.          Patterson Wireline: SERVICE COMPANY
DATE.          Mon Jun 27 09:57:55 2005: LOG DATE
UWI.           05 071 08411 00: UNIQUE WELL ID
~Curve Information Block
DEPT.FT            0 000 00 00: Depth
CCL.                          : Casing Collar Locator
TT3.usec                      : CBL 3' Travel Time
AMP3.mV                       : CBL 3' Amplitude
GR.GAPI                       : Gamma Ray
~Parameter Information Block
~A  Depth       CCL         TT3         AMP3         GR     
# ...
  1266.0000      0.0000    819.3550      4.9894    126.5852
  1266.2500      0.0000    832.0666      5.1005    130.8947
  1266.5000      0.0000    838.3132      5.3406    135.3315
  1266.7500      0.0000    839.0375      5.6015    137.6969
  1267.0000      0.0000    837.8879      5.7466    136.9729
  1267.2500      0.0000    838.6182      5.7070    133.6864
  1267.5000      0.0000    842.3411      5.5093    129.4731
  1267.7500      0.0000    847.3723      5.2162    126.0286
  1268.0000      0.0000    851.5123      4.8713    123.7597
  1268.2500      0.0000    854.1914      4.5029    121.1539
  1268.5000      0.0000    856.5452      4.1371    115.8992
  1268.7500      0.0000    859.5715      3.7804    106.9705
  1269.0000      0.0000    862.4470      3.4113     95.5788
  1269.2500      0.0000    863.1104      3.0139     84.1440
  1269.5000      0.0000    860.5756      2.6149     74.5496
  1269.7500      0.0000    856.0297      2.2865     67.4862
  1270.0000      0.0000    851.4659      2.1173     63.1126
  1270.2500      0.0000    847.9398      2.1701     61.5862
  1270.5000      0.0000    845.5779      2.4459     62.6157
  1270.7500      0.0000    844.6921      2.8840     65.0266
  1271.0000      0.0000    845.9359      3.4072     67.4349
  1271.2500      0.0000    849.0760      3.9622     69.5239
  1271.5000      0.0000    852.3802      4.5159     72.4131
  1271.7500      0.0000    853.8871      5.0349     77.4485
  1272.0000      0.0000    853.0116      5.4873     84.5671
  1272.2500      0.0000    850.6493      5.8557     92.0299
  1272.5000      0.0000    848.2185      6.1414     97.7857
  1272.7500      0.0000    846.6809      6.3634    100.9189
  1273.0000      0.0000    845.8022      6.5581    101.9188
  1273.2500      0.0000    844.2083      6.7658    102.0223
  1273.5000      0.0000    840.6846      6.9993    102.3782
  1273.7500      0.0000    835.5194      7.2193    103.3791
  1274.0000      0.0000    830.2524      7.3484    104.3177
  1274.2500      0.0000    826.1750      7.3184    103.5891
  1274.5000      0.0000    823.2975      7.1129     99.7728
  1274.7500      0.0000    820.6349      6.7798     93.2451
  1275.0000      0.0000    817.2363      6.4178     86.7094
  1275.2500      0.0000    813.0130      6.1408     83.6068
  1275.5000      0.0000    808.7430      6.0242     85.7136
  1275.7500      0.0000    805.3473      6.0581     92.1005
  1276.0000      0.0000    803.2461      6.1534     99.9997
  1276.2500      0.0000    802.4059      6.2043    106.3276
  1276.5000      0.0000    802.7489      6.1527    108.6951
  1276.7500      0.0000    804.2488      6.0058    106.0712
  1277.0000      0.0000    806.5486      5.8173     99.6974
  1277.2500      0.0000    808.6234      5.6570     93.2978
  1277.5000      0.0000    809.1205      5.5822     91.0778
  1277.7500      0.0000    807.2745      5.6098     94.6293
  1278.0000      0.0000    803.4716      5.7002    102.0067
  1278.2500      0.0000    799.0374      5.7737    109.8983
  1278.5000      0.0000    795.7673      5.7619    116.1554
  1278.7500      0.0000    795.3551      5.6535    120.2100
  1279.0000      0.0000    798.3665      5.4935    122.1278
  1279.2500      0.0000    803.4580      5.3448    122.2094
  1279.5000      0.0000    808.1025      5.2562    121.0819
  1279.7500      0.0000    810.5088      5.2579    119.2602
  1280.0000      0.0000    810.8017      5.3564    116.8173
  1280.2500      0.0000    810.2628      5.5214    114.0538
  1280.5000      0.0000    809.5924      5.6975    111.8938
  1280.7500      0.0000    808.3744      5.8436    110.8418
  1281.0000      0.0000    806.4135      5.9469    110.1494
  1281.2500      0.0000    804.9508      6.0013    108.6421
  1281.5000      0.0000    805.7380      5.9931    105.7556
  1281.7500      0.0000    809.0732      5.9120    101.4116
  1282.0000      0.0000    813.4458      5.7652     95.8137
  1282.2500      0.0000    817.0928      5.5786     89.8880
  1282.5000      0.0000    819.3504      5.3900     85.1921
  1282.7500      0.0000    820.5752      5.2301     82.9025
  1283.0000      0.0000    821.4297      5.1015     83.1795
  1283.2500      0.0000    822.5681      4.9874     85.5028
  1283.5000      0.0000    824.7070      4.8896     89.1031
  1283.7500      0.0000    828.4615      4.8403     93.1224
  1284.0000      0.0000    833.7402      4.8629     96.9893
  1284.2500      0.0000    839.3541      4.9382    100.7670
  1284.5000      0.0000    843.6421      5.0189    104.6344
  1284.7500      0.0000    845.6984      5.0687    107.8020
  1285.0000      0.0000    845.7997      5.0932    108.4055
  1285.2500      0.0000    844.6230      5.1440    104.9379
  1285.5000      0.0000    842.4776      5.2850     97.7716
  1285.7500      0.0000    839.4644      5.5344     89.2062
  1286.0000      0.0000    836.0534      5.8330     82.0220
  1286.2500      0.0000    833.2733      6.0730     77.7457
  1286.5000      0.0000    832.1620      6.1648     76.0155
  1286.7500      0.0000    832.7045      6.0901     75.4358
  1287.0000      0.0000    833.3815      5.9118     74.8925
  1287.2500      0.0000    832.2964      5.7382     74.1412
  1287.5000      0.0000    828.8348      5.6531     73.5418
  1287.7500      0.0000    823.8442      5.6649     73.5326
  1288.0000      0.0000    818.3030      5.7316     74.2700
  1288.2500      0.0000    812.5618      5.8164     75.5798
  1288.5000      0.0000    807.1939      5.8941     77.0668
  1288.7500      0.0000    803.8589      5.9231     78.1363
  1289.0000      0.0000    804.4638      5.8543     78.0371
  1289.2500      0.0000    809.4337      5.6685     76.3712
  1289.5000      0.0000    817.3264      5.3877     73.7153
  1289.7500      0.0000    826.1171      5.0533     71.3822
  1290.0000      0.0000    834.4588      4.6983     70.4307
  1290.2500      0.0000    841.7988      4.3344     71.0613
  1290.5000      0.0000    847.8190      3.9753     72.5979
  1290.7500      0.0000    852.1151      3.6804     73.6051
  1291.0000      0.0000    854.3661      3.5444     72.4498
  1291.2500      0.0000    854.5118      3.6119     68.3963
  1291.5000      0.0000    852.7260      3.8063     62.1778
  1291.7500      0.0000    849.5682      3.9605     55.4466
  1292.0000      0.0000    846.2180      3.9322     49.8054
  1292.2500      0.0000    843.9354      3.7089     46.1563
  1292.5000      0.0000    842.6544      3.4197     44.5941
  1292.7500      0.0000    840.3693      3.2420     44.7810
  1293.0000      0.0000    834.7089      3.2807     46.2987
  1293.2500      0.0000    825.4611      3.5213     48.6294
  1293.5000      0.0000    815.2478      3.8857     51.0298
  1293.7500      0.0000    807.3491      4.3123     52.8014
  1294.0000      0.0000    803.0235      4.7701     53.7776
  1294.2500      0.0000    801.0827      5.2268     54.3007
  1294.5000      0.0000    799.5942      5.6386     54.5544
  1294.7500      0.0000    797.6706      5.9687     54.3657
  1295.0000      0.0000    796.1846      6.1992     54.1609
  1295.2500      0.0000    797.1075      6.3338     55.7181
  1295.5000      0.0000    801.7124      6.3935     61.1134
  1295.7500      0.0000    809.0544      6.4005     70.6995
  1296.0000      0.0000    816.4080      6.3600     82.4564
  1296.2500      0.0000    821.3599      6.2598     93.5770
  1296.5000      0.0000    823.4050      6.0884    102.8143
  1296.7500      0.0000    823.5031      5.8569    111.1559
  1297.0000      0.0000    822.1271      5.6084    120.0010
  1297.2500      0.0000    818.2222      5.4048    128.9355
  1297.5000      0.0000    810.9154      5.2879    135.8445
  1297.7500      0.0000    802.0307      5.2435    139.0860
  1298.0000      0.0000    795.5741      5.2129    138.8757
  1298.2500      0.0000    794.3926      5.1592    136.5677
  1298.5000      0.0000    798.2282      5.1191    133.3607
  1298.7500      0.0000    804.7136      5.1744    130.0124
  1299.0000      0.0000    811.1096      5.3693    127.1500
  1299.2500      0.0000    815.5870      5.6622    125.0550
