~Version Information
VERS.                      2.0: CWLS Log ASCII Standard - VERSION 2.0
WRAP.                       NO: One line per depth step
~Well Information Block
STRT.FT               451.7500: 
STOP.FT              1387.0000: 
STEP.FT                 0.2500: 
NULL.                -999.2500: 
COMP.          Petrogulf Corporation: COMPANY
WELL.          Great Plains 22-22R: WELL
FLD.           Purgatoire River: FIELD
LOC.           2042' FNL & 1657' FWL--: LOCATION
PROV.                 Colorado: PROVINCE
CNTY.               Las Animas: COUNTRY
SRVC.                Patterson: SERVICE COMPANY
DATE.          Fri Sep 09 10:42:01 2005: LOG DATE
UWI.           05 071 08028 00: UNIQUE WELL ID
~Curve Information Block
DEPT.FT            0 000 00 00: Depth
SP.mV                         : DIL Spontaneous Potential
RILD.Ohm-m                    : DIL Deep Resistivity
RILM.Ohm-m                    : DIL Medium Resistivity
RLL3.Ohm-m                    : DIL Shallow Resistivity
GR.GAPI                       : Gamma Ray
~Parameter Information Block
~A  Depth        SP         RILD        RILM        RLL3         GR     
# ...
   703.7500     46.9179     51.8919     51.0723     58.7208     59.7917
   704.0000     47.0608     52.0970     52.2201     58.7706     58.4140
   704.2500     47.1653     51.8233     53.3826     59.5614     56.9092
   704.5000     47.2467     50.9928     54.4797     61.5296     54.1725
   704.7500     47.3311     49.6138     55.3768     65.1194     52.0532
   705.0000     47.4490     47.7948     55.8671     70.6525     48.5281
   705.2500     47.6279     45.7266     55.6772     78.0220     46.3989
   705.5000     47.8867     43.6190     54.5320     86.2495     45.1546
   705.7500     48.2338     41.6294     52.2869     93.3222     46.6964
   706.0000     48.6665     39.8293     49.0602     96.7252     53.6247
   706.2500     49.1697     38.2166     45.2382     94.5172     61.2416
   706.5000     49.7172     36.7482     41.3210     86.2940     76.0528
   706.7500     50.2768     35.3646     37.7295     73.4799     87.1625
   707.0000     50.8195     34.0024     34.7036     58.8443    103.4960
   707.2500     51.3265     32.6059     32.3053     45.4748    112.7281
   707.5000     51.7912     31.1418     30.4701     35.6650    121.8059
   707.7500     52.2183     29.6157     29.0551     30.3011    123.9837
   708.0000     52.6208     28.0776     27.8762     28.9997    122.3555
   708.2500     53.0173     26.6108     26.7456     30.6105    119.6664
   708.5000     53.4297     25.3079     25.5241     33.5533    116.2900
   708.7500     53.8826     24.2433     24.1726     36.0190    115.5191
   709.0000     54.3997     23.4550     22.7648     36.4352    116.9556
   709.2500     55.0003     22.9391     21.4451     34.1802    119.2994
   709.5000     55.6954     22.6532     20.3622     29.9662    123.1945
   709.7500     56.4881     22.5262     19.6240     25.4771    124.3696
   710.0000     57.3763     22.4733     19.2852     22.5650    121.4510
   710.2500     58.3544     22.4163     19.3534     22.6009    116.2617
   710.5000     59.4113     22.3047     19.7928     26.1298    106.2531
   710.7500     60.5256     22.1287     20.5212     32.5732    100.4055
   711.0000     61.6633     21.9175     21.4073     40.0451     95.8771
   711.2500     62.7803     21.7234     22.2861     45.8530     96.1743
   711.5000     63.8286     21.5998     23.0025     47.8564    100.3690
   711.7500     64.7623     21.5773     23.4713     45.7392    104.3792
   712.0000     65.5418     21.6498     23.7089     41.0232    110.2903
   712.2500     66.1393     21.7713     23.8078     35.9016    113.4570
   712.5000     66.5440     21.8689     23.8705     32.0877    116.5669
   712.7500     66.7659     21.8671     23.9465     30.4302    117.7558
   713.0000     66.8330     21.7153     24.0018     30.9678    119.3897
   713.2500     66.7834     21.4027     23.9290     32.9533    121.0852
   713.5000     66.6555     20.9563     23.5997     35.0144    124.6164
   713.7500     66.4781     20.4252     22.9396     35.7637    126.9017
   714.0000     66.2638     19.8654     21.9786     34.5825    128.6135
   714.2500     66.0065     19.3285     20.8358     31.9025    128.0923
   714.5000     65.6847     18.8571     19.6578     28.7527    125.3013
   714.7500     65.2690     18.4796     18.5655     26.0065    123.2302
   715.0000     64.7346     18.2075     17.6366     23.9149    122.3822
   715.2500     64.0751     18.0344     16.9150     22.1912    124.2733
   715.5000     63.3087     17.9421     16.4255     20.5088    130.0440
   715.7500     62.4762     17.9113     16.1820     18.9798    134.1966
   716.0000     61.6285     17.9327     16.1901     18.2053    137.8115
   716.2500     60.8157     18.0104     16.4437     18.9083    137.4960
   716.5000     60.0790     18.1573     16.9216     21.4807    133.0221
   716.7500     59.4490     18.3847     17.5845     25.6814    128.0889
   717.0000     58.9485     18.6960     18.3794     30.5613    119.2864
   717.2500     58.5959     19.0851     19.2540     34.7612    113.2714
   717.5000     58.4092     19.5398     20.1762     37.2497    104.9324
   717.7500     58.4062     20.0423     21.1466     38.0585    100.0451
   718.0000     58.6018     20.5651     22.1921     38.3473     93.7835
   718.2500     59.0020     21.0673     23.3386     39.8007     90.3768
   718.5000     59.5968     21.4962     24.5696     44.0144     86.6285
   718.7500     60.3597     21.7972     25.7829     51.9748     85.1441
   719.0000     61.2530     21.9307     26.7696     63.0405     84.6458
   719.2500     62.2350     21.8878     27.2588     73.9086     85.7526
   719.5000     63.2648     21.6973     27.0445     79.4949     90.2089
   719.7500     64.3026     21.4176     26.1208     76.2391     95.1884
   720.0000     65.3107     21.1164     24.6997     64.9962    105.2389
   720.2500     66.2566     20.8488     23.0933     50.3615    113.0646
   720.5000     67.1198     20.6434     21.5777     37.1641    124.7888
   720.7500     67.8953     20.4999     20.3313     27.7462    131.2019
   721.0000     68.5908     20.3956     19.4429     21.9959    136.6426
   721.2500     69.2189     20.2961     18.9449     18.9172    137.1751
   721.5000     69.7881     20.1647     18.8379     17.8243    134.2355
   721.7500     70.2998     19.9696     19.1018     18.6142    130.3339
   722.0000     70.7513     19.6903     19.6897     21.5630    121.6102
   722.2500     71.1427     19.3233     20.5122     26.9787    113.8616
   722.5000     71.4814     18.8837     21.4174     34.6953    100.8962
   722.7500     71.7800     18.4004     22.1878     43.4985     93.3479
   723.0000     72.0472     17.9084     22.5835     51.0038     87.1400
   723.2500     72.2818     17.4397     22.4364     54.5338     87.2340
   723.5000     72.4712     17.0181     21.7355     52.6621     92.4811
   723.7500     72.5973     16.6548     20.6255     46.1471     97.7921
   724.0000     72.6446     16.3469     19.3188     37.3677    105.9209
   724.2500     72.6046     16.0777     18.0024     28.8335    110.5966
   724.5000     72.4782     15.8204     16.7953     22.0680    116.3533
   724.7500     72.2733     15.5461     15.7522     17.4631    119.7207
   725.0000     71.9998     15.2321     14.8848     14.7294    124.4005
   725.2500     71.6673     14.8693     14.1821     13.3539    126.9847
   725.5000     71.2859     14.4642     13.6249     12.8306    129.2911
   725.7500     70.8687     14.0354     13.1948     12.7395    129.6362
   726.0000     70.4328     13.6075     12.8792     12.7962    128.7755
   726.2500     69.9972     13.2039     12.6698     12.9013    127.6962
   726.5000     69.5831     12.8414     12.5591     13.1494    125.9679
   726.7500     69.2137     12.5291     12.5331     13.7422    124.9096
   727.0000     68.9130     12.2696     12.5680     14.7928    123.1911
   727.2500     68.7016     12.0604     12.6317     16.1229    121.7802
   727.5000     68.5925     11.8940     12.6901     17.2610    119.8227
   727.7500     68.5870     11.7572     12.7153     17.7507    119.3241
   728.0000     68.6717     11.6349     12.6890     17.5379    120.3259
   728.2500     68.8181     11.5156     12.6004     17.0311    121.8291
   728.5000     68.9872     11.3968     12.4427     16.7230    124.5575
   728.7500     69.1384     11.2843     12.2128     16.7341    126.5297
   729.0000     69.2390     11.1864     11.9163     16.7222    129.6022
   729.2500     69.2685     11.1081     11.5730     16.2201    131.4825
   729.5000     69.2190     11.0487     11.2170     15.0583    133.4111
   729.7500     69.0920     11.0035     10.8896     13.4956    133.7803
   730.0000     68.8961     10.9673     10.6277     11.9918    132.6910
   730.2500     68.6451     10.9360     10.4555     10.8910    130.9387
   730.5000     68.3574     10.9066     10.3813     10.2982    127.3610
   730.7500     68.0545     10.8769     10.4000     10.1726    124.8792
   731.0000     67.7573     10.8466     10.4971     10.4553    121.8796
   731.2500     67.4808     10.8181     10.6526     11.0978    120.6319
   731.5000     67.2301     10.7975     10.8440     12.0059    119.7785
