~Version Information
 VERS.                      2.0: CWLS Log ASCII Standard - VERSION 2.0
 WRAP.                       NO: One line per depth step
 ~Well Information Block
 STRT.FT               763.7500: 
 STOP.FT              2577.0000: 
 STEP.FT                 0.2500: 
 NULL.                -999.2500: 
 COMP.          Petrogulf Corporation: COMPANY
 WELL.               J&P 12-33V: WELL
 FLD.           Purgatorie River: FIELD
 LOC.           2005' FSL & 1928' FEL: LOCATION
 CNTY.               Las Animas: COUNTY
 SRVC.                         : SERVICE COMPANY
 DATE.          Sat Aug 28 09:00:36 2004: LOG DATE
 UWI.           05 071 08092 00: UNIQUE WELL ID
 STAT.                 Colorado: STATE
 PROV.                         :Province
 ~Curve Information Block
 DEPT.FT            0 000 00 00: Depth
 SP.mV                         : DIL Spontaneous Potential
 RILD.Ohm-m                    : DIL Deep Resistivity
 RILM.Ohm-m                    : DIL Medium Resistivity
 RLL3.Ohm-m                    : DIL Shallow Resistivity
 GR.GAPI                       : Gamma Ray
 ~Parameter Information Block
 ~A  Depth        SP         RILD        RILM        RLL3         GR     
# ...
  1155.7500   2000.0000     14.2143     14.7520   1998.0000    138.4576
  1156.0000   2000.0000     13.9601     14.6841   1998.0000    140.5445
  1156.2500   2000.0000     13.7481     14.6169   1998.0000    141.7912
  1156.5000   2000.0000     13.5468     14.5399   1998.0000    143.0807
  1156.7500   2000.0000     13.3366     14.4458   1998.0000    143.5195
  1157.0000   2000.0000     13.1175     14.3305   1998.0000    143.3139
  1157.2500   2000.0000     12.9080     14.1934   1998.0000    142.5444
  1157.5000   2000.0000     12.7364     14.0367   1998.0000    141.1487
  1157.7500   2000.0000     12.6293     13.8655   1998.0000    140.8617
  1158.0000   2000.0000     12.6019     13.6863   1998.0000    142.3625
  1158.2500   2000.0000     12.6536     13.5069   1998.0000    144.5212
  1158.5000   2000.0000     12.7692     13.3363   1998.0000    148.6706
  1158.7500   2000.0000     12.9228     13.1837   1998.0000    151.8430
  1159.0000   2000.0000     13.0851     13.0581   1998.0000    157.2436
  1159.2500   2000.0000     13.2294     12.9677   1998.0000    160.8173
  1159.5000   2000.0000     13.3390     12.9198   1998.0000    164.3265
  1159.7500   2000.0000     13.4103     12.9206   1998.0000    164.6094
  1160.0000   2000.0000     13.4528     12.9750   1998.0000    162.0909
  1160.2500   2000.0000     13.4838     13.0877   1998.0000    159.0630
  1160.5000   2000.0000     13.5220     13.2630   1998.0000    153.2393
  1160.7500   2000.0000     13.5831     13.5053   1998.0000    148.7130
  1161.0000   2000.0000     13.6813     13.8201   1998.0000    141.6248
  1161.2500   2000.0000     13.8334     14.2131   1998.0000    137.2892
  1161.5000   2000.0000     14.0605     14.6915   1998.0000    131.8987
  1161.7500   2000.0000     14.3838     15.2630   1998.0000    128.8291
  1162.0000   2000.0000     14.8161     15.9356   1998.0000    124.3709
  1162.2500   2000.0000     15.3531     16.7161   1998.0000    121.4169
  1162.5000   2000.0000     15.9733     17.6096   1998.0000    117.2866
  1162.7500   2000.0000     16.6476     18.6177   1998.0000    114.7877
  1163.0000   2000.0000     17.3524     19.7380   1998.0000    111.1413
  1163.2500   2000.0000     18.0764     20.9628   1998.0000    108.6009
  1163.5000   2000.0000     18.8143     22.2793   1998.0000    104.6391
  1163.7500   2000.0000     19.5560     23.6694   1998.0000    102.1370
  1164.0000   2000.0000     20.2834     25.1106   1998.0000     99.3092
  1164.2500   2000.0000     20.9790     26.5766   1998.0000     98.4425
  1164.5000   2000.0000     21.6379     28.0380   1998.0000     98.7885
  1164.7500   2000.0000     22.2687     29.4604   1998.0000     99.7489
  1165.0000   2000.0000     22.8778     30.7986   1998.0000    101.3183
  1165.2500   2000.0000     23.4446     31.9859   1998.0000    101.9804
  1165.5000   2000.0000     23.9051     32.9235   1998.0000    101.9945
  1165.7500   2000.0000     24.1598     33.4819   1998.0000    101.3345
  1166.0000   2000.0000     24.1109     33.5249   1998.0000     99.4246
  1166.2500   2000.0000     23.7141     32.9587   1998.0000     97.5777
  1166.5000   2000.0000     23.0047     31.7843   1998.0000     94.4185
  1166.7500   2000.0000     22.0803     30.1173   1998.0000     92.8097
  1167.0000   2000.0000     21.0525     28.1529   1998.0000     92.8499
  1167.2500   2000.0000     20.0100     26.1024   1998.0000     95.1843
  1167.5000   2000.0000     19.0065     24.1354   1998.0000    102.0567
  1167.7500   2000.0000     18.0699     22.3569   1998.0000    108.1026
  1168.0000   2000.0000     17.2132     20.8116   1998.0000    117.3102
  1168.2500   2000.0000     16.4401     19.5014   1998.0000    122.3745
  1168.5000   2000.0000     15.7464     18.4036   1998.0000    127.1413
  1168.7500   2000.0000     15.1219     17.4862   1998.0000    128.3749
  1169.0000   2000.0000     14.5553     16.7169   1998.0000    128.2265
  1169.2500   2000.0000     14.0415     16.0678   1998.0000    127.6776
  1169.5000   2000.0000     13.5841     15.5181   1998.0000    127.7241
  1169.7500   2000.0000     13.1941     15.0531   1998.0000    128.9267
  1170.0000   2000.0000     12.8830     14.6626   1998.0000    132.2833
  1170.2500   2000.0000     12.6582     14.3391   1998.0000    134.6258
  1170.5000   2000.0000     12.5195     14.0751   1998.0000    136.4569
  1170.7500   2000.0000     12.4592     13.8618   1998.0000    136.2814
  1171.0000   2000.0000     12.4623     13.6897   1998.0000    135.2879
  1171.2500   2000.0000     12.5072     13.5482   1998.0000    135.2331
  1171.5000   2000.0000     12.5674     13.4272   1998.0000    136.7337
  1171.7500   2000.0000     12.6162     13.3186   1998.0000    138.3283
  1172.0000   2000.0000     12.6338     13.2170   1998.0000    140.4003
  1172.2500   2000.0000     12.6141     13.1205   1998.0000    141.1299
  1172.5000   2000.0000     12.5664     13.0295   1998.0000    141.0820
  1172.7500   2000.0000     12.5099     12.9460   1998.0000    140.4689
  1173.0000   2000.0000     12.4652     12.8723   1998.0000    139.5313
  1173.2500   2000.0000     12.4473     12.8102   1998.0000    139.5264
  1173.5000   2000.0000     12.4617     12.7607   1998.0000    140.7695
  1173.7500   2000.0000     12.5051     12.7249   1998.0000    141.8846
  1174.0000   2000.0000     12.5684     12.7038   1998.0000    142.6978
  1174.2500   2000.0000     12.6414     12.6995   1998.0000    142.4958
  1174.5000   2000.0000     12.7169     12.7155   1998.0000    141.9926
  1174.7500   2000.0000     12.7943     12.7560   1998.0000    142.1114
  1175.0000   2000.0000     12.8800     12.8257   1998.0000    143.0474
  1175.2500   2000.0000     12.9855     12.9297   1998.0000    143.7578
  1175.5000   2000.0000     13.1226     13.0721   1998.0000    144.2301
  1175.7500   2000.0000     13.2979     13.2563   1998.0000    144.0689
  1176.0000   2000.0000     13.5102     13.4845   1998.0000    143.8139
  1176.2500   2000.0000     13.7527     13.7576   1998.0000    144.3194
  1176.5000   2000.0000     14.0171     14.0755   1998.0000    146.4402
  1176.7500   2000.0000     14.3005     14.4374   1998.0000    147.9359
  1177.0000   2000.0000     14.6066     14.8418   1998.0000    148.0712
  1177.2500   2000.0000     14.9429     15.2869   1998.0000    146.2053
  1177.5000   2000.0000     15.3156     15.7702   1998.0000    141.6692
  1177.7500   2000.0000     15.7272     16.2895   1998.0000    138.6705
  1178.0000   2000.0000     16.1810     16.8430   1998.0000    135.4990
  1178.2500   2000.0000     16.6864     17.4315   1998.0000    134.5460
  1178.5000   2000.0000     17.2617     18.0599   1998.0000    134.9645
  1178.7500   2000.0000     17.9282     18.7395   1998.0000    136.2240
  1179.0000   2000.0000     18.6968     19.4887   1998.0000    138.3006
  1179.2500   2000.0000     19.5504     20.3310   1998.0000    138.7966
  1179.5000   2000.0000     20.4339     21.2917   1998.0000    136.8129
  1179.7500   2000.0000     21.2594     22.3908   1998.0000    133.3000
  1180.0000   2000.0000     21.9348     23.6329   1998.0000    124.9690
  1180.2500   2000.0000     22.4032     24.9957   1998.0000    117.9528
  1180.5000   2000.0000     22.6672     26.4169   1998.0000    106.7110
  1180.7500   2000.0000     22.7746     27.7869   1998.0000     99.6179
  1181.0000   2000.0000     22.7802     28.9548   1998.0000     90.6927
  1181.2500   2000.0000     22.7118     29.7600   1998.0000     86.2615
  1181.5000   2000.0000     22.5671     30.0816   1998.0000     82.3627
  1181.7500   2000.0000     22.3365     29.8871   1998.0000     81.9137
  1182.0000   2000.0000     22.0304     29.2454   1998.0000     84.9124
  1182.2500   2000.0000     21.6858     28.2957   1998.0000     89.2545
  1182.5000   2000.0000     21.3456     27.1948   1998.0000     98.0392
  1182.7500   2000.0000     21.0304     26.0711   1998.0000    104.1960
  1183.0000   2000.0000     20.7237     25.0045   1998.0000    111.8905
  1183.2500   2000.0000     20.3812     24.0274   1998.0000    115.3507
  1183.5000   2000.0000     19.9583     23.1364   1998.0000    118.0364
