~Version Information
VERS.                      2.0: CWLS Log ASCII Standard - VERSION 2.0
WRAP.                       NO: One line per depth step
~Well Information Block
STRT.FT                -9.5000: 
STOP.FT              2893.0000: 
STEP.FT                 0.2500: 
NULL.                -999.2500: 
COMP.          Pioneer Natural Resources: COMPANY
WELL.          Old Yeller 31-32: WELL
FLD.           Purgatoire River: FIELD
LOC.           1832' FEL & 793' FNL----: LOCATION
STAT.                 Colorado: State
CNTY.               Las Animas: COUNTY
CTRY. USA : Country
SECT. 32 : Section
TOWN. 32S : Township
RANG. 67W : Range
SRVC.                         : SERVICE COMPANY
DATE.          Fri Sep 02 16:45:38 2005: LOG DATE
API. 05-071-08356                         : UNIQUE WELL ID
~Curve Information Block
DEPT.FT            0 000 00 00: Depth
CCL.                          : Casing Collar Locator
TT3.usec                      : CBL 3' Travel Time
AMP5.mV                       : CBL 5' Amplitude
GR.GAPI                       : Gamma Ray
~Parameter Information Block
~A  Depth       CCL         TT3         AMP5         GR     
# ...
  1900.0000      0.0000    722.8336      0.4741    139.9597
  1900.2500      0.0000    726.7100      0.7352    138.3166
  1900.5000      0.0000    730.7988      0.5611    136.2007
  1900.7500      0.0000    730.8531      0.4741    134.0473
  1901.0000      0.0000    723.8208      0.9093    131.7117
  1901.2500      0.0000    711.8968      0.8223    129.0615
  1901.5000      0.0000    701.9311      0.9093    126.3867
  1901.7500      0.0000    700.2222      0.9093    124.0397
  1902.0000      0.0000    707.7609      0.5611    121.8501
  1902.2500      0.0000    720.0903      0.6482    119.2138
  1902.5000      0.0000    731.2516      1.1705    115.8422
  1902.7500      0.0000    737.8292      0.8223    112.3489
  1903.0000      0.0000    739.7598      0.9093    109.8689
  1903.2500      0.0000    738.4227      1.2575    108.9819
  1903.5000      0.0000    734.9095      0.8223    109.1893
  1903.7500      0.0000    729.7266      0.8223    109.7186
  1904.0000      0.0000    723.2317      1.3446    110.6947
  1904.2500      0.0000    716.2338      1.1705    113.0546
  1904.5000      0.0000    710.5660      0.9964    117.2601
  1904.7500      0.0000    708.5395      1.0834    122.5938
  1905.0000      0.0000    710.7802      1.2575    127.8978
  1905.2500      0.0000    714.7219      0.9093    132.4209
  1905.5000      0.0000    716.0552      0.9093    135.7027
  1905.7500      0.0000    711.5182      0.9093    137.4554
  1906.0000      0.0000    699.8814      0.9964    138.1970
  1906.2500      0.0000    680.9612      0.9093    139.3716
  1906.5000      0.0000    655.1036      1.3446    142.0131
  1906.7500      0.0000    624.2543      1.5186    145.5361
  1907.0000      0.0000    593.1606      1.1705    148.4149
  1907.2500      0.0000    569.0288      1.1705    149.8088
  1907.5000      0.0000    559.3972      0.8223    150.0121
  1907.7500      0.0000    568.5139      0.8223    149.7392
  1908.0000      0.0000    593.4333      1.5186    149.7782
  1908.2500      0.0000    623.1559      1.3446    151.0971
  1908.5000      0.0000    643.7268      0.8223    154.3791
  1908.7500      0.0000    646.4510      0.9964    159.1401
  1909.0000      0.0000    631.9632      0.7352    163.5541
  1909.2500      0.0000    607.2279      0.9093    165.4385
  1909.5000      0.0000    580.0592      0.7352    163.7967
  1909.7500      0.0000    556.5439      0.8223    159.7088
  1910.0000      0.0000    541.3379      0.9093    155.5884
  1910.2500      0.0000    537.2667      0.8223    153.4059
  1910.5000      0.0000    543.4526      1.2575    153.6676
  1910.7500      0.0000    555.1149      0.6482    155.7437
  1911.0000      0.0000    566.5690      0.9093    158.4210
  1911.2500      0.0000    574.5966      1.2575    160.2244
  1911.5000      0.0000    579.1727      0.9093    160.1712
  1911.7500      0.0000    582.0536      0.9964    158.5670
  1912.0000      0.0000    585.5045      0.9964    156.5020
  1912.2500      0.0000    591.8622      0.4741    154.3577
  1912.5000      0.0000    602.9113      0.7352    151.3425
  1912.7500      0.0000    618.5408      0.6482    146.5996
  1913.0000      0.0000    635.9885      1.2575    140.2599
  1913.2500      0.0000    651.2448      0.9964    133.2575
  1913.5000      0.0000    661.7696      0.8223    126.5388
  1913.7500      0.0000    667.9523      0.6482    120.6022
  1914.0000      0.0000    672.2874      0.8223    115.4733
  1914.2500      0.0000    677.5397      0.7352    110.9072
  1914.5000      0.0000    685.3737      1.0834    106.7742
  1914.7500      0.0000    695.9752      0.7352    103.4761
  1915.0000      0.0000    708.3468      0.7352    102.0443
  1915.2500      0.0000    720.3196      0.4741    103.6141
  1915.5000      0.0000    728.1119      0.7352    108.3479
  1915.7500      0.0000    727.1158      0.3000    114.6744
  1916.0000      0.0000    714.8724      0.3000    119.8930
  1916.2500      0.0000    693.8026     -0.0482    121.8988
  1916.5000      0.0000    670.6379      0.1259    120.4606
  1916.7500      0.0000    652.8936      0.2129    116.9706
  1917.0000      0.0000    645.1697      0.5611    113.2489
  1917.2500      0.0000    647.4489      0.5611    110.6741
  1917.5000      0.0000    656.0861      0.3870    109.9746
  1917.7500      0.0000    666.1710      0.3000    111.0387
  1918.0000      0.0000    672.9609      0.3870    112.7896
  1918.2500      0.0000    672.2986     -0.1352    113.8955
  1918.5000      0.0000    662.0379     -0.1352    113.8695
  1918.7500      0.0000    644.3421     -0.3093    113.1176
  1919.0000      0.0000    625.8558      0.4741    111.9445
  1919.2500      0.0000    614.2371     -0.1352    110.0189
  1919.5000      0.0000    613.4672     -0.0482    106.9904
  1919.7500      0.0000    621.9908      0.3870    103.3033
  1920.0000      0.0000    635.3331      0.2129    100.1299
  1920.2500      0.0000    650.3985     -0.1352     98.6597
  1920.5000      0.0000    666.5794     -0.3964     99.6358
  1920.7500      0.0000    683.0264      0.2129    103.3826
  1921.0000      0.0000    696.6815     -0.0482    109.8711
  1921.2500      0.0000    704.2354     -0.1352    118.5593
  1921.5000      0.0000    705.6021      0.4741    128.2090
  1921.7500      0.0000    704.2582      0.1259    137.0706
  1922.0000      0.0000    703.4626      0.3000    143.4582
  1922.2500      0.0000    702.7765      0.7352    146.4137
  1922.5000      0.0000    699.3278      0.3870    146.1305
  1922.7500      0.0000    691.9670      0.8223    143.9078
  1923.0000      0.0000    682.8206      0.9093    141.7127
  1923.2500      0.0000    675.0073      0.4741    141.5528
  1923.5000      0.0000    670.0568      0.3870    144.6252
  1923.7500      0.0000    667.0919      1.0834    150.4544
  1924.0000      0.0000    662.7642      0.9093    156.8664
  1924.2500      0.0000    652.0224      0.3000    161.0989
  1924.5000      0.0000    631.0154      0.5611    161.2120
  1924.7500      0.0000    600.7044      1.0834    156.8982
  1925.0000      0.0000    567.6237      0.4741    149.4789
  1925.2500      0.0000    541.2903      0.5611    141.2168
  1925.5000      0.0000    530.7199      0.5611    134.3214
  1925.7500      0.0000    541.2067      0.7352    130.2506
  1926.0000      0.0000    571.4485      0.4741    129.4185
  1926.2500      0.0000    612.9625      0.4741    130.9832
  1926.5000      0.0000    653.8389      0.7352    132.9240
  1926.7500      0.0000    684.6302      0.3870    133.1228
  1927.0000      0.0000    701.7596      0.4741    130.9137
  1927.2500      0.0000    707.3640      0.8223    127.4010
  1927.5000      0.0000    707.1454      0.7352    124.2138
  1927.7500      0.0000    706.7741      0.6482    122.2999
  1928.0000      0.0000    708.2361      0.8223    121.8405
  1928.2500      0.0000    709.5563      0.3870    122.6443
  1928.5000      0.0000    708.4754      0.8223    124.3592
  1928.7500      0.0000    705.5991      0.9964    126.6931
  1929.0000      0.0000    703.1541      0.3870    129.6722
  1929.2500      0.0000    700.7775      0.3000    133.2279
  1929.5000      0.0000    693.2928      0.8223    136.2215
  1929.7500      0.0000    674.6813      1.0834    136.3813
  1930.0000      0.0000    646.6508      0.3870    131.9891
  1930.2500      0.0000    622.3782      0.4741    123.8584
  1930.5000      0.0000    617.4079      1.4316    115.3095
  1930.7500      0.0000    634.9518      0.7352    109.8137
  1931.0000      0.0000    662.3687      0.9964    108.4417
  1931.2500      0.0000    682.9960      0.6482    109.5177
  1931.5000      0.0000    690.0336      0.7352    110.5506
  1931.7500      0.0000    689.2591      0.5611    110.2141
  1932.0000      0.0000    690.5309      1.2575    108.6001
  1932.2500      0.0000    698.3608      1.0834    106.4565
  1932.5000      0.0000    710.3963      0.7352    104.8232
  1932.7500      0.0000    722.2537      1.1705    104.8507
  1933.0000      0.0000    731.1856      0.9964    107.0963
  1933.2500      0.0000    735.9069      0.8223    110.8132
