~Version Information
VERS.                      2.0: CWLS Log ASCII Standard - VERSION 2.0
WRAP.                       NO: One line per depth step
~Well Information Block
STRT.FT                -6.7500: 
STOP.FT               983.2500: 
STEP.FT                 0.2500: 
NULL.                -999.2500: 
COMP.          Pioneer Natural Resources: COMPANY
WELL.          Run-Away-Train 43-26: WELL
FLD.           Purgatorie River: FIELD
LOC.           1693' FSL & 1195' FWL------------: LOCATION
PROV.                       CO: PROVINCE
CNTY.               Las Animas: COUNTRY
SRVC.          Patterson Wireline: SERVICE COMPANY
DATE.          Thu Apr 14 12:30:00 2005: LOG DATE
UWI.           05 071 08188 00: UNIQUE WELL ID
~Curve Information Block
DEPT.FT            0 000 00 00: Depth
CCL.                          : Casing Collar Locator
TT3.usec                      : CBL 3' Travel Time
AMP3.mV                       : CBL 3' Amplitude
GR.GAPI                       : Gamma Ray
~Parameter Information Block
~A  Depth       CCL         TT3         AMP3         GR     
# ...
   562.7500      0.0000    637.7767      5.7810     97.8433
   563.0000      0.0000    643.2341      5.7652    102.4563
   563.2500      0.0000    656.9510      5.6876    107.8560
   563.5000      0.0000    684.0264      5.5428    111.1946
   563.7500      0.0000    719.4834      5.3431    110.5644
   564.0000      0.0000    752.2866      5.1001    106.7120
   564.2500      0.0000    774.2700      4.8095    102.5132
   564.5000      0.0000    785.5130      4.4592    100.5537
   564.7500      0.0000    793.1446      4.0649    101.0143
   565.0000      0.0000    805.7460      3.6967    101.7236
   565.2500      0.0000    826.4530      3.4433    100.1872
   565.5000      0.0000    849.9195      3.3419     95.7524
   565.7500      0.0000    867.1206      3.3560     90.1209
   566.0000     -2.0000    874.1122      3.4234     85.7570
   566.2500      2.0000    874.7426      3.5140     83.6142
   566.5000      0.0000    873.2088      3.6592     82.4628
   566.7500      0.0000    865.6912      3.9461     80.4816
   567.0000      0.0000    842.7870      4.4556     77.2164
   567.2500      0.0000    799.4189      5.1709     73.8858
   567.5000      0.0000    738.4909      5.9733     72.1930
   567.7500      0.0000    665.8423      6.7670     73.0417
   568.0000      0.0000    588.2766      7.5636     76.1013
   568.2500      0.0000    518.4567      8.3830     80.1424
   568.5000      0.0000    474.8462      9.1205     83.6492
   568.7500      0.0000    470.1011      9.5889     85.4529
   569.0000      0.0000    498.2162      9.6829     85.3659
   569.2500      0.0000    534.4295      9.4612     84.4102
   569.5000      0.0000    550.4733      9.0809     84.0445
   569.7500      0.0000    533.5156      8.6847     84.8289
   570.0000      0.0000    492.5959      8.3480     85.9526
   570.2500      0.0000    447.8490      8.0892     86.0730
   570.5000      0.0000    414.4720      7.8896     84.2660
   570.7500      0.0000    395.9215      7.7140     80.3393
   571.0000      0.0000    387.9474      7.5348     74.9832
   571.2500      0.0000    385.1966      7.3372     69.8221
   571.5000      0.0000    384.3582      7.1093     66.6632
   571.7500      0.0000    384.0763      6.8543     66.1341
   572.0000      0.0000    383.9611      6.6162     67.2018
   572.2500      0.0000    383.9446      6.4622     68.3042
   572.5000      0.0000    384.0078      6.4262     68.8278
   572.7500      0.0000    384.1202      6.4818     69.1978
   573.0000      0.0000    384.2345      6.5746     69.7423
   573.2500      0.0000    384.3095      6.6695     70.0760
   573.5000      0.0000    384.3139      6.7635     69.7256
   573.7500      0.0000    384.2052      6.8582     68.8039
   574.0000      0.0000    383.9363      6.9380     67.7445
   574.2500      0.0000    383.5115      6.9887     66.7738
   574.5000      0.0000    383.0212      7.0239     66.0373
   574.7500      0.0000    382.6011      7.0744     66.0150
   575.0000      0.0000    382.3595      7.1580     67.2772
   575.2500      0.0000    382.3321      7.2688     69.6179
   575.5000      0.0000    382.4703      7.3845     71.7692
   575.7500      0.0000    382.6591      7.4735     72.4233
   576.0000      0.0000    382.7568      7.5016     71.5758
   576.2500      0.0000    382.6544      7.4507     70.5867
   576.5000      0.0000    382.3411      7.3395     70.9796
   576.7500      0.0000    381.9262      7.2099     73.4888
   577.0000      0.0000    381.5752      7.0812     78.0107
   577.2500      0.0000    381.4077      6.9260     83.6932
   577.5000      0.0000    381.4715      6.7048     88.9924
   577.7500      0.0000    381.8291      6.4149     92.5778
   578.0000      0.0000    382.9443      6.0921     94.6508
   578.2500      0.0000    386.5826      5.7688     96.6248
   578.5000      0.0000    397.1626      5.4549     98.9789
   578.7500      0.0000    422.0158      5.1526    100.1317
   579.0000      0.0000    467.8185      4.8703     98.0796
   579.2500      0.0000    533.4948      4.6245     92.7846
   579.5000      0.0000    606.6021      4.4340     86.5498
   579.7500      0.0000    669.9742      4.3043     82.1529
   580.0000      0.0000    713.5472      4.2192     80.6497
   580.2500      0.0000    738.8664      4.1560     80.6978
   580.5000      0.0000    753.3488      4.1033     79.7928
   580.7500      0.0000    763.1730      4.0636     76.2513
   581.0000      0.0000    771.3287      4.0385     70.2982
   581.2500      0.0000    779.1876      4.0132     63.6339
   581.5000      0.0000    787.8896      3.9630     58.1885
   581.7500      0.0000    798.3249      3.8798     55.0315
   582.0000      0.0000    810.1661      3.7829     54.0000
   582.2500      0.0000    821.4821      3.7016     54.1866
   582.5000      0.0000    830.0192      3.6521     54.9520
   582.7500      0.0000    834.6520      3.6297     56.5623
   583.0000      0.0000    835.7234      3.6188     59.8019
   583.2500      0.0000    835.3795      3.6076     64.9036
   583.5000      0.0000    837.7224      3.5952     70.8527
   583.7500      0.0000    846.2284      3.5886     75.8615
   584.0000      0.0000    859.6272      3.5978     78.8623
   584.2500      0.0000    871.9017      3.6299     80.7261
   584.5000      0.0000    877.6348      3.6820     83.8218
   584.7500      0.0000    876.4462      3.7363     90.0014
   585.0000      0.0000    871.3098      3.7712     98.7137
   585.2500      0.0000    863.3904      3.7841    107.0219
   585.5000      0.0000    850.0870      3.7952    111.6481
   585.7500      0.0000    829.0992      3.8336    111.3518
   586.0000      0.0000    803.4987      3.9248    107.6066
   586.2500      0.0000    780.9028      4.0765    103.0929
   586.5000      0.0000    767.1700      4.2604     99.7018
   586.7500      0.0000    761.9893      4.4202     97.8985
   587.0000      0.0000    760.7482      4.5060     97.2422
   587.2500      0.0000    759.4295      4.5029     96.9095
   587.5000      0.0000    757.2155      4.4395     96.1567
   587.7500      0.0000    755.4971      4.3770     94.8175
   588.0000      0.0000    755.8687      4.3775     93.1727
   588.2500      0.0000    759.1479      4.4704     91.2586
   588.5000      0.0000    764.7635      4.6400     88.7970
   588.7500      0.0000    769.8605      4.8390     85.9487
   589.0000      0.0000    769.8336      5.0337     83.6324
   589.2500      0.0000    760.8712      5.2570     82.6891
   589.5000      0.0000    742.2215      5.5961     82.8657
   589.7500      0.0000    716.5185      6.1077     83.0153
   590.0000      0.0000    689.3151      6.7492     82.3473
   590.2500      0.0000    668.0054      7.4044     81.1954
   590.5000      0.0000    658.9161      7.9650     80.7083
   590.7500      0.0000    663.8985      8.3793     82.2808
   591.0000      0.0000    679.5840      8.6439     87.0159
   591.2500      0.0000    699.8176      8.7844     94.7537
   591.5000      0.0000    718.9163      8.8413    103.3034
   591.7500      0.0000    733.7326      8.8404    109.2713
   592.0000      0.0000    744.1025      8.7790    110.2871
   592.2500      0.0000    751.6995      8.6589    106.7674
   592.5000      0.0000    757.9686      8.5134    101.7081
   592.7500      0.0000    763.0089      8.3842     98.6333
   593.0000      0.0000    766.3235      8.2952     99.3700
   593.2500      0.0000    767.8700      8.2547    103.3225
   593.5000      0.0000    768.1038      8.2476    108.2883
   593.7500      0.0000    767.3489      8.2312    111.9023
   594.0000      0.0000    765.6041      8.1795    113.0918
   594.2500      0.0000    762.9601      8.1245    112.8062
   594.5000      0.0000    760.0640      8.1164    113.1209
   594.7500      0.0000    757.8967      8.1556    115.3079
   595.0000      0.0000    757.0029      8.1875    118.8927
   595.2500      0.0000    757.1847      8.1486    122.4166
   595.5000      0.0000    757.9747      8.0064    124.6412
   595.7500      0.0000    759.0952      7.7834    125.0235
   596.0000      0.0000    760.5643      7.5514    123.6273
