~Version Information
VERS.                      2.0: CWLS Log ASCII Standard - VERSION 2.0
WRAP.                       NO: One line per depth step
~Well Information Block
STRT.FT               946.8000: 
STOP.FT              2134.5000: 
STEP.FT                 0.1000: 
NULL.                -999.2500: 
COMP.          Petrogulf Corporation: COMPANY
WELL.             Valejo 8-12R: WELL
FLD.           Purgatorie River: FIELD
LOC.           1351'' FNL & 1562' FWL: LOCATION
CNTY.               Las Animas: COUNTY
SRVC.                         : SERVICE COMPANY
DATE.          Wed Apr 28 13:22:45 2004: LOG DATE
UWI.           05 071 08038 00: UNIQUE WELL ID
STAT.                 Colorado: STATE
~Curve Information Block
DEPT.FT            0 000 00 00: Depth
DCAL.in                       : CDL Caliper
RHOB.g/cc                     : CDL Bulk Density
RHOC.g/cc                     : CDL Density Correction
DPOR.pu                       : CDL Density Porosity
NPOR.pu                       : Neutron Porosity
GR.GAPI                       : Gamma Ray
~Parameter Information Block
~A  Depth       DCAL        RHOB        RHOC        DPOR        NPOR         GR     
# ...
  1638.0000      7.9562      2.4624      0.0269     11.3702     19.3781     76.3732
  1638.1000      7.9562      2.4720      0.0716     10.7856     19.4205     80.2539
  1638.2000      7.9562      2.4756      0.1021     10.5670     19.5532     83.2775
  1638.3000      7.9595      2.4614      0.0796     11.4313     19.3026     82.7056
  1638.4000      7.9595      2.4492      0.0652     12.1679     18.6925     81.8791
  1638.5000      7.9591      2.4580      0.0667     11.6367     18.3265     83.0277
  1638.6000      7.9591      2.4749      0.0688     10.6104     18.6659     83.4049
  1638.7000      7.9591      2.4854      0.0297      9.9743     19.3036     81.8186
  1638.8000      7.9581      2.4883      0.0646      9.7999     19.4123     80.5664
  1638.9000      7.9581      2.4777      0.0721     10.4421     18.8543     79.5335
  1639.0000      7.9599      2.4632     -0.0205     11.3233     18.2630     76.3407
  1639.1000      7.9599      2.4688      0.0335     10.9792     18.1642     71.4120
  1639.2000      7.9599      2.4891      0.0390      9.7518     18.4812     68.5626
  1639.3000      7.9562      2.5004      0.1010      9.0675     18.8862     67.3608
  1639.4000      7.9562      2.4990      0.0181      9.1529     19.1572     65.3935
  1639.5000      7.9588      2.5015      0.0520      9.0005     19.2232     63.6905
  1639.6000      7.9588      2.5156      0.0918      8.1480     19.3124     64.1572
  1639.7000      7.9588      2.5293      0.1188      7.3135     19.5905     69.1633
  1639.8000      7.9599      2.5290      0.1076      7.3308     19.7868     75.3980
  1639.9000      7.9599      2.5123      0.1261      8.3451     19.7874     75.7529
  1640.0000      7.9608      2.4894      0.0486      9.7318     19.7525     73.3432
  1640.1000      7.9608      2.4721      0.0582     10.7803     19.7983     72.9947
  1640.2000      7.9608      2.4622      0.0742     11.3806     19.7957     72.6967
  1640.3000      7.9653      2.4626      0.0196     11.3546     19.7064     72.8625
  1640.4000      7.9653      2.4712      0.0975     10.8369     19.6245     74.2798
  1640.5000      7.9566      2.4661      0.0782     11.1446     19.4085     72.8945
  1640.6000      7.9566      2.4446      0.0646     12.4457     19.2005     68.3012
  1640.7000      7.9566      2.4394     -0.0052     12.7640     19.4043     66.8086
  1640.8000      7.9567      2.4626      0.1070     11.3563     19.8305     70.8940
  1640.9000      7.9567      2.4848      0.1033     10.0149     19.9153     75.4806
  1641.0000      7.9574      2.4963      0.0786      9.3168     19.6619     77.9235
  1641.1000      7.9574      2.5175      0.1123      8.0288     19.5228     80.8834
  1641.2000      7.9574      2.5439      0.1659      6.4299     19.7167     83.5808
  1641.3000      7.9573      2.5537      0.1425      5.8354     20.0416     82.0853
  1641.4000      7.9573      2.5523      0.1148      5.9210     20.1763     78.2489
  1641.5000      7.9600      2.5582      0.1318      5.5665     19.8806     76.9143
  1641.6000      7.9600      2.5707      0.1488      4.8090     19.2393     77.0691
  1641.7000      7.9600      2.5826      0.1120      4.0868     18.5342     76.3438
  1641.8000      7.9581      2.5977      0.0813      3.1703     17.9609     76.5387
  1641.9000      7.9581      2.6180      0.1352      1.9387     17.8946     78.1901
  1642.0000      7.9577      2.6307      0.1529      1.1688     18.4313     78.5568
  1642.1000      7.9577      2.6244      0.1037      1.5492     19.0318     76.3345
  1642.2000      7.9577      2.6051      0.0699      2.7214     19.3874     74.5927
  1642.3000      7.9501      2.5847      0.1247      3.9593     19.8667     77.1312
  1642.4000      7.9501      2.5698      0.0576      4.8581     20.9052     81.7508
  1642.5000      7.9637      2.5696      0.0368      4.8751     22.1277     83.8173
  1642.6000      7.9637      2.5857      0.0618      3.8996     23.1598     86.9669
  1642.7000      7.9637      2.6060      0.0791      2.6637     24.2755     99.3166
  1642.8000      7.9771      2.6141      0.1083      2.1745     25.2618    120.6531
  1642.9000      7.9771      2.6005      0.0859      2.9999     25.6516    140.6517
  1643.0000      7.9886      2.5830     -0.0100      4.0580     25.4210    152.3283
  1643.1000      7.9886      2.5853      0.0614      3.9216     24.7921    158.2197
  1643.2000      7.9886      2.5962      0.0959      3.2602     24.2965    160.6416
  1643.3000      7.9894      2.5909      0.1121      3.5838     24.2869    160.6868
  1643.4000      7.9894      2.5587      0.1093      5.5311     24.5650    159.9492
  1643.5000      7.9950      2.5076      0.0553      8.6314     24.7185    157.5090
  1643.6000      7.9950      2.4581     -0.0230     11.6326     24.5079    150.4409
  1643.7000      7.9950      2.4330     -0.0402     13.1523     24.2677    140.9787
  1643.8000      8.0006      2.4380      0.0002     12.8489     24.3736    136.4748
  1643.9000      8.0006      2.4533      0.0546     11.9199     24.8119    137.0810
  1644.0000      7.9989      2.4606      0.0834     11.4781     25.3230    136.0263
  1644.1000      7.9989      2.4654      0.0201     11.1885     25.8126    131.2320
  1644.2000      7.9989      2.4799      0.0706     10.3108     26.3382    128.3690
  1644.3000      7.9860      2.5043      0.0846      8.8280     26.7834    133.4110
  1644.4000      7.9860      2.5354      0.0922      6.9440     26.8886    143.3559
  1644.5000      7.9121      2.5673      0.1843      5.0091     26.6756    150.6341
  1644.6000      7.9121      2.5960      0.1911      3.2743     26.2383    153.4820
  1644.7000      7.9121      2.6195      0.2812      1.8515     25.5142    152.4034
  1644.8000      7.8767      2.6276      0.2829      1.3588     24.9160    146.3351
  1644.9000      7.8767      2.6226      0.2085      1.6601     24.9839    137.3873
  1645.0000      7.8764      2.6172      0.1812      1.9863     25.6243    130.8076
  1645.1000      7.8764      2.6109      0.1183      2.3710     26.1980    127.7521
  1645.2000      7.8764      2.5982      0.1071      3.1366     26.1861    126.5495
  1645.3000      7.8901      2.5858      0.0630      3.8926     25.6746    127.0675
  1645.4000      7.8901      2.5819      0.0794      4.1266     25.2022    128.7478
  1645.5000      7.9142      2.5817      0.0601      4.1422     25.2446    127.9320
  1645.6000      7.9142      2.5772      0.0331      4.4117     25.5752    121.9404
  1645.7000      7.9142      2.5716      0.0713      4.7496     25.3317    117.5096
  1645.8000      7.9104      2.5748      0.0439      4.5564     24.3890    124.8103
  1645.9000      7.9104      2.5892      0.1088      3.6846     23.9225    142.2522
  1646.0000      7.9187      2.6056      0.1016      2.6938     24.6016    156.4256
  1646.1000      7.9187      2.6230      0.0519      1.6361     25.7323    159.9048
  1646.2000      7.9187      2.6449      0.0910      0.3120     26.3307    157.9312
  1646.3000      7.9495      2.6576      0.1048     -0.4619     26.0612    154.1234
  1646.4000      7.9495      2.6423      0.1027      0.4678     25.2530    149.3558
  1646.5000      7.9497      2.6029      0.0595      2.8571     24.4980    145.7384
  1646.6000      7.9497      2.5694      0.0289      4.8878     24.4067    143.0969
  1646.7000      7.9497      2.5585      0.0740      5.5453     24.8593    138.4055
  1646.8000      7.9525      2.5602      0.0593      5.4408     25.0721    132.7669
  1646.9000      7.9525      2.5711      0.0603      4.7809     24.8033    131.1604
  1647.0000      7.9508      2.5904      0.0830      3.6107     24.4419    130.9005
  1647.1000      7.9508      2.6056      0.0845      2.6934     24.3376    126.6368
  1647.2000      7.9508      2.6089      0.0538      2.4928     24.3448    125.0009
  1647.3000      7.9579      2.6042      0.0512      2.7787     24.0687    130.7320
  1647.4000      7.9579      2.6008      0.0541      2.9812     23.4416    135.7944
  1647.5000      7.9625      2.6080      0.0641      2.5457     22.7165    138.4988
