~Version Information
 VERS.                                  2.0 : CWLS LAS VERSION
 WRAP.                                   NO : WRAPING MODE
 SWARE .                 MController 2.5.0N : SOFTWARE VERSION
~Well Information
 WELL.                      EASTON 12-30 TR : WELL
 COMP.    PIONEER NATURAL RESOURCES USA INC : COMPANY
 FLD.                      PURGATOIRE RIVER : FIELD
 LOC.                SW/NW SEC 30 T32S R66W : LOCATION
 DATE.                             06/01/05 : DATE(S) LOGGED
 SRVC.       BLANCO GEOLOGICAL SERVICES LLC : SERVICE COMPANY
 STAT.                             COLORADO : STATE
 CNTY.                           LAS ANIMAS : COUNTY
 CTRY.                                  USA : COUNTRY
 API.                       05-071-08379-00 : API NUMBER
 STRT.FT                             307.00 : START DEPTH
 STOP.FT                            2000.00 : STOP DEPTH
 STEP.FT                               1.00 : DEPTH INCREMENT
 NULL.                                -9999 : NULL VALUE
~Curve information
 DEPTH.FT                                   :
 ROP.MIN/FT                                 :
 GAS.UNITS                                  :
~ASCII Log data
# ...
      1507.0         0.20         82.3 
      1508.0         0.13         80.9 
      1509.0         0.13         80.3 
      1510.0         0.28         78.4 
      1511.0         0.23         76.5 
      1512.0         0.23         74.0 
      1513.0         0.30         71.0 
      1514.0         0.27         67.2 
      1515.0         0.23         75.7 
      1516.0         0.23         79.7 
      1517.0         0.23         79.9 
      1518.0         0.20         79.2 
      1519.0         0.27        101.4 
      1520.0         0.23        118.2 
      1521.0         0.27        121.5 
      1522.0         0.27        116.7 
      1523.0         0.25        119.8 
      1524.0         0.27        157.3 
      1525.0         0.30        235.8 
      1526.0         3.78       1147.8 
      1527.0         0.30        855.3 
      1528.0         0.37        807.2 
      1529.0         0.33        731.3 
      1530.0         0.27        685.2 
      1531.0         0.30        663.0 
      1532.0         0.27        639.1 
      1533.0         0.23        612.9 
      1534.0         0.28        600.8 
      1535.0         0.20        594.3 
      1536.0         0.17        600.8 
      1537.0         0.17        599.5 
      1538.0         0.13        592.3 
      1539.0         0.20        591.0 
      1540.0         0.23        627.6 
      1541.0         0.23        676.4 
      1542.0         0.17        654.8 
      1543.0         0.27        615.2 
      1544.0         0.20        582.2 
      1545.0         0.23        547.5 
      1546.0         0.27        490.6 
      1547.0         0.17        469.0 
      1548.0         0.17        442.1 
      1549.0         0.13        440.0 
      1550.0         0.13        158.6 
      1551.0         0.13        155.4 
      1552.0         0.15        162.4 
      1553.0         0.17        175.0 
      1554.0         0.13        193.9 
      1555.0         0.17        224.7 
      1556.0         5.12       1338.5 
      1557.0         0.33        804.0 
      1558.0         0.30        767.6 
      1559.0         0.35        706.8 
      1560.0         0.23        664.6 
      1561.0         0.20        644.3 
      1562.0         0.23        618.8 
      1563.0         0.23        635.5 
      1564.0         0.17        665.2 
      1565.0         0.20        700.9 
      1566.0         0.23        723.2 
      1567.0         0.23        737.5 
      1568.0         0.17        742.1 
      1569.0         0.10        744.7 
      1570.0         0.10        733.6 
      1571.0         0.10        734.6 
      1572.0         0.20        748.0 
      1573.0         0.23        816.4 
      1574.0         0.23        839.6 
      1575.0         0.20        834.4 
      1576.0         0.23        801.7 
      1577.0         0.28        723.8 
      1578.0         0.20        642.0 
      1579.0         0.20        575.0 
      1580.0         0.23        511.5 
      1581.0         0.20        491.9 
      1582.0         0.20        481.1 
      1583.0         0.23        493.2 
      1584.0         0.23        551.4 
      1585.0         0.20        665.2 
      1586.0         3.95       1414.4 
      1587.0         0.30        974.7 
      1588.0         0.27        934.2 
      1589.0         0.32        876.9 
      1590.0         0.37        818.4 
      1591.0         0.27        803.3 
      1592.0         0.27        761.4 
      1593.0         0.30        718.6 
      1594.0         0.27        694.4 
      1595.0         0.27        676.4 
      1596.0         0.27        651.2 
      1597.0         0.23        614.9 
      1598.0         0.23        612.6 
      1599.0         0.27        615.9 
      1600.0         0.48        615.5 
      1601.0         0.40        620.4 
      1602.0         0.30        619.1 
      1603.0         0.30        598.2 
      1604.0         0.33        582.5 
      1605.0         0.33        603.7 
      1606.0         0.30        627.0 
      1607.0         0.23        703.9 
      1608.0         0.30        717.9 
      1609.0         0.33        708.4 
      1610.0         0.37        636.8 
      1611.0         0.32        551.7 
      1612.0         0.33        484.7 
      1613.0         0.33        467.3 
      1614.0         0.33        487.0 
      1615.0         0.33        620.4 
      1616.0         4.88       1652.9 
      1617.0         0.48        848.8 
      1618.0         0.40        768.0 
      1619.0         0.37        710.1 
      1620.0         0.33        673.1 
      1621.0         0.33        658.4 
      1622.0         0.20        648.6 
      1623.0         0.23        627.3 
      1624.0         0.23        605.7 
      1625.0         0.23        581.2 
      1626.0         0.23        578.6 
      1627.0         0.30        579.5 
      1628.0         0.22        580.5 
      1629.0         0.23        582.5 
      1630.0         0.20        591.3 
      1631.0         0.23        599.2 
      1632.0         0.23        602.8 
      1633.0         0.17        599.2 
      1634.0         0.23        594.6 
      1635.0         0.30        591.0 
      1636.0         0.30        656.7 
      1637.0         0.27        666.2 
      1638.0         0.30        643.7 
      1639.0         0.30        591.0 
      1640.0         0.27        558.6 
      1641.0         0.35        513.8 
      1642.0         0.27        440.0 
      1643.0         0.23        440.0 
      1644.0         0.33        539.3 
      1645.0         0.27        609.0 
      1646.0         4.72       1374.5 
      1647.0         0.43        773.9 
      1648.0         0.48        714.3 
      1649.0         0.30        655.1 
      1650.0         0.30        625.0 
      1651.0         0.37        608.7 
      1652.0         0.30        611.6 
      1653.0         0.23        605.4 
      1654.0         0.27        604.1 
      1655.0         0.30        587.7 
      1656.0         0.30        574.6 
      1657.0         0.30        552.1 
      1658.0         0.30        528.8 
      1659.0         0.35        515.7 
      1660.0         0.33        527.5 
      1661.0         0.23        547.5 
      1662.0         0.23        566.8 
      1663.0         0.20        603.7 
      1664.0         0.17        645.3 
      1665.0         0.20        688.8 
      1666.0         0.23        696.7 
      1667.0         0.20        662.0 
      1668.0         0.30        616.2 
      1669.0         0.33        571.0 
      1670.0         0.43        501.0 
      1671.0         0.20        440.0 
      1672.0         0.22        440.0 
      1673.0         0.27        179.0 
      1674.0         0.30        233.4 
      1675.0         0.17        278.3 
      1676.0         3.82       1216.8 
      1677.0         0.53        805.9 
      1678.0         0.53        767.3 
      1679.0         0.33        700.3 
      1680.0         0.30        665.9 
      1681.0         0.27        645.3 
      1682.0         0.32        629.9 
      1683.0         0.27        606.0 
      1684.0         0.23        598.2 
      1685.0         0.23        591.0 
      1686.0         0.27        581.8 
      1687.0         0.23        577.2 
      1688.0         0.30        574.6 
      1689.0         0.33        570.7 
      1690.0         0.27        568.1 
      1691.0         0.27        560.9 
      1692.0         0.27        553.0 
      1693.0         0.27        555.0 
      1694.0         0.38        552.7 
      1695.0         0.30        615.9 
      1696.0         0.27        661.7 
      1697.0         0.27        662.3 
      1698.0         0.27        635.5 
      1699.0         0.30        573.0 
      1700.0         0.27        555.3 
      1701.0         0.33        488.3 
      1702.0         0.27        440.0 
      1703.0         0.30        143.6 
      1704.0         0.23        171.7 
      1705.0         0.20        216.6 
      1706.0         3.28       1054.2 
