~Version Information
VERS.                      2.0: CWLS Log ASCII Standard - VERSION 2.0
WRAP.                       NO: One line per depth step
~Well Information Block
STRT.FT               270.0000: 
STOP.FT              1771.7000: 
STEP.FT                 0.1000: 
NULL.                -999.2500: 
COMP.          Pioneer Natural Resources: COMPANY
WELL.           Labrador 34-30: WELL
FLD.           Purgatoire River: FIELD
LOC.           926' FSL & 2080' FEL: LOCATION
PROV.                 Colorado: PROVINCE
CNTY.               Las Animas: COUNTRY
SRVC.                Patterson: SERVICE COMPANY
DATE.          Mon Dec 06 08:24:34 2004: LOG DATE
UWI.           05 071 08202 00: UNIQUE WELL ID
~Curve Information Block
DEPT.FT            0 000 00 00: Depth
DCAL.in                       : CDL Caliper
RHOB.g/cc                     : CDL Bulk Density
RHOC.g/cc                     : CDL Density Correction
DPOR.pu                       : CDL Density Porosity
NPOR.pu                       : Neutron Porosity
GR.GAPI                       : Gamma Ray
~Parameter Information Block
~A  Depth       DCAL        RHOB        RHOC        DPOR        NPOR         GR     
# ...
  1153.2000      8.0895      2.5542     -0.0312      5.8039     24.0703     98.0910
  1153.3000      8.0731      2.5793      0.0221      4.2847     24.1625     97.8874
  1153.4000      8.0731      2.6117      0.0803      2.3219     24.6656    107.8864
  1153.5000      8.0674      2.6211      0.0693      1.7506     25.4389    123.5218
  1153.6000      8.0674      2.6074      0.0313      2.5829     26.0312    133.8197
  1153.7000      8.0674      2.5910     -0.0096      3.5778     26.0645    135.1643
  1153.8000      8.0666      2.5830      0.0057      4.0578     25.6210    133.1926
  1153.9000      8.0666      2.5790      0.0387      4.3040     25.0847    131.8309
  1154.0000      8.0663      2.5693      0.0396      4.8922     24.7126    131.0443
  1154.1000      8.0663      2.5590     -0.0090      5.5137     24.5736    130.6874
  1154.2000      8.0663      2.5691     -0.0147      4.9036     24.5852    130.2655
  1154.3000      8.0671      2.5922      0.0720      3.5015     24.5885    126.3670
  1154.4000      8.0671      2.5965      0.0474      3.2404     24.5099    120.2758
  1154.5000      8.0688      2.5772      0.0409      4.4146     24.2849    117.9661
  1154.6000      8.0688      2.5529      0.0101      5.8873     24.0300    118.4351
  1154.7000      8.0688      2.5382      0.0351      6.7754     24.0565    118.7027
  1154.8000      8.0697      2.5331      0.0197      7.0872     24.3920    119.3241
  1154.9000      8.0697      2.5335      0.0255      7.0584     24.6422    118.9909
  1155.0000      8.0678      2.5402      0.0114      6.6573     24.5200    117.4289
  1155.1000      8.0678      2.5499      0.0391      6.0676     24.2713    116.8413
  1155.2000      8.0678      2.5554      0.0548      5.7323     24.2469    116.3851
  1155.3000      8.0630      2.5593      0.0246      5.4946     24.5348    114.2420
  1155.4000      8.0630      2.5633      0.0250      5.2545     24.8625    110.1879
  1155.5000      8.0604      2.5577      0.0018      5.5929     24.7765    105.5672
  1155.6000      8.0604      2.5412      0.0250      6.5916     24.2484    102.9517
  1155.7000      8.0604      2.5260     -0.0297      7.5147     23.8282    103.3467
  1155.8000      8.0620      2.5263     -0.0007      7.4999     23.8354    107.5907
  1155.9000      8.0620      2.5374      0.0383      6.8229     23.9707    114.6614
  1156.0000      8.0589      2.5449      0.0285      6.3675     23.9712    117.0638
  1156.1000      8.0589      2.5541      0.0013      5.8147     23.8347    110.3671
  1156.2000      8.0589      2.5698      0.0724      4.8613     23.5684    101.9880
  1156.3000      8.0493      2.5754      0.0709      4.5195     23.3563    100.8892
  1156.4000      8.0493      2.5608      0.0697      5.4060     23.3668    105.6916
  1156.5000      8.0421      2.5415      0.0162      6.5752     23.4316    110.4335
  1156.6000      8.0421      2.5370      0.0370      6.8514     23.2946    112.7888
  1156.7000      8.0421      2.5422      0.0397      6.5310     22.9915    113.3361
  1156.8000      8.0392      2.5371      0.0687      6.8452     22.7536    114.0000
  1156.9000      8.0392      2.5198      0.0003      7.8934     22.6935    114.8521
  1157.0000      8.0378      2.5185      0.0216      7.9684     22.6976    112.8181
  1157.1000      8.0378      2.5494      0.0633      6.0993     22.5965    107.5887
  1157.2000      8.0378      2.5864      0.1189      3.8535     22.4737    103.6847
  1157.3000      8.0359      2.5949      0.1038      3.3383     22.3646    103.8789
  1157.4000      8.0359      2.5797      0.0241      4.2616     22.2205    105.4805
  1157.5000      8.0276      2.5714      0.0558      4.7644     22.0482    103.1323
  1157.6000      8.0276      2.5764      0.0612      4.4626     21.9859     96.1713
  1157.7000      8.0276      2.5774      0.0547      4.3984     22.1779     89.2749
  1157.8000      8.0145      2.5666      0.0169      5.0535     22.2777     84.9125
  1157.9000      8.0145      2.5543      0.0130      5.8025     21.9914     83.7393
  1158.0000      8.0073      2.5493      0.0225      6.1034     21.5527     85.3969
  1158.1000      8.0073      2.5480      0.0360      6.1839     21.1842     88.0015
  1158.2000      8.0073      2.5459      0.0336      6.3107     20.9800     89.3107
  1158.3000      8.0082      2.5506      0.0126      6.0250     20.9066     89.7007
  1158.4000      8.0082      2.5663      0.0541      5.0700     20.8889     91.0157
  1158.5000      8.0134      2.5730      0.1523      4.6674     20.8558     89.4498
  1158.6000      8.0134      2.5552      0.0434      5.7463     20.6146     83.2353
  1158.7000      8.0134      2.5386      0.0172      6.7514     20.1973     78.9659
  1158.8000      8.0187      2.5474      0.0477      6.2191     19.9884     79.6344
  1158.9000      8.0187      2.5643      0.0837      5.1935     20.1393     83.5125
  1159.0000      8.0165      2.5639      0.0616      5.2162     20.4007     88.9373
  1159.1000      8.0165      2.5439      0.0352      6.4314     20.5235     92.9948
  1159.2000      8.0165      2.5160      0.0311      8.1225     20.4729     93.2022
  1159.3000      8.0128      2.4967     -0.0181      9.2935     20.3345     89.6457
  1159.4000      8.0128      2.5005      0.0047      9.0634     20.2691     84.5968
  1159.5000      8.0129      2.5297      0.0016      7.2905     20.2958     80.7981
  1159.6000      8.0129      2.5664      0.0765      5.0665     20.2852     79.9035
  1159.7000      8.0129      2.5766      0.0754      4.4468     20.3297     81.1583
  1159.8000      8.0154      2.5506      0.0072      6.0248     20.4987     82.4993
  1159.9000      8.0154      2.5208      0.0083      7.8281     20.6401     82.2220
  1160.0000      8.0163      2.5188     -0.0066      7.9491     20.6768     80.7459
  1160.1000      8.0163      2.5375      0.0315      6.8177     20.6477     80.5483
  1160.2000      8.0163      2.5483      0.0652      6.1610     20.5112     82.1600
  1160.3000      8.0136      2.5439      0.0385      6.4328     20.3345     83.7402
  1160.4000      8.0136      2.5398      0.0185      6.6790     20.3107     83.4785
  1160.5000      8.0104      2.5478      0.0176      6.1932     20.4160     81.7847
  1160.6000      8.0104      2.5644      0.0572      5.1884     20.5814     79.9524
  1160.7000      8.0104      2.5760      0.0663      4.4822     20.8863     79.4612
  1160.8000      8.0090      2.5794      0.0500      4.2768     21.2660     81.4593
  1160.9000      8.0090      2.5872      0.0562      3.8066     21.4793     84.1623
  1161.0000      8.0106      2.6019      0.0699      2.9164     21.6170     85.9690
  1161.1000      8.0106      2.6043      0.0973      2.7703     22.0451     87.4974
  1161.2000      8.0106      2.5807      0.0538      4.2017     22.6871     87.6863
  1161.3000      8.0125      2.5468      0.0436      6.2521     23.1423     86.5376
  1161.4000      8.0125      2.5264      0.0083      7.4939     23.2618     86.3426
  1161.5000      8.0128      2.5255      0.0178      7.5469     23.0431     88.8991
  1161.6000      8.0128      2.5390      0.0359      6.7254     22.6545     94.8587
  1161.7000      8.0128      2.5589      0.0740      5.5198     22.4863    100.2727
  1161.8000      8.0137      2.5731      0.0418      4.6607     22.5072    102.3572
  1161.9000      8.0137      2.5759      0.0532      4.4891     22.2503    105.1384
  1162.0000      8.0166      2.5786      0.0090      4.3279     21.7531    108.6129
  1162.1000      8.0166      2.5905      0.0777      3.6047     21.4237    106.8374
  1162.2000      8.0166      2.5998      0.0796      3.0432     21.3342     99.1817
  1162.3000      8.0174      2.5978      0.0667      3.1622     21.4337     89.9548
  1162.4000      8.0174      2.5943      0.0699      3.3737     21.5958     82.9925
  1162.5000      8.0134      2.5979      0.0769      3.1573     21.6478     79.8866
  1162.6000      8.0134      2.6039      0.0538      2.7965     21.7192     80.2471
  1162.7000      8.0134      2.6073      0.0645      2.5896     21.8069     82.2159
