~Version Information
VERS.                      2.0: CWLS Log ASCII Standard - VERSION 2.0
WRAP.                       NO: One line per depth step
~Well Information Block
STRT.FT               235.0000: 
STOP.FT              1633.0000: 
STEP.FT                 0.1000: 
NULL.                -999.2500: 
COMP.          Petrogulf Corporation: COMPANY
WELL.             State 16-41R: WELL
FLD.           Purgatorie River: FIELD
LOC.           280' FNL & 907' FEL: LOCATION
PROV.                 Colorado: PROVINCE
CNTY.               Las Animas: COUNTRY
SRVC.                Patterson: SERVICE COMPANY
DATE.          Wed Oct 19 07:05:20 2005: LOG DATE
API.           05-071-08345    : API
~Curve Information Block
DEPT.FT            0 000 00 00: Depth
DCAL.in                       : CDL Caliper
RHOB.g/cc                     : CDL Bulk Density
RHOC.g/cc                     : CDL Density Correction
DPOR.pu                       : CDL Density Porosity
GR.GAPI                       : Gamma Ray
NPOR.pu                       : Neutron Porosity
~Parameter Information Block
~A  Depth       DCAL        RHOB        RHOC        DPOR         GR         NPOR    
# ...
   513.4000      7.9949      2.5125     -0.0022      8.3359    127.0008     26.8484
   513.5000      8.0058      2.5076      0.0056      8.6279    129.7213     26.3987
   513.6000      8.0058      2.5180      0.0211      8.0021    137.1652     26.4424
   513.7000      8.0058      2.5285      0.0429      7.3630    147.7756     26.5154
   513.8000      8.0427      2.5380     -0.0164      6.7855    154.7653     26.4153
   513.9000      8.0427      2.5577      0.0416      5.5948    154.0622     26.4277
   514.0000      8.0698      2.5928      0.0333      3.4674    151.2939     26.6940
   514.1000      8.0698      2.6301      0.1168      1.2030    152.1819     27.0502
   514.2000      8.0698      2.6456      0.1320      0.2675    153.7473     27.2269
   514.3000      8.0830      2.6328      0.0787      1.0417    151.9563     27.0784
   514.4000      8.0830      2.6079      0.1187      2.5491    148.1826     26.8632
   514.5000      8.0531      2.5852      0.0685      3.9271    143.0113     27.1369
   514.6000      8.0531      2.5716      0.0660      4.7541    135.5364     28.0494
   514.7000      8.0531      2.5666      0.0645      5.0570    129.4715     28.9284
   514.8000      8.0256      2.5687      0.0472      4.9295    127.8109     29.2095
   514.9000      8.0256      2.5806      0.0426      4.2075    127.8632     29.2316
   515.0000      7.9481      2.6010      0.0613      2.9677    127.5021     29.5609
   515.1000      7.9481      2.6270      0.0440      1.3969    125.4805     30.3069
   515.2000      7.9481      2.6590      0.1134     -0.5455    120.5382     31.2162
   515.3000      7.9292      2.7029      0.0661     -3.2084    114.0823     31.9012
   515.4000      7.9292      2.7668      0.0775     -7.0775    107.8664     32.1362
   515.5000      7.9242      2.8413      0.1089    -11.5942    102.2672     32.1285
   515.6000      7.9242      2.9033      0.1439    -15.3491     98.9462     32.3400
   515.7000      7.9242      2.9360      0.1381    -17.3362     98.2687     32.8322
   515.8000      7.9240      2.9398      0.1469    -17.5661     96.4069     33.0945
   515.9000      7.9240      2.9270      0.1200    -16.7899     91.9616     32.8053
   516.0000      7.9116      2.9058      0.0911    -15.5012     88.3652     32.1849
   516.1000      7.9116      2.8752      0.0922    -13.6503     86.9468     31.6329
   516.2000      7.9116      2.8316      0.0987    -11.0073     86.9018     31.1834
   516.3000      7.9079      2.7711      0.0638     -7.3378     88.4171     30.5067
   516.4000      7.9079      2.6922      0.0232     -2.5601     91.2887     29.5003
   516.5000      7.9072      2.6083     -0.0124      2.5282     94.8697     28.3480
   516.6000      7.9072      2.5442     -0.0452      6.4150     98.3418     27.1385
   516.7000      7.9072      2.5086      0.0267      8.5715    102.2745     26.0406
   516.8000      7.9036      2.5005     -0.0113      9.0600    108.4398     25.2707
   516.9000      7.9036      2.5287      0.0718      7.3518    114.7905     24.7455
   517.0000      7.8984      2.5870      0.1639      3.8175    117.0014     24.4443
   517.1000      7.8984      2.6472      0.2015      0.1672    116.9902     24.5378
   517.2000      7.8984      2.6928      0.2018     -2.5959    119.3681     24.9169
   517.3000      7.8884      2.7242      0.2858     -4.4955    125.4105     25.2828
   517.4000      7.8884      2.7362      0.2684     -5.2238    133.4634     25.5758
   517.5000      7.9062      2.7240      0.2333     -4.4835    139.6224     26.0068
   517.6000      7.9062      2.6862      0.1920     -2.1913    140.4230     26.5664
   517.7000      7.9062      2.6320      0.1085      1.0936    136.3624     26.9263
   517.8000      7.9033      2.5923      0.0555      3.4973    132.9004     27.0414
   517.9000      7.9033      2.5930      0.0368      3.4525    133.7346     27.1356
   518.0000      7.9281      2.6199      0.0880      1.8222    135.8639     27.2084
   518.1000      7.9281      2.6376      0.1053      0.7535    135.1094     27.2458
   518.2000      7.9281      2.6323      0.1093      1.0754    132.0843     27.3229
   518.3000      7.9259      2.6148      0.1096      2.1358    129.0453     27.6020
   518.4000      7.9259      2.6000      0.0898      3.0309    126.5986     28.1514
   518.5000      7.9300      2.5909      0.0732      3.5847    125.5650     28.7095
   518.6000      7.9300      2.5771      0.0640      4.4189    127.5036     29.0946
   518.7000      7.9300      2.5507      0.0944      6.0170    131.8294     29.4087
   518.8000      7.9424      2.5229      0.0252      7.7031    135.7737     29.7990
   518.9000      7.9424      2.5131      0.0481      8.2943    136.7825     30.2393
   519.0000      7.9322      2.5152      0.0360      8.1724    134.8256     30.4426
   519.1000      7.9322      2.5070      0.0671      8.6656    132.9162     30.2938
   519.2000      7.9322      2.4843      0.0210     10.0454    133.8326     29.8018
   519.3000      7.9246      2.4623      0.0433     11.3742    136.9937     28.9382
   519.4000      7.9246      2.4608      0.0239     11.4692    140.2208     28.1044
   519.5000      7.9007      2.4905      0.1271      9.6677    142.3470     27.7963
   519.6000      7.9007      2.5449      0.1793      6.3718    144.1749     27.9080
   519.7000      7.9007      2.6093      0.1973      2.4662    144.9756     28.0631
   519.8000      7.8379      2.6709      0.2107     -1.2667    141.1813     28.2005
   519.9000      7.8379      2.7259      0.2208     -4.5999    135.8179     28.5151
   520.0000      7.8671      2.7852      0.2443     -8.1926    134.2566     29.0143
   520.1000      7.8671      2.8542      0.2591    -12.3780    135.1017     29.4399
   520.2000      7.8671      2.9093      0.2648    -15.7159    135.4790     29.6396
   520.3000      7.9146      2.9157      0.1904    -16.1008    134.8648     29.6330
   520.4000      7.9146      2.8655      0.1812    -13.0585    133.6730     29.6077
   520.5000      7.9212      2.7831      0.0846     -8.0657    134.3281     29.7192
   520.6000      7.9212      2.7009      0.0266     -3.0842    137.6073     29.9404
   520.7000      7.9212      2.6343     -0.0304      0.9492    140.1037     30.2026
   520.8000      7.9453      2.5833     -0.0598      4.0452    140.2444     30.1613
   520.9000      7.9453      2.5435     -0.1463      6.4545    139.0085     29.6205
   521.0000      7.9804      2.5162     -0.1130      8.1079    137.5632     29.0756
   521.1000      7.9804      2.5254     -0.0977      7.5496    137.2151     28.9543
   521.2000      7.9804      2.6000     -0.0012      3.0331    137.3728     29.0397
   521.3000      8.0170      2.7178      0.1193     -4.1119    135.7720     28.9793
   521.4000      8.0170      2.8293      0.1432    -10.8663    132.6791     28.8553
   521.5000      7.9663      2.9115      0.1850    -15.8460    131.6463     28.9636
   521.6000      7.9663      2.9637      0.2088    -19.0140    132.8120     29.1587
   521.7000      7.9663      2.9791      0.2472    -19.9439    131.6928     28.9671
   521.8000      7.9499      2.9520      0.1133    -18.3042    127.6772     28.1506
   521.9000      7.9499      2.8959      0.0937    -14.9006    126.9112     26.9534
   522.0000      7.9555      2.8166      0.0288    -10.0964    133.1934     25.9106
   522.1000      7.9555      2.7146     -0.1098     -3.9123    142.2105     25.2872
   522.2000      7.9555      2.6067     -0.1176      2.6257    146.7384     24.9732
   522.3000      7.9961      2.5217     -0.1523      7.7759    144.8035     24.7347
   522.4000      7.9961      2.4781     -0.0760     10.4190    139.9406     24.3404
   522.5000      8.0401      2.4638     -0.0298     11.2835    135.6285     23.7602
   522.6000      8.0401      2.4514      0.0329     12.0383    133.4565     23.2460
   522.7000      8.0401      2.4302     -0.0185     13.3214    134.3733     22.8777
   522.8000      8.0557      2.4154     -0.0243     14.2199    136.5905     22.5235
   522.9000      8.0557      2.4201     -0.0009     13.9363    138.4113     22.1986
