~Version Information
VERS.                      2.0: CWLS Log ASCII Standard - VERSION 2.0
WRAP.                       NO: One line per depth step
~Well Information Block
STRT.FT               375.0000: 
STOP.FT              1727.7000: 
STEP.FT                 0.1000: 
NULL.                -999.2500: 
COMP.          Pioneer Natural Resources: COMPANY
WELL.          Warrior 33-1 Tr: WELL
FLD.           Purgatoire River: FIELD
LOC.           2648' FSL & 2341' FEL--: LOCATION
PROV.                 Colorado: PROVINCE
CNTY.               Las Animas: COUNTRY
SRVC.                Patterson: SERVICE COMPANY
DATE.          Sat Jun 18 07:53:12 2005: LOG DATE
UWI.           05 071 08412 00: UNIQUE WELL ID
~Curve Information Block
DEPT.FT            0 000 00 00: Depth
DCAL.in                       : CDL Caliper
RHOB.g/cc                     : CDL Bulk Density
RHOC.g/cc                     : CDL Density Correction
DPOR.pu                       : CDL Density Porosity
NPOR.pu                       : Neutron Porosity
GR.GAPI                       : Gamma Ray
~Parameter Information Block
~A  Depth       DCAL        RHOB        RHOC        DPOR        NPOR         GR     
# ...
   461.4000      8.2304      2.2501      0.2922     24.2392     29.4945     91.0726
   461.5000      8.2042      2.3675      0.2744     17.1193     28.8300     94.6400
   461.6000      8.2042      2.4645      0.2744     11.2405     28.3378     98.7255
   461.7000      8.2042      2.5313      0.2587      7.1939     27.7005    102.5552
   461.8000      8.1654      2.5612      0.1550      5.3806     27.0507    108.4378
   461.9000      8.1654      2.5687      0.0733      4.9292     26.7735    115.9737
   462.0000      8.1412      2.5658      0.1106      5.1030     26.4524    120.5455
   462.1000      8.1412      2.5453      0.0754      6.3467     25.7104    118.7568
   462.2000      8.1412      2.5160      0.0255      8.1197     25.4382    112.9486
   462.3000      8.1353      2.4996      0.0105      9.1161     26.2579    109.8063
   462.4000      8.1353      2.4917      0.0255      9.5937     27.3379    111.8800
   462.5000      8.1351      2.4803      0.0038     10.2861     27.8770    118.7131
   462.6000      8.1351      2.4746      0.0160     10.6275     28.1432    128.5717
   462.7000      8.1351      2.4753      0.0758     10.5862     28.7179    136.0473
   462.8000      8.1386      2.4636      0.0449     11.2957     29.7513    138.8148
   462.9000      8.1386      2.4417     -0.0064     12.6234     30.9407    140.8992
   463.0000      8.1500      2.4335      0.0299     13.1227     31.4367    147.3782
   463.1000      8.1500      2.4466      0.0648     12.3285     30.8761    157.2362
   463.2000      8.1500      2.4694      0.0873     10.9481     30.2897    162.5499
   463.3000      8.1682      2.4861      0.1142      9.9305     30.2098    159.7436
   463.4000      8.1682      2.4855      0.1126      9.9670     30.2658    152.6798
   463.5000      8.1834      2.4644      0.0980     11.2455     30.5318    147.5577
   463.6000      8.1834      2.4228      0.0903     13.7720     31.1406    146.2695
   463.7000      8.1834      2.3739      0.0281     16.7346     31.6086    146.7488
   463.8000      8.1903      2.3445      0.0335     18.5133     31.7247    149.2220
   463.9000      8.1903      2.3424      0.0589     18.6395     31.7573    152.6923
   464.0000      8.1984      2.3543      0.0717     17.9199     31.7127    154.0102
   464.1000      8.1984      2.3684      0.0632     17.0681     31.4815    153.2992
   464.2000      8.1984      2.3869      0.0411     15.9465     31.0568    150.8697
   464.3000      8.2093      2.4151      0.1022     14.2356     30.4092    145.0999
   464.4000      8.2093      2.4472      0.1094     12.2916     29.6774    136.9199
   464.5000      8.2048      2.4770      0.1540     10.4873     29.1201    132.4676
   464.6000      8.2048      2.5110      0.1622      8.4225     28.4663    134.0347
   464.7000      8.2048      2.5562      0.2350      5.6849     27.4710    134.6524
   464.8000      8.1772      2.5903      0.2563      3.6172     26.6415    131.8520
   464.9000      8.1772      2.5893      0.1478      3.6783     26.1907    131.5063
   465.0000      8.1458      2.5624      0.1489      5.3098     25.7821    135.1347
   465.1000      8.1458      2.5328      0.0836      7.1028     25.4101    136.6828
   465.2000      8.1458      2.5212      0.0628      7.8034     25.2435    129.0068
   465.3000      8.1198      2.5354      0.0701      6.9449     25.3424    118.1259
   465.4000      8.1198      2.5609      0.0792      5.3972     25.6805    114.3160
   465.5000      8.1078      2.5807      0.0776      4.1974     26.2860    115.1944
   465.6000      8.1078      2.6007      0.0431      2.9906     26.7605    117.3998
   465.7000      8.1078      2.6288      0.0842      1.2855     26.6683    120.7675
   465.8000      8.1083      2.6508      0.0986     -0.0507     26.4759    120.1397
   465.9000      8.1083      2.6564      0.1148     -0.3887     26.7869    113.9742
   466.0000      8.1108      2.6562      0.0627     -0.3731     27.2515    108.7173
   466.1000      8.1108      2.6630      0.0647     -0.7907     27.2814    106.4524
   466.2000      8.1108      2.6728      0.0789     -1.3843     26.7618    106.2788
   466.3000      8.1105      2.6759      0.0752     -1.5672     26.3349    109.4299
   466.4000      8.1105      2.6740      0.0704     -1.4570     26.6542    112.8488
   466.5000      8.1088      2.6721      0.1039     -1.3419     27.0728    115.4267
   466.6000      8.1088      2.6651      0.0967     -0.9172     26.8878    118.9677
   466.7000      8.1088      2.6476      0.0678      0.1426     26.6689    123.5017
   466.8000      8.1066      2.6283      0.0470      1.3138     26.9565    126.8181
   466.9000      8.1066      2.6151      0.0649      2.1165     27.4772    126.8291
   467.0000      8.0998      2.5975      0.0831      3.1848     27.6983    125.6439
   467.1000      8.0998      2.5667      0.0727      5.0507     27.5020    123.9609
   467.2000      8.0998      2.5380      0.0557      6.7906     27.1863    120.8183
   467.3000      8.0892      2.5372      0.0484      6.8338     26.9773    118.1223
   467.4000      8.0892      2.5700      0.1054      4.8489     26.9565    116.4652
   467.5000      8.0893      2.6026      0.1333      2.8734     26.9452    117.3252
   467.6000      8.0893      2.6048      0.0974      2.7397     26.7498    122.0151
   467.7000      8.0893      2.5959      0.0704      3.2785     26.7179    122.3300
   467.8000      8.1037      2.5965      0.0967      3.2420     27.0885    114.0562
   467.9000      8.1037      2.5904      0.0639      3.6101     27.6049    108.8979
   468.0000      8.1193      2.5644      0.0363      5.1857     27.7171    113.7893
   468.1000      8.1193      2.5309      0.0302      7.2156     27.1080    119.5520
   468.2000      8.1193      2.5137     -0.0208      8.2594     26.3591    119.2261
   468.3000      8.1218      2.5198      0.0375      7.8887     25.9423    115.0316
   468.4000      8.1218      2.5329     -0.0004      7.0945     25.5382    110.5010
   468.5000      8.1139      2.5433      0.0160      6.4644     25.0676    109.1752
   468.6000      8.1139      2.5551      0.0132      5.7540     24.9060    111.4122
   468.7000      8.1139      2.5725      0.0304      4.6966     25.2371    112.8692
   468.8000      8.0958      2.5918      0.0896      3.5287     25.6845    112.7953
   468.9000      8.0958      2.6037      0.1131      2.8060     25.5198    113.1285
   469.0000      8.0584      2.6044      0.1058      2.7620     24.6263    111.8771
   469.1000      8.0584      2.5987      0.1036      3.1079     23.6353    107.1145
   469.2000      8.0584      2.5929      0.0905      3.4612     22.8636    101.3963
   469.3000      8.0302      2.5906      0.0813      3.5994     22.3660     97.9425
   469.4000      8.0302      2.5886      0.1157      3.7239     22.2026     96.5580
   469.5000      8.0327      2.5790      0.0583      4.3012     21.9842     93.5282
   469.6000      8.0327      2.5644      0.0288      5.1874     21.4479     88.7320
   469.7000      8.0327      2.5542      0.0195      5.8055     21.0083     85.8532
   469.8000      8.0451      2.5481      0.0754      6.1737     21.2239     84.6457
   469.9000      8.0451      2.5360      0.0287      6.9064     21.8951     82.5817
   470.0000      8.0480      2.5224      0.0092      7.7308     22.3272     79.3138
   470.1000      8.0480      2.5231      0.0217      7.6889     22.2762     77.2291
   470.2000      8.0480      2.5449      0.0303      6.3689     21.8468     77.0627
   470.3000      8.0438      2.5857      0.0581      3.8958     21.4801     78.9035
   470.4000      8.0438      2.6326      0.0988      1.0573     21.4913     80.2171
   470.5000      8.0374      2.6639      0.1608     -0.8409     21.7905     76.6655
   470.6000      8.0374      2.6757      0.1011     -1.5579     22.0823     73.7215
   470.7000      8.0374      2.6845      0.1189     -2.0884     22.2182     79.3243
   470.8000      8.0315      2.6894      0.1508     -2.3878     22.3658     87.2712
   470.9000      8.0315      2.6763      0.1251     -1.5961     22.3482     89.0894
