~Version Information
VERS.                      2.0: CWLS Log ASCII Standard - VERSION 2.0
WRAP.                       NO: One line per depth step
~Well Information Block
STRT.FT               806.0000: 
STOP.FT              1814.0000: 
STEP.FT                 0.2500: 
NULL.                -999.2500: 
COMP.          Pioneer Natural Resources: COMPANY
WELL.            Hill 33-22 Tr: WELL
FLD.           Purgatoire River: FIELD
LOC.           1573' FSL & 1585' FEL: LOCATION
PROV.                 Colorado: PROVINCE
CNTY.               Las Animas: COUNTRY
SRVC.                Patterson: SERVICE COMPANY
DATE.          Thu Apr 14 09:13:17 2005: LOG DATE
UWI.           05 071 08316 00: UNIQUE WELL ID
~Curve Information Block
DEPT.FT            0 000 00 00: Depth
SN.Ohm-m                      : IEL Short Normal
SP.mV                         : IEL Spontaneous Potential
DIR.Ohm-m                     : IEL Induction Resistivity
GR.GAPI                       : Gamma Ray
~Parameter Information Block
~A  Depth        SN          SP         DIR          GR     
# ...
  1643.5000     14.5182     48.4730     13.2099    138.4356
  1643.7500     14.0834     48.4375     12.6804    136.6730
  1644.0000     13.5513     48.3807     12.1148    132.2703
  1644.2500     12.9829     48.3368     11.5417    128.0262
  1644.5000     12.5757     48.3231     10.9983    120.4240
  1644.7500     12.4457     48.3400     10.5167    115.8589
  1645.0000     12.5502     48.3775     10.1162    112.4808
  1645.2500     12.7414     48.4202      9.8023    113.4171
  1645.5000     12.8359     48.4499      9.5698    119.0237
  1645.7500     12.6916     48.4505      9.4063    124.2313
  1646.0000     12.3097     48.4108      9.2964    131.5624
  1646.2500     11.8282     48.3213      9.2233    135.1478
  1646.5000     11.3688     48.1721      9.1683    138.5652
  1646.7500     10.9390     47.9588      9.1114    140.0660
  1647.0000     10.5387     47.6925      9.0340    141.6937
  1647.2500     10.2499     47.4027      8.9256    142.3171
  1647.5000     10.1174     47.1294      8.7887    142.4783
  1647.7500     10.0739     46.9071      8.6360    142.1774
  1648.0000     10.0568     46.7510      8.4819    141.2226
  1648.2500     10.1162     46.6510      8.3367    140.1952
  1648.5000     10.3267     46.5765      8.2063    138.2374
  1648.7500     10.6245     46.4927      8.0949    137.1630
  1649.0000     10.8729     46.3820      8.0068    137.1006
  1649.2500     11.0129     46.2566      7.9444    138.3900
  1649.5000     11.0331     46.1534      7.9065    141.4932
  1649.7500     10.9322     46.1143      7.8880    143.4241
  1650.0000     10.7408     46.1632      7.8828    145.0500
  1650.2500     10.5182     46.2926      7.8869    145.3017
  1650.5000     10.3477     46.4664      7.8993    145.1562
  1650.7500     10.2552     46.6345      7.9204    145.1056
  1651.0000     10.1663     46.7538      7.9479    145.3283
  1651.2500     10.0356     46.8092      7.9728    145.6599
  1651.5000      9.9058     46.8211      7.9807    146.1751
  1651.7500      9.8633     46.8306      7.9565    145.9852
  1652.0000      9.9739     46.8695      7.8931    143.3941
  1652.2500     10.1734     46.9403      7.7960    139.6441
  1652.5000     10.2424     47.0245      7.6810    132.0617
  1652.7500      9.9832     47.1049      7.5673    127.2359
  1653.0000      9.4548     47.1777      7.4711    122.9387
  1653.2500      8.9871     47.2457      7.4021    122.7809
  1653.5000      8.9012     47.3087      7.3630    126.1031
  1653.7500      9.1726     47.3609      7.3509    129.6074
  1654.0000      9.4712     47.3913      7.3592    134.6131
  1654.2500      9.5525     47.3865      7.3798    136.8353
  1654.5000      9.4497     47.3360      7.4035    137.7611
  1654.7500      9.3090     47.2395      7.4211    136.8230
  1655.0000      9.2316     47.1086      7.4241    133.8513
  1655.2500      9.2521     46.9633      7.4082    131.5048
  1655.5000      9.3040     46.8251      7.3761    128.5022
  1655.7500      9.2806     46.7063      7.3378    127.1916
  1656.0000      9.2026     46.6004      7.3062    126.1983
  1656.2500      9.1886     46.4840      7.2904    125.8292
  1656.5000      9.2915     46.3356      7.2925    125.0320
  1656.7500      9.4728     46.1553      7.3082    124.1997
  1657.0000      9.6611     45.9674      7.3309    122.8237
  1657.2500      9.7869     45.8074      7.3557    122.2180
  1657.5000      9.8170     45.7065      7.3799    122.5229
  1657.7500      9.7856     45.6831      7.4022    123.8295
  1658.0000      9.7769     45.7376      7.4210    127.3633
  1658.2500      9.8334     45.8544      7.4351    130.3515
  1658.5000      9.9206     46.0060      7.4437    134.7651
  1658.7500      9.9798     46.1605      7.4459    137.1402
  1659.0000      9.9353     46.2890      7.4386    139.4108
  1659.2500      9.7475     46.3733      7.4172    140.0613
  1659.5000      9.4992     46.4116      7.3796    139.8692
  1659.7500      9.3424     46.4188      7.3293    139.0316
  1660.0000      9.3891     46.4188      7.2757    137.0563
  1660.2500      9.6156     46.4308      7.2280    135.6355
  1660.5000      9.8300     46.4594      7.1910    133.8474
  1660.7500      9.8238     46.4944      7.1641    132.8283
  1661.0000      9.5810     46.5170      7.1459    131.0201
  1661.2500      9.3103     46.5099      7.1377    129.3521
  1661.5000      9.2433     46.4632      7.1434    126.0919
  1661.7500      9.3746     46.3720      7.1658    123.5625
  1662.0000      9.5071     46.2347      7.2048    119.5947
  1662.2500      9.4888     46.0541      7.2576    117.0774
  1662.5000      9.3027     45.8395      7.3214    114.1489
  1662.7500      9.0663     45.6063      7.3941    113.2438
  1663.0000      8.9302     45.3759      7.4738    113.7725
  1663.2500      8.9335     45.1762      7.5571    114.9182
  1663.5000      9.0515     45.0373      7.6394    116.3723
  1663.7500      9.2992     44.9792      7.7162    116.6474
  1664.0000      9.6650     44.9998      7.7857    116.3391
  1664.2500     10.0242     45.0729      7.8489    116.1436
  1664.5000     10.1946     45.1593      7.9076    116.1156
  1664.7500     10.1021     45.2237      7.9630    116.0068
  1665.0000      9.8962     45.2503      8.0163    115.3837
  1665.2500      9.8194     45.2506      8.0704    114.8617
  1665.5000      9.9399     45.2589      8.1308    114.3709
  1665.7500     10.1516     45.3125      8.2038    114.0934
  1666.0000     10.3750     45.4295      8.2922    112.9802
  1666.2500     10.6154     45.5976      8.3930    111.6453
  1666.5000     10.8990     45.7802      8.4986    109.6792
  1666.7500     11.1822     45.9316      8.6003    109.1411
  1667.0000     11.3402     46.0165      8.6924    109.8476
  1667.2500     11.3236     46.0252      8.7717    110.8685
  1667.5000     11.2385     45.9743      8.8356    112.3137
  1667.7500     11.1557     45.8958      8.8820    113.1561
  1668.0000     10.9717     45.8218      8.9107    114.9064
  1668.2500     10.5641     45.7738      8.9252    116.8089
  1668.5000      9.9634     45.7600      8.9314    120.8306
  1668.7500      9.2952     45.7807      8.9336    123.9114
  1669.0000      8.6877     45.8338      8.9336    128.2356
  1669.2500      8.3167     45.9145      8.9304    130.4936
  1669.5000      8.3782     46.0100      8.9218    132.3556
  1669.7500      8.9426     46.0948      8.9043    132.2345
  1670.0000      9.9009     46.1358      8.8733    129.8070
  1670.2500     10.9765     46.1057      8.8257    127.1397
  1670.5000     11.8107     45.9976      8.7649    123.1622
  1670.7500     12.1854     45.8305      8.7033    121.4282
  1671.0000     12.1260     45.6407      8.6587    120.9637
  1671.2500     11.8003     45.4664      8.6458    122.0446
  1671.5000     11.4004     45.3332      8.6695    125.0761
  1671.7500     11.0317     45.2473      8.7244    127.4063
  1672.0000     10.7363     45.1945      8.7980    130.2119
  1672.2500     10.6273     45.1457      8.8761    131.0460
  1672.5000     10.7954     45.0699      8.9464    129.8902
  1672.7500     11.1077     44.9553      9.0009    127.1661
  1673.0000     11.3017     44.8232      9.0372    120.3419
  1673.2500     11.3128     44.7198      9.0595    114.7459
  1673.5000     11.3328     44.6891      9.0771    106.7858
  1673.7500     11.5038     44.7489      9.1028    102.7457
  1674.0000     11.7520     44.8870      9.1508     99.2085
  1674.2500     11.9383     45.0752      9.2340     98.3737
  1674.5000     12.0440     45.2802      9.3613     98.8916
  1674.7500     12.1895     45.4685      9.5357    100.1853
  1675.0000     12.4178     45.6098      9.7526    103.0955
  1675.2500     12.5841     45.6869      9.9995    105.2416
  1675.5000     12.6375     45.7060     10.2578    107.8616
  1675.7500     12.7091     45.6953     10.5094    108.8820
  1676.0000     12.8249     45.6895     10.7459    109.4888
  1676.2500     12.8803     45.7124     10.9749    109.6593
  1676.5000     12.8449     45.7666     11.2155    110.0370
  1676.7500     12.7698     45.8369     11.4875    110.3017
