~Version Information
VERS.                      2.0: CWLS Log ASCII Standard - VERSION 2.0
WRAP.                       NO: One line per depth step
~Well Information Block
STRT.FT               430.0000: 
STOP.FT              1910.2000: 
STEP.FT                 0.1000: 
NULL.                -999.2500: 
COMP.          Pioneer Natural Resources: COMPANY
WELL.          Formula 23-11 Tr: WELL
FLD.           Purgatoire River: FIELD
LOC.           1976' FSL & 1935' FWL--: LOCATION
PROV.                 Colorado: PROVINCE
CNTY.               Las Animas: COUNTRY
SRVC.                Patterson: SERVICE COMPANY
DATE.          Mon Jun 13 07:32:15 2005: LOG DATE
UWI.           05 071 08399 00: UNIQUE WELL ID
~Curve Information Block
DEPT.FT            0 000 00 00: Depth
DCAL.in                       : CDL Caliper
RHOB.g/cc                     : CDL Bulk Density
RHOC.g/cc                     : CDL Density Correction
DPOR.pu                       : CDL Density Porosity
NPOR.pu                       : Neutron Porosity
GR.GAPI                       : Gamma Ray
~Parameter Information Block
~A  Depth       DCAL        RHOB        RHOC        DPOR        NPOR         GR     
# ...
  1687.6000      7.9625      2.4883      0.0578      9.7990     27.9929    138.9524
  1687.7000      7.9625      2.4908      0.0470      9.6472     28.4849    146.9111
  1687.8000      7.9681      2.4760      0.0648     10.5479     28.8144    150.9116
  1687.9000      7.9681      2.4237      0.0742     13.7143     29.0240    150.4951
  1688.0000      7.9707      2.3531     -0.0060     17.9948     29.6467    146.5397
  1688.1000      7.9707      2.3136     -0.0300     20.3860     30.3433    141.5286
  1688.2000      7.9707      2.3165      0.0152     20.2125     30.4281    139.2148
  1688.3000      7.9732      2.3347      0.0039     19.1064     30.0768    142.9694
  1688.4000      7.9732      2.3526      0.0190     18.0272     29.4453    149.3194
  1688.5000      7.9741      2.3713      0.0377     16.8887     28.6838    150.2997
  1688.6000      7.9741      2.3915      0.0921     15.6672     28.3711    145.9352
  1688.7000      7.9741      2.4106      0.0813     14.5092     28.4904    140.2254
  1688.8000      7.9741      2.4310      0.0928     13.2715     28.5671    137.0587
  1688.9000      7.9741      2.4505      0.1486     12.0884     28.4879    139.0954
  1689.0000      7.9791      2.4623      0.1223     11.3771     28.2289    142.8338
  1689.1000      7.9791      2.4720      0.0832     10.7895     28.1200    144.2730
  1689.2000      7.9791      2.4907      0.0674      9.6575     28.4379    146.1356
  1689.3000      7.9899      2.5111      0.0775      8.4153     28.8474    152.6890
  1689.4000      7.9899      2.5148      0.0870      8.1921     29.2612    163.7701
  1689.5000      7.9992      2.4948      0.0792      9.4084     29.8294    172.1297
  1689.6000      7.9992      2.4579      0.0726     11.6446     30.2933    168.7153
  1689.7000      7.9992      2.4146      0.0468     14.2648     30.4892    156.8208
  1689.8000      8.0085      2.3629      0.0340     17.4002     30.8273    148.7776
  1689.9000      8.0085      2.2876     -0.0011     21.9665     31.3103    147.1068
  1690.0000      8.0208      2.1867     -0.0160     28.0815     31.6028    145.4467
  1690.1000      8.0208      2.0771     -0.0769     34.7205     32.3185    141.5456
  1690.2000      8.0208      1.9723     -0.1018     41.0717     33.6792    136.3786
  1690.3000      8.0361      1.8770     -0.1195     46.8479     34.7847    130.1570
  1690.4000      8.0361      1.8031     -0.1505     51.3269     35.3187    120.5455
  1690.5000      8.0734      1.7575     -0.1330     54.0927     35.5141    109.3812
  1690.6000      8.0734      1.7225     -0.0809     56.2127     35.6415    102.4186
  1690.7000      8.0734      1.6809     -0.0456     58.7342     36.0911     99.4366
  1690.8000      8.1361      1.6445     -0.0133     60.9376     36.6743     97.5810
  1690.9000      8.1361      1.6319      0.0747     61.7011     37.0440     97.7590
  1691.0000      8.1782      1.6409      0.1067     61.1555     37.1838    101.8927
  1691.1000      8.1782      1.6647      0.0759     59.7136     36.9915    105.5778
  1691.2000      8.1782      1.6908      0.0775     58.1351     36.7821    103.9253
  1691.3000      8.1520      1.6859      0.0745     58.4286     36.9609     98.0731
  1691.4000      8.1520      1.6294     -0.0285     61.8540     37.1397     89.6366
  1691.5000      8.0862      1.5450     -0.0846     66.9708     36.8716     79.1985
  1691.6000      8.0862      1.4816     -0.1054     70.8140     36.6553     68.9305
  1691.7000      8.0862      1.4695     -0.0159     71.5445     36.7974     62.9890
  1691.8000      8.0964      1.4982      0.0685     69.8040     36.7016     63.1259
  1691.9000      8.0964      1.5418      0.1046     67.1660     36.2062     66.5717
  1692.0000      8.1757      1.5859      0.1149     64.4900     35.7555     68.1839
  1692.1000      8.1757      1.6261      0.1002     62.0551     35.5385     66.8861
  1692.2000      8.1757      1.6670      0.0551     59.5752     35.6712     67.2945
  1692.3000      8.1995      1.7250      0.0875     56.0583     36.0035     71.2451
  1692.4000      8.1995      1.8141      0.1374     50.6608     35.6557     77.4064
  1692.5000      8.1357      1.9285      0.2372     43.7261     33.9758     84.9942
  1692.6000      8.1357      2.0503      0.2607     36.3443     31.7593     92.8506
  1692.7000      8.1357      2.1683      0.2635     29.1968     30.2761     99.9945
  1692.8000      8.0343      2.2720      0.2776     22.9118     29.5680    103.6214
  1692.9000      8.0343      2.3510      0.2585     18.1185     29.1618    103.8569
  1693.0000      7.9435      2.4137      0.2117     14.3191     28.9427    107.0698
  1693.1000      7.9435      2.4716      0.1757     10.8098     28.6831    113.0806
  1693.2000      7.9435      2.5114      0.1696      8.4019     28.3440    118.6701
  1693.3000      7.8973      2.5208      0.0997      7.8289     27.9640    130.0571
  1693.4000      7.8973      2.5188      0.0674      7.9525     27.6344    147.1494
  1693.5000      7.8829      2.5210      0.1062      7.8207     27.6890    157.2859
  1693.6000      7.8829      2.5166      0.0873      8.0875     28.0822    157.6048
  1693.7000      7.8829      2.5030      0.0401      8.9089     28.5846    155.7875
  1693.8000      7.8781      2.4978      0.0501      9.2213     29.0717    152.6681
  1693.9000      7.8781      2.5077      0.0562      8.6272     29.3564    148.2184
  1694.0000      7.8764      2.5184      0.0897      7.9785     29.2269    146.8629
  1694.1000      7.8764      2.5219      0.0592      7.7613     28.7010    147.3039
  1694.2000      7.8764      2.5251      0.0795      7.5708     28.1183    144.7977
  1694.3000      7.8764      2.5245      0.0738      7.6049     27.8528    140.9984
  1694.4000      7.8764      2.5130      0.0447      8.3024     27.9614    139.1836
  1694.5000      7.8766      2.4966      0.0797      9.2942     27.9599    140.1295
  1694.6000      7.8766      2.4871      0.0415      9.8720     27.5468    142.1433
  1694.7000      7.8766      2.4904      0.0386      9.6744     27.3193    142.1920
  1694.8000      7.8735      2.4985      0.0661      9.1806     27.4287    139.2509
  1694.9000      7.8735      2.5104      0.0300      8.4604     27.1044    138.0654
  1695.0000      7.8706      2.5401      0.0688      6.6624     26.2047    143.0634
  1695.1000      7.8706      2.5798      0.1220      4.2517     25.4357    148.2080
  1695.2000      7.8706      2.5980      0.1445      3.1492     25.1677    147.8220
  1695.3000      7.8694      2.5855      0.0972      3.9101     25.1982    144.0965
  1695.4000      7.8694      2.5690      0.0565      4.9115     25.1888    138.9945
  1695.5000      7.8700      2.5725      0.0865      4.6950     24.9784    131.4941
  1695.6000      7.8700      2.5871      0.1093      3.8150     24.4573    124.6154
  1695.7000      7.8700      2.5859      0.1182      3.8820     23.6892    123.9878
  1695.8000      7.8709      2.5594      0.0878      5.4929     22.7975    125.2384
  1695.9000      7.8709      2.5300      0.0138      7.2749     21.8783    122.1091
  1696.0000      7.8720      2.5234      0.0229      7.6740     21.3664    115.6490
  1696.1000      7.8720      2.5370      0.0262      6.8492     21.4576    109.4390
  1696.2000      7.8720      2.5558      0.0478      5.7110     21.9631    106.6040
  1696.3000      7.8742      2.5727      0.0801      4.6836     22.4213    107.0352
  1696.4000      7.8742      2.5875      0.0705      3.7884     22.1911    110.1477
  1696.5000      7.8778      2.5966      0.0769      3.2334     21.4019    115.9544
  1696.6000      7.8778      2.5958      0.0730      3.2825     20.9270    122.6640
  1696.7000      7.8778      2.5880      0.0734      3.7549     21.2384    124.8338
  1696.8000      7.8798      2.5761      0.0878      4.4765     21.9501    120.5736
  1696.9000      7.8798      2.5617      0.0659      5.3533     22.6046    117.0520
  1697.0000      7.8784      2.5525      0.0328      5.9094     23.4169    117.1426
  1697.1000      7.8784      2.5506      0.0644      6.0219     24.3859    116.3184
