~Version Information
VERS.                      2.0: CWLS Log ASCII Standard - VERSION 2.0
WRAP.                       NO: One line per depth step
~Well Information Block
STRT.FT               583.0000: 
STOP.FT              1701.5000: 
STEP.FT                 0.2500: 
NULL.                -999.2500: 
COMP.          Pioneer Natural Resources: COMPANY
WELL.          Scott Canyon 11-18 Tr: WELL
FLD.           Purgatoire River: FIELD
LOC.           411' FNL & 580' FWL: LOCATION
PROV.                 Colorado: PROVINCE
CNTY.               Las Animas: COUNTRY
SRVC.                Patterson: SERVICE COMPANY
DATE.          Thu Feb 17 02:07:21 2005: LOG DATE
UWI.           05 071 08286 00: UNIQUE WELL ID
~Curve Information Block
DEPT.FT            0 000 00 00: Depth
SN.Ohm-m                      : IEL Short Normal
SP.mV                         : IEL Spontaneous Potential
DIR.Ohm-m                     : IEL Induction Resistivity
GR.GAPI                       : Gamma Ray
~Parameter Information Block
~A  Depth        SN          SP         DIR          GR     
# ...
   884.5000     33.4530    -60.2561     18.3671     63.5881
   884.7500     40.2889    -60.4519     19.3814     57.6931
   885.0000     46.3247    -60.5064     20.6148     52.4870
   885.2500     49.9423    -60.3009     22.1014     51.4769
   885.5000     50.6071    -59.7832     23.7883     52.7843
   885.7500     49.0357    -58.9850     25.5087     54.7182
   886.0000     46.5763    -58.0205     27.0107     57.7973
   886.2500     44.2754    -57.0641     28.0541     59.4090
   886.5000     42.4032    -56.2923     28.5252     60.9772
   886.7500     40.7397    -55.8038     28.4813     61.8461
   887.0000     39.1515    -55.5672     28.0964     64.3063
   887.2500     37.8036    -55.4464     27.5699     67.7155
   887.5000     36.8849    -55.2923     27.0603     76.4517
   887.7500     36.3469    -55.0307     26.6581     84.3186
   888.0000     35.9906    -54.6853     26.3893     96.9836
   888.2500     35.6538    -54.3369     26.2414    104.3248
   888.5000     35.2628    -54.0625     26.1946    111.2316
   888.7500     34.8303    -53.8967     26.2392    112.3796
   889.0000     34.4379    -53.8275     26.3642    109.4027
   889.2500     34.1771    -53.8128     26.5350    105.3952
   889.5000     34.0966    -53.8026     26.6887     98.4769
   889.7500     34.1919    -53.7580     26.7624     94.0844
   890.0000     34.3902    -53.6664     26.7340     88.5823
   890.2500     34.5465    -53.5410     26.6372     85.9756
   890.5000     34.5501    -53.4027     26.5356     83.8950
   890.7500     34.4296    -53.2618     26.4771     83.3533
   891.0000     34.2705    -53.1198     26.4666     82.5793
   891.2500     34.0988    -52.9864     26.4768     81.6990
   891.5000     33.9019    -52.8867     26.4823     80.3328
   891.7500     33.6870    -52.8517     26.4916     79.9205
   892.0000     33.4803    -52.9081     26.5473     80.3063
   892.2500     33.3054    -53.0745     26.6925     80.9164
   892.5000     33.1763    -53.3610     26.9298     81.4699
   892.7500     33.0939    -53.7627     27.2056     81.1334
   893.0000     33.0291    -54.2514     27.4371     79.3576
   893.2500     32.9279    -54.7767     27.5635     77.7038
   893.5000     32.7761    -55.2808     27.5836     75.6223
   893.7500     32.6447    -55.7166     27.5499     74.9247
   894.0000     32.6115    -56.0571     27.5325     74.7178
   894.2500     32.6709    -56.2964     27.5860     74.5881
   894.5000     32.7694    -56.4477     27.7302     73.3643
   894.7500     32.8772    -56.5349     27.9485     71.5779
   895.0000     33.0069    -56.5793     28.2018     67.8879
   895.2500     33.1891    -56.5929     28.4543     65.4157
   895.5000     33.4329    -56.5876     28.6945     62.7675
   895.7500     33.7177    -56.5814     28.9371     61.9590
   896.0000     34.0181    -56.5859     29.2046     61.8719
   896.2500     34.3205    -56.5860     29.5044     62.1460
   896.5000     34.6229    -56.5473     29.8232     62.4037
   896.7500     34.9243    -56.4513     30.1390     62.3217
   897.0000     35.2195    -56.3221     30.4389     62.0272
   897.2500     35.5062    -56.2126     30.7233     61.9903
   897.5000     35.7902    -56.1626     30.9945     62.5523
   897.7500     36.0770    -56.1687     31.2511     63.3792
   898.0000     36.3705    -56.1911     31.4969     65.0557
   898.2500     36.6908    -56.1870     31.7505     66.2299
   898.5000     37.0665    -56.1405     32.0337     67.5757
   898.7500     37.4924    -56.0682     32.3495     67.8693
   899.0000     37.9148    -56.0054     32.6734     67.1453
   899.2500     38.2721    -55.9880     32.9647     66.1495
   899.5000     38.5227    -56.0467     33.1893     64.8151
   899.7500     38.6433    -56.2057     33.3417     64.4322
   900.0000     38.6423    -56.4756     33.4514     64.6492
   900.2500     38.5812    -56.8419     33.5633     65.0785
   900.5000     38.5410    -57.2695     33.6962     65.6871
   900.7500     38.5688    -57.7236     33.8166     65.8945
   901.0000     38.6779    -58.1886     33.8581     65.7459
   901.2500     38.8657    -58.6640     33.7772     65.2507
   901.5000     39.1113    -59.1486     33.5871     63.8901
   901.7500     39.3807    -59.6320     33.3411     62.8239
   902.0000     39.6348    -60.0976     33.0889     61.8909
   902.2500     39.8321    -60.5295     32.8430     62.1865
   902.5000     39.9565    -60.9197     32.5825     63.9906
   902.7500     40.0422    -61.2674     32.2921     65.4941
   903.0000     40.1284    -61.5731     32.0143     66.7837
   903.2500     40.1970    -61.8323     31.8580     66.5265
   903.5000     40.2026    -62.0329     31.9351     64.6879
   903.7500     40.1395    -62.1579     32.2686     62.9080
   904.0000     40.0381    -62.1954     32.7558     59.9936
   904.2500     39.9317    -62.1521     33.2259     58.2465
   904.5000     39.8534    -62.0541     33.5577     56.7569
   904.7500     39.8342    -61.9290     33.7524     56.8292
   905.0000     39.8897    -61.7931     33.9052     58.1626
   905.2500     40.0254    -61.6596     34.1224     59.2939
   905.5000     40.2605    -61.5454     34.4580     60.5823
   905.7500     40.6288    -61.4567     34.8965     61.0460
   906.0000     41.1302    -61.3728     35.3671     61.3045
   906.2500     41.6977    -61.2613     35.7790     61.3226
   906.5000     42.2695    -61.1123     36.0660     61.2913
   906.7500     42.8660    -60.9520     36.2281     61.2885
   907.0000     43.5497    -60.8164     36.3375     61.3378
   907.2500     44.3532    -60.7151     36.5078     61.3789
   907.5000     45.2423    -60.6221     36.8333     61.4221
   907.7500     46.1202    -60.5060     37.3299     61.4790
   908.0000     46.8908    -60.3606     37.9196     61.7318
   908.2500     47.5151    -60.2028     38.4813     62.0349
   908.5000     47.9822    -60.0453     38.9442     62.5692
   908.7500     48.2764    -59.8860     39.3431     62.8559
   909.0000     48.4216    -59.7243     39.7684     62.9931
   909.2500     48.5083    -59.5732     40.2607     62.8044
   909.5000     48.6076    -59.4499     40.7609     61.9728
   909.7500     48.6920    -59.3592     41.1847     61.0442
   910.0000     48.6992    -59.2934     41.5527     59.3485
   910.2500     48.6272    -59.2420     42.0223     58.2919
   910.5000     48.5300    -59.2013     42.7570     57.2407
   910.7500     48.4467    -59.1752     43.7174     57.0377
   911.0000     48.3606    -59.1714     44.5414     57.4946
   911.2500     48.2415    -59.1954     44.6887     58.1089
   911.5000     48.1048    -59.2443     43.8648     58.8460
   911.7500     47.9899    -59.3037     42.3179     58.9074
   912.0000     47.9041    -59.3492     40.6201     58.4008
   912.2500     47.8172    -59.3542     39.2343     57.9964
   912.5000     47.6817    -59.2976     38.3191     57.9421
   912.7500     47.4457    -59.1637     37.7968     58.4798
   913.0000     47.0650    -58.9418     37.4987     60.1543
   913.2500     46.4999    -58.6330     37.2685     61.8324
   913.5000     45.7057    -58.2577     36.9888     65.3976
   913.7500     44.6571    -57.8523     36.5618     68.5966
   914.0000     43.4002    -57.4530     35.8956     74.2955
   914.2500     42.0651    -57.0818     34.9258     78.0739
   914.5000     40.8028    -56.7400     33.6479     82.3866
   914.7500     39.6874    -56.4093     32.1386     83.8614
   915.0000     38.6772    -56.0584     30.5400     84.0551
   915.2500     37.6669    -55.6578     29.0133     83.3801
   915.5000     36.5236    -55.1991     27.6810     82.5678
   915.7500     35.0657    -54.7084     26.5885     83.0008
   916.0000     33.1434    -54.2428     25.7094     85.9908
   916.2500     30.8508    -53.8629     24.9814     89.4588
   916.5000     28.5700    -53.5958     24.3454     95.6520
   916.7500     26.7049    -53.4222     23.7622     99.4139
   917.0000     25.4237    -53.2993     23.2086    103.2323
   917.2500     24.6544    -53.1961     22.6697    104.5186
   917.5000     24.2055    -53.1080     22.1348    105.4592
   917.7500     23.8699    -53.0476     21.5959    106.0115
