~Version Information
VERS.                      2.0: CWLS Log ASCII Standard - VERSION 2.0
WRAP.                       NO: One line per depth step
~Well Information Block
STRT.FT               671.6000: 
STOP.FT              1890.7000: 
STEP.FT                 0.1000: 
NULL.                -999.2500: 
COMP.          Petrogulf Corporation: COMPANY
WELL.             State 16-14R: WELL
FLD.           Purgatorie River: FIELD
LOC.           598' FSL & 682' FWL: LOCATION
CNTY.               Las Animas: COUNTY
SRVC.                         : SERVICE COMPANY
DATE.          Fri Nov 05 07:21:30 2004: LOG DATE
UWI.           05 071 08034 00: UNIQUE WELL ID
STAT.                 Colorado: STATE
~Curve Information Block
DEPT.FT            0 000 00 00: Depth
DCAL.in                       : CDL Caliper
RHOB.g/cc                     : CDL Bulk Density
RHOC.g/cc                     : CDL Density Correction
DPOR.pu                       : CDL Density Porosity
GR.GAPI                       : Gamma Ray
NPOR.pu                       : Neutron Porosity
~Parameter Information Block
~A  Depth       DCAL        RHOB        RHOC        DPOR         GR         NPOR    
# ...
  1238.0000      7.8711      2.5898      0.0593      3.6475     80.8465     20.3342
  1238.1000      7.8711      2.5640      0.0407      5.2097     84.2099     20.4757
  1238.2000      7.8711      2.5522      0.0700      5.9273     85.3553     20.0735
  1238.3000      7.8675      2.5462      0.0722      6.2890     86.0018     19.2968
  1238.4000      7.8675      2.5501      0.0621      6.0521     87.4852     18.7465
  1238.5000      7.8678      2.5702      0.1014      4.8392     88.6148     18.8823
  1238.6000      7.8678      2.5890      0.1480      3.6993     86.5876     19.5324
  1238.7000      7.8678      2.5882      0.1244      3.7427     82.2490     20.2128
  1238.8000      7.8637      2.5727      0.1203      4.6819     80.5714     20.7689
  1238.9000      7.8637      2.5548      0.1577      5.7719     83.7339     21.3925
  1239.0000      7.8512      2.5397      0.1718      6.6852     89.5198     22.2367
  1239.1000      7.8512      2.5395      0.1020      6.6980     94.1644     23.1248
  1239.2000      7.8512      2.5751      0.1187      4.5405     93.9050     23.9664
  1239.3000      7.8613      2.6499      0.1742      0.0043     91.0956     25.0524
  1239.4000      7.8613      2.7493      0.2014     -6.0203     90.8742     26.4146
  1239.5000      7.8520      2.8539      0.2472    -12.3562     92.8433     27.5698
  1239.6000      7.8520      2.9361      0.2914    -17.3403     94.6383     28.0076
  1239.7000      7.8520      2.9624      0.3430    -18.9345     96.2791     27.6476
  1239.8000      7.8207      2.9157      0.2615    -16.1049     96.9994     26.8750
  1239.9000      7.8207      2.8245      0.1098    -10.5760     93.8968     25.9086
  1240.0000      7.8319      2.7279      0.0938     -4.7207     88.4948     24.8540
  1240.1000      7.8319      2.6343     -0.0564      0.9523     85.7689     23.7731
  1240.2000      7.8319      2.5421     -0.2189      6.5406     85.5822     22.6808
  1240.3000      7.8581      2.4574     -0.1785     11.6704     85.2010     21.9501
  1240.4000      7.8581      2.4093     -0.2095     14.5891     84.3276     21.7939
  1240.5000      7.8674      2.4374      0.0017     12.8847     85.5812     21.7166
  1240.6000      7.8674      2.5139      0.2921      8.2502     91.3006     21.3340
  1240.7000      7.8674      2.5609      0.3034      5.4023     99.3086     20.9698
  1240.8000      7.8328      2.5553      0.2404      5.7424    106.5226     20.7197
  1240.9000      7.8328      2.5247      0.2346      7.5968    113.8854     20.3027
  1241.0000      7.8312      2.4975      0.1508      9.2403    123.0079     19.8589
  1241.1000      7.8312      2.4851      0.1416      9.9914    132.7225     19.7843
  1241.2000      7.8312      2.4750      0.1324     10.6058    141.9369     20.0631
  1241.3000      7.8677      2.4594      0.1267     11.5541    153.8141     20.4060
  1241.4000      7.8677      2.4422      0.1317     12.5915    169.3948     20.6775
  1241.5000      7.9405      2.4241      0.0670     13.6922    179.4725     20.7569
  1241.6000      7.9405      2.4070      0.0730     14.7276    176.1556     20.4771
  1241.7000      7.9405      2.3975      0.1117     15.3047    167.0959     20.0542
  1241.8000      7.9285      2.4033      0.0931     14.9534    163.2782     19.7583
  1241.9000      7.9285      2.4233      0.1422     13.7412    163.1411     19.4518
  1242.0000      7.9407      2.4394      0.1899     12.7632    162.4213     19.0858
  1242.1000      7.9407      2.4388      0.1718     12.8024    166.2024     18.9128
  1242.2000      7.9407      2.4287      0.1657     13.4110    175.9258     18.9387
  1242.3000      7.9154      2.4152      0.1842     14.2333    184.1062     19.0815
  1242.4000      7.9154      2.4012      0.1308     15.0807    189.9169     19.3787
  1242.5000      7.9078      2.3966      0.1362     15.3592    199.0316     19.5842
  1242.6000      7.9078      2.3979      0.2093     15.2767    209.8306     19.5402
  1242.7000      7.9078      2.3923      0.1998     15.6157    214.9959     19.4574
  1242.8000      7.9446      2.3794      0.2166     16.3978    213.2455     19.3794
  1242.9000      7.9446      2.3660      0.2104     17.2134    210.7798     19.4256
  1243.0000      7.9926      2.3613      0.1964     17.4953    209.3359     19.8311
  1243.1000      7.9926      2.3703      0.1812     16.9515    209.7139     20.4260
  1243.2000      7.9926      2.3787      0.2012     16.4401    216.2024     20.8131
  1243.3000      7.9533      2.3796      0.1340     16.3894    224.7950     21.0475
  1243.4000      7.9533      2.3875      0.1319     15.9061    228.6736     21.4259
  1243.5000      7.9506      2.3982      0.2159     15.2585    226.7782     21.7186
  1243.6000      7.9506      2.3943      0.1770     15.4961    220.7181     21.4076
  1243.7000      7.9506      2.3782      0.1955     16.4744    210.6973     20.5757
  1243.8000      7.9971      2.3521      0.2080     18.0549    198.4120     19.9745
  1243.9000      7.9971      2.3085      0.1876     20.6945    188.0724     20.0032
  1244.0000      7.9865      2.2590      0.0728     23.6978    183.0686     20.1096
  1244.1000      7.9865      2.2312      0.0797     25.3817    182.4699     19.8304
  1244.2000      7.9865      2.2268      0.1510     25.6489    177.9880     19.5029
  1244.3000      8.0122      2.2272      0.1507     25.6244    164.8703     19.3775
  1244.4000      8.0122      2.2350      0.1203     25.1517    147.6658     19.0929
  1244.5000      8.0274      2.2663      0.2043     23.2557    130.3487     18.5399
  1244.6000      8.0274      2.3263      0.3034     19.6154    115.2692     18.1494
  1244.7000      8.0274      2.4094      0.4311     14.5822    105.8397     18.0128
  1244.8000      8.0515      2.4947      0.5233      9.4148    104.5707     17.9230
  1244.9000      8.0515      2.5506      0.5711      6.0226    112.0715     17.7679
  1245.0000      8.0694      2.5564      0.5013      5.6705    122.1638     17.5562
  1245.1000      8.0694      2.5312      0.3531      7.1997    126.8680     17.4824
  1245.2000      8.0694      2.5187      0.3023      7.9577    129.4420     17.8262
  1245.3000      8.1167      2.5296      0.3152      7.2968    134.1116     18.6220
  1245.4000      8.1167      2.5378      0.3076      6.7974    135.5597     19.4546
  1245.5000      8.1459      2.5230      0.3060      7.6954    129.5446     19.8753
  1245.6000      8.1459      2.4869      0.2548      9.8846    118.9042     20.0993
  1245.7000      8.1459      2.4420      0.2418     12.6037    110.3087     20.4372
  1245.8000      8.1975      2.4026      0.1246     14.9932    110.5395     20.7293
  1245.9000      8.1975      2.3830      0.0812     16.1798    117.0107     21.0501
  1246.0000      8.2207      2.3882      0.1015     15.8643    120.5464     21.7771
  1246.1000      8.2207      2.4121      0.1178     14.4172    118.0149     22.8000
  1246.2000      8.2207      2.4394      0.1535     12.7632    110.4298     23.6186
  1246.3000      8.0960      2.4490      0.2050     12.1792    100.9363     23.8281
  1246.4000      8.0960      2.4374      0.1801     12.8861     97.2045     23.1916
  1246.5000      8.0751      2.4256      0.1722     13.5974    102.4299     21.8795
  1246.6000      8.0751      2.4237      0.2602     13.7154    108.7644     20.9478
  1246.7000      8.0751      2.4200      0.2298     13.9374    108.6372     20.7507
  1246.8000      8.0870      2.4132      0.2062     14.3501    104.8806     20.3792
  1246.9000      8.0870      2.4104      0.2229     14.5239    102.6437     19.2643
  1247.0000      8.0687      2.4136      0.1988     14.3246    100.8759     17.9303
  1247.1000      8.0687      2.4323      0.1740     13.1952     98.8887     17.1943
  1247.2000      8.0687      2.4764      0.2581     10.5192     99.0086     17.1256
  1247.3000      8.1426      2.5330      0.3399      7.0932     99.5252     17.2885
  1247.4000      8.1426      2.5758      0.4198      4.4978     97.7694     17.5547
  1247.5000      8.2110      2.5987      0.3690      3.1079     96.2954     18.1601
