~Version Information
VERS.                      2.0: CWLS Log ASCII Standard - VERSION 2.0
WRAP.                       NO: One line per depth step
~Well Information Block
STRT.FT               423.0000: 
STOP.FT              2308.2500: 
STEP.FT                 0.2500: 
NULL.                -999.2500: 
COMP.          Pioneer Natural Resources: COMPANY
WELL.             Culver 14-12: WELL
FLD.           Purgatoire River: FIELD
LOC.           913' FSL & 1140' FWL: LOCATION
PROV.                 Colorado: PROVINCE
CNTY.               Las Animas: COUNTRY
SRVC.                Patterson: SERVICE COMPANY
DATE.          Tue Jun 07 00:21:41 2005: LOG DATE
UWI.           05 071 08386 00: UNIQUE WELL ID
~Curve Information Block
DEPT.FT            0 000 00 00: Depth
SN.Ohm-m                      : IEL Short Normal
SP.mV                         : IEL Spontaneous Potential
DIR.Ohm-m                     : IEL Induction Resistivity
GR.GAPI                       : Gamma Ray
~Parameter Information Block
~A  Depth        SN          SP         DIR          GR     
# ...
   791.5000   2000.0000   2000.0000     30.9903    120.8138
   791.7500   2000.0000   2000.0000     32.3270    123.1586
   792.0000   2000.0000   2000.0000     33.7161    123.7374
   792.2500   2000.0000   2000.0000     34.9956    121.7362
   792.5000   2000.0000   2000.0000     35.9963    115.4598
   792.7500   2000.0000   2000.0000     36.5785    109.8540
   793.0000   2000.0000   2000.0000     36.6597    100.8832
   793.2500   2000.0000   2000.0000     36.2313     95.1928
   793.5000   2000.0000   2000.0000     35.3640     87.6023
   793.7500   2000.0000   2000.0000     34.1995     83.3294
   794.0000   2000.0000   2000.0000     32.9252     78.7144
   794.2500   2000.0000   2000.0000     31.7259     77.4229
   794.5000   2000.0000   2000.0000     30.7236     79.0430
   794.7500   2000.0000   2000.0000     29.9357     82.6313
   795.0000   2000.0000   2000.0000     29.2750     91.1116
   795.2500   2000.0000   2000.0000     28.5981     97.9653
   795.5000   2000.0000   2000.0000     27.7882    108.2088
   795.7500   2000.0000   2000.0000     26.8205    114.0799
   796.0000   2000.0000   2000.0000     25.7593    120.5326
   796.2500   2000.0000   2000.0000     24.6992    123.1783
   796.5000   2000.0000   2000.0000     23.7068    125.2019
   796.7500   2000.0000   2000.0000     22.8074    125.8159
   797.0000   2000.0000   2000.0000     22.0097    126.6392
   797.2500   2000.0000   2000.0000     21.3353    127.6362
   797.5000   2000.0000   2000.0000     20.8274    130.4723
   797.7500   2000.0000   2000.0000     20.5342    133.2746
   798.0000   2000.0000   2000.0000     20.4848    137.7136
   798.2500   2000.0000   2000.0000     20.6783    139.5812
   798.5000   2000.0000   2000.0000     21.0899    138.6327
   798.7500   2000.0000   2000.0000     21.6884    135.0066
   799.0000   2000.0000   2000.0000     22.4571    126.1854
   799.2500   2000.0000   2000.0000     23.4062    119.5168
   799.5000   2000.0000   2000.0000     24.5723    110.6735
   799.7500   2000.0000   2000.0000     26.0072    106.1050
   800.0000   2000.0000   2000.0000     27.7625    100.6886
   800.2500   2000.0000   2000.0000     29.8765     97.3754
   800.5000   2000.0000   2000.0000     32.3559     92.2906
   800.7500   2000.0000   2000.0000     35.1465     89.0158
   801.0000   2000.0000   2000.0000     38.1161     84.8790
   801.2500   2000.0000   2000.0000     41.0962     82.8260
   801.5000   2000.0000   2000.0000     43.9822     80.8887
   801.7500   2000.0000   2000.0000     46.7992     80.3748
   802.0000   2000.0000   2000.0000     49.6445     80.5038
   802.2500   2000.0000   2000.0000     52.5667     80.7284
   802.5000   2000.0000   2000.0000     55.5007     80.3355
   802.7500   2000.0000   2000.0000     58.3168     79.3599
   803.0000   2000.0000   2000.0000     60.9237     77.2025
   803.2500   2000.0000   2000.0000     63.3432     75.6256
   803.5000   2000.0000   2000.0000     65.6906     73.0074
   803.7500   2000.0000   2000.0000     68.0792     70.7251
   804.0000   2000.0000   2000.0000     70.5300     66.1688
   804.2500   2000.0000   2000.0000     72.9882     62.7852
   804.5000   2000.0000   2000.0000     75.4465     58.5996
   804.7500   2000.0000   2000.0000     78.0166     57.0306
   805.0000   2000.0000   2000.0000     80.8048     56.5717
   805.2500   2000.0000   2000.0000     83.6553     57.1593
   805.5000   2000.0000   2000.0000     86.0085     58.7508
   805.7500   2000.0000   2000.0000     87.1136     60.0460
   806.0000   2000.0000   2000.0000     86.5444     62.0083
   806.2500   2000.0000   2000.0000     84.5664     63.2182
   806.5000   2000.0000   2000.0000     81.9326     65.1109
   806.7500   2000.0000   2000.0000     79.3666     66.7200
   807.0000   2000.0000   2000.0000     77.2346     69.8015
   807.2500   2000.0000   2000.0000     75.5597     71.9725
   807.5000   2000.0000   2000.0000     74.2135     74.4514
   807.7500   2000.0000   2000.0000     73.1005     75.1306
   808.0000   2000.0000   2000.0000     72.2152     74.4999
   808.2500   2000.0000   2000.0000     71.5461     73.3230
   808.5000   2000.0000   2000.0000     70.9038     71.6343
   808.7500   2000.0000   2000.0000     69.8271     71.1987
   809.0000   2000.0000   2000.0000     67.7367     71.6408
   809.2500   2000.0000   2000.0000     64.3441     72.1306
   809.5000   2000.0000   2000.0000     59.9535     72.3605
   809.7500   2000.0000   2000.0000     55.2683     72.2404
   810.0000   2000.0000   2000.0000     50.9103     72.3796
   810.2500   2000.0000   2000.0000     47.1571     73.0638
   810.5000   2000.0000   2000.0000     44.0008     75.2371
   810.7500   2000.0000   2000.0000     41.3120     77.4859
   811.0000   2000.0000   2000.0000     38.9521     82.3230
   811.2500   2000.0000   2000.0000     36.8100     86.8975
   811.5000   2000.0000   2000.0000     34.8077     96.5194
   811.7500   2000.0000   2000.0000     32.9038    104.8594
   812.0000   2000.0000   2000.0000     31.0916    119.0846
   812.2500   2000.0000   2000.0000     29.3861    128.2274
   812.5000   2000.0000   2000.0000     27.8071    138.6310
   812.7500   2000.0000   2000.0000     26.3691    142.5371
   813.0000   2000.0000   2000.0000     25.0771    144.6290
   813.2500   2000.0000   2000.0000     23.9244    144.6333
   813.5000   2000.0000   2000.0000     22.8925    143.8200
   813.7500   2000.0000   2000.0000     21.9558    142.7878
   814.0000   2000.0000   2000.0000     21.0902    140.3702
   814.2500   2000.0000   2000.0000     20.2847    138.4971
   814.5000   2000.0000   2000.0000     19.5483    136.6144
   814.7500   2000.0000   2000.0000     18.9106    136.8473
   815.0000   2000.0000   2000.0000     18.4121    140.1082
   815.2500   2000.0000   2000.0000     18.0891    143.7999
   815.5000   2000.0000   2000.0000     17.9608    149.8355
   815.7500   2000.0000   2000.0000     18.0239    153.1135
   816.0000   2000.0000   2000.0000     18.2546    155.7130
   816.2500   2000.0000   2000.0000     18.6135    155.5923
   816.5000   2000.0000   2000.0000     19.0510    152.4297
   816.7500   2000.0000   2000.0000     19.5103    148.2043
   817.0000   2000.0000   2000.0000     19.9336    138.4774
   817.2500   2000.0000   2000.0000     20.2765    129.9577
   817.5000   2000.0000   2000.0000     20.5233    115.6876
   817.7500   2000.0000   2000.0000     20.6910    106.6086
   818.0000   2000.0000   2000.0000     20.8155     95.9877
   818.2500   2000.0000   2000.0000     20.9308     91.7796
   818.5000   2000.0000   2000.0000     21.0569     90.2822
   818.7500   2000.0000   2000.0000     21.1946     92.4026
   819.0000   2000.0000   2000.0000     21.3250     99.6912
   819.2500   2000.0000   2000.0000     21.4145    106.6305
   819.5000   2000.0000   2000.0000     21.4333    118.2989
   819.7500   2000.0000   2000.0000     21.3805    125.6341
   820.0000   2000.0000   2000.0000     21.2941    134.2891
   820.2500   2000.0000   2000.0000     21.2291    138.1511
   820.5000   2000.0000   2000.0000     21.2174    141.5617
   820.7500   2000.0000   2000.0000     21.2461    142.8128
   821.0000   2000.0000   2000.0000     21.2724    143.8631
   821.2500   2000.0000   2000.0000     21.2612    144.1201
   821.5000   2000.0000   2000.0000     21.2088    143.6386
   821.7500   2000.0000   2000.0000     21.1321    142.4618
   822.0000   2000.0000   2000.0000     21.0385    138.7661
   822.2500   2000.0000   2000.0000     20.9141    134.8420
   822.5000   2000.0000   2000.0000     20.7433    127.6875
   822.7500   2000.0000   2000.0000     20.5395    123.4223
   823.0000   2000.0000   2000.0000     20.3535    120.3884
   823.2500   2000.0000   2000.0000     20.2474    121.3947
   823.5000   2000.0000   2000.0000     20.2562    126.6511
   823.7500   2000.0000   2000.0000     20.3645    131.2000
   824.0000   2000.0000   2000.0000     20.5119    136.8558
   824.2500   2000.0000   2000.0000     20.6220    138.9219
   824.5000   2000.0000   2000.0000     20.6429    139.5446
   824.7500   2000.0000   2000.0000     20.5684    138.9274
