~Version Information
VERS.                      2.0: CWLS Log ASCII Standard - VERSION 2.0
WRAP.                       NO: One line per depth step
~Well Information Block
STRT.FT               430.0000: 
STOP.FT              1910.2500: 
STEP.FT                 0.2500: 
NULL.                -999.2500: 
COMP.          Pioneer Natural Resources: COMPANY
WELL.          Formula 23-11 Tr: WELL
FLD.           Purgatoire River: FIELD
LOC.           1976' FSL & 1935' FWL--: LOCATION
PROV.                 Colorado: PROVINCE
CNTY.               Las Animas: COUNTRY
SRVC.                Patterson: SERVICE COMPANY
DATE.          Fri Jun 10 22:41:39 2005: LOG DATE
UWI.           05 071 08399 00: UNIQUE WELL ID
~Curve Information Block
DEPT.FT            0 000 00 00: Depth
SN.Ohm-m                      : IEL Short Normal
SP.mV                         : IEL Spontaneous Potential
DIR.Ohm-m                     : IEL Induction Resistivity
GR.GAPI                       : Gamma Ray
~Parameter Information Block
~A  Depth        SN          SP         DIR          GR     
# ...
   999.5000     56.6886   -122.8646     46.3872     58.8607
   999.7500     55.8900   -122.8141     45.8952     60.4083
  1000.0000     55.0681   -122.7033     45.5000     63.1105
  1000.2500     54.2141   -122.5453     45.2198     64.5542
  1000.5000     53.3593   -122.3623     45.0576     65.5660
  1000.7500     52.5725   -122.1816     44.9967     65.4371
  1001.0000     51.9371   -122.0308     45.0017     64.4133
  1001.2500     51.5180   -121.9332     45.0305     63.5752
  1001.5000     51.3378   -121.9048     45.0561     62.8337
  1001.7500     51.3711   -121.9512     45.0829     62.9651
  1002.0000     51.5532   -122.0655     45.1425     64.0663
  1002.2500     51.7989   -122.2260     45.2759     65.1245
  1002.5000     52.0276   -122.3973     45.5171     66.6773
  1002.7500     52.1903   -122.5344     45.8878     67.5349
  1003.0000     52.2814   -122.5918     46.3914     68.4445
  1003.2500     52.3307   -122.5357     47.0004     68.6828
  1003.5000     52.3795   -122.3550     47.6449     68.2476
  1003.7500     52.4516   -122.0687     48.2216     67.4556
  1004.0000     52.5317   -121.7237     48.6272     66.0297
  1004.2500     52.5632   -121.3831     48.7968     65.3071
  1004.5000     52.4723   -121.1093     48.7179     64.8269
  1004.7500     52.2066   -120.9471     48.4202     64.7853
  1005.0000     51.7661   -120.9129     47.9639     64.9108
  1005.2500     51.2120   -120.9942     47.4358     65.1445
  1005.5000     50.6519   -121.1573     46.9362     65.8241
  1005.7500     50.2000   -121.3609     46.5507     66.3958
  1006.0000     49.9280   -121.5672     46.3211     66.8907
  1006.2500     49.8316   -121.7506     46.2357     66.5908
  1006.5000     49.8355   -121.8986     46.2392     64.9560
  1006.7500     49.8359   -122.0087     46.2524     63.4379
  1007.0000     49.7527   -122.0831     46.1952     61.6493
  1007.2500     49.5584   -122.1245     46.0120     61.1532
  1007.5000     49.2723   -122.1333     45.6870     61.0866
  1007.7500     48.9378   -122.1084     45.2441     61.1140
  1008.0000     48.6011   -122.0487     44.7359     61.2747
  1008.2500     48.3022   -121.9558     44.2338     61.7707
  1008.5000     48.0731   -121.8351     43.8157     63.2878
  1008.7500     47.9372   -121.6973     43.5405     64.5057
  1009.0000     47.9067   -121.5572     43.4170     65.7758
  1009.2500     47.9797   -121.4321     43.3852     65.8859
  1009.5000     48.1451   -121.3393     43.3403     64.8135
  1009.7500     48.3877   -121.2932     43.1984     63.4428
  1010.0000     48.6912   -121.3033     42.9569     61.0312
  1010.2500     49.0349   -121.3727     42.6940     59.6760
  1010.5000     49.3849   -121.4977     42.5051     58.6478
  1010.7500     49.6866   -121.6689     42.4370     58.6295
  1011.0000     49.8664   -121.8719     42.4667     59.0039
  1011.2500     49.8555   -122.0895     42.5232     59.1512
  1011.5000     49.6249   -122.3030     42.5215     59.1788
  1011.7500     49.2079   -122.4940     42.3933     59.4674
  1012.0000     48.6879   -122.6461     42.1067     61.2918
  1012.2500     48.1554   -122.7465     41.6719     63.8780
  1012.5000     47.6608   -122.7875     41.1221     69.9873
  1012.7500     47.1884   -122.7676     40.4878     75.2221
  1013.0000     46.6641   -122.6910     39.7902     83.3930
  1013.2500     45.9966   -122.5670     39.0589     87.8117
  1013.5000     45.1313   -122.4076     38.3457     91.0006
  1013.7500     44.0890   -122.2257     37.7083     90.5627
  1014.0000     42.9592   -122.0332     37.1787     87.4666
  1014.2500     41.8495   -121.8398     36.7445     85.2424
  1014.5000     40.8216   -121.6531     36.3575     84.0184
  1014.7500     39.8650   -121.4785     35.9589     85.4919
  1015.0000     38.9310   -121.3208     35.5022     91.4716
  1015.2500     37.9955   -121.1836     34.9666     97.3273
  1015.5000     37.0940   -121.0698     34.3598    106.6010
  1015.7500     36.3041   -120.9813     33.7162    111.7196
  1016.0000     35.6966   -120.9176     33.0890    116.6421
  1016.2500     35.2997   -120.8761     32.5300    118.1620
  1016.5000     35.0977   -120.8519     32.0650    118.3202
  1016.7500     35.0564   -120.8397     31.6841    117.0852
  1017.0000     35.1518   -120.8357     31.3615    112.6408
  1017.2500     35.3821   -120.8389     31.0943    107.4738
  1017.5000     35.7603   -120.8526     30.9221     96.6784
  1017.7500     36.2877   -120.8836     30.9048     88.7067
  1018.0000     36.9214   -120.9395     31.0728     78.6821
  1018.2500     37.5593   -121.0257     31.3856     74.5237
  1018.5000     38.0618   -121.1416     31.7285     72.0537
  1018.7500     38.3033   -121.2793     31.9524     72.0370
  1019.0000     38.2177   -121.4242     31.9447     73.1056
  1019.2500     37.8072   -121.5576     31.6825     74.3827
  1019.5000     37.1155   -121.6614     31.2235     77.5341
  1019.7500     36.1969   -121.7214     30.6447     80.5858
  1020.0000     35.1045   -121.7301     29.9854     86.4587
  1020.2500     33.8952   -121.6859     29.2383     91.1855
  1020.5000     32.6290   -121.5923     28.3766     99.5315
  1020.7500     31.3547   -121.4555     27.3803    105.8218
  1021.0000     30.0979   -121.2825     26.2445    115.6333
  1021.2500     28.8725   -121.0806     24.9790    121.8029
  1021.5000     27.7000   -120.8578     23.6126    129.5179
  1021.7500     26.6136   -120.6227     22.2003    133.3255
  1022.0000     25.6438   -120.3852     20.8191    137.2076
  1022.2500     24.8071   -120.1560     19.5526    139.1552
  1022.5000     24.1109   -119.9468     18.4730    142.5225
  1022.7500     23.5634   -119.7690     17.6307    145.4153
  1023.0000     23.1716   -119.6350     17.0526    149.2204
  1023.2500     22.9251   -119.5569     16.7428    149.5977
  1023.5000     22.7794   -119.5474     16.6838    144.7991
  1023.7500     22.6533   -119.6180     16.8345    138.3817
  1024.0000     22.4467   -119.7782     17.1298    126.3863
  1024.2500     22.0878   -120.0342     17.4843    118.0969
  1024.5000     21.5970   -120.3864     17.8057    106.4179
  1024.7500     21.1203   -120.8284     18.0171     99.7288
  1025.0000     20.8767   -121.3465     18.0778     92.7748
  1025.2500     21.0265   -121.9203     17.9897     90.9191
  1025.5000     21.5420   -122.5247     17.7813     92.4465
  1025.7500     22.1829   -123.1339     17.4782     95.6676
  1026.0000     22.5999   -123.7258     17.0814    102.1281
  1026.2500     22.4951   -124.2861     16.5665    106.7682
  1026.5000     21.7324   -124.8103     15.9059    113.4440
  1026.7500     20.3558   -125.3041     15.0996    117.1600
  1027.0000     18.5458   -125.7802     14.1910    120.4271
  1027.2500     16.5595   -126.2539     13.2573    120.7576
  1027.5000     14.6715   -126.7381     12.3824    119.3892
  1027.7500     13.1127   -127.2394     11.6306    118.3195
  1028.0000     12.0161   -127.7554     11.0342    118.0012
  1028.2500     11.3925   -128.2757     10.5949    118.8524
  1028.5000     11.1491   -128.7834     10.2895    121.1286
  1028.7500     11.1412   -129.2581     10.0790    122.9109
  1029.0000     11.2266   -129.6799      9.9163    125.6454
  1029.2500     11.3044   -130.0316      9.7580    127.3199
  1029.5000     11.3252   -130.3009      9.5756    129.0550
  1029.7500     11.2806   -130.4807      9.3621    129.4668
  1030.0000     11.1828   -130.5692      9.1290    129.2310
  1030.2500     11.0498   -130.5686      8.8963    129.0114
  1030.5000     10.9002   -130.4852      8.6829    129.3840
  1030.7500     10.7567   -130.3287      8.5022    130.0786
  1031.0000     10.6417   -130.1129      8.3621    130.9491
  1031.2500     10.5643   -129.8553      8.2664    131.0166
  1031.5000     10.5096   -129.5768      8.2151    130.5923
  1031.7500     10.4440   -129.3003      8.2043    130.3770
  1032.0000     10.3341   -129.0489      8.2264    130.4039
  1032.2500     10.1644   -128.8425      8.2723    130.4070
  1032.5000      9.9429   -128.6959      8.3348    129.8225
  1032.7500      9.6968   -128.6163      8.4126    128.9026
