~Version Information
 VERS.                                  2.0 : CWLS LAS VERSION
 WRAP.                                   NO : WRAPING MODE
 SWARE .                 MController 2.5.0J : SOFTWARE VERSION
~Well Information
 WELL.                        HARRIER 44-33 : WELL
 COMP.    PIONEER NATURAL RESOURCES USA INC : COMPANY
 FLD.                      PURGATOIRE RIVER : FIELD
 LOC.                SE/SE SEC 33 T32S R66W : LOCATION
 DATE.                          06/19-20/05 : DATE(S) LOGGED
 SRVC.       BLANCO GEOLOGICAL SERVICES LLC : SERVICE COMPANY
 STAT.                             COLORADO : STATE
 CNTY.                           LAS ANIMAS : COUNTY
 CTRY.                                  USA : COUNTRY
 API.                       05-071-08398-00 : API NUMBER
 STRT.FT                             665.00 : START DEPTH
 STOP.FT                            2381.00 : STOP DEPTH
 STEP.FT                               1.00 : DEPTH INCREMENT
 NULL.                                -9999 : NULL VALUE
~Curve information
 DEPTH.FT                                   :
 ROP.MIN/FT                                 :
 GAS.UNITS                                  :
~ASCII Log data
# ...
      2265.0         0.27        788.9 
      2266.0         0.27        775.1 
      2267.0         0.25        770.7 
      2268.0         0.23        767.0 
      2269.0         0.20        760.9 
      2270.0         0.20        755.9 
      2271.0         0.20        749.8 
      2272.0         0.13        741.0 
      2273.0         0.13        733.6 
      2274.0         0.27        724.2 
      2275.0         0.23        708.7 
      2276.0         4.48       1513.2 
      2277.0         0.62       1303.3 
      2278.0         0.40       1077.6 
      2279.0         0.33       1065.5 
      2280.0         0.37       1008.2 
      2281.0         0.17        942.2 
      2282.0         0.20        911.2 
      2283.0         0.27        877.5 
      2284.0         0.23        801.0 
      2285.0         0.50        741.4 
      2286.0         0.27        771.0 
      2287.0         0.30        793.6 
      2288.0         0.32        801.3 
      2289.0         0.27        801.3 
      2290.0         0.30        794.9 
      2291.0         0.33        783.1 
      2292.0         0.37        766.6 
      2293.0         0.43        750.5 
      2294.0         0.23        736.7 
      2295.0         0.27        729.9 
      2296.0         0.30        720.5 
      2297.0         0.27        709.0 
      2298.0         0.27        700.3 
      2299.0         0.28        692.5 
      2300.0         0.27        686.5 
      2301.0         0.27        681.4 
      2302.0         0.27        675.0 
      2303.0         0.30        670.3 
      2304.0         0.27        668.3 
      2305.0         0.27        665.2 
      2306.0         3.32       1125.5 
      2307.0         0.67       1360.6 
      2308.0         0.50       1344.8 
      2309.0         0.48       1205.6 
      2310.0         0.37       1111.3 
      2311.0         0.33        998.4 
      2312.0         0.40        914.2 
      2313.0         0.30        845.5 
      2314.0         0.37        803.4 
      2315.0         0.33        760.9 
      2316.0         0.37        730.3 
      2317.0         0.47        709.4 
      2318.0         0.45        704.3 
      2319.0         0.33        698.6 
      2320.0         0.30        690.5 
      2321.0         0.33        681.4 
      2322.0         0.30        670.3 
      2323.0         0.30        660.2 
      2324.0         0.30        657.8 
      2325.0         0.33        650.4 
      2326.0         0.30        645.4 
      2327.0         0.33        644.0 
      2328.0         0.27        639.3 
      2329.0         0.32        637.6 
      2330.0         0.27        635.9 
      2331.0         0.30        639.3 
      2332.0         0.33        655.1 
      2333.0         0.37        664.6 
      2334.0         0.43        667.3 
      2335.0         0.47        666.6 
      2336.0         6.70       1580.0 
      2337.0         0.37        903.4 
      2338.0         0.37        788.9 
      2339.0         0.85        712.4 
      2340.0         0.70        689.5 
      2341.0         0.57        703.3 
      2342.0         0.57        697.6 
      2343.0         0.60        672.6 
      2344.0         0.20        652.4 
      2345.0         0.12        648.0 
      2346.0         0.17        648.4 
      2347.0         0.23        644.0 
      2348.0         0.63        638.3 
      2349.0         0.50        569.9 
      2350.0         0.50        614.4 
      2351.0         0.40        633.6 
      2352.0         0.40        639.3 
      2353.0         0.33        640.0 
      2354.0         0.35        637.3 
      2355.0         0.33        634.6 
      2356.0         0.37        632.2 
      2357.0         0.37        630.2 
      2358.0         0.37        624.5 
      2359.0         0.40        623.8 
      2360.0         0.53        646.7 
      2361.0         0.53        655.1 
      2362.0         0.68        655.5 
      2363.0         0.77        653.4 
      2364.0         0.93        649.4 
      2365.0         0.87        639.3 
      2366.0        13.62       2371.4 
      2367.0         0.90       2479.8 
      2368.0         0.40       1600.2 
      2369.0         0.93       1137.2 
      2370.0         0.90        877.8 
      2371.0         0.45        640.3 
      2372.0         0.37        572.2 
      2373.0         0.43        535.5 
      2374.0         0.10        533.2 
      2375.0         0.10        536.9 
      2376.0         0.37        564.2 
      2377.0         1.43        582.7 
      2378.0         0.62        577.6 
      2379.0         0.93        653.8 
      2380.0         0.87        813.8 
      2381.0         1.10      -9999.0 
