~Version Information
VERS.                      2.0: CWLS Log ASCII Standard - VERSION 2.0
WRAP.                       NO: One line per depth step
~Well Information Block
STRT.FT                -3.5000: 
STOP.FT              1745.0000: 
STEP.FT                 0.2500: 
NULL.                -999.2500: 
COMP.          Pioneer Natural Resources: COMPANY
WELL.           Labrador 34-30: WELL
FLD.           Purgatorie River: FIELD
LOC.           926' FSL & 2080' FEL--: LOCATION
PROV.                       CO: PROVINCE
CNTY.               Las Animas: COUNTRY
SRVC.                         : SERVICE COMPANY
DATE.          Fri Dec 10 09:58:23 2004: LOG DATE
UWI.                071-08202 : UNIQUE WELL ID
~Curve Information Block
DEPT.FT            0 000 00 00: Depth
GR.GAPI                       : Gamma Ray
CCL.                          : Casing Collar Locator
TT3.usec                      : CBL 3' Travel Time
AMP3.mV                       : CBL 3' Amplitude
~Parameter Information Block
~A  Depth        GR         CCL         TT3         AMP3    
# ...
  1135.5000    143.8843      0.0000    751.2433     10.8241
  1135.7500    141.2093      0.0000    751.3477     10.9027
  1136.0000    141.1903      0.0000    751.5627     10.9788
  1136.2500    144.8198      0.0000    751.8442     11.0500
  1136.5000    150.7352      0.0000    752.1178     11.0968
  1136.7500    155.7740      0.0000    752.3125     11.0976
  1137.0000    157.1893      0.0000    752.3910     11.0484
  1137.2500    154.5388      0.0000    752.3623     10.9707
  1137.5000    149.6938      0.0000    752.2756     10.9010
  1137.7500    145.1960      0.0000    752.1927     10.8671
  1138.0000    142.5463      0.0000    752.1528     10.8681
  1138.2500    141.6557      0.0000    752.1574     10.8789
  1138.5000    141.5792      0.0000    752.1840     10.8756
  1138.7500    141.8015      0.0000    752.2074     10.8540
  1139.0000    142.8586      0.0000    752.2122     10.8210
  1139.2500    145.6085      0.0000    752.1973     10.7774
  1139.5000    149.8879      0.0000    752.1727     10.7131
  1139.7500    154.0500      0.0000    752.1521     10.6178
  1140.0000    155.9858      0.0000    752.1468     10.4949
  1140.2500    154.7861      0.0000    752.1685     10.3655
  1140.5000    151.4720      0.0000    752.2343     10.2624
  1140.7500    148.0071      0.0000    752.3630     10.2137
  1141.0000    145.7153      0.0000    752.5596     10.2254
  1141.2500    144.9621      0.0000    752.8044     10.2756
  1141.5000    145.8050      0.0000    753.0601     10.3273
  1141.7500    147.9139      0.0000    753.2903     10.3504
  1142.0000    150.1237      0.0000    753.4731     10.3400
  1142.2500    151.2383      0.0000    753.5959     10.3162
  1142.5000    151.4025      0.0000    753.6492     10.3068
  1142.7500    152.1067      0.0000    753.6340     10.3287
  1143.0000    154.9086      0.0000    753.5793     10.3822
  1143.2500    160.2493      0.0000    753.5385     10.4533
  1143.5000    167.0421      0.0000    753.5618     10.5164
  1143.7500    173.2692      0.0000    753.6680     10.5450
  1144.0000    177.4365      0.0000    753.8426     10.5254
  1144.2500    179.5352      0.0000    754.0538     10.4616
  1144.5000    180.5011      0.0000    754.2659     10.3637
  1144.7500    181.0432      0.0000    754.4447     10.2407
  1145.0000    181.2352      0.0000    754.5664     10.1019
  1145.2500    181.0250      0.0000    754.6330      9.9574
  1145.5000    180.7887      0.0000    754.6717      9.8127
  1145.7500    181.1072      0.0000    754.7116      9.6652
  1146.0000    182.1687      0.0000    754.7574      9.5125
  1146.2500    183.7241      0.0000    754.7914      9.3637
  1146.5000    185.3000      0.0000    754.8024      9.2391
  1146.7500    186.1709      0.0000    754.8049      9.1540
  1147.0000    185.6689      0.0000    754.8232      9.1035
  1147.2500    183.9411      0.0000    754.8596      9.0647
  1147.5000    182.0505      0.0000    754.8881      9.0155
  1147.7500    181.0355      0.0000    754.8796      8.9524
  1148.0000    181.0173      0.0000    754.8220      8.8935
  1148.2500    181.2065      0.0000    754.7166      8.8661
  1148.5000    180.7218      0.0000    754.5640      8.8878
  1148.7500    179.3533      0.0000    754.3600      8.9593
  1149.0000    177.3511      0.0000    754.1030      9.0710
  1149.2500    174.6842      0.0000    753.8113      9.2121
  1149.5000    171.2198      0.0000    753.5386      9.3712
  1149.7500    167.6270      0.0000    753.3613      9.5313
  1150.0000    165.2745      0.0000    753.3347      9.6762
  1150.2500    164.9516      0.0000    753.4481      9.8042
  1150.5000    166.3052      0.0000    753.6185      9.9285
  1150.7500    168.5953      0.0000    753.7308     10.0582
  1151.0000    171.2142      0.0000    753.7004     10.1863
  1151.2500    173.3491      0.0000    753.5155     10.2999
  1151.5000    173.9191      0.0000    753.2314     10.3975
  1151.7500    172.2575      0.0000    752.9382     10.4930
  1152.0000    168.5542      0.0000    752.7261     10.6020
  1152.2500    163.4119      0.0000    752.6508     10.7247
  1152.5000    157.2862      0.0000    752.7056     10.8410
  1152.7500    150.6138      0.0000    752.8246     10.9239
  1153.0000    144.1586      0.0000    752.9216     10.9570
  1153.2500    138.8027      0.0000    752.9335     10.9407
  1153.5000    135.0490      0.0000    752.8459     10.8887
  1153.7500    132.9605      0.0000    752.6945     10.8229
  1154.0000    132.4841      0.0000    752.5412     10.7679
  1154.2500    133.4569      0.0000    752.4384     10.7413
  1154.5000    135.1979      0.0000    752.4065     10.7442
  1154.7500    136.4609      0.0000    752.4349     10.7591
  1155.0000    136.1388      0.0000    752.4934     10.7631
  1155.2500    134.0399      0.0000    752.5483     10.7501
  1155.5000    131.1096      0.0000    752.5793     10.7363
  1155.7500    129.0356      0.0000    752.5869     10.7422
  1156.0000    129.1861      0.0000    752.5850     10.7733
  1156.2500    131.2928      0.0000    752.5943     10.8189
  1156.5000    133.2968      0.0000    752.6384     10.8669
  1156.7500    132.9946      0.0000    752.7356     10.9168
  1157.0000    129.9306      0.0000    752.8787     10.9780
  1157.2500    125.5801      0.0000    753.0207     11.0559
  1157.5000    121.8365      0.0000    753.0954     11.1383
  1157.7500    119.4823      0.0000    753.0656     11.1983
  1158.0000    117.9422      0.0000    752.9547     11.2124
  1158.2500    116.0294      0.0000    752.8276     11.1808
  1158.5000    112.8172      0.0000    752.7414     11.1290
  1158.7500    108.2301      0.0000    752.7161     11.0925
  1159.0000    103.1069      0.0000    752.7367     11.0986
  1159.2500     98.6707      0.0000    752.7682     11.1561
  1159.5000     95.8211      0.0000    752.7337     11.2544
  1159.7500     94.6881      0.0000    752.4232     11.3683
  1160.0000     94.6562      0.0000    751.3400     11.4707
  1160.2500     94.8714      0.0000    748.6592     11.5438
  1160.5000     94.8376      0.0000    743.6027     11.5835
  1160.7500     94.5494      0.0000    736.2631     11.5969
  1161.0000     94.2238      0.0000    728.1389     11.5968
  1161.2500     94.2164      0.0000    721.5836     11.5942
  1161.5000     95.2441      0.0000    718.4712     11.5910
  1161.7500     98.0652      0.0000    719.2742     11.5723
  1162.0000    102.1351      0.0000    723.1579     11.4961
  1162.2500    104.8059      0.0000    728.6802     11.2983
  1162.5000    103.1570      0.0000    734.3590     10.9330
  1162.7500     96.9897      0.0000    738.7750     10.4211
  1163.0000     89.3276      0.0000    740.7814      9.8509
  1163.2500     83.9553      0.0000    740.4033      9.3284
  1163.5000     82.8125      0.0000    739.4297      8.9351
  1163.7500     85.4152      0.0000    740.2238      8.7138
  1164.0000     90.3286      0.0000    743.6254      8.6600
  1164.2500     96.9792      0.0000    748.4707      8.7208
  1164.5000    105.7942      0.0000    753.1512      8.8236
  1164.7500    116.7958     -2.0000    756.9703      8.9151
  1165.0000    128.7778     -2.0000    759.7374      8.9787
  1165.2500    139.9927      0.0000    760.7241      9.0473
  1165.5000    149.0615      0.0000    758.9033      9.2158
  1165.7500    155.1734      0.0000    754.4025      9.5991
  1166.0000    158.1071      0.0000    749.0370     10.2202
  1166.2500    158.5500      0.0000    744.9650     10.9494
  1166.5000    158.3212      0.0000    743.2112     11.5980
  1166.7500    159.7518      0.0000    743.5222     12.0653
  1167.0000    164.0152      0.0000    744.7491     12.3707
  1167.2500    169.8457      0.0000    745.0626     12.5830
  1167.5000    174.5810      0.0000    742.7156     12.7565
  1167.7500    176.6873      0.0000    737.4026     12.9152
  1168.0000    176.7237      0.0000    730.8934     13.0579
  1168.2500    175.9816      0.0000    725.9996     13.1707
  1168.5000    174.9913      0.0000    724.6547     13.2415
  1168.7500    173.3121      0.0000    726.7618     13.2673
