~Version Information
 VERS.                                  2.0 : CWLS LAS VERSION
 WRAP.                                   NO : WRAPING MODE
 SWARE .                 MController 2.5.0J : SOFTWARE VERSION
~Well Information
 WELL.                      McDaniel 09-34V : WELL
 COMP.                Petrogulf Corporation : COMPANY
 FLD.                      Purgatoire River : FIELD
 LOC.                SW/SE Sec 09 T33S R67W : LOCATION
 DATE.                             09/27/05 : DATE(S) LOGGED
 SRVC.       BLANCO Geological Services LLC : SERVICE COMPANY
 STAT.                                   CO : STATE
 CNTY.                           Las Animas : COUNTY
 CTRY.                                  USA : COUNTRY
 API.                       05-071-08333-00 : API NUMBER
 STRT.FT                               0.00 : START DEPTH
 STOP.FT                             2433.0 : STOP DEPTH 775.00
 STEP.FT                               1.00 : DEPTH INCREMENT
 NULL.                                -9999 : NULL VALUE
~Curve information
 DEPTH.FT                                   :
 ROP.MIN/FT                                 :
 GAS.UNITS                                  :
~ASCII Log data
# ...
      1000.0         0.23        176.9 
      1001.0         0.27        178.2 
      1002.0         0.30        176.2 
      1003.0         0.32        194.5 
      1004.0         0.27        193.7 
      1005.0         0.27        187.2 
      1006.0         0.30        185.8 
      1007.0         0.27        182.9 
      1008.0         0.27        183.3 
      1009.0         0.23        210.2 
      1010.0         0.30        276.1 
      1011.0         0.17        287.3 
      1012.0         0.17        287.9 
      1013.0         0.20        273.1 
      1014.0         0.23        230.9 
      1015.0         0.20        219.7 
      1016.0         0.27        335.0 
      1017.0         0.28       1352.5 
      1018.0         2.30       2494.1 
      1019.0         0.50        918.3 
      1020.0         0.52        689.2 
      1021.0         0.37        560.7 
      1022.0         0.33        535.3 
      1023.0         0.33        514.3 
      1024.0         0.37        479.7 
      1025.0         0.33        484.5 
      1026.0         0.33        481.6 
      1027.0         0.27        481.3 
      1028.0         0.30        522.2 
      1029.0         0.27        532.1 
      1030.0         0.28        518.4 
      1031.0         0.23        496.9 
      1032.0         0.27        479.4 
      1033.0         0.23        479.4 
      1034.0         0.27        501.9 
      1035.0         0.27        506.7 
      1036.0         0.27        506.4 
      1037.0         0.27        491.1 
      1038.0         0.27        474.0 
      1039.0         0.23        460.0 
      1040.0         0.27        459.1 
      1041.0         0.28        465.1 
      1042.0         0.23        440.0 
      1043.0         0.27         77.7 
      1044.0         0.23         64.1 
      1045.0         0.17        133.9 
      1046.0         0.10        199.3 
      1047.0         0.13        298.7 
      1048.0         2.48       2304.4 
      1049.0         0.43       1218.0 
      1050.0         0.57       1208.4 
      1051.0         0.60        879.9 
      1052.0         0.70        637.5 
      1053.0         0.62        440.0 
      1054.0         0.50        120.8 
      1055.0         0.43        126.8 
      1056.0         0.40        108.6 
      1057.0         0.27        148.3 
      1058.0         0.23        148.8 
      1059.0         0.17        156.2 
      1060.0         0.28        224.7 
      1061.0         0.17        232.7 
      1062.0         0.17        232.3 
      1063.0         0.10        228.8 
      1064.0         0.17        228.1 
      1065.0         0.27        225.1 
      1066.0         0.17        218.0 
      1067.0         0.20        212.8 
      1068.0         0.27        208.1 
      1069.0         0.23        214.2 
      1070.0         0.20        221.0 
      1071.0         0.17        221.0 
      1072.0         0.20        215.4 
      1073.0         0.32        192.7 
      1074.0         0.27        126.8 
      1075.0         0.20        139.0 
      1076.0         0.13        185.0 
      1077.0         0.17        266.8 
      1078.0         2.22       2142.2 
      1079.0         0.50        918.3 
      1080.0         0.37        770.8 
      1081.0         0.33        719.0 
      1082.0         0.27        614.3 
      1083.0         0.17        506.7 
      1084.0         0.23        442.9 
      1085.0         0.40        440.0 
      1086.0         0.37        177.5 
      1087.0         0.30        189.8 
      1088.0         0.20        184.8 
      1089.0         0.28        150.9 
      1090.0         0.27        156.4 
      1091.0         0.20        157.2 
      1092.0         0.10        170.6 
      1093.0         0.13        190.7 
      1094.0         0.20        214.4 
      1095.0         0.13        220.0 
      1096.0         0.13        219.7 
      1097.0         0.10        214.3 
      1098.0         0.17        213.5 
      1099.0         0.20        224.5 
      1100.0         0.23        232.5 
      1101.0         0.13        235.7 
      1102.0         0.13        238.7 
      1103.0         0.17        239.2 
      1104.0         0.20        237.0 
      1105.0         0.37        235.0 
      1106.0         0.38        215.1 
      1107.0         0.33        165.7 
      1108.0         4.12       6099.3 
      1109.0         0.47        888.8 
      1110.0         0.43        691.1 
      1111.0         0.33        627.3 
      1112.0         0.37        654.9 
      1113.0         0.23        659.0 
      1114.0         0.38        660.9 
      1115.0         0.27        642.9 
      1116.0         0.27        611.7 
      1117.0         0.27        547.6 
      1118.0         0.23        522.9 
      1119.0         0.30        524.5 
      1120.0         0.23        527.6 
      1121.0         0.27        559.1 
      1122.0         0.23        562.6 
      1123.0         0.23        559.7 
      1124.0         0.33        564.8 
      1125.0         0.35        571.1 
      1126.0         0.27        563.5 
      1127.0         0.23        530.2 
      1128.0         0.27        547.3 
      1129.0         0.40        564.1 
      1130.0         0.30        550.8 
      1131.0         0.23        518.1 
      1132.0         0.30        489.9 
      1133.0         0.27        559.1 
      1134.0         0.33        557.5 
      1135.0         0.27        507.3 
      1136.0         0.23        557.2 
      1137.0         0.28        713.0 
      1138.0         3.08       4106.5 
      1139.0         0.23        837.1 
      1140.0         0.13        837.4 
      1141.0         0.13        824.1 
      1142.0         0.17        792.7 
      1143.0         0.17        731.7 
      1144.0         0.33        647.6 
      1145.0         0.30        694.0 
      1146.0         0.27        695.5 
      1147.0         0.37        684.1 
      1148.0         0.27        659.7 
      1149.0         0.23        647.0 
      1150.0         0.20        631.7 
      1151.0         0.20        635.6 
      1152.0         0.20        656.2 
      1153.0         0.22        678.7 
      1154.0         0.17        680.0 
      1155.0         0.13        676.8 
      1156.0         0.17        677.1 
      1157.0         0.20        675.5 
      1158.0         0.30        675.9 
      1159.0         0.33        672.4 
      1160.0         0.13        646.7 
      1161.0         0.17        617.1 
      1162.0         0.20        580.3 
      1163.0         0.23        567.0 
      1164.0         0.17        601.9 
      1165.0         0.17        674.0 
      1166.0         0.10        740.0 
      1167.0         0.13        863.8 
      1168.0         2.68       4694.2 
      1169.0         0.33       1060.8 
      1170.0         0.23        670.1 
      1171.0         0.17        632.1 
      1172.0         0.17        667.6 
      1173.0         0.10        680.3 
      1174.0         0.15        690.5 
      1175.0         0.10        693.0 
      1176.0         0.30        708.9 
      1177.0         0.27        711.1 
      1178.0         0.27        709.5 
      1179.0         0.27        701.6 
      1180.0         0.20        697.1 
      1181.0         0.17        694.9 
      1182.0         0.17        692.0 
      1183.0         0.17        693.6 
      1184.0         0.23        701.9 
      1185.0         0.30        731.1 
      1186.0         0.37        754.9 
      1187.0         0.20        755.2 
      1188.0         0.25        748.2 
      1189.0         0.23        735.2 
      1190.0         0.10        729.5 
      1191.0         0.17        727.6 
      1192.0         0.20        716.2 
      1193.0         0.23        656.5 
      1194.0         0.20        581.6 
      1195.0         0.17        575.9 
      1196.0         0.17        630.5 
      1197.0         0.20        783.1 
      1198.0         3.28       4059.2 
      1199.0         0.27        932.6 
