~Version Information
VERS.                      2.0: CWLS Log ASCII Standard - VERSION 2.0
WRAP.                       NO: One line per depth step
~Well Information Block
STRT.FT                -7.7500: 
STOP.FT              1383.2500: 
STEP.FT                 0.2500: 
NULL.                -999.2500: 
COMP.          Petrogulf Corporation: COMPANY
WELL.          Great Plains 22-22R: WELL
FLD.           Purgatoire River: FIELD
LOC.           2042' FNL & 1657' FWL SENW 22 33S 67W ----: LOCATION
PROV.                 Colorado: PROVINCE
CNTY.               Las Animas: COUNTRY
SRVC.                         : SERVICE COMPANY
DATE.          Thu Sep 22 14:55:58 2005: LOG DATE
UWI.             07108028     : UNIQUE WELL ID
~Curve Information Block
DEPT.FT            0 000 00 00: Depth
CCL.                          : Casing Collar Locator
TT3.usec                      : CBL 3' Travel Time
AMP3.mV                       : CBL 3' Amplitude
GR.GAPI                       : Gamma Ray
~Parameter Information Block
~A  Depth       CCL         TT3         AMP3         GR     
# ...
   360.7500      0.0000    429.5309     14.3341     96.2249
   361.0000      0.0000    430.0087     14.4084     89.4474
   361.2500      0.0000    429.0467     14.5144     80.3296
   361.5000      0.0000    427.0311     14.7184     69.3933
   361.7500      0.0000    424.9525     15.0664     58.5204
   362.0000      0.0000    424.2799     15.5380     49.9639
   362.2500      0.0000    425.7994     16.0717     45.0175
   362.5000      0.0000    428.7486     16.6255     43.5927
   362.7500      0.0000    431.3473     17.1877     44.7538
   363.0000      0.0000    431.9608     17.7321     47.2727
   363.2500      0.0000    429.8185     18.1966     49.7521
   363.5000      0.0000    425.4108     18.5151     50.8936
   363.7500      0.0000    420.7003     18.6631     50.2725
   364.0000      0.0000    418.0976     18.6733     48.8274
   364.2500      0.0000    418.2070     18.6164     48.1952
   364.5000      0.0000    418.8278     18.5595     49.3105
   364.7500      0.0000    416.9053     18.5257     51.5992
   365.0000      0.0000    411.3704     18.4806     53.5994
   365.2500      0.0000    404.0085     18.3510     54.4042
   365.5000      0.0000    398.1316     18.0619     54.3068
   365.7500      0.0000    396.5222     17.5789     54.1234
   366.0000      0.0000    399.9243     16.9376     54.4580
   366.2500      0.0000    406.7953     16.2323     55.8151
   366.5000      0.0000    414.2171     15.5658     58.7318
   366.7500      0.0000    419.3776     14.9968     63.2404
   367.0000      0.0000    420.9320     14.5206     68.4330
   367.2500      0.0000    419.4566     14.0906     73.0631
   367.5000      0.0000    416.5295     13.6631     76.6751
   367.7500      0.0000    413.3891     13.2322     79.9138
   368.0000      0.0000    410.6930     12.8208     83.7885
   368.2500      0.0000    409.2196     12.4351     88.9713
   368.5000      0.0000    409.6902     12.0420     95.6494
   368.7500      0.0000    411.6347     11.5995    103.3638
   369.0000      0.0000    413.4118     11.1026    110.8073
   369.2500      0.0000    413.9330     10.5953    116.2555
   369.5000      0.0000    413.9280     10.1361    118.4038
   369.7500      0.0000    415.4756      9.7439    116.7465
   370.0000      0.0000    420.7225      9.3712    111.6119
   370.2500      0.0000    430.3118      8.9400    104.3855
   370.5000      0.0000    441.6247      8.4130     97.3940
   370.7500      0.0000    449.0829      7.8231     92.9171
   371.0000      0.0000    448.0280      7.2351     92.1188
   371.2500      0.0000    438.4770      6.6983     94.8126
   371.5000      0.0000    424.3164      6.2386     99.8891
   371.7500      0.0000    409.6599      5.8660    105.7131
   372.0000      0.0000    396.9063      5.5702    110.3983
   372.2500      0.0000    387.1100      5.3300    112.4010
   372.5000      0.0000    380.4854      5.1423    111.4442
   372.7500      0.0000    376.4227      5.0215    108.8722
   373.0000      0.0000    373.7136      4.9610    106.6750
   373.2500      0.0000    371.1355      4.9194    105.7865
   373.5000      0.0000    368.0283      4.8568    105.3325
   373.7500      0.0000    364.4970      4.7684    103.7949
   374.0000      0.0000    360.9206      4.6712    100.8019
   374.2500      0.0000    357.1832      4.5790     97.3724
   374.5000      0.0000    352.7337      4.4974     94.6994
   374.7500      0.0000    347.5520      4.4283     93.5020
   375.0000      0.0000    342.5613      4.3670     94.2954
   375.2500      0.0000    338.8028      4.2977     97.1430
   375.5000      0.0000    336.5330      4.2040    101.0106
   375.7500      0.0000    335.2709      4.0872    104.2083
   376.0000      0.0000    334.4031      3.9730    105.6497
   376.2500      0.0000    333.5855      3.8985    105.2423
   376.5000      0.0000    332.7680      3.8898    103.3824
   376.7500      0.0000    332.0508      3.9470    100.6962
   377.0000      0.0000    331.5327      4.0493     98.1561
   377.2500      0.0000    331.2338      4.1717     96.8150
   377.5000      0.0000    331.1028      4.2989     97.0591
   377.7500      0.0000    331.0658      4.4262     98.2752
   378.0000      0.0000    331.0682      4.5539     99.4923
   378.2500      0.0000    331.0840      4.6843    100.2311
   378.5000      0.0000    331.1063      4.8194    100.6180
   378.7500      0.0000    331.1364      4.9571    101.0687
   379.0000      0.0000    331.1804      5.0862    102.2282
   379.2500      0.0000    331.2487      5.1877    104.8835
   379.5000      0.0000    331.3502      5.2465    109.3330
   379.7500      0.0000    331.4808      5.2652    114.7261
   380.0000      0.0000    331.6205      5.2674    119.2443
   380.2500      0.0000    331.7460      5.2854    121.0363
   380.5000      0.0000    331.8484      5.3392    119.1892
   380.7500      0.0000    331.9391      5.4241    114.3754
   381.0000      0.0000    332.0435      5.5167    108.9180
   381.2500      0.0000    332.1907      5.5931    105.6421
   381.5000      0.0000    332.4028      5.6439    105.8421
   381.7500      0.0000    332.6852      5.6818    108.2905
   382.0000      0.0000    333.0186      5.7389    110.5762
   382.2500      0.0000    333.3568      5.8498    111.3061
   382.5000      0.0000    333.6385      6.0279    110.6668
   382.7500      0.0000    333.8147      6.2567    109.2019
   383.0000      0.0000    333.8751      6.5050    107.0173
   383.2500      0.0000    333.8527      6.7480    104.5129
   383.5000      0.0000    333.7965      6.9742    103.0143
   383.7500      0.0000    333.7387      7.1822    103.7501
   384.0000      0.0000    333.6823      7.3772    106.2333
   384.2500      0.0000    333.6140      7.5702    108.2936
   384.5000      0.0000    333.5238      7.7759    107.9876
   384.7500      0.0000    333.4175      8.0074    105.2973
   385.0000      0.0000    333.3166      8.2695    101.9347
   385.2500      0.0000    333.2477      8.5520     99.8099
   385.5000      0.0000    333.2291      8.8326     99.8871
   385.7500      0.0000    333.2648      9.0869    102.0981
   386.0000      0.0000    333.3489      9.3008    105.7421
   386.2500      0.0000    333.4731      9.4754    109.8574
   386.5000      0.0000    333.6320      9.6259    113.6404
   386.7500      0.0000    333.8242      9.7724    116.7466
   387.0000      0.0000    334.0488      9.9261    118.9423
   387.2500      0.0000    334.3013     10.0806    119.5225
   387.5000      0.0000    334.5739     10.2140    117.6453
   387.7500      0.0000    334.8585     10.3050    113.3470
   388.0000      0.0000    335.1489     10.3518    107.6583
   388.2500      0.0000    335.4414     10.3770    101.6193
   388.5000      0.0000    335.7344     10.4142     95.6547
   388.7500      0.0000    336.0258     10.4831     90.0965
   389.0000      0.0000    336.3125     10.5767     85.7533
   389.2500      0.0000    336.6022     10.6691     83.3761
   389.5000      0.0000    336.9576     10.7336     82.7882
   389.7500      0.0000    337.5833     10.7541     83.1244
   390.0000      0.0000    338.8962     10.7192     83.9175
   390.2500      0.0000    341.4180     10.6040     85.4136
   390.5000      0.0000    345.3287     10.3493     87.7376
   390.7500      0.0000    349.9905      9.8552     90.2653
   391.0000      0.0000    354.3125      9.0302     92.1094
   391.2500      0.0000    357.9332      7.9061     92.9277
   391.5000      0.0000    361.6570      6.7228     93.0064
   391.7500      0.0000    366.4021      5.8454     92.6342
   392.0000      0.0000    372.3565      5.5326     91.6760
   392.2500      0.0000    379.3910      5.7599     90.0658
   392.5000      2.0000    387.5260      6.2541     88.5634
   392.7500     -2.0000    396.7870      6.6811     88.3708
   393.0000      2.0000    407.1194      6.8187     89.7528
   393.2500      0.0000    417.8667      6.6354     91.6935
   393.5000      0.0000    426.7221      6.3065     93.2809
   393.7500      0.0000    430.1906      6.1611     94.6673
   394.0000      0.0000    426.5205      6.5041     96.1952
