~Version Information
 VERS.                                  2.0 : CWLS LAS VERSION
 WRAP.                                   NO : WRAPING MODE
 SWARE .                 MController 2.5.0J : SOFTWARE VERSION
~Well Information
 WELL.                        Montoya 7-12R : WELL
 COMP.                       Petrogulf Corp : COMPANY
 FLD.                      Purgatorie River : FIELD
 LOC.                 SW/NW Sec 7 T33S R67W : LOCATION
 DATE.                    11/18/04 11/19/04 : DATE(S) LOGGED
 SRVC.       Blanco Geological Services LLC : SERVICE COMPANY
 STAT.                                   CO : STATE
 CNTY.                           Las Animas : COUNTY
 CTRY.                                  USA : COUNTRY
 API.                       05-071-08240-00 : API NUMBER
 STRT.FT                              30.00 : START DEPTH
 STOP.FT                            2040.00 : STOP DEPTH
 STEP.FT                               1.00 : DEPTH INCREMENT
 NULL.                                -9999 : NULL VALUE
~Curve information
 DEPTH.FT                                   :
 ROP.MIN/FT                                 :
 GAS.UNITS                                  :
~ASCII Log data
# ...
       830.0         0.10         15.7 
       831.0         0.10         15.7 
       832.0         0.23         14.3 
       833.0         0.17         10.9 
       834.0         0.20          9.9 
       835.0         0.20          9.0 
       836.0         0.17          7.2 
       837.0         0.27          6.9 
       838.0         0.20          5.4 
       839.0         0.27          5.4 
       840.0         0.10          5.5 
       841.0         0.27          6.5 
       842.0         0.27          6.9 
       843.0         0.23          5.9 
       844.0         0.20          5.8 
       845.0         0.17          6.1 
       846.0         0.10          6.1 
       847.0         0.20          6.2 
       848.0         0.17          6.1 
       849.0         0.17          6.3 
       850.0         0.17          6.3 
       851.0         0.18          6.7 
       852.0         0.13          6.7 
       853.0         0.13          7.1 
       854.0         0.20          6.3 
       855.0         0.13        282.0 
       856.0         0.20        282.0 
       857.0         0.20        327.9 
       858.0         0.20        315.6 
       859.0         0.20        185.8 
       860.0         0.20        121.1 
       861.0         0.17        102.2 
       862.0         0.17         52.3 
       863.0         0.20         28.5 
       864.0         0.20         25.7 
       865.0         0.13         16.6 
       866.0         0.27         16.7 
       867.0         0.23         14.1 
       868.0         0.13         12.5 
       869.0         0.10         10.8 
       870.0         0.13          9.1 
       871.0         0.07          9.1 
       872.0         0.20          6.8 
       873.0         0.27          6.7 
       874.0         0.23          6.8 
       875.0         0.27          6.0 
       876.0         0.23          6.1 
       877.0         0.25          6.7 
       878.0         0.20          6.6 
       879.0         0.17          6.6 
       880.0         0.20          6.4 
       881.0         0.20          6.5 
       882.0         0.23          6.1 
       883.0         0.20          5.9 
       884.0         0.20          6.7 
       885.0         0.17          6.7 
       886.0         0.20          6.5 
       887.0         0.20        237.8 
       888.0         0.20        237.8 
       889.0         0.20        300.9 
       890.0         0.23       1797.8 
       891.0         0.17       1778.9 
       892.0         0.20       1475.3 
       893.0         0.28        923.4 
       894.0         0.27        530.1 
       895.0         0.27        444.1 
       896.0         0.23         38.4 
       897.0         0.27         21.3 
       898.0         0.33         10.1 
       899.0         0.35         10.0 
       900.0         0.23          9.0 
       901.0         0.23          8.5 
       902.0         0.30          8.0 
       903.0         0.23          7.9 
       904.0         0.20          8.3 
       905.0         0.27          8.6 
       906.0         0.30          7.9 
       907.0         0.23          8.4 
       908.0         0.17          8.4 
       909.0         0.23          8.3 
       910.0         0.20          7.1 
       911.0         0.20          7.7 
       912.0         0.20          7.5 
       913.0         0.25          7.9 
       914.0         0.17          7.9 
       915.0         0.17          8.0 
       916.0         0.23          7.5 
       917.0         0.30          7.4 
       918.0         0.37        229.3 
       919.0         0.27        392.0 
       920.0         0.27       1953.9 
       921.0         0.33       1855.4 
       922.0         0.30        987.2 
       923.0         0.23        566.5 
       924.0         0.20        440.0 
       925.0         0.23         34.1 
       926.0         0.20         19.1 
       927.0         0.27         13.6 
       928.0         0.32         12.5 
       929.0         0.30         10.3 
       930.0         0.37          9.0 
       931.0         0.37          8.2 
       932.0         0.27          8.3 
       933.0         0.27          9.6 
       934.0         0.27         10.4 
       935.0         0.23         10.5 
       936.0         0.17         10.6 
       937.0         0.13          9.9 
       938.0         0.10          9.9 
       939.0         0.13          9.7 
       940.0         0.07          9.7 
       941.0         0.10          9.7 
       942.0         0.07          9.1 
       943.0         0.10          9.1 
       944.0         0.07          9.1 
       945.0         0.10          8.4 
       946.0         0.07        189.0 
       947.0         0.28        189.0 
       948.0         0.20        296.9 
       949.0         0.27       1692.5 
       950.0         0.23       1774.3 
       951.0         0.17       1341.5 
       952.0         0.23       1266.5 
       953.0         0.23        571.4 
       954.0         0.20        448.0 
       955.0         0.23        440.0 
       956.0         0.27         39.0 
       957.0         0.20         22.7 
       958.0         0.27         15.2 
       959.0         0.20         12.8 
       960.0         0.17         11.0 
       961.0         0.20          8.2 
       962.0         0.30          8.1 
       963.0         0.27          8.1 
       964.0         0.25          8.0 
       965.0         0.27          7.4 
       966.0         0.27          7.2 
       967.0         0.27          7.3 
       968.0         0.17          7.1 
       969.0         0.17          7.2 
       970.0         0.20          7.2 
       971.0         0.23          7.5 
       972.0         0.23          7.4 
       973.0         0.20          7.2 
       974.0         0.20          7.3 
       975.0         0.20          7.1 
       976.0         0.17          7.3 
       977.0         0.20        379.0 
       978.0         0.23        379.0 
       979.0         0.27       1543.3 
       980.0         0.38       1514.9 
       981.0         0.33        746.1 
       982.0         0.20        522.9 
       983.0         0.20        440.0 
       984.0         0.20         35.7 
       985.0         0.13         33.4 
       986.0         0.20         20.8 
       987.0         0.33         14.7 
       988.0         0.33          9.6 
       989.0         0.37          7.5 
       990.0         0.30          6.8 
       991.0         0.27          6.9 
       992.0         0.33          6.9 
       993.0         0.23          6.6 
       994.0         0.23          6.9 
       995.0         0.25          6.6 
       996.0         0.23          6.8 
       997.0         0.27          6.6 
       998.0         0.23          6.3 
       999.0         0.20          6.6 
      1000.0         0.23          7.0 
      1001.0         0.20          7.1 
      1002.0         0.17          7.2 
      1003.0         0.17          7.2 
      1004.0         0.20       1846.3 
      1005.0         0.17       1846.3 
      1006.0         0.17       1914.6 
      1007.0         0.17       1708.2 
      1008.0         0.17       1624.1 
      1009.0         0.20       1023.5 
      1010.0         0.23        649.9 
      1011.0         0.22        464.7 
      1012.0         0.20        440.0 
      1013.0         0.13         38.6 
      1014.0         0.17         22.6 
      1015.0         0.20         21.0 
      1016.0         0.13         14.0 
      1017.0         0.30         13.7 
      1018.0         0.43          9.0 
      1019.0         0.37          8.6 
      1020.0         0.30          7.0 
      1021.0         0.33          7.1 
      1022.0         0.30          7.4 
      1023.0         0.27          7.2 
      1024.0         0.23          7.3 
      1025.0         0.20          7.5 
      1026.0         0.22          7.5 
      1027.0         0.13          6.7 
      1028.0         0.13          6.9 
      1029.0         0.13          6.9 
