~Version Information
VERS.                      2.0: CWLS Log ASCII Standard - VERSION 2.0
WRAP.                       NO: One line per depth step
~Well Information Block
STRT.FT                -7.5000: 
STOP.FT              1716.7500: 
STEP.FT                 0.2500: 
NULL.                -999.2500: 
COMP.          Pioneer Natural Resources: COMPANY
WELL.          Lookout Point 31-23 Tr: WELL
FLD.           Purgatorie River: FIELD
LOC.           541' FNL & 1786' FEL--------: LOCATION
PROV.                       CO: PROVINCE
CNTY.               Las Animas: COUNTRY
SRVC.                         : SERVICE COMPANY
DATE.          Fri Jan 28 08:30:47 2005: LOG DATE
UWI.         005 071 08260 : UNIQUE WELL ID
~Curve Information Block
DEPT.FT            0 000 00 00: Depth
CCL.                          : Casing Collar Locator
TT3.usec                      : CBL 3' Travel Time
AMP3.mV                       : CBL 3' Amplitude
GR.GAPI                       : Gamma Ray
~Parameter Information Block
~A  Depth       CCL         TT3         AMP3         GR     
# ...
   997.5000      0.0000    717.2038      6.3597    105.4223
   997.7500      0.0000    706.2060      6.6090     97.8221
   998.0000      0.0000    686.3610      6.8591     93.1646
   998.2500      0.0000    666.3661      7.0375     93.5647
   998.5000      0.0000    657.7831      7.0854     99.3542
   998.7500      0.0000    666.3192      6.9674    108.9413
   999.0000      0.0000    686.4783      6.7131    119.4470
   999.2500      0.0000    707.1628      6.4339    127.6741
   999.5000      0.0000    721.1323      6.2727    131.5422
   999.7500      0.0000    727.9343      6.3175    131.5941
  1000.0000      0.0000    730.5339      6.5495    130.8833
  1000.2500      0.0000    731.8106      6.8715    132.4212
  1000.5000      0.0000    733.4135      7.1885    136.2183
  1000.7500      0.0000    735.6910      7.4519    139.0582
  1001.0000      0.0000    737.7458      7.6352    137.6393
  1001.2500      0.0000    738.1492      7.7037    131.9479
  1001.5000      0.0000    736.2390      7.6326    125.2566
  1001.7500      0.0000    732.7772      7.4480    120.9256
  1002.0000      0.0000    729.0716      7.2428    119.8192
  1002.2500      0.0000    725.7524      7.1314    120.9870
  1002.5000      0.0000    722.7742      7.1670    123.8504
  1002.7500      0.0000    720.3412      7.3032    128.6646
  1003.0000      0.0000    719.1847      7.4408    134.9587
  1003.2500      0.0000    719.7090      7.4967    140.5357
  1003.5000      0.0000    721.3148      7.4354    142.7988
  1003.7500      0.0000    722.9401      7.2841    141.0502
  1004.0000      0.0000    724.0247      7.1400    136.8878
  1004.2500      0.0000    724.6534      7.1245    132.1681
  1004.5000      0.0000    724.9492      7.2965    127.3817
  1004.7500      0.0000    724.5938      7.6028    122.4170
  1005.0000      0.0000    722.9303      7.9109    117.9354
  1005.2500      0.0000    719.4786      8.0969    114.9834
  1005.5000      0.0000    714.4441      8.1099    113.6129
  1005.7500      0.0000    708.7677      7.9616    112.9859
  1006.0000      0.0000    703.6998      7.6835    113.1841
  1006.2500      0.0000    700.3146      7.3213    116.0654
  1006.5000      0.0000    698.9544      6.9607    123.5489
  1006.7500      0.0000    698.6357      6.7188    135.2727
  1007.0000      0.0000    697.2601      6.6818    148.4076
  1007.2500      0.0000    693.4272      6.8340    159.5887
  1007.5000      0.0000    688.7377      7.0538    166.7256
  1007.7500      0.0000    688.0215      7.1960    169.5059
  1008.0000      0.0000    696.0342      7.1946    168.9862
  1008.2500      0.0000    712.8509      7.0995    166.8053
  1008.5000      0.0000    732.7883      7.0220    164.2122
  1008.7500      0.0000    748.4516      7.0413    161.3376
  1009.0000      0.0000    755.5916      7.1504    157.3097
  1009.2500      0.0000    754.1314      7.2906    151.3232
  1009.5000      0.0000    745.7748      7.4267    143.8336
  1009.7500      0.0000    732.1130      7.5714    136.7836
  1010.0000      0.0000    715.3484      7.7400    132.5847
  1010.2500      0.0000    699.3179      7.9037    132.6363
  1010.5000      0.0000    687.9694      8.0003    136.5484
  1010.7500      0.0000    682.6678      7.9820    142.8455
  1011.0000      0.0000    681.6870      7.8491    150.5352
  1011.2500      0.0000    682.3162      7.6451    159.5286
  1011.5000      0.0000    682.9536      7.4286    169.1604
  1011.7500      0.0000    683.5584      7.2493    176.9719
  1012.0000      0.0000    685.1129      7.1473    179.6939
  1012.2500      0.0000    689.1381      7.1543    175.4336
  1012.5000      0.0000    697.0430      7.2689    164.9848
  1012.7500      0.0000    708.7913      7.4303    151.5378
  1013.0000      0.0000    721.8514      7.5361    139.1194
  1013.2500      0.0000    732.4039      7.5058    130.6193
  1013.5000      0.0000    738.2492      7.3407    126.8067
  1013.7500      0.0000    739.5668      7.1282    127.0624
  1014.0000      0.0000    735.8895      6.9752    130.8027
  1014.2500      0.0000    723.0127      6.9270    137.8907
  1014.5000      0.0000    694.1301      6.9486    147.6545
  1014.7500      0.0000    645.1899      6.9808    158.0840
  1015.0000      0.0000    581.2356      6.9956    166.7985
  1015.2500      0.0000    518.9590      6.9940    172.7960
  1015.5000      0.0000    480.4629      6.9736    176.5409
  1015.7500      0.0000    479.1761      6.9131    178.3748
  1016.0000      0.0000    508.2563      6.7849    177.7287
  1016.2500      0.0000    543.1797      6.5823    174.1242
  1016.5000      0.0000    559.3619      6.3414    168.4153
  1016.7500      0.0000    550.7032      6.1323    162.8509
  1017.0000      0.0000    531.5485      6.0185    159.9853
  1017.2500      0.0000    520.7243      6.0189    160.9869
  1017.5000      0.0000    525.1179      6.0998    164.4179
  1017.7500      0.0000    538.0601      6.1950    167.0491
  1018.0000      0.0000    549.3149      6.2391    166.6362
  1018.2500      0.0000    553.5597      6.2077    163.7497
  1018.5000      0.0000    551.4923      6.1321    160.4709
  1018.7500      0.0000    546.7498      6.0694    157.9382
  1019.0000      0.0000    542.6293      6.0566    156.1551
  1019.2500      0.0000    540.2189      6.0868    155.6509
  1019.5000      0.0000    538.6771      6.1283    157.5084
  1019.7500      0.0000    537.3158      6.1643    161.0180
  1020.0000      0.0000    537.4414      6.2078    162.8132
  1020.2500      0.0000    542.1082      6.2802    159.9106
  1020.5000      0.0000    553.9384      6.3840    153.0050
  1020.7500      0.0000    572.0342      6.4934    145.3771
  1021.0000      0.0000    590.5903      6.5621    139.0652
  1021.2500      0.0000    602.5571      6.5501    133.4315
  1021.5000      0.0000    606.8773      6.4664    127.0506
  1021.7500      0.0000    610.9520      6.3872    119.4860
  1022.0000      0.0000    623.7847      6.4013    110.9810
  1022.2500      0.0000    647.2811      6.5190    101.6252
  1022.5000      0.0000    675.2490      6.6408     91.5910
  1022.7500      0.0000    699.3438      6.6257     81.7451
  1023.0000      0.0000    714.4733      6.4004     73.3712
  1023.2500      0.0000    719.5911      6.0258     67.0848
  1023.5000      0.0000    715.3775      5.6691     62.1892
  1023.7500      0.0000    702.8091      5.4963     57.4343
  1024.0000      0.0000    684.8489      5.5658     52.4597
  1024.2500      0.0000    668.7046      5.8056     48.1306
  1024.5000      0.0000    663.3781      6.0816     45.3860
  1024.7500      0.0000    672.3502      6.2851     44.1733
  1025.0000      0.0000    689.6835      6.3746     43.7197
  1025.2500      0.0000    705.0258      6.3645     43.4508
  1025.5000      0.0000    711.7367      6.2870     43.3264
  1025.7500      0.0000    709.7857      6.1600     43.4632
  1026.0000      0.0000    703.1827      5.9873     43.6707
  1026.2500      0.0000    696.3033      5.7875     43.3596
  1026.5000      0.0000    691.7033      5.6183     42.0045
  1026.7500      0.0000    689.4979      5.5720     39.8946
  1027.0000      0.0000    687.9872      5.7175     38.3227
  1027.2500      0.0000    685.5422      6.0243     38.6894
  1027.5000      0.0000    682.9985      6.3587     41.2921
  1027.7500      0.0000    683.8627      6.5777     45.0592
  1028.0000      2.0000    690.5652      6.6237     48.3222
  1028.2500      2.0000    700.5896      6.5228     49.7908
  1028.5000      0.0000    707.9249      6.3228     49.2051
  1028.7500      0.0000    708.6862      6.0645     47.3529
  1029.0000      0.0000    704.3657      5.8050     45.3000
  1029.2500      0.0000    699.4765      5.6331     43.6648
  1029.5000      0.0000    696.7753      5.6349     42.8857
  1029.7500      0.0000    695.1621      5.8392     43.8974
  1030.0000      0.0000    691.5769      6.1876     47.7756
  1030.2500      0.0000    683.9319      6.5559     54.5284
  1030.5000      0.0000    672.4857      6.8213     62.8174
  1030.7500      0.0000    659.7242      6.9340     71.1962
