~Version Information
 VERS.                                  2.0 : CWLS LAS VERSION
 WRAP.                                   NO : WRAPING MODE
 SWARE .                 MController 2.5.0J : SOFTWARE VERSION
~Well Information
 WELL.                                  N/A : WELL
 COMP.                                  N/A : COMPANY
 FLD.                                   N/A : FIELD
 LOC.                                   N/A : LOCATION
 DATE.                                  N/A : DATE(S) LOGGED
 SRVC.                                  N/A : SERVICE COMPANY
 STAT.                                  N/A : STATE
 CNTY.                                  N/A : COUNTY
 CTRY.                                  N/A : COUNTRY
 API.                                   N/A : API NUMBER
 STRT.FT                             986.00 : START DEPTH
 STOP.FT                            2126.00 : STOP DEPTH
 STEP.FT                               1.00 : DEPTH INCREMENT
 NULL.                                -9999 : NULL VALUE
~Curve information
 DEPTH.FT                                   :
 ROP.MIN/FT                                 :
 GAS.UNITS                                  :
~ASCII Log data
# ...
      1786.0         0.23         58.4 
      1787.0         0.20         58.3 
      1788.0         0.23         58.4 
      1789.0         0.25         58.7 
      1790.0         0.20         58.5 
      1791.0         0.23         58.5 
      1792.0         0.23         58.0 
      1793.0         0.23         53.9 
      1794.0         0.30         48.3 
      1795.0         0.30         44.1 
      1796.0         2.72        363.0 
      1797.0         0.83        148.7 
      1798.0         0.80         73.7 
      1799.0         0.45         62.9 
      1800.0         0.27         59.9 
      1801.0         0.23         58.4 
      1802.0         0.33         56.7 
      1803.0         0.27         53.2 
      1804.0         0.27         51.9 
      1805.0         0.23         51.7 
      1806.0         0.33         51.6 
      1807.0         0.33         50.4 
      1808.0         0.33         49.1 
      1809.0         0.35         47.7 
      1810.0         0.30         46.8 
      1811.0         0.33         47.0 
      1812.0         0.33         46.9 
      1813.0         0.40         47.0 
      1814.0         0.30         46.7 
      1815.0         0.43         46.8 
      1816.0         0.27         46.5 
      1817.0         0.40         46.5 
      1818.0         0.38         48.2 
      1819.0         0.30         53.7 
      1820.0         0.17         56.7 
      1821.0         0.20         59.8 
      1822.0         0.23         61.2 
      1823.0         0.30         60.5 
      1824.0         0.30         53.5 
      1825.0         0.27         46.6 
      1826.0         1.68        334.4 
      1827.0         0.37        371.9 
      1828.0         0.50        361.1 
      1829.0         0.50        235.0 
      1830.0         0.40        125.9 
      1831.0         0.23         85.6 
      1832.0         0.28         75.4 
      1833.0         0.27         68.6 
      1834.0         0.30         65.5 
      1835.0         0.43         64.9 
      1836.0         0.43         62.9 
      1837.0         0.47         58.8 
      1838.0         0.40         55.0 
      1839.0         0.37         52.2 
      1840.0         0.42         50.3 
      1841.0         0.40         49.0 
      1842.0         0.40         48.4 
      1843.0         0.33         47.1 
      1844.0         0.37         46.9 
      1845.0         0.37         46.4 
      1846.0         0.37         46.2 
      1847.0         0.37         46.1 
      1848.0         0.40         46.4 
      1849.0         0.35         47.1 
      1850.0         0.40         51.2 
      1851.0         0.37         55.7 
      1852.0         0.37         61.5 
      1853.0         0.37         67.2 
      1854.0         0.37         68.6 
      1855.0         0.37         66.0 
      1856.0         3.88        435.3 
      1857.0         0.22        101.5 
      1858.0         0.30         85.9 
      1859.0         0.30         73.0 
      1860.0         0.30         65.4 
      1861.0         0.23         61.6 
      1862.0         0.23         61.8 
      1863.0         0.33         62.2 
      1864.0         0.30         61.9 
      1865.0         0.23         59.5 
      1866.0         0.30         57.3 
      1867.0         0.23         54.6 
      1868.0         0.27         52.9 
      1869.0         0.28         51.3 
      1870.0         0.40         49.8 
      1871.0         0.30         48.3 
      1872.0         0.27         47.4 
      1873.0         0.30         46.9 
      1874.0         0.33         46.7 
      1875.0         0.27         46.8 
      1876.0         0.23         46.7 
      1877.0         0.27         48.1 
      1878.0         0.23         48.1 
      1879.0         0.20         47.9 
      1880.0         0.27         47.2 
      1881.0         0.25         46.7 
      1882.0         0.27         45.2 
      1883.0         0.30         41.6 
      1884.0         0.23         36.9 
      1885.0         0.20         35.6 
      1886.0         2.13        240.9 
      1887.0         0.45        221.8 
      1888.0         0.37        152.1 
      1889.0         0.43        100.3 
      1890.0         0.43         72.5 
      1891.0         0.40         60.3 
      1892.0         0.40         56.4 
      1893.0         0.43         55.2 
      1894.0         0.40         52.8 
      1895.0         0.45         50.2 
      1896.0         0.43         47.6 
      1897.0         0.40         46.2 
      1898.0         0.40         44.9 
      1899.0         0.40         45.2 
      1900.0         0.47         45.0 
      1901.0         0.37         44.8 
      1902.0         0.30         44.8 
      1903.0         0.28         44.8 
      1904.0         0.37         44.7 
      1905.0         0.33         44.5 
      1906.0         0.37         44.3 
      1907.0         0.37         44.2 
      1908.0         0.30         44.2 
      1909.0         0.33         44.2 
      1910.0         0.30         43.4 
      1911.0         0.27         43.2 
      1912.0         0.27         43.1 
      1913.0         0.32         41.9 
      1914.0         0.27         37.8 
      1915.0         0.30         34.5 
      1916.0         3.12        223.2 
      1917.0         0.23         86.6 
      1918.0         0.23         76.2 
      1919.0         0.23         72.7 
      1920.0         0.20         69.1 
      1921.0         0.27         65.6 
      1922.0         0.33         61.8 
      1923.0         0.37         62.3 
      1924.0         0.37         62.4 
      1925.0         0.37         60.0 
      1926.0         0.32         55.7 
      1927.0         0.33         52.3 
      1928.0         0.30         49.7 
      1929.0         0.30         51.2 
      1930.0         0.23         56.1 
      1931.0         0.20         61.2 
      1932.0         0.20         67.2 
      1933.0         0.20         73.6 
      1934.0         0.27         76.1 
      1935.0         0.30         75.4 
      1936.0         0.27         75.5 
      1937.0         0.23         77.4 
      1938.0         0.20         79.4 
      1939.0         0.25         84.7 
      1940.0         0.23         86.9 
      1941.0         0.27         86.1 
      1942.0         0.23         78.4 
      1943.0         0.30         69.5 
      1944.0         0.23         58.6 
      1945.0         0.23         51.4 
      1946.0         1.95        232.1 
      1947.0         0.23        232.4 
      1948.0         0.33        217.2 
      1949.0         0.27        171.7 
      1950.0         0.17        151.3 
      1951.0         0.13        146.8 
      1952.0         0.17        146.7 
      1953.0         0.13        144.7 
      1954.0         0.17        139.2 
      1955.0         0.30        129.4 
      1956.0         0.27        113.5 
      1957.0         0.17        102.3 
      1958.0         0.27         97.9 
      1959.0         0.35        101.5 
      1960.0         0.30        101.7 
      1961.0         0.27         98.8 
      1962.0         0.27         91.8 
      1963.0         0.27         84.9 
      1964.0         0.27         80.5 
      1965.0         0.30         75.7 
      1966.0         0.33         70.9 
      1967.0         0.33         66.7 
      1968.0         0.30         63.6 
      1969.0         0.33         61.7 
      1970.0         0.35         60.2 
      1971.0         0.27         57.6 
      1972.0         0.27         58.4 
      1973.0         0.27         57.9 
      1974.0         0.17         53.5 
      1975.0         0.20         51.0 
      1976.0         2.08        308.8 
      1977.0         0.27        309.4 
      1978.0         0.33        287.4 
      1979.0         0.30        228.6 
      1980.0         0.37        168.9 
      1981.0         0.30        121.8 
      1982.0         0.33         97.8 
      1983.0         0.27         82.4 
      1984.0         0.23         74.9 
      1985.0         0.30         71.2 
