~Version Information
VERS.                      2.0: CWLS Log ASCII Standard - VERSION 2.0
WRAP.                       NO: One line per depth step
~Well Information Block
STRT.FT               488.0000: 
STOP.FT              1824.7000: 
STEP.FT                 0.1000: 
NULL.                -999.2500: 
COMP.          Pioneer Natural Resources: COMPANY
WELL.            Buckeye 11-13: WELL
FLD.           Purgatoire River: FIELD
LOC.           211' FNL & 1054' FWL: LOCATION
STAT.                 Colorado: State
CNTY.               Las Animas: COUNTY
CTRY. USA : Country
SECT. 13 : Section
TOWN. 33S : Township
RANG. 67W : Range
SRVC.                Patterson: SERVICE COMPANY
DATE.          Mon Mar 07 02:06:39 2005: LOG DATE
API.           05 071 08317 00: UNIQUE WELL ID
~Curve Information Block
DEPT.FT            0 000 00 00: Depth
DCAL.in                       : CDL Caliper
RHOB.g/cc                     : CDL Bulk Density
RHOC.g/cc                     : CDL Density Correction
DPOR.pu                       : CDL Density Porosity
GR.GAPI                       : Gamma Ray
NPOR.pu                       : Neutron Porosity
~Parameter Information Block
~A  Depth       DCAL        RHOB        RHOC        DPOR         GR         NPOR    
# ...
  1016.0000      7.8175      2.4990     -0.0119      9.1504    123.6030     27.3619
  1016.1000      7.8175      2.5301      0.0103      7.2686    118.1174     27.2407
  1016.2000      7.8175      2.5610      0.0470      5.3915    118.5775     26.6631
  1016.3000      7.8125      2.5930      0.0354      3.4543    121.9069     26.0150
  1016.4000      7.8125      2.6251      0.1268      1.5119    122.8793     26.0614
  1016.5000      7.7909      2.6370      0.1752      0.7894    122.8490     26.7634
  1016.6000      7.7909      2.6149      0.1488      2.1292    122.1240     27.2200
  1016.7000      7.7909      2.5770      0.1012      4.4221    120.8264     27.0029
  1016.8000      7.7840      2.5539      0.0431      5.8263    121.8838     26.5535
  1016.9000      7.7840      2.5593      0.0338      5.4964    124.5524     25.9364
  1017.0000      7.8151      2.5798      0.0917      4.2545    122.7837     25.0874
  1017.1000      7.8151      2.5922      0.0472      3.5004    116.5963     24.7158
  1017.2000      7.8151      2.5929      0.0400      3.4612    115.2178     25.0279
  1017.3000      7.8191      2.5899      0.0671      3.6432    123.0620     25.3253
  1017.4000      7.8191      2.5803      0.0520      4.2234    131.9430     25.4795
  1017.5000      7.8189      2.5597      0.0260      5.4752    135.1927     26.1657
  1017.6000      7.8189      2.5402     -0.0023      6.6533    135.6165     27.3017
  1017.7000      7.8189      2.5389      0.0083      6.7351    136.8969     27.9375
  1017.8000      7.8199      2.5551      0.0335      5.7533    140.5395     27.8307
  1017.9000      7.8199      2.5732      0.0150      4.6532    146.0605     27.3314
  1018.0000      7.8199      2.5765      0.0954      4.4567    147.9907     27.0319
  1018.1000      7.8199      2.5644      0.0425      5.1849    141.3127     27.4847
  1018.2000      7.8199      2.5571      0.0443      5.6321    132.8604     28.5502
  1018.3000      7.8166      2.5599      0.0431      5.4582    129.7125     29.5274
  1018.4000      7.8166      2.5534      0.0303      5.8556    128.5779     29.9731
  1018.5000      7.8160      2.5267     -0.0265      7.4700    125.4359     30.3255
  1018.6000      7.8160      2.5022     -0.0548      8.9572    122.0523     30.7725
  1018.7000      7.8160      2.5031     -0.0141      8.9027    120.8008     30.5346
  1018.8000      7.8170      2.5197      0.0563      7.8950    117.4862     29.2936
  1018.9000      7.8170      2.5333     -0.0052      7.0700    111.2761     27.5477
  1019.0000      7.8171      2.5454      0.0228      6.3367    105.6699     25.9639
  1019.1000      7.8171      2.5497      0.0704      6.0783    102.4942     24.9549
  1019.2000      7.8171      2.5263      0.0634      7.4992    103.0833     24.4760
  1019.3000      7.8140      2.4813     -0.0265     10.2243    106.7731     24.2994
  1019.4000      7.8140      2.4370      0.0058     12.9086    110.6501     24.1365
  1019.5000      7.8104      2.3963     -0.0411     15.3774    114.8326     24.0380
  1019.6000      7.8104      2.3674     -0.0719     17.1277    122.3120     24.0475
  1019.7000      7.8104      2.3713     -0.0778     16.8932    129.9692     23.8647
  1019.8000      7.8103      2.4046     -0.0028     14.8755    131.0524     23.5307
  1019.9000      7.8103      2.4449      0.0193     12.4294    127.2113     23.3573
  1020.0000      7.8038      2.4854      0.0131      9.9776    125.7623     23.2664
  1020.1000      7.8038      2.5257      0.1333      7.5308    129.2761     23.1965
  1020.2000      7.8038      2.5548      0.1677      5.7701    133.2400     23.2100
  1020.3000      7.7755      2.5645      0.1899      5.1794    136.1694     23.0965
  1020.4000      7.7755      2.5570      0.1661      5.6364    142.2446     22.7386
  1020.5000      7.7621      2.5401      0.1540      6.6578    148.7704     22.3221
  1020.6000      7.7621      2.5184      0.1301      7.9736    150.2518     21.4978
  1020.7000      7.7621      2.4830      0.1308     10.1189    148.3292     20.1542
  1020.8000      7.8013      2.4237      0.0878     13.7176    145.9663     19.3968
  1020.9000      7.8013      2.3508      0.0201     18.1312    144.4459     19.6069
  1021.0000      7.8952      2.2882      0.0230     21.9302    144.4578     19.5542
  1021.1000      7.8952      2.2489      0.0260     24.3096    144.2937     18.8480
  1021.2000      7.8952      2.2375      0.0507     25.0013    142.8846     18.4409
  1021.3000      7.9559      2.2556      0.0783     23.9001    139.7358     18.3713
  1021.4000      7.9559      2.2817      0.1691     22.3207    132.8568     18.1430
  1021.5000      8.0048      2.2760      0.2058     22.6681    125.1997     18.2768
  1021.6000      8.0048      2.2301      0.1345     25.4511    125.0643     19.2017
  1021.7000      8.0048      2.1734      0.1077     28.8850    132.7034     20.2790
  1021.8000      8.0113      2.1286      0.1129     31.6028    138.3951     21.0708
  1021.9000      8.0113      2.1060      0.0244     32.9703    138.5161     21.9326
  1022.0000      8.0133      2.1184      0.0389     32.2157    138.5276     23.2830
  1022.1000      8.0133      2.1584      0.1101     29.7951    139.4664     24.7094
  1022.2000      8.0133      2.2032      0.0887     27.0817    139.8244     25.6577
  1022.3000      8.0123      2.2403      0.1329     24.8316    140.3643     26.0835
  1022.4000      8.0123      2.2676      0.1290     23.1748    139.0404     26.0659
  1022.5000      8.0003      2.2948      0.1415     21.5296    135.8247     26.3785
  1022.6000      8.0003      2.3347      0.0926     19.1089    136.8879     27.4299
  1022.7000      8.0003      2.3776      0.1145     16.5112    141.8921     28.1373
  1022.8000      7.9809      2.3988      0.0471     15.2234    142.5206     27.6649
  1022.9000      7.9809      2.4022      0.0048     15.0197    140.2816     26.4345
  1023.0000      7.9752      2.4162     -0.0289     14.1707    141.6969     25.1394
  1023.1000      7.9752      2.4496      0.0267     12.1446    143.1192     24.0646
  1023.2000      7.9752      2.4803      0.0871     10.2844    141.1972     23.3908
  1023.3000      7.9613      2.4880      0.0828      9.8200    141.3128     23.4105
  1023.4000      7.9613      2.4740      0.0983     10.6694    144.6369     24.0161
  1023.5000      7.9550      2.4511      0.0404     12.0537    145.4778     24.6310
  1023.6000      7.9550      2.4346      0.0516     13.0526    141.7708     25.1848
  1023.7000      7.9550      2.4287      0.0468     13.4110    136.7778     26.1597
  1023.8000      7.9760      2.4301      0.0777     13.3302    133.9285     27.5350
  1023.9000      7.9760      2.4444      0.0454     12.4587    132.7744     28.6481
  1024.0000      7.9826      2.4744      0.0966     10.6411    130.4485     29.3148
  1024.1000      7.9826      2.5013      0.1088      9.0114    125.9364     29.6520
  1024.2000      7.9826      2.5043      0.1033      8.8283    120.4254     29.2879
  1024.3000      7.9789      2.4806      0.0946     10.2686    116.0173     28.2156
  1024.4000      7.9789      2.4400      0.0445     12.7256    113.3852     26.8463
  1024.5000      7.9785      2.3942     -0.0072     15.5008    116.6378     25.6670
  1024.6000      7.9785      2.3514     -0.0147     18.0979    127.3175     25.3615
  1024.7000      7.9785      2.3206     -0.0524     19.9609    138.1774     25.7587
  1024.8000      7.9752      2.3167     -0.1187     20.1998    145.2011     25.6018
  1024.9000      7.9752      2.3444     -0.0525     18.5187    149.1388     24.2230
  1025.0000      7.9595      2.3850      0.0269     16.0634    151.8001     22.7466
  1025.1000      7.9595      2.4101      0.1168     14.5380    154.7873     22.3211
  1025.2000      7.9595      2.4041      0.1127     14.9037    155.6735     22.6956
  1025.3000      7.9841      2.3804      0.1155     16.3366    152.7276     23.2953
  1025.4000      7.9841      2.3738      0.1215     16.7393    149.8345     24.1041
  1025.5000      8.0641      2.4044      0.1566     14.8843    151.2734     25.2043
