~Version Information
VERS.                      2.0: CWLS Log ASCII Standard - VERSION 2.0
WRAP.                       NO: One line per depth step
~Well Information Block
STRT.FT               866.0000: 
STOP.FT              2029.0000: 
STEP.FT                 0.2500: 
NULL.                -999.2500: 
COMP.          Petrogulf Corporation: COMPANY
WELL.             State 16-21R: WELL
FLD.           Purgatorie River: FIELD
LOC.           203' FNL & 1560' FWL: LOCATION
PROV.                 Colorado: PROVINCE
CNTY.               Las Animas: COUNTRY
SRVC.                Patterson: SERVICE COMPANY
DATE.          Tue Aug 16 12:55:36 2005: LOG DATE
UWI.                071 08313 : UNIQUE WELL ID
~Curve Information Block
DEPT.FT            0 000 00 00: Depth
SP.mV                         : DIL Spontaneous Potential
RILD.Ohm-m                    : DIL Deep Resistivity
RILM.Ohm-m                    : DIL Medium Resistivity
RLL3.Ohm-m                    : DIL Shallow Resistivity
GR.GAPI                       : Gamma Ray
~Parameter Information Block
~A  Depth        SP         RILD        RILM        RLL3         GR     
# ...
  1006.0000     -7.4396     50.1992     41.6315     52.1741    108.2226
  1006.2500     -8.1371     47.9727     39.9864     52.7749    110.5394
  1006.5000     -7.7596     47.3060     40.6536     47.3152    105.4707
  1006.7500     -6.0956     48.5291     41.3339     54.2632    107.8223
  1007.0000     -5.2200     48.5631     41.6861     61.5464    105.4480
  1007.2500     -4.8344     47.5217     41.3972     68.2873    102.7550
  1007.5000     -5.4942     46.7727     41.2552     75.2464    102.4462
  1007.7500     -6.5964     46.2217     40.4277     81.2270     97.8193
  1008.0000     -8.6235     45.4434     42.0209     80.4005    101.6361
  1008.2500    -10.4465     42.5332     40.4819     72.8606    102.3634
  1008.5000    -11.0971     42.9363     39.3936     68.0146    112.2114
  1008.7500     -8.6158     40.5783     38.9809     65.5695     99.9084
  1009.0000     -5.9569     39.8747     38.7646     60.5760    106.1955
  1009.2500     -4.6812     37.7666     37.8756     55.3941    107.6510
  1009.5000     -5.1915     37.1888     38.2525     60.2087    105.6217
  1009.7500     -6.3856     37.2278     37.1459     72.6481    103.7772
  1010.0000     -7.5783     36.9825     36.7035     84.5470    108.2548
  1010.2500     -8.3166     35.7575     34.4978     79.7748    102.3456
  1010.5000     -9.5753     34.3379     32.0951     53.1244    108.9462
  1010.7500     -9.8581     33.8328     30.6662     38.0660    112.2374
  1011.0000    -10.4106     33.2577     29.2900     32.0771    119.3179
  1011.2500    -10.9534     32.5847     28.8595     31.9861    124.2042
  1011.5000    -10.2569     31.4753     28.9802     37.3868    122.3556
  1011.7500     -8.2572     30.2983     29.0875     38.8612    115.3277
  1012.0000     -8.6916     28.9957     28.7613     43.2588    114.4273
  1012.2500    -10.0495     28.0115     29.2161     48.9983    110.3387
  1012.5000    -11.0827     26.1091     28.9150     62.1415    108.6893
  1012.7500    -11.5247     25.3037     27.9669     62.5836    116.9938
  1013.0000    -11.9520     24.5592     26.1691     51.7097    110.3539
  1013.2500    -12.4437     23.2802     24.0690     43.8707    107.5430
  1013.5000    -10.9419     22.9138     22.2425     42.3435    116.8034
  1013.7500    -11.1763     22.2710     21.1581     42.7484    116.3783
  1014.0000    -12.7182     22.1965     20.2204     45.6115    117.8972
  1014.2500    -15.0381     22.1200     19.5939     34.9326    122.4436
  1014.5000    -16.3194     22.1307     19.0928     28.8314    125.3758
  1014.7500    -16.7170     22.3564     18.9194     25.3112    128.0957
  1015.0000    -14.9443     22.9490     18.9589     19.5154    127.3653
  1015.2500    -12.7694     23.4936     18.9798     20.0436    120.5877
  1015.5000     -9.7539     24.2140     19.7279     21.0177    114.4231
  1015.7500     -8.4229     24.8146     21.2223     21.0053    114.0112
  1016.0000     -8.2328     24.7640     23.5981     28.9185    105.9374
  1016.2500     -8.3604     25.2383     26.1295     44.7885    104.5081
  1016.5000     -9.0347     25.5370     30.0252     62.2732     97.2343
  1016.7500     -9.7847     25.1944     32.9132     80.7916     99.7177
  1017.0000    -10.4445     25.3274     36.4727    111.4900     86.8623
  1017.2500    -10.7210     24.4397     37.7785    140.2054     83.9247
  1017.5000    -11.0271     24.1200     38.6235    142.8240     88.7810
  1017.7500    -11.1514     23.8480     36.9602    154.2670     85.3628
  1018.0000    -11.5679     23.0566     34.0842    159.4603     81.6932
  1018.2500    -12.0429     22.6379     29.8798    134.3758     81.1986
  1018.5000    -12.0937     21.5747     25.9504     65.5106    100.8592
  1018.7500    -11.1457     21.5930     22.7428     28.5029    119.1152
  1019.0000     -9.6659     20.3274     19.9314     20.3251    135.0735
  1019.2500     -7.2148     19.9548     18.3019     22.1543    130.1048
  1019.5000     -5.8715     18.8125     17.1177     20.4857    131.7518
  1019.7500     -5.3508     18.1459     16.3311     18.0156    129.2188
  1020.0000     -5.2463     17.6184     15.7842     15.4837    121.7519
  1020.2500     -5.3710     16.8495     15.4588     14.4772    128.9846
  1020.5000     -5.1572     16.0414     15.5111     17.5757    131.4288
  1020.7500     -5.3040     15.5162     15.5053     20.3304    130.3020
  1021.0000     -4.1414     15.2510     15.2592     23.9036    124.7118
  1021.2500     -1.7693     15.2754     15.3024     28.3446    118.7202
  1021.5000     -1.1822     15.5301     15.4918     24.2691    114.6636
  1021.7500     -0.2530     15.7464     15.5926     18.8525    120.6900
  1022.0000     -0.1358     15.9244     15.8339     19.3557    125.7587
  1022.2500     -0.4032     16.4201     16.3673     18.9513    127.7229
  1022.5000     -0.5663     16.5377     17.1497     23.3612    128.4736
  1022.7500     -0.2802     16.7146     18.1744     28.8752    128.1558
  1023.0000      0.2636     17.2862     18.8811     34.5998    128.3598
  1023.2500      0.9020     17.7654     19.5542     37.8734    121.5186
  1023.5000      0.9293     17.7676     19.6632     40.6432    122.7700
  1023.7500      0.2277     17.8774     19.5477     36.0844    116.8514
  1024.0000     -0.9417     18.2452     19.3620     31.1637    109.5612
  1024.2500     -2.6238     18.9260     19.7444     29.7728    105.6895
  1024.5000     -3.3491     19.4847     19.7734     31.6593    117.6137
  1024.7500     -5.0197     20.1350     19.8167     36.5368    114.6123
  1025.0000     -2.8712     20.7724     20.3022     29.5263    110.0078
  1025.2500     -0.1592     20.9371     20.7709     25.7173    109.1924
  1025.5000      1.4557     20.2901     21.9421     29.4914     97.8452
  1025.7500      1.8496     19.4122     23.2197     42.3268     95.7820
  1026.0000      1.3332     19.0681     23.5890     81.1479     73.0625
  1026.2500      1.7447     19.0936     23.0655    126.4506     68.7909
  1026.5000      1.4267     18.5434     21.6331    111.2167     73.1091
  1026.7500      1.8980     17.8182     20.4195     53.5680     70.8296
  1027.0000      3.3136     16.8585     19.5181     29.5482     76.6645
  1027.2500      4.0107     15.9876     18.9606     24.2042     72.2027
  1027.5000      4.0149     15.3846     18.1274     40.4576     75.4649
  1027.7500      3.7890     14.9685     17.4818     59.9661     82.8247
  1028.0000      3.1411     14.3420     16.2275     47.6431     95.5799
  1028.2500      2.4932     14.0561     14.5894     27.2768    105.1810
  1028.5000      2.0446     13.5377     13.3585     17.8459    114.2345
  1028.7500      1.6792     12.9375     12.3442     15.1792    102.8269
  1029.0000      2.0951     12.9163     11.8947     14.9843    104.1287
  1029.2500      2.7718     13.0327     11.6588     13.9954    115.7507
  1029.5000      3.5316     13.0860     11.5742     16.2197    117.0778
  1029.7500      3.9839     13.0645     11.8092     20.9004    113.4116
  1030.0000      3.8187     13.0072     12.1998     18.4480    109.2184
  1030.2500      3.5766     12.8785     12.6445     22.0628    103.2939
  1030.5000      2.7344     12.8244     13.2371     29.4556    105.2837
  1030.7500      1.3345     12.7551     13.8208     28.5674    109.5526
  1031.0000      0.5298     12.8574     14.3043     30.1042    107.0602
  1031.2500      1.6783     13.0330     14.5903     30.5316    107.9988
  1031.5000      1.6904     13.1049     15.1609     31.1369    103.7450
  1031.7500      1.7905     13.1137     15.6321     28.2182    103.9261
  1032.0000      0.3906     13.4980     16.0930     29.2257     98.5959
  1032.2500     -1.2790     13.9072     16.1462     30.5808     97.5233
  1032.5000     -2.8449     14.3694     16.0518     33.4474     94.1521
  1032.7500     -4.9978     15.1005     15.7009     31.8127    102.8357
  1033.0000     -7.1104     15.5362     15.2282     26.3550    108.2871
  1033.2500     -9.2792     16.1686     14.5101     25.6982    115.2748
  1033.5000    -10.8535     16.9327     14.2982     17.2063    109.7719
  1033.7500    -11.0247     17.3589     14.6056     14.1546    108.0979
