~Version Information
VERS.                      2.0: CWLS Log ASCII Standard - VERSION 2.0
WRAP.                       NO: One line per depth step
~Well Information Block
STRT.FT               500.0000: 
STOP.FT              2732.5000: 
STEP.FT                 0.2500: 
NULL.                -999.2500: 
COMP.          Pioneer Natural Resources: COMPANY
WELL.          Dude Canyon 22-32: WELL
FLD.           Purgatoire River: FIELD
LOC.           1662' FNL & 2446' FWL----: LOCATION
PROV.                 Colorado: PROVINCE
CNTY.               Las Animas: COUNTRY
SRVC.                Patterson: SERVICE COMPANY
DATE.          Thu Mar 10 07:15:42 2005: LOG DATE
UWI.           05 071 08257 00: UNIQUE WELL ID
~Curve Information Block
DEPT.FT            0 000 00 00: Depth
DIR.Ohm-m                     : IEL Induction Resistivity
GR.GAPI                       : Gamma Ray
SN.Ohm-m                      : IEL Short Normal
SP.mV                         : IEL Spontaneous Potential
~Parameter Information Block
~A  Depth       DIR          GR          SN          SP     
# ...
   801.5000     21.9557    133.0556   2000.0000   2000.0000
   801.7500     21.6398    132.3580   2000.0000   2000.0000
   802.0000     21.3500    132.0120   2000.0000   2000.0000
   802.2500     21.0738    132.3236   2000.0000   2000.0000
   802.5000     20.8037    132.7420   2000.0000   2000.0000
   802.7500     20.5413    132.3556   2000.0000   2000.0000
   803.0000     20.2952    130.5625   2000.0000   2000.0000
   803.2500     20.0740    129.0861   2000.0000   2000.0000
   803.5000     19.8787    127.4849   2000.0000   2000.0000
   803.7500     19.6980    126.9306   2000.0000   2000.0000
   804.0000     19.5116    126.4300   2000.0000   2000.0000
   804.2500     19.2997    126.2293   2000.0000   2000.0000
   804.5000     19.0551    126.5784   2000.0000   2000.0000
   804.7500     18.7918    127.5658   2000.0000   2000.0000
   805.0000     18.5410    130.2334   2000.0000   2000.0000
   805.2500     18.3381    132.4827   2000.0000   2000.0000
   805.5000     18.2065    135.7242   2000.0000   2000.0000
   805.7500     18.1502    137.3343   2000.0000   2000.0000
   806.0000     18.1548    138.1947   2000.0000   2000.0000
   806.2500     18.1942    137.3132   2000.0000   2000.0000
   806.5000     18.2374    133.4418   2000.0000   2000.0000
   806.7500     18.2546    129.4827   2000.0000   2000.0000
   807.0000     18.2282    123.1932   2000.0000   2000.0000
   807.2500     18.1618    120.1548   2000.0000   2000.0000
   807.5000     18.0808    119.0805   2000.0000   2000.0000
   807.7500     18.0184    120.7131   2000.0000   2000.0000
   808.0000     17.9963    125.1837   2000.0000   2000.0000
   808.2500     18.0120    128.4560   2000.0000   2000.0000
   808.5000     18.0399    132.6734   2000.0000   2000.0000
   808.7500     18.0471    134.6750   2000.0000   2000.0000
   809.0000     18.0119    136.0002   2000.0000   2000.0000
   809.2500     17.9343    135.6701   2000.0000   2000.0000
   809.5000     17.8317    133.8499   2000.0000   2000.0000
   809.7500     17.7276    132.3405   2000.0000   2000.0000
   810.0000     17.6442    130.6122   2000.0000   2000.0000
   810.2500     17.5987    130.1811   2000.0000   2000.0000
   810.5000     17.6001    130.8565   2000.0000   2000.0000
   810.7500     17.6455    132.0820   2000.0000   2000.0000
   811.0000     17.7175    134.3968   2000.0000   2000.0000
   811.2500     17.7878    135.6599   2000.0000   2000.0000
   811.5000     17.8259    136.2167   2000.0000   2000.0000
   811.7500     17.8101    135.4476   2000.0000   2000.0000
   812.0000     17.7370    133.0044   2000.0000   2000.0000
   812.2500     17.6236    131.2705   2000.0000   2000.0000
   812.5000     17.5012    129.9929   2000.0000   2000.0000
   812.7500     17.4040    130.4847   2000.0000   2000.0000
   813.0000     17.3560    132.9775   2000.0000   2000.0000
   813.2500     17.3624    135.2069   2000.0000   2000.0000
   813.5000     17.4082    138.1040   2000.0000   2000.0000
   813.7500     17.4679    139.1193   2000.0000   2000.0000
   814.0000     17.5217    138.8540   2000.0000   2000.0000
   814.2500     17.5685    137.6668   2000.0000   2000.0000
   814.5000     17.6279    135.2885   2000.0000   2000.0000
   814.7500     17.7270    134.0262   2000.0000   2000.0000
   815.0000     17.8843    133.4240   2000.0000   2000.0000
   815.2500     18.1008    133.6992   2000.0000   2000.0000
   815.5000     18.3610    133.9713   2000.0000   2000.0000
   815.7500     18.6393    133.5327   2000.0000   2000.0000
   816.0000     18.9071    131.9001   2000.0000   2000.0000
   816.2500     19.1356    130.3340   2000.0000   2000.0000
   816.5000     19.2983    127.2482   2000.0000   2000.0000
   816.7500     19.3753    124.5986   2000.0000   2000.0000
   817.0000     19.3596    120.0498   2000.0000   2000.0000
   817.2500     19.2606    117.2022   2000.0000   2000.0000
   817.5000     19.0986    114.3983   2000.0000   2000.0000
   817.7500     18.8947    114.0126   2000.0000   2000.0000
   818.0000     18.6642    115.9710   2000.0000   2000.0000
   818.2500     18.4168    118.8945   2000.0000   2000.0000
   818.5000     18.1619    125.2084   2000.0000   2000.0000
   818.7500     17.9122    130.1008   2000.0000   2000.0000
   819.0000     17.6814    136.8857   2000.0000   2000.0000
   819.2500     17.4791    140.0863   2000.0000   2000.0000
   819.5000     17.3083    142.0631   2000.0000   2000.0000
   819.7500     17.1672    141.7865   2000.0000   2000.0000
   820.0000     17.0549    140.5399   2000.0000   2000.0000
   820.2500     16.9758    140.1176   2000.0000   2000.0000
   820.5000     16.9395    140.8913   2000.0000   2000.0000
   820.7500     16.9533    142.2280   2000.0000   2000.0000
   821.0000     17.0124    144.6460   2000.0000   2000.0000
   821.2500     17.0960    145.9230   2000.0000   2000.0000
   821.5000     17.1743    146.4728   2000.0000   2000.0000
   821.7500     17.2280    145.7987   2000.0000   2000.0000
   822.0000     17.2639    143.9039   2000.0000   2000.0000
   822.2500     17.3172    142.6751   2000.0000   2000.0000
   822.5000     17.4379    141.0752   2000.0000   2000.0000
   822.7500     17.6751    139.4321   2000.0000   2000.0000
   823.0000     18.0679    134.4905   2000.0000   2000.0000
   823.2500     18.6432    129.2720   2000.0000   2000.0000
   823.5000     19.4113    119.3820   2000.0000   2000.0000
   823.7500     20.3596    112.0357   2000.0000   2000.0000
   824.0000     21.4516    100.5244   2000.0000   2000.0000
   824.2500     22.6390     92.8728   2000.0000   2000.0000
   824.5000     23.8853     82.5851   2000.0000   2000.0000
   824.7500     25.1812     77.4913   2000.0000   2000.0000
   825.0000     26.5298     73.9741   2000.0000   2000.0000
   825.2500     27.9077     74.7002   2000.0000   2000.0000
   825.5000     29.2246     79.7126   2000.0000   2000.0000
   825.7500     30.3133     84.7555   2000.0000   2000.0000
   826.0000     30.9649     93.0675   2000.0000   2000.0000
   826.2500     31.0012     98.1407   2000.0000   2000.0000
   826.5000     30.3556    103.8847   2000.0000   2000.0000
   826.7500     29.1172    106.3290   2000.0000   2000.0000
   827.0000     27.5052    108.8078   2000.0000   2000.0000
   827.2500     25.7842    110.5022   2000.0000   2000.0000
   827.5000     24.1760    113.9249   2000.0000   2000.0000
   827.7500     22.8166    116.6033   2000.0000   2000.0000
   828.0000     21.7611    120.3799   2000.0000   2000.0000
   828.2500     21.0113    122.4638   2000.0000   2000.0000
   828.5000     20.5431    124.7003   2000.0000   2000.0000
   828.7500     20.3249    125.0919   2000.0000   2000.0000
   829.0000     20.3287    122.5443   2000.0000   2000.0000
   829.2500     20.5357    118.2825   2000.0000   2000.0000
   829.5000     20.9407    109.1162   2000.0000   2000.0000
   829.7500     21.5561    102.6094   2000.0000   2000.0000
   830.0000     22.4095     94.5420   2000.0000   2000.0000
   830.2500     23.5288     90.9330   2000.0000   2000.0000
   830.5000     24.9126     88.2755   2000.0000   2000.0000
   830.7500     26.4908     88.1310   2000.0000   2000.0000
   831.0000     28.0971     89.4946   2000.0000   2000.0000
   831.2500     29.4816     90.5093   2000.0000   2000.0000
   831.5000     30.3813     90.2815   2000.0000   2000.0000
   831.7500     30.6236     88.3899   2000.0000   2000.0000
   832.0000     30.1951     83.8253   2000.0000   2000.0000
   832.2500     29.2257     81.0580   2000.0000   2000.0000
   832.5000     27.9119     80.0559   2000.0000   2000.0000
   832.7500     26.4358     82.4384   2000.0000   2000.0000
   833.0000     24.9283     90.2287   2000.0000   2000.0000
   833.2500     23.4720     97.0912   2000.0000   2000.0000
   833.5000     22.1222    107.8222   2000.0000   2000.0000
   833.7500     20.9204    114.6445   2000.0000   2000.0000
   834.0000     19.8963    124.1732   2000.0000   2000.0000
   834.2500     19.0629    129.9483   2000.0000   2000.0000
   834.5000     18.4145    137.0831   2000.0000   2000.0000
   834.7500     17.9298    140.3283   2000.0000   2000.0000
