~Version Information
VERS.                      2.0: CWLS Log ASCII Standard - VERSION 2.0
WRAP.                       NO: One line per depth step
~Well Information Block
STRT.FT               970.5000: 
STOP.FT              2720.0000: 
STEP.FT                 0.1000: 
NULL.                -999.2500: 
COMP.          Petrogulf Corporation: COMPANY
WELL.             Burson 8-31V: WELL
FLD.           Purgatorie River: FIELD
LOC.           1113' FNL & 2152' FEL: LOCATION
CNTY.               Las Animas: COUNTY
SRVC.                         : SERVICE COMPANY
DATE.          Wed Nov 12 14:59:14 2003: LOG DATE
UWI.                          : UNIQUE WELL ID
STAT.                 Colorado: STATE
~Curve Information Block
DEPT.FT            0 000 00 00: Depth
DCAL.in                       : CDL Caliper
DPOR.pu                       : CDL Density Porosity
NEU.NAPI                      : Neutron
NPOR.pu                       : Neutron Porosity
RHOB.g/cc                     : CDL Bulk Density
RHOC.g/cc                     : CDL Density Correction
GR.GAPI                       : Gamma Ray
~Parameter Information Block
~A  Depth       DCAL        DPOR        NEU         NPOR        RHOB        RHOC         GR     
# ...
  2482.5000      7.7929     -0.5461    212.6503     26.9997      2.6590      0.1874     58.0583
  2482.6000      7.7929      0.5178    214.6440     26.7997      2.6415      0.1652     58.0583
  2482.7000      7.7929      2.7016    216.2358     26.6403      2.6054      0.1202     58.0583
  2482.8000      7.7966      4.2240    217.2849     26.5353      2.5803      0.1120     79.7705
  2482.9000      7.7966      4.8663    216.4084     26.6230      2.5697      0.1311     79.7705
  2483.0000      7.8305      4.9386    214.2467     26.8396      2.5685      0.0683     79.7341
  2483.1000      7.8305      4.0712    212.5509     27.0097      2.5828      0.0618     79.7341
  2483.2000      7.8305      2.5159    211.8026     27.0849      2.6085      0.0765     79.7341
  2483.3000      7.8372      1.1375    214.3308     26.8311      2.6312      0.1093     86.2531
  2483.4000      7.8372      0.2637    222.2957     26.0352      2.6456      0.1367     86.2531
  2483.5000      7.8507      0.1036    233.2277     24.9519      2.6483      0.1555     90.6956
  2483.6000      7.8507      0.3860    242.7386     24.0188      2.6436      0.1279     90.6956
  2483.7000      7.8507      0.0944    249.0333     23.4065      2.6484      0.1261     90.6956
  2483.8000      7.8355     -0.7838    251.3959     23.1778      2.6629      0.1328     77.3779
  2483.9000      7.8355     -1.2888    248.7352     23.4354      2.6713      0.1419     77.3779
  2484.0000      7.8248     -1.3201    243.4980     23.9447      2.6718      0.1500     65.0906
  2484.1000      7.8248     -1.3917    238.9969     24.3848      2.6730      0.1242     65.0906
  2484.2000      7.8248     -1.3318    235.1721     24.7604      2.6720      0.1090     65.0906
  2484.3000      7.8030     -0.4591    233.2031     24.9544      2.6576      0.1363     55.6431
  2484.4000      7.8030      1.2269    234.4232     24.8341      2.6298      0.1282     55.6431
  2484.5000      7.7991      2.7941    237.2886     24.5524      2.6039      0.0864     50.0442
  2484.6000      7.7991      3.2062    239.5391     24.3317      2.5971      0.0594     50.0442
  2484.7000      7.7991      2.5191    238.5248     24.4311      2.6084      0.0788     50.0442
  2484.8000      7.7842      2.0206    235.6157     24.7168      2.6167      0.0830     55.0640
  2484.9000      7.7842      2.9082    236.8613     24.5944      2.6020      0.0999     55.0640
  2485.0000      7.7816      5.1228    242.4704     24.0450      2.5655      0.0714     59.1097
  2485.1000      7.7816      7.3834    246.5502     23.6475      2.5282      0.0061     59.1097
  2485.2000      7.7816      8.6061    246.3183     23.6701      2.5080      0.0335     59.1097
  2485.3000      7.7901      8.6667    242.1208     24.0792      2.5070     -0.0078     60.4669
  2485.4000      7.7901      8.3589    236.4242     24.6373      2.5121      0.0694     60.4669
  2485.5000      7.7881      8.6786    231.3119     25.1410      2.5068      0.0624     61.9878
  2485.6000      7.7881      9.2724    227.3261     25.5354      2.4970      0.0841     61.9878
  2485.7000      7.7881      9.0561    228.0097     25.4676      2.5006      0.0128     61.9878
  2485.8000      7.7882      7.8408    232.7465     24.9994      2.5206      0.0712     77.8843
  2485.9000      7.7882      6.3467    234.1394     24.8621      2.5453      0.0858     77.8843
  2486.0000      7.7562      4.8184    229.6313     25.3071      2.5705      0.0536     65.4616
  2486.1000      7.7562      3.3546    220.6257     26.2017      2.5946      0.1168     65.4616
  2486.2000      7.7562      3.0339    208.6527     27.4017      2.5999      0.0851     65.4616
  2486.3000      7.6950      4.9731    198.9960     28.3774      2.5679      0.0911     63.7489
  2486.4000      7.6950      8.5326    195.5773     28.7244      2.5092      0.0352     63.7489
  2486.5000      7.7736     11.5906    196.5215     28.6285      2.4588      0.0663     68.2134
  2486.6000      7.7736     12.6300    197.5708     28.5220      2.4416      0.0443     68.2134
  2486.7000      7.7736     11.6719    196.6596     28.6144      2.4574      0.0881     68.2134
  2486.8000      7.7940     10.2519    195.9671     28.6848      2.4808      0.0641     85.2248
  2486.9000      7.7940      9.9335    197.7187     28.5070      2.4861      0.1546     85.2248
  2487.0000      7.8252     11.0519    199.8986     28.2859      2.4676      0.1424     84.1225
  2487.1000      7.8252     12.8705    200.1288     28.2626      2.4376      0.1040     84.1225
  2487.2000      7.8252     14.7349    199.3374     28.3428      2.4069      0.1012     84.1225
  2487.3000      7.8380     16.0308    198.9288     28.3842      2.3855      0.0920     92.6221
  2487.4000      7.8380     15.6366    199.6795     28.3081      2.3920      0.0714     92.6221
  2487.5000      7.8439     13.4114    201.0884     28.1654      2.4287      0.0824     97.8976
  2487.6000      7.8439     11.2692    201.7386     28.0996      2.4641      0.1522     97.8976
  2487.7000      7.8439     10.7755    201.2571     28.1484      2.4722      0.0656     97.8976
  2487.8000      7.8517     10.9841    201.2849     28.1455      2.4688      0.0371     96.9946
  2487.9000      7.8517     10.7053    207.2717     27.5408      2.4734      0.0746     96.9946
  2488.0000      7.8455     10.0784    217.3746     26.5264      2.4837      0.0091    110.9929
  2488.1000      7.8455      9.9024    220.7123     26.1930      2.4866      0.0971    110.9929
  2488.2000      7.8455     11.1174    216.7184     26.5920      2.4666      0.0564    110.9929
  2488.3000      7.8451     12.4920    213.2252     26.9420      2.4439     -0.0868    107.2509
  2488.4000      7.8451     11.9056    212.3926     27.0256      2.4536      0.0045    107.2509
  2488.5000      7.8521     10.4491    212.4886     27.0160      2.4776      0.0628     85.7186
  2488.6000      7.8521     10.1119    213.3762     26.9269      2.4832     -0.0012     85.7186
  2488.7000      7.8521      9.7328    216.4154     26.6223      2.4894     -0.0303     85.7186
  2488.8000      7.8710      7.3983    223.9862     25.8670      2.5279      0.0333     88.4649
  2488.9000      7.8710      4.2811    234.1572     24.8603      2.5794      0.1149     88.4649
  2489.0000      7.8791      2.7090    240.1189     24.2749      2.6053      0.1292    104.3728
  2489.1000      7.8791      2.6518    239.5090     24.3347      2.6062      0.0834    104.3728
  2489.2000      7.8791      2.7560    237.8842     24.4940      2.6045      0.0646    104.3728
  2489.3000      7.8821      2.8760    240.0213     24.2845      2.6025      0.0618     85.4136
  2489.4000      7.8821      3.6069    242.5449     24.0378      2.5905      0.0987     85.4136
  2489.5000      7.8855      4.5906    242.5306     24.0391      2.5743      0.0275     82.1187
  2489.6000      7.8855      4.8379    244.0396     23.8919      2.5702      0.0225     82.1187
  2489.7000      7.8855      4.8608    250.5682     23.2578      2.5698      0.1540     82.1187
  2489.8000      7.8882      5.8646    259.4666     22.4013      2.5532      0.0549     70.1046
  2489.9000      7.8882      7.0259    264.0350     21.9653      2.5341      0.0217     70.1046
  2490.0000      7.8832      7.0051    263.6894     21.9982      2.5344      0.0062     57.7235
  2490.1000      7.8832      6.3575    266.6797     21.7140      2.5451      0.0437     57.7235
  2490.2000      7.8832      5.8716    275.2675     20.9044      2.5531      0.0231     57.7235
  2490.3000      7.8621      4.8518    281.6900     20.3053      2.5699      0.0586     58.6407
  2490.4000      7.8621      2.8987    282.5165     20.2287      2.6022      0.1187     58.6407
  2490.5000      7.8444      1.1995    281.3871     20.3335      2.6302      0.1331     58.2862
  2490.6000      7.8444      0.9870    279.8671     20.4748      2.6337      0.0673     58.2862
  2490.7000      7.8444      2.1007    274.6059     20.9664      2.6153      0.0831     58.2862
  2490.8000      7.8123      3.6130    267.8996     21.5984      2.5904      0.0747     69.4606
