~Version Information
VERS.                      2.0: CWLS Log ASCII Standard - VERSION 2.0
WRAP.                       NO: One line per depth step
~Well Information Block
STRT.FT               419.7500: 
STOP.FT              1170.0000: 
STEP.FT                 0.2500: 
NULL.                -999.2500: 
COMP.          Evergreen Operating Corporation: COMPANY
WELL.             Bernice 21-3: WELL
FLD.           Purgatoire River: FIELD
LOC.           201' FNL & 2575' FWL: LOCATION
PROV.                 Colorado: PROVINCE
CNTY.               Las Animas: COUNTRY
SRVC.                Patterson: SERVICE COMPANY
DATE.          Mon Jan 26 13:04:04 2004: LOG DATE
UWI.           05 071 07912   : UNIQUE WELL ID
~Curve Information Block
DEPT.FT            0 000 00 00: Depth
SN.Ohm-m                      : IEL Short Normal
SP.mV                         : IEL Spontaneous Potential
DIR.Ohm-m                     : IEL Induction Resistivity
GR.GAPI                       : Gamma Ray
~Parameter Information Block
~A  Depth        SN          SP         DIR          GR     
# ...
   620.7500   2000.0000   2000.0000      9.3749    136.1379
   621.0000   2000.0000   2000.0000      9.3514    134.3562
   621.2500   2000.0000   2000.0000      9.3483    131.6767
   621.5000   2000.0000   2000.0000      9.3641    126.1891
   621.7500   2000.0000   2000.0000      9.3882    122.1562
   622.0000   2000.0000   2000.0000      9.4085    116.5598
   622.2500   2000.0000   2000.0000      9.4185    113.5528
   622.5000   2000.0000   2000.0000      9.4182    110.5198
   622.7500   2000.0000   2000.0000      9.4124    109.5961
   623.0000   2000.0000   2000.0000      9.4069    109.9004
   623.2500   2000.0000   2000.0000      9.4039    111.0508
   623.5000   2000.0000   2000.0000      9.3993    113.4044
   623.7500   2000.0000   2000.0000      9.3825    114.8437
   624.0000   2000.0000   2000.0000      9.3421    116.4510
   624.2500   2000.0000   2000.0000      9.2732    117.4247
   624.5000   2000.0000   2000.0000      9.1798    119.5455
   624.7500   2000.0000   2000.0000      9.0726    121.7079
   625.0000   2000.0000   2000.0000      8.9637    126.0212
   625.2500   2000.0000   2000.0000      8.8603    129.2699
   625.5000   2000.0000   2000.0000      8.7638    133.8411
   625.7500   2000.0000   2000.0000      8.6708    136.2345
   626.0000   2000.0000   2000.0000      8.5779    138.4669
   626.2500   2000.0000   2000.0000      8.4845    139.0327
   626.5000   2000.0000   2000.0000      8.3914    138.4580
   626.7500   2000.0000   2000.0000      8.2985    137.0067
   627.0000   2000.0000   2000.0000      8.2020    133.2495
   627.2500   2000.0000   2000.0000      8.0972    130.1472
   627.5000   2000.0000   2000.0000      7.9848    125.9824
   627.7500   2000.0000   2000.0000      7.8758    124.1322
   628.0000   2000.0000   2000.0000      7.7888    122.5985
   628.2500   2000.0000   2000.0000      7.7402    121.8076
   628.5000   2000.0000   2000.0000      7.7341    120.2146
   628.7500   2000.0000   2000.0000      7.7614    118.9914
   629.0000   2000.0000   2000.0000      7.8077    117.5773
   629.2500   2000.0000   2000.0000      7.8641    116.9625
   629.5000   2000.0000   2000.0000      7.9307    115.6920
   629.7500   2000.0000   2000.0000      8.0109    114.0940
   630.0000   2000.0000   2000.0000      8.1055    110.5851
   630.2500   2000.0000   2000.0000      8.2112    107.9101
   630.5000   2000.0000   2000.0000      8.3249    103.8099
   630.7500   2000.0000   2000.0000      8.4478    100.8412
   631.0000   2000.0000   2000.0000      8.5835     95.3647
   631.2500   2000.0000   2000.0000      8.7322     90.8390
   631.5000   2000.0000   2000.0000      8.8849     83.4289
   631.7500   2000.0000   2000.0000      9.0263     79.1565
   632.0000   2000.0000   2000.0000      9.1454     76.0506
   632.2500   2000.0000   2000.0000      9.2458     77.0617
   632.5000   2000.0000   2000.0000      9.3436     82.7855
   632.7500   2000.0000   2000.0000      9.4539     88.0456
   633.0000   2000.0000   2000.0000      9.5760     95.2556
   633.2500   2000.0000   2000.0000      9.6911     98.6342
   633.5000   2000.0000   2000.0000      9.7728    101.7053
   633.7500   2000.0000   2000.0000      9.8038    103.0896
   634.0000   2000.0000   2000.0000      9.7884    105.1115
   634.2500   2000.0000   2000.0000      9.7522    106.6192
   634.5000   2000.0000   2000.0000      9.7302    109.0249
   634.7500   2000.0000   2000.0000      9.7516    110.5086
   635.0000   2000.0000   2000.0000      9.8302    112.0571
   635.2500   2000.0000   2000.0000      9.9646    112.4732
   635.5000   2000.0000   2000.0000     10.1456    112.3467
   635.7500   2000.0000   2000.0000     10.3627    111.9913
   636.0000   2000.0000   2000.0000     10.6044    111.3055
   636.2500   2000.0000   2000.0000     10.8558    110.8154
   636.5000   2000.0000   2000.0000     11.0962    110.1148
   636.7500   2000.0000   2000.0000     11.3056    109.6800
   637.0000   2000.0000   2000.0000     11.4724    109.0607
   637.2500   2000.0000   2000.0000     11.5980    108.6854
   637.5000   2000.0000   2000.0000     11.6941    108.2467
   637.7500   2000.0000   2000.0000     11.7760    108.0994
   638.0000   2000.0000   2000.0000     11.8571    108.2988
   638.2500   2000.0000   2000.0000     11.9468    108.8397
   638.5000   2000.0000   2000.0000     12.0493    110.2390
   638.7500   2000.0000   2000.0000     12.1631    111.3125
   639.0000   2000.0000   2000.0000     12.2825    112.5608
   639.2500   2000.0000   2000.0000     12.4052    113.0136
   639.5000   2000.0000   2000.0000     12.5438    113.3319
   639.7500   2000.0000   2000.0000     12.7299    113.4307
   640.0000   2000.0000   2000.0000     13.0028    113.3289
   640.2500   2000.0000   2000.0000     13.3853    112.9977
   640.5000   2000.0000   2000.0000     13.8631    112.0330
   640.7500   2000.0000   2000.0000     14.3831    110.9529
   641.0000   2000.0000   2000.0000     14.8758    108.2264
   641.2500   2000.0000   2000.0000     15.2916    105.6314
   641.5000   2000.0000   2000.0000     15.6257    101.5336
   641.7500   2000.0000   2000.0000     15.9150     99.5210
   642.0000   2000.0000   2000.0000     16.2119     98.1292
   642.2500   2000.0000   2000.0000     16.5532     97.7246
   642.5000   2000.0000   2000.0000     16.9359     96.3228
   642.7500   2000.0000   2000.0000     17.3111     94.3512
   643.0000   2000.0000   2000.0000     17.5993     90.1904
   643.2500   2000.0000   2000.0000     17.7235     87.1570
   643.5000   2000.0000   2000.0000     17.6409     82.8440
   643.7500   2000.0000   2000.0000     17.3617     80.2906
   644.0000   2000.0000   2000.0000     16.9464     77.4077
   644.2500   2000.0000   2000.0000     16.4850     76.5866
   644.5000   2000.0000   2000.0000     16.0620     77.7152
   644.7500   2000.0000   2000.0000     15.7224     80.1676
   645.0000   2000.0000   2000.0000     15.4603     86.1043
   645.2500   2000.0000   2000.0000     15.2371     91.2104
   645.5000   2000.0000   2000.0000     15.0152     99.6898
   645.7500   2000.0000   2000.0000     14.7804    105.2152
   646.0000   2000.0000   2000.0000     14.5366    112.2274
   646.2500   2000.0000   2000.0000     14.2879    115.7022
   646.5000   2000.0000   2000.0000     14.0294    119.1241
   646.7500   2000.0000   2000.0000     13.7560    120.4424
   647.0000   2000.0000   2000.0000     13.4765    121.4885
   647.2500   2000.0000   2000.0000     13.2158    121.8074
   647.5000   2000.0000   2000.0000     13.0024    121.7782
   647.7500   2000.0000   2000.0000     12.8516    121.2072
   648.0000   2000.0000   2000.0000     12.7611    119.0953
   648.2500   2000.0000   2000.0000     12.7203    116.8385
   648.5000   2000.0000   2000.0000     12.7245    112.7682
   648.7500   2000.0000   2000.0000     12.7781    110.1588
   649.0000   2000.0000   2000.0000     12.8857    107.2336
   649.2500   2000.0000   2000.0000     13.0411    106.0974
   649.5000   2000.0000   2000.0000     13.2262    105.3313
   649.7500   2000.0000   2000.0000     13.4177    105.2761
   650.0000   2000.0000   2000.0000     13.5948    106.0389
   650.2500   2000.0000   2000.0000     13.7408    107.2621
   650.5000   2000.0000   2000.0000     13.8422    109.7665
   650.7500   2000.0000   2000.0000     13.8914    111.2803
   651.0000   2000.0000   2000.0000     13.8904    112.5350
   651.2500   2000.0000   2000.0000     13.8496    112.6818
   651.5000   2000.0000   2000.0000     13.7812    112.1555
   651.7500   2000.0000   2000.0000     13.6971    111.2705
   652.0000   2000.0000   2000.0000     13.6146    108.8352
   652.2500   2000.0000   2000.0000     13.5612    106.6080
   652.5000   2000.0000   2000.0000     13.5665    103.4990
   652.7500   2000.0000   2000.0000     13.6460    102.4076
   653.0000   2000.0000   2000.0000     13.7891    102.9104
   653.2500   2000.0000   2000.0000     13.9590    104.4059
   653.5000   2000.0000   2000.0000     14.1026    107.1893
   653.7500   2000.0000   2000.0000     14.1667    108.6983
   654.0000   2000.0000   2000.0000     14.1224    109.8618
