~Version Information
VERS.                      2.0: CWLS Log ASCII Standard - VERSION 2.0
WRAP.                       NO: One line per depth step
~Well Information Block
STRT.FT               553.0000: 
STOP.FT              1576.5000: 
STEP.FT                 0.2500: 
NULL.                -999.2500: 
COMP.          Pioneer Natural Resources: COMPANY
WELL.           Telna 24-22 Tr: WELL
FLD.           Purgatoire River: FIELD
LOC.           748' FSL & 1931' FWL: LOCATION
PROV.                 Colorado: PROVINCE
CNTY.               Las Animas: COUNTRY
SRVC.                Patterson: SERVICE COMPANY
DATE.          Mon May 02 07:15:29 2005: LOG DATE
UWI.           05 071 08304 00: UNIQUE WELL ID
~Curve Information Block
DEPT.FT            0 000 00 00: Depth
DCAL.in                       : CDL Caliper
RHOB.g/cc                     : CDL Bulk Density
RHOC.g/cc                     : CDL Density Correction
DPOR.pu                       : CDL Density Porosity
GR.GAPI                       : Gamma Ray
NPOR.pu                       : Neutron Porosity
~Parameter Information Block
~A  Depth       DCAL        RHOB        RHOC        DPOR         GR         NPOR    
# ...
  1489.0000      7.8752      2.4734      0.0232     10.7040    153.4940     24.6263
  1489.2500      7.8752      2.4743      0.0127     10.6467    150.8999     25.1501
  1489.5000      7.8707      2.5354      0.1031      6.9461    152.1310     22.3616
  1489.7500      7.8646      2.5033     -0.0006      8.8893    149.6870     23.7189
  1490.0000      7.8662      2.4983      0.0345      9.1945    134.0037     24.4499
  1490.2500      7.8737      2.5364      0.0946      6.8834    129.1705     24.1275
  1490.5000      7.8762      2.5576      0.0353      5.6000    133.0298     23.2401
  1490.7500      7.8729      2.5478      0.0910      6.1930    129.3976     25.9579
  1491.0000      7.8685      2.5005      0.0153      9.0626    147.6855     24.4705
  1491.2500      7.8662      2.5570      0.0766      5.6378    137.0775     25.1079
  1491.5000      7.8678      2.5620      0.0263      5.3307    131.4832     26.6148
  1491.7500      7.8747      2.5532      0.0525      5.8662    132.8145     26.3775
  1492.0000      7.8840      2.5892      0.0420      3.6855    132.7495     23.9858
  1492.2500      7.8889      2.5522     -0.0590      5.9254    142.1128     22.0489
  1492.5000      7.8894      2.5351      0.0220      6.9664    147.3269     23.9958
  1492.7500      7.8871      2.5064      0.0790      8.7059    151.5315     25.0977
  1493.0000      7.8831      2.4781      0.0489     10.4195    150.1953     23.8288
  1493.2500      7.8814      2.5063      0.0653      8.7111    154.7494     24.7826
  1493.5000      7.8843      2.5625      0.0853      5.3019    141.3422     23.9469
  1493.7500      7.8900      2.5373      0.0586      6.8307    140.7477     22.9113
  1494.0000      7.8969      2.5209      0.0628      7.8239    137.0112     24.2657
  1494.2500      7.8972      2.4876      0.0090      9.8411    132.0343     24.0108
  1494.5000      7.8890      2.4883     -0.0098      9.7974    118.7332     23.7132
  1494.7500      7.8786      2.5529      0.0622      5.8833    108.9663     21.9528
  1495.0000      7.8717      2.6133      0.0331      2.2248    122.6546     22.1405
  1495.2500      7.8699      2.6163      0.0563      2.0435    121.6245     24.0972
  1495.5000      7.8722      2.6433      0.0267      0.4075    130.6028     20.6176
  1495.7500      7.8752      2.5908     -0.0515      3.5871    124.9640     20.2138
  1496.0000      7.8775      2.5846     -0.0140      3.9667    131.5266     23.1604
  1496.2500      7.8803      2.5811     -0.0105      4.1735    137.5475     22.2395
  1496.5000      7.8848      2.5051     -0.0269      8.7843    143.2092     25.9536
  1496.7500      7.8871      2.4965      0.0405      9.3009    139.1509     25.0181
  1497.0000      7.8849      2.5120      0.0883      8.3626    131.9689     22.8967
  1497.2500      7.8801      2.5096      0.0381      8.5064    139.4767     23.7177
  1497.5000      7.8702      2.5274      0.0461      7.4309    152.3817     24.5404
  1497.7500      7.8571      2.5359      0.0586      6.9136    159.3058     24.0737
  1498.0000      7.8599      2.5070      0.0230      8.6677    161.4959     24.4417
  1498.2500      7.8765      2.5459      0.0870      6.3081    162.9906     25.3521
  1498.5000      7.8833      2.5822      0.1188      4.1067    150.0224     26.2403
  1498.7500      7.8840      2.5591      0.0480      5.5121    155.4184     26.8077
  1499.0000      7.8871      2.5349     -0.0190      6.9748    142.2852     26.5589
  1499.2500      7.8884      2.5063      0.0195      8.7117    138.4683     22.1308
  1499.5000      7.8857      2.4669     -0.0011     11.0948    162.2917     26.4331
  1499.7500      7.8823      2.4790      0.0748     10.3643    163.1828     26.7042
  1500.0000      7.8877      2.3812      0.0474     16.2902    162.3944     25.9976
  1500.2500      7.8973      2.2786      0.0104     22.5107    154.7461     25.9915
  1500.5000      7.8944      2.3049      0.0806     20.9130    145.8427     27.8457
  1500.7500      7.8809      2.3497      0.0911     18.1990    145.3775     27.8229
  1501.0000      7.8652      2.4554      0.1504     11.7963    151.1366     27.0173
  1501.2500      7.8580      2.4758      0.0266     10.5582    134.3037     27.0121
  1501.5000      7.8610      2.4737      0.0836     10.6856    128.7509     24.0244
  1501.7500      7.8673      2.4479      0.0856     12.2474    140.3556     23.7422
  1502.0000      7.8690      2.4893      0.0614      9.7383    148.6040     28.4834
  1502.2500      7.8600      2.4748      0.0497     10.6166    141.1589     27.8283
  1502.5000      7.8525      2.4376      0.0866     12.8702    134.9110     26.9592
  1502.7500      7.8738      2.4309      0.0352     13.2817    129.4138     27.2000
  1503.0000      7.9182      2.3433      0.0303     18.5904    120.3457     26.8248
  1503.2500      7.9367      2.1978     -0.0075     27.4060    118.9123     27.7939
  1503.5000      7.9250      1.9399     -0.0163     43.0370    100.3934     30.2326
  1503.7500      7.9285      1.6854     -0.1572     58.4580     96.6721     29.5478
  1504.0000      7.9557      1.6899     -0.0830     58.1901     92.1447     30.2907
  1504.2500      7.9787      1.9385      0.1386     43.1208     91.8669     29.7975
  1504.5000      7.9818      2.2772      0.2321     22.5962     87.6812     29.5433
  1504.7500      7.9493      2.4781      0.2198     10.4153     89.7234     25.3180
  1505.0000      7.9009      2.4519     -0.0305     12.0034     98.8153     19.8302
  1505.2500      7.8750      2.4517      0.0252     12.0207     85.1067     18.6526
  1505.5000      7.8688      2.4742      0.0285     10.6572     79.2357     18.7679
  1505.7500      7.8644      2.4996     -0.0260      9.1143     82.6492     18.1424
  1506.0000      7.8558      2.4631      0.0083     11.3257     83.4883     17.8575
  1506.2500      7.8479      2.4304     -0.0358     13.3066     79.5017     19.9009
  1506.5000      7.8471      2.4325      0.0277     13.1793     73.8002     17.4155
  1506.7500      7.8538      2.4523      0.0458     11.9838     80.1223     17.4431
  1507.0000      7.8615      2.4369     -0.0078     12.9150     77.1209     18.9307
  1507.2500      7.8633      2.4032     -0.0492     14.9570     80.4525     21.1252
  1507.5000      7.8614      2.4100      0.0700     14.5462     73.1966     22.2244
  1507.7500      7.8626      2.3817     -0.0237     16.2580     70.9610     22.2994
  1508.0000      7.8656      2.3876      0.0464     15.9031     56.5498     20.1382
  1508.2500      7.8659      2.3902      0.0715     15.7435     59.7517     17.8994
  1508.5000      7.8620      2.3840      0.0501     16.1215     55.4937     17.9282
  1508.7500      7.8560      2.3912      0.0462     15.6878     59.3938     20.6681
  1509.0000      7.8546      2.4088      0.0762     14.6182     60.7106     19.4676
  1509.2500      7.8637      2.4284      0.0755     13.4332     69.6719     20.2729
  1509.5000      7.8755      2.4323      0.0434     13.1940     79.5718     21.4329
  1509.7500      7.8783      2.4258      0.0651     13.5905     97.1032     20.8499
  1510.0000      7.8761      2.3810      0.0242     16.3048    100.8689     20.7808
  1510.2500      7.8728      2.3813     -0.0035     16.2851     94.7606     19.9176
  1510.5000      7.8684      2.3998      0.0147     15.1652     98.4120     19.9508
  1510.7500      7.8663      2.3870      0.0103     15.9415     92.1278     20.6302
  1511.0000      7.8696      2.4161     -0.0010     14.1742     93.3363     18.4630
  1511.2500      7.8746      2.4336      0.0640     13.1146    106.6480     17.4150
  1511.5000      7.8766      2.3940     -0.0094     15.5147    134.6979     18.6416
  1511.7500      7.8733      2.4139     -0.0117     14.3078    147.4609     19.8015
  1512.0000      7.8654      2.4559      0.0633     11.7657    170.7334     21.7672
  1512.2500      7.8619      2.4541      0.0717     11.8753    192.8506     21.7872
  1512.5000      7.8668      2.4353      0.0700     13.0100    225.3426     22.0974
  1512.7500      7.8721      2.3733     -0.0422     16.7676    221.9365     21.4744
