~Version Information
VERS.                      2.0: CWLS Log ASCII Standard - VERSION 2.0
WRAP.                       NO: One line per depth step
~Well Information Block
STRT.FT               720.0000: 
STOP.FT              2265.7000: 
STEP.FT                 0.1000: 
NULL.                -999.2500: 
COMP.          Pioneer Natural Resources: COMPANY
WELL.          Casablanca 11-28 Tr: WELL
FLD.           Purgatoire River: FIELD
LOC.           422' FNL & 215' FWL----: LOCATION
PROV.                 Colorado: PROVINCE
CNTY.               Las Animas: COUNTRY
SRVC.                Patterson: SERVICE COMPANY
DATE.          Mon Mar 07 07:16:34 2005: LOG DATE
UWI.           05 071 08314 00: UNIQUE WELL ID
~Curve Information Block
DEPT.FT            0 000 00 00: Depth
DCAL.in                       : CDL Caliper
RHOB.g/cc                     : CDL Bulk Density
RHOC.g/cc                     : CDL Density Correction
DPOR.pu                       : CDL Density Porosity
NPOR.pu                       : Neutron Porosity
GR.GAPI                       : Gamma Ray
~Parameter Information Block
~A  Depth       DCAL        RHOB        RHOC        DPOR        NPOR         GR     
# ...
  1324.8000      8.0746      2.5598      0.0589      5.4638     26.1878     87.3440
  1324.9000      8.0746      2.5306     -0.0121      7.2346     26.3218     93.8420
  1325.0000      8.0743      2.5048      0.0350      8.8008     26.4443    100.3691
  1325.1000      8.0743      2.4852     -0.0136      9.9899     26.7839    105.6954
  1325.2000      8.0743      2.4842     -0.0096     10.0474     27.1703    109.0622
  1325.3000      8.0736      2.5094     -0.0065      8.5238     27.2358    109.7048
  1325.4000      8.0736      2.5387      0.0672      6.7435     27.1346    109.9352
  1325.5000      8.0712      2.5449      0.0599      6.3700     27.2287    114.2470
  1325.6000      8.0712      2.5343     -0.0160      7.0128     27.2928    121.2975
  1325.7000      8.0712      2.5311      0.0630      7.2067     27.0032    125.6095
  1325.8000      8.0694      2.5415      0.0308      6.5739     26.8707    124.4974
  1325.9000      8.0694      2.5600      0.0674      5.4546     27.1357    120.1955
  1326.0000      8.0699      2.5865      0.0383      3.8498     27.2714    115.8047
  1326.1000      8.0699      2.6308      0.0048      1.1614     27.2900    112.8188
  1326.2000      8.0699      2.6906      0.1188     -2.4586     27.6695    112.4068
  1326.3000      8.0718      2.7398      0.1280     -5.4406     28.3042    111.3998
  1326.4000      8.0718      2.7507      0.1370     -6.1055     28.7296    108.0375
  1326.5000      8.0736      2.7239      0.0673     -4.4797     28.8494    106.8839
  1326.6000      8.0736      2.6900      0.0499     -2.4232     29.1031    108.3340
  1326.7000      8.0736      2.6695      0.0584     -1.1807     29.5738    107.4535
  1326.8000      8.0775      2.6619      0.0109     -0.7222     29.6341    102.2188
  1326.9000      8.0775      2.6745      0.0004     -1.4846     29.1507     95.5119
  1327.0000      8.0834      2.7052      0.0561     -3.3430     28.7079     91.7667
  1327.1000      8.0834      2.7192      0.0389     -4.1918     28.4630     92.3161
  1327.2000      8.0834      2.6939     -0.0332     -2.6629     28.0525     93.5292
  1327.3000      8.0861      2.6477     -0.0624      0.1422     27.2797     92.1441
  1327.4000      8.0861      2.6057     -0.0267      2.6834     26.2353     90.4807
  1327.5000      8.0874      2.5820      0.0223      4.1206     25.2477     91.4921
  1327.6000      8.0874      2.5834     -0.0135      4.0384     24.5646     92.9419
  1327.7000      8.0874      2.6072      0.0064      2.5921     24.2727     89.6608
  1327.8000      8.0895      2.6322      0.0480      1.0772     24.2554     83.2600
  1327.9000      8.0895      2.6353      0.0282      0.8912     24.0836     80.5208
  1328.0000      8.0905      2.6194      0.0468      1.8538     23.6736     82.0404
  1328.1000      8.0905      2.6010      0.0198      2.9722     23.5344     84.0853
  1328.2000      8.0905      2.5918     -0.0082      3.5297     23.6572     86.0908
  1328.3000      8.0913      2.5968      0.0210      3.2240     23.4896     89.1809
  1328.4000      8.0913      2.6130      0.0618      2.2419     23.0627     91.5227
  1328.5000      8.0923      2.6306      0.0759      1.1744     23.0805     91.8546
  1328.6000      8.0923      2.6417      0.0175      0.5060     23.8261     91.4528
  1328.7000      8.0923      2.6454      0.0985      0.2804     24.7755     90.0478
  1328.8000      8.0906      2.6494      0.0222      0.0391     25.3540     89.3274
  1328.9000      8.0906      2.6569      0.0852     -0.4199     25.4866     91.4526
  1329.0000      8.0888      2.6555      0.0557     -0.3335     25.4591     93.4606
  1329.1000      8.0888      2.6529     -0.0243     -0.1751     25.5386     91.1553
  1329.2000      8.0888      2.6710      0.0374     -1.2735     25.9115     84.8040
  1329.3000      8.0894      2.7000      0.0292     -3.0326     26.6636     79.1935
  1329.4000      8.0894      2.7129      0.0873     -3.8114     27.3198     77.1570
  1329.5000      8.0900      2.7037      0.0328     -3.2575     27.6150     75.8939
  1329.6000      8.0900      2.6874      0.0521     -2.2675     27.8877     72.3976
  1329.7000      8.0900      2.6731      0.0164     -1.4011     28.2583     68.3595
  1329.8000      8.0903      2.6647     -0.0172     -0.8880     28.5816     67.8570
  1329.9000      8.0903      2.6629     -0.0131     -0.7819     28.6356     71.1433
  1330.0000      8.0903      2.6671     -0.0352     -1.0350     28.4611     75.1716
  1330.1000      8.0903      2.6795      0.0094     -1.7861     28.4137     78.2066
  1330.2000      8.0903      2.6888      0.0715     -2.3530     28.3363     79.8241
  1330.3000      8.0920      2.6864      0.0117     -2.2079     28.0250     79.3920
  1330.4000      8.0920      2.6864      0.0439     -2.2063     27.8310     78.6370
  1330.5000      8.0940      2.7010      0.0022     -3.0890     27.9665     81.0059
  1330.6000      8.0940      2.7227      0.0622     -4.4073     28.4244     85.8773
  1330.7000      8.0940      2.7315      0.0441     -4.9412     29.2056     89.4548
  1330.8000      8.0970      2.7139      0.0762     -3.8736     30.0143     90.8799
  1330.9000      8.0970      2.6708      0.0512     -1.2584     30.4840     91.2212
  1331.0000      8.0995      2.6175     -0.0066      1.9695     30.4696     90.8023
  1331.1000      8.0995      2.5674     -0.0334      5.0071     30.1105     88.5746
  1331.2000      8.0995      2.5274     -0.0869      7.4306     29.8657     85.0293
  1331.3000      8.1000      2.5098     -0.0874      8.4944     29.8251     84.8233
  1331.4000      8.1000      2.5165     -0.0415      8.0906     29.5741     92.2748
  1331.5000      8.0993      2.5365     -0.0173      6.8813     28.9198    104.6827
  1331.6000      8.0993      2.5649     -0.0190      5.1584     28.0506    113.3227
  1331.7000      8.0993      2.5894      0.0644      3.6726     27.4587    113.9560
  1331.8000      8.1005      2.5919      0.0364      3.5184     27.3566    108.7877
  1331.9000      8.1005      2.5831      0.0455      4.0573     27.4008    101.1316
  1332.0000      8.1023      2.5928     -0.0173      3.4697     27.3828     99.0235
  1332.1000      8.1023      2.6233      0.0356      1.6207     27.2520    105.9007
  1332.2000      8.1023      2.6364      0.0928      0.8223     27.0123    111.8005
  1332.3000      8.1027      2.6139      0.0545      2.1883     26.9202    110.2622
  1332.4000      8.1027      2.5884      0.0237      3.7312     26.8463    106.7570
  1332.5000      8.1036      2.5913      0.0319      3.5585     26.5224    108.9134
  1332.6000      8.1036      2.6142      0.0769      2.1686     26.5457    119.0269
  1332.7000      8.1036      2.6348      0.0442      0.9186     27.1792    130.3448
  1332.8000      8.1060      2.6458      0.0484      0.2533     27.4536    130.6687
  1332.9000      8.1060      2.6520      0.0344     -0.1200     26.8397    116.6853
  1333.0000      8.1060      2.6542      0.0434     -0.2558     26.0380    101.1766
  1333.1000      8.1060      2.6463      0.0329      0.2250     25.6266     95.5964
  1333.2000      8.1060      2.6337     -0.0169      0.9887     25.6482     98.3916
  1333.3000      8.1028      2.6318      0.0156      1.1028     25.9540    103.7237
  1333.4000      8.1028      2.6383      0.0231      0.7072     26.3104    107.2818
  1333.5000      8.0983      2.6401      0.0292      0.5970     26.8665    108.0917
  1333.6000      8.0983      2.6340      0.0270      0.9672     27.7092    107.4419
  1333.7000      8.0983      2.6257      0.0188      1.4752     28.3038    106.0033
  1333.8000      8.0948      2.6248      0.0172      1.5262     28.1191    103.3227
  1333.9000      8.0948      2.6347      0.0073      0.9281     27.6925     99.8231
  1334.0000      8.0937      2.6458      0.0444      0.2543     27.7124     96.8260
  1334.1000      8.0937      2.6490      0.0300      0.0631     27.7994     95.2080
  1334.2000      8.0937      2.6382      0.0246      0.7157     27.6885     95.8255
  1334.3000      8.0958      2.6072      0.0341      2.5947     27.5572    100.1019
