~Version Information
 VERS.                                  2.0 : CWLS LAS VERSION
 WRAP.                                   NO : WRAPING MODE
 SWARE .                 MController 2.5.0J : SOFTWARE VERSION
~Well Information
 WELL.                                  N/A : WELL
 COMP.                                  N/A : COMPANY
 FLD.                                   N/A : FIELD
 LOC.                                   N/A : LOCATION
 DATE.                                  N/A : DATE(S) LOGGED
 SRVC.                                  N/A : SERVICE COMPANY
 STAT.                                  N/A : STATE
 CNTY.                                  N/A : COUNTY
 CTRY.                                  N/A : COUNTRY
 API.                                   N/A : API NUMBER
 STRT.FT                             986.00 : START DEPTH
 STOP.FT                            2126.00 : STOP DEPTH
 STEP.FT                               1.00 : DEPTH INCREMENT
 NULL.                                -9999 : NULL VALUE
~Curve information
 DEPTH.FT                                   :
 ROP.MIN/FT                                 :
 GAS.UNITS                                  :
~ASCII Log data
# ...
      1986.0         0.27         78.8 
      1987.0         0.23         94.1 
      1988.0         0.18        107.3 
      1989.0         0.17        114.7 
      1990.0         0.17        117.5 
      1991.0         0.17        117.4 
      1992.0         0.33        114.5 
      1993.0         0.30        103.2 
      1994.0         0.30         95.7 
      1995.0         0.30         89.4 
      1996.0         0.27         84.6 
      1997.0         0.30         79.7 
      1998.0         0.33         74.8 
      1999.0         0.33         70.9 
      2000.0         0.35         68.3 
      2001.0         0.30         66.3 
      2002.0         0.33         63.3 
      2003.0         0.30         61.0 
      2004.0         0.27         55.5 
      2005.0         0.27         47.9 
      2006.0         2.15        257.6 
      2007.0         0.40        250.7 
      2008.0         0.30        221.0 
      2009.0         0.30        193.8 
      2010.0         0.33        154.7 
      2011.0         0.23        126.0 
      2012.0         0.20        132.8 
      2013.0         0.13        136.7 
      2014.0         0.13        137.7 
      2015.0         0.23        137.2 
      2016.0         0.37        132.3 
      2017.0         0.35        128.4 
      2018.0         0.37        128.2 
      2019.0         0.33        119.0 
      2020.0         0.30        107.3 
      2021.0         0.33        100.0 
      2022.0         0.30         92.3 
      2023.0         0.33         87.3 
      2024.0         0.30         82.5 
      2025.0         0.30         79.4 
      2026.0         0.30         76.3 
      2027.0         0.32         73.3 
      2028.0         0.30         70.9 
      2029.0         0.27         69.1 
      2030.0         0.30         67.9 
      2031.0         0.30         67.7 
      2032.0         0.27         67.9 
      2033.0         0.30         67.2 
      2034.0         0.30         63.0 
      2035.0         0.27         53.0 
      2036.0         2.58        263.6 
      2037.0         0.47        232.7 
      2038.0         0.37        160.9 
      2039.0         0.43        123.0 
      2040.0         0.33        180.7 
      2041.0         0.35        229.8 
      2042.0         0.33        253.3 
      2043.0         0.30        266.9 
      2044.0         0.33        269.8 
      2045.0         0.37        269.0 
      2046.0         0.33        262.9 
      2047.0         0.30        255.6 
      2048.0         0.33        247.5 
      2049.0         0.30        238.5 
      2050.0         0.30        228.8 
      2051.0         0.32        220.3 
      2052.0         0.33        213.6 
      2053.0         0.30        210.8 
      2054.0         0.30        208.0 
      2055.0         0.33        205.5 
      2056.0         0.30        203.2 
      2057.0         0.30        201.5 
      2058.0         0.30        200.2 
      2059.0         0.33        198.1 
      2060.0         0.30        196.3 
      2061.0         0.32        195.2 
      2062.0         0.30        191.5 
      2063.0         0.30        181.8 
      2064.0         0.30        153.2 
      2065.0         0.27        131.0 
      2066.0         2.55       1539.5 
      2067.0         0.60       1481.4 
      2068.0         0.53       1283.0 
      2069.0         0.57       1145.9 
      2070.0         0.67       1061.8 
      2071.0         0.72       1033.6 
      2072.0         0.77       1008.5 
      2073.0         0.87        983.4 
      2074.0         0.83        954.8 
      2075.0         0.78        985.3 
      2076.0         0.50        988.8 
      2077.0         0.57        985.6 
      2078.0         0.57        969.1 
      2079.0         0.53        951.0 
      2080.0         0.53        944.4 
      2081.0         0.62        934.2 
      2082.0         0.67        929.1 
      2083.0         0.67        921.5 
      2084.0         0.80        919.9 
      2085.0         0.95        916.8 
      2086.0         0.90        912.6 
      2087.0         0.70        903.7 
      2088.0         0.53        902.2 
      2089.0         0.53        901.8 
      2090.0         0.52        896.8 
      2091.0         0.50        894.5 
      2092.0         0.43        886.0 
      2093.0         0.47        882.2 
      2094.0         0.40        862.8 
      2095.0         0.30        831.1 
      2096.0         2.25       1238.9 
      2097.0         0.67       1257.6 
      2098.0         0.53       1178.0 
      2099.0         0.57       1055.1 
      2100.0         0.48        982.5 
      2101.0         0.47        952.0 
      2102.0         0.37        950.4 
      2103.0         0.33        940.9 
      2104.0         0.50        924.4 
      2105.0         0.30        911.0 
      2106.0         0.47        902.2 
      2107.0         0.27        886.9 
      2108.0         0.35        879.9 
      2109.0         0.37        875.5 
      2110.0         0.37        870.4 
      2111.0         0.33        869.5 
      2112.0         0.27        871.4 
      2113.0         0.27        869.8 
      2114.0         0.23        865.7 
      2115.0         0.30        862.8 
      2116.0         0.40        856.5 
      2117.0         0.33        849.5 
      2118.0         0.33        846.3 
      2119.0         0.35        843.8 
      2120.0         0.30        840.6 
      2121.0         0.30        845.0 
      2122.0         0.33        846.9 
      2123.0         0.27        842.8 
      2124.0         0.30        826.3 
      2125.0         0.30        806.0 
      2126.0         3.45      -9999.0 
