~Version Information
VERS.                      2.0: CWLS Log ASCII Standard - VERSION 2.0
WRAP.                       NO: One line per depth step
~Well Information Block
STRT.FT               230.0000: 
STOP.FT              1527.0000: 
STEP.FT                 0.1000: 
NULL.                -999.2500: 
COMP.          Pioneer Natural Resources: COMPANY
WELL.              Border 21-3: WELL
FLD.           Purgatorie River: FIELD
LOC.           865' FNL & 1415' FWL: LOCATION
PROV.                 Colorado: PROVINCE
CNTY.               Las Animas: COUNTRY
SRVC.                         : SERVICE COMPANY
DATE.          Thu Dec 09 16:57:34 2004: LOG DATE
UWI.           05 071 08169 00: UNIQUE WELL ID
~Curve Information Block
DEPT.FT            0 000 00 00: Depth
LTEN.lb                       : Surface Line Tension
DCAL.in                       : CDL Caliper
RHOB.g/cc                     : CDL Bulk Density
RHOC.g/cc                     : CDL Density Correction
DPOR.pu                       : CDL Density Porosity
GR.GAPI                       : Gamma Ray
NPOR.pu                       : Neutron Porosity
~Parameter Information Block
~A  Depth       LTEN        DCAL        RHOB        RHOC        DPOR         GR         NPOR    
# ...
   918.8000    954.4683      7.8753      2.6246      0.2004      1.5409    112.2842     22.4921
   918.9000    954.4683      7.8753      2.6177      0.1138      1.9571    113.0734     22.5673
   919.0000    946.0302      7.8759      2.6057      0.1028      2.6871    110.7034     22.9427
   919.1000    946.0302      7.8759      2.5922      0.0866      3.5040    105.5675     23.2381
   919.2000    946.0302      7.8759      2.5755      0.0741      4.5163    102.4187     23.2553
   919.3000   1028.6345      7.8763      2.5585      0.0619      5.5443    102.6802     23.1098
   919.4000   1028.6345      7.8763      2.5431      0.0659      6.4767    102.2673     22.8517
   919.5000    982.7966      7.8731      2.5307      0.0389      7.2286     99.9084     22.4866
   919.6000    982.7966      7.8731      2.5213      0.0449      7.8029     99.4596     22.1304
   919.7000    982.7966      7.8731      2.5117      0.0583      8.3806     99.6820     21.8264
   919.8000    939.0283      7.8743      2.5055      0.0608      8.7577     97.2439     21.6048
   919.9000    939.0283      7.8743      2.5088      0.0430      8.5600     94.3427     21.7287
   920.0000    970.1297      7.8745      2.5166      0.0513      8.0827     92.1355     22.2422
   920.1000    970.1297      7.8745      2.5201      0.0461      7.8716     90.1436     22.7851
   920.2000    970.1297      7.8745      2.5189      0.0834      7.9480     90.5154     23.1289
   920.3000   1024.7439      7.8765      2.5173      0.0599      8.0447     92.9424     23.0149
   920.4000   1024.7439      7.8765      2.5224      0.0651      7.7319     96.7466     22.3097
   920.5000    995.2161      7.8764      2.5370      0.0875      6.8477    102.0490     21.6916
   920.6000    995.2161      7.8764      2.5522      0.1316      5.9273    105.1898     21.7432
   920.7000    995.2161      7.8764      2.5593      0.1247      5.4984    106.4580     22.2282
   920.8000    953.6646      7.8764      2.5630      0.1192      5.2735    110.0214     22.7582
   920.9000    953.6646      7.8764      2.5740      0.1264      4.6051    113.8492     23.2469
   921.0000    973.0860      7.8769      2.5938      0.1373      3.4034    113.5275     23.7511
   921.1000    973.0860      7.8769      2.6131      0.1598      2.2361    111.0546     24.2972
   921.2000    973.0860      7.8769      2.6252      0.1151      1.5016    110.7697     24.8513
   921.3000    982.1668      7.8774      2.6353      0.0838      0.8896    112.9657     25.3713
   921.4000    982.1668      7.8774      2.6475      0.1302      0.1527    116.3973     25.7237
   921.5000   1003.2786      7.8757      2.6552      0.1342     -0.3137    120.2687     25.7947
   921.6000   1003.2786      7.8757      2.6585      0.1043     -0.5167    121.7598     25.5990
   921.7000   1003.2786      7.8757      2.6692      0.1132     -1.1626    119.5282     25.4116
   921.8000    967.3596      7.8728      2.6814      0.1884     -1.9059    115.5989     25.5901
   921.9000    967.3596      7.8728      2.6740      0.1243     -1.4534    111.2169     25.9317
   922.0000    948.7756      7.8757      2.6526      0.0664     -0.1590    107.9750     25.8804
   922.1000    948.7756      7.8757      2.6384      0.0952      0.7029    106.1381     25.3417
   922.2000    948.7756      7.8757      2.6271      0.0900      1.3875    103.6916     24.7520
   922.3000    997.4868      7.8774      2.6055      0.0733      2.6991    101.2388     24.3882
   922.4000    997.4868      7.8774      2.5785      0.0527      4.3361    101.0193     24.0348
   922.5000   1002.5906      7.8769      2.5624      0.0543      5.3095    102.9539     23.4112
   922.6000   1002.5906      7.8769      2.5655      0.0380      5.1195    106.0982     22.7153
   922.7000   1002.5906      7.8769      2.5806      0.0696      4.2075    108.7439     22.5383
   922.8000    988.0283      7.8786      2.5931      0.0872      3.4461    111.1692     23.0933
   922.9000    988.0283      7.8786      2.6004      0.0772      3.0047    117.8191     23.8622
   923.0000    984.0519      7.8754      2.6069      0.1024      2.6120    131.7285     24.1456
   923.1000    984.0519      7.8754      2.6074      0.1181      2.5837    147.6093     23.9423
   923.2000    984.0519      7.8754      2.5968      0.1120      3.2266    154.9278     23.8300
   923.3000   1012.5401      7.8768      2.5825      0.0940      4.0918    152.3211     23.9258
   923.4000   1012.5401      7.8768      2.5735      0.0788      4.6377    146.5175     23.9279
   923.5000    998.8378      7.8760      2.5670      0.0734      5.0295    144.0574     23.8726
   923.6000    998.8378      7.8760      2.5571      0.0740      5.6328    148.8982     24.1303
   923.7000    998.8378      7.8760      2.5468      0.0554      6.2551    156.6962     24.7373
   923.8000    947.6456      7.8751      2.5412      0.0776      6.5966    161.2194     25.2617
   923.9000    947.6456      7.8751      2.5443      0.0757      6.4039    163.3774     25.6091
   924.0000    935.6382      7.8748      2.5628      0.0481      5.2822    165.8141     25.9013
   924.1000    935.6382      7.8748      2.5891      0.0890      3.6937    168.5487     25.9822
   924.2000    935.6382      7.8748      2.6039      0.1029      2.7949    170.5604     26.1439
   924.3000   1008.9305      7.8756      2.6016      0.0783      2.9309    171.2474     26.7130
   924.4000   1008.9305      7.8756      2.5920      0.0748      3.5132    170.0576     27.1969
   924.5000    999.6324      7.8738      2.5857      0.0694      3.8954    165.2592     26.9110
   924.6000    999.6324      7.8738      2.5815      0.0504      4.1519    157.4931     26.0742
   924.7000    999.6324      7.8738      2.5691      0.0549      4.9056    153.8603     25.3645
   924.8000    949.0151      7.8727      2.5472      0.0412      6.2305    158.3863     25.0360
   924.9000    949.0151      7.8727      2.5246      0.0351      7.5973    165.3159     25.0541
   925.0000    951.0751      7.8765      2.5075      0.0122      8.6394    167.9724     25.0236
   925.1000    951.0751      7.8765      2.4936      0.0164      9.4764    166.2454     24.8166
   925.2000    951.0751      7.8765      2.4753      0.0142     10.5855    165.2415     24.9722
   925.3000   1021.7751      7.8758      2.4586     -0.0303     11.6001    166.6588     25.5977
   925.4000   1021.7751      7.8758      2.4657     -0.0009     11.1672    168.0003     26.0651
   925.5000    981.0441      7.8765      2.5024      0.0463      8.9446    168.8683     26.1069
   925.6000    981.0441      7.8765      2.5494      0.0851      6.0970    169.4987     26.0238
   925.7000    981.0441      7.8765      2.5897      0.1169      3.6547    168.9403     25.8771
   925.8000    911.1342      7.8776      2.6217      0.1719      1.7168    168.1461     25.7596
   925.9000    911.1342      7.8776      2.6433      0.2257      0.4046    166.0609     25.9506
   926.0000    911.5876      7.8752      2.6487      0.1689      0.0786    159.1575     26.2404
   926.1000    911.5876      7.8752      2.6412      0.1636      0.5308    149.6801     26.2713
   926.2000    911.5876      7.8752      2.6243      0.1416      1.5594    143.2251     26.1470
   926.3000    945.6819      7.8761      2.5986      0.0992      3.1131    141.6026     26.0335
   926.4000    945.6819      7.8761      2.5757      0.0486      4.5003    140.4340     25.8719
   926.5000    889.4858      7.8758      2.5675      0.0471      5.0020    138.0746     25.7263
   926.6000    889.4858      7.8758      2.5716      0.0433      4.7524    138.5474     25.7417
   926.7000    889.4858      7.8758      2.5820      0.0478      4.1232    141.9356     25.6854
   926.8000    937.3878      7.8770      2.5992      0.0723      3.0783    142.4064     25.2012
   926.9000    937.3878      7.8770      2.6197      0.0870      1.8377    136.3788     24.4802
   927.0000    993.7546      7.8764      2.6322      0.0970      1.0788    127.7283     24.0429
   927.1000    993.7546      7.8764      2.6298      0.1211      1.2244    123.8096     23.9380
