~Version Information
VERS.                      2.0: CWLS Log ASCII Standard - VERSION 2.0
WRAP.                       NO: One line per depth step
~Well Information Block
STRT.FT               483.5000: 
STOP.FT              2348.7500: 
STEP.FT                 0.2500: 
NULL.                -999.2500: 
COMP.          Pioneer Natural Resources: COMPANY
WELL.          Hill Climb 22-2: WELL
FLD.           Purgatoire River: FIELD
LOC.           1820' FNL & 2193' FWL: LOCATION
PROV.                 Colorado: PROVINCE
CNTY.               Las Animas: COUNTRY
SRVC.                Patterson: SERVICE COMPANY
DATE.          Wed Oct 20 08:57:51 2004: LOG DATE
UWI.           05 071 08175 00: UNIQUE WELL ID
~Curve Information Block
DEPT.FT            0 000 00 00: Depth
DIR.Ohm-m                     : IEL Induction Resistivity
SN.Ohm-m                      : IEL Short Normal
SP.mV                         : IEL Spontaneous Potential
GR.GAPI                       : Gamma Ray
~Parameter Information Block
~A  Depth       DIR          SN          SP          GR     
# ...
  1354.5000      9.1022     10.7975    344.7346    128.2883
  1354.7500      8.6512     10.1656    346.7349    127.1075
  1355.0000      8.3343      9.6735    348.4631    124.3592
  1355.2500      8.1328      9.3455    350.0272    122.8109
  1355.5000      8.0282      9.1956    351.6002    120.9556
  1355.7500      8.0016      9.1687    353.3760    119.3033
  1356.0000      8.0305      9.1121    355.5233    115.2802
  1356.2500      8.0862      8.8148    358.1539    111.8021
  1356.5000      8.1358      8.1234    361.3045    106.4205
  1356.7500      8.1507      7.0656    364.9292    102.9524
  1357.0000      8.1166      5.8703    368.8964     97.5171
  1357.2500      8.0356      4.8482    372.9954     93.6908
  1357.5000      7.9188      4.2221    376.9596     88.8700
  1357.7500      7.7743      4.0303    380.5114     87.3881
  1358.0000      7.6013      4.1538    383.4218     88.8879
  1358.2500      7.3934      4.4267    385.5658     92.1304
  1358.5000      7.1479      4.7391    386.9511     98.8064
  1358.7500      6.8738      5.0640    387.7054    103.3105
  1359.0000      6.5921      5.4159    388.0282    108.4672
  1359.2500      6.3284      5.7929    388.1254    110.3465
  1359.5000      6.1055      6.1454    388.1541    111.1202
  1359.7500      5.9368      6.3881    388.1934    110.9764
  1360.0000      5.8254      6.4448    388.2479    111.1151
  1360.2500      5.7646      6.2989    388.2725    111.7823
  1360.5000      5.7409      6.0072    388.2047    113.1172
  1360.7500      5.7386      5.6716    387.9922    113.6149
  1361.0000      5.7440      5.3929    387.6082    113.1776
  1361.2500      5.7489      5.2394    387.0558    112.2097
  1361.5000      5.7514      5.2396    386.3637    110.0907
  1361.7500      5.7554      5.3914    385.5791    108.1549
  1362.0000      5.7677      5.6686    384.7576    104.3289
  1362.2500      5.7945      6.0219    383.9555    101.6017
  1362.5000      5.8389      6.3854    383.2236     98.6462
  1362.7500      5.9001      6.6924    382.6037     97.9547
  1363.0000      5.9736      6.8896    382.1270     98.6140
  1363.2500      6.0533      6.9417    381.8125     99.6672
  1363.5000      6.1328      6.8310    381.6637    101.4755
  1363.7500      6.2062      6.5575    381.6614    102.8820
  1364.0000      6.2692      6.1392    381.7583    105.7001
  1364.2500      6.3210      5.6147    381.8761    107.7843
  1364.5000      6.3651      5.0470    381.9133    109.5599
  1364.7500      6.4100      4.5134    381.7601    108.9334
  1365.0000      6.4653      4.0853    381.3199    105.3643
  1365.2500      6.5368      3.8222    380.5286    102.2363
  1365.5000      6.6223      3.7851    379.3651     98.4185
  1365.7500      6.7127      4.0394    377.8513     97.0448
  1366.0000      6.7956      4.6150    376.0431     96.4758
  1366.2500      6.8606      5.4477    374.0171     96.5859
  1366.5000      6.9026      6.3615    371.8577     96.8842
  1366.7500      6.9216      7.1288    369.6477     97.2266
  1367.0000      6.9210      7.5744    367.4595     98.5679
  1367.2500      6.9057      7.6506    365.3500    100.2061
  1367.5000      6.8803      7.4341    363.3589    103.1774
  1367.7500      6.8489      7.0628    361.5119    104.7944
  1368.0000      6.8145      6.6673    359.8261    105.6917
  1368.2500      6.7793      6.3301    358.3149    105.0506
  1368.5000      6.7450      6.0751    356.9882    102.4901
  1368.7500      6.7124      5.8762    355.8477    100.3251
  1369.0000      6.6806      5.6779    354.8835     98.1583
  1369.2500      6.6477      5.4215    354.0719     98.3841
  1369.5000      6.6127      5.0687    353.3795    101.2640
  1369.7500      6.5771      4.6161    352.7679    103.6160
  1370.0000      6.5458      4.0983    352.1985    104.5219
  1370.2500      6.5249      3.5828    351.6368    102.1757
  1370.5000      6.5195      3.1590    351.0544     95.3487
  1370.7500      6.5309      2.9214    350.4315     90.8262
  1371.0000      6.5560      2.9443    349.7588     87.6256
  1371.2500      6.5874      3.2554    349.0371     88.3297
  1371.5000      6.6157      3.8186    348.2741     91.9435
  1371.7500      6.6321      4.5412    347.4793     94.9387
  1372.0000      6.6326      5.3062    346.6566     99.5328
  1372.2500      6.6203      6.0162    345.7998    102.3998
  1372.5000      6.6068      6.6190    344.8933    105.0606
  1372.7500      6.6109      7.1044    343.9175    104.7370
  1373.0000      6.6537      7.4883    342.8604    100.7954
  1373.2500      6.7520      7.7973    341.7307     96.9002
  1373.5000      6.9133      8.0547    340.5703     91.7085
  1373.7500      7.1330      8.2648    339.4616     89.6612
  1374.0000      7.3954      8.4032    338.5297     88.8909
  1374.2500      7.6750      8.4129    337.9329     89.2826
  1374.5000      7.9394      8.2230    337.8420     89.3056
  1374.7500      8.1553      7.8026    338.4049     87.8923
  1375.0000      8.2992      7.2256    339.7052     83.7348
  1375.2500      8.3674      6.6744    341.7250     81.1630
  1375.5000      8.3756      6.3397    344.3290     80.9014
  1375.7500      8.3452      6.2855    347.2802     83.7446
  1376.0000      8.2865      6.4139    350.2872     90.3625
  1376.2500      8.1916      6.5737    353.0687     94.3962
  1376.5000      8.0430      6.6932    355.4137     98.3309
  1376.7500      7.8297      6.8007    357.2161     99.9844
  1377.0000      7.5598      6.9388    358.4769    102.1915
  1377.2500      7.2581      7.0889    359.2774    103.6007
  1377.5000      6.9559      7.1772    359.7388    105.0375
  1377.7500      6.6797      7.1397    359.9814    105.0865
  1378.0000      6.4465      6.9761    360.0950    103.0552
  1378.2500      6.2624      6.7485    360.1237    100.1869
  1378.5000      6.1250      6.5315    360.0677     94.7507
  1378.7500      6.0255      6.3567    359.8957     91.6483
  1379.0000      5.9527      6.1957    359.5670     89.6405
  1379.2500      5.8973      5.9982    359.0529     90.3546
  1379.5000      5.8561      5.7478    358.3532     93.6760
  1379.7500      5.8334      5.4841    357.5009     96.5989
  1380.0000      5.8384      5.2789    356.5551    101.1213
  1380.2500      5.8781      5.1928    355.5874    104.0883
  1380.5000      5.9533      5.2442    354.6644    108.3087
  1380.7500      6.0585      5.3992    353.8344    110.6414
  1381.0000      6.1869      5.5805    353.1205    112.7902
  1381.2500      6.3337      5.6917    352.5202    113.1958
  1381.5000      6.4969      5.6582    352.0105    112.2968
  1381.7500      6.6721      5.4746    351.5563    110.6022
  1382.0000      6.8487      5.2180    351.1177    106.4517
  1382.2500      7.0088      4.9973    350.6541    103.3211
  1382.5000      7.1319      4.8796    350.1256    100.3642
  1382.7500      7.2024      4.8637    349.4941    100.4552
  1383.0000      7.2160      4.9137    348.7264    103.1811
  1383.2500      7.1817      5.0065    347.8026    105.9420
  1383.5000      7.1156      5.1468    346.7294    111.0893
  1383.7500      7.0335      5.3459    345.5558    115.1789
  1384.0000      6.9451      5.5928    344.3860    120.9901
  1384.2500      6.8533      5.8540    343.3823    123.2993
  1384.5000      6.7564      6.1004    342.7497    123.1159
  1384.7500      6.6522      6.3249    342.6982    120.9905
  1385.0000      6.5412      6.5257    343.3842    116.7897
  1385.2500      6.4275      6.6786    344.8474    114.3555
  1385.5000      6.3178      6.7406    346.9675    111.8810
  1385.7500      6.2194      6.6867    349.4682    110.8678
  1386.0000      6.1387      6.5367    351.9756    110.1269
  1386.2500      6.0805      6.3433    354.1173    110.2779
  1386.5000      6.0474      6.1525    355.6218    111.6241
  1386.7500      6.0395      5.9761    356.3783    113.1788
  1387.0000      6.0550      5.8021    356.4383    116.0889
  1387.2500      6.0907      5.6272    355.9675    118.0306
  1387.5000      6.1429      5.4701    355.1769    120.2402
  1387.7500      6.2081      5.3466    354.2627    121.2243
