~Version Information
VERS.                      2.0: CWLS Log ASCII Standard - VERSION 2.0
WRAP.                       NO: One line per depth step
~Well Information Block
STRT.FT               664.0000: 
STOP.FT              1615.5000: 
STEP.FT                 0.2500: 
NULL.                -999.2500: 
COMP.          Petrogulf Corporation: COMPANY
WELL.          Great Plains 22-21R: WELL
FLD.           Purgatorie River: FIELD
LOC.           73' FNL & 1992' FWL: LOCATION
PROV.                 Colorado: PROVINCE
CNTY.               Las Animas: COUNTRY
SRVC.                Patterson: SERVICE COMPANY
DATE.          Thu Sep 08 08:05:26 2005: LOG DATE
UWI.                          : UNIQUE WELL ID
~Curve Information Block
DEPT.FT            0 000 00 00: Depth
SP.mV                         : DIL Spontaneous Potential
RILD.Ohm-m                    : DIL Deep Resistivity
RILM.Ohm-m                    : DIL Medium Resistivity
RLL3.Ohm-m                    : DIL Shallow Resistivity
GR.GAPI                       : Gamma Ray
~Parameter Information Block
~A  Depth        SP         RILD        RILM        RLL3         GR     
# ...
  1588.0000    177.5249     19.9568     19.0091     17.3965   -999.2500
  1588.2500    177.5071     19.6777     18.7723     18.5256   -999.2500
  1588.5000    177.3604     19.4961     18.7436     19.5258   -999.2500
  1588.7500    177.1254     19.3717     18.9989     20.1085   -999.2500
  1589.0000    176.7429     19.2314     18.5757     20.3554   -999.2500
  1589.2500    176.2291     19.4430     18.9076     20.4516   -999.2500
  1589.5000    175.6669     19.0879     19.4589     21.1242   -999.2500
  1589.7500    175.0666     19.3198     19.7726     22.5583   -999.2500
  1590.0000    174.4615     19.7848     20.5817     24.8003   -999.2500
  1590.2500    173.8854     19.7344     20.9138     27.3326   -999.2500
  1590.5000    173.2928     20.1522     21.4001     30.3348   -999.2500
  1590.7500    172.7508     20.1867     21.3760     33.7587   -999.2500
  1591.0000    172.2042     20.7648     21.9103     33.3415   -999.2500
  1591.2500    171.7317     21.3595     22.2319     29.5732   -999.2500
  1591.5000    171.2024     21.9643     22.2860     27.4275   -999.2500
  1591.7500    170.6596     21.9807     22.6025     26.9748   -999.2500
  1592.0000    170.1402     22.1275     23.1293     27.2887   -999.2500
  1592.2500    169.5154     22.8998     23.4989     28.4656   -999.2500
  1592.5000    168.8005     23.4763     24.6368     30.2319   -999.2500
  1592.7500    168.0421     24.3789     25.3701     30.8119   -999.2500
  1593.0000    167.2948     24.1808     25.6250     31.3512   -999.2500
  1593.2500    166.6661     25.0883     26.3372     31.3983   -999.2500
  1593.5000    166.0932     25.4392     27.1993     30.7907   -999.2500
  1593.7500    165.6664     26.3025     28.3118     34.0472   -999.2500
  1594.0000    165.4342     27.8223     29.8405     41.2537   -999.2500
  1594.2500    165.3186     28.1676     31.6556     46.2930   -999.2500
  1594.5000    165.3377     29.4261     33.8735     48.3028   -999.2500
  1594.7500    165.3812     30.1529     36.1183     48.6667   -999.2500
  1595.0000    165.5395     30.6650     38.0044     52.0377   -999.2500
  1595.2500    165.8988     31.5592     40.5765     61.9211   -999.2500
  1595.5000    166.3872     31.5720     41.9860     73.6411   -999.2500
  1595.7500    167.0641     32.6887     43.0001     81.2149   -999.2500
  1596.0000    167.8039     33.1178     44.9280     79.0912   -999.2500
  1596.2500    168.6071     34.7466     45.3559     74.1168   -999.2500
  1596.5000    169.5314     35.0949     45.9889     71.8018   -999.2500
  1596.7500    170.4745     36.5076     44.6954     70.0398   -999.2500
  1597.0000    171.4052     37.8980     42.6793     61.1432   -999.2500
  1597.2500    172.0495     33.8869     44.1173     47.8638   -999.2500
  1597.5000    172.5273     32.5949     46.4537     43.8309   -999.2500
  1597.7500    173.1746     30.5783     45.6851     53.5194   -999.2500
  1598.0000    173.9984     30.0157     49.0352     73.2808   -999.2500
  1598.2500    175.0398     30.8511     51.8637     87.9291   -999.2500
  1598.5000    176.3181     29.2080     56.3159     92.7417   -999.2500
  1598.7500    177.7062     27.9370     59.6016     98.1723   -999.2500
  1599.0000    179.0911     26.2153     55.8311    104.5369   -999.2500
  1599.2500    180.6321     25.1225     50.4855    103.2956   -999.2500
  1599.5000    182.6374     24.2044     44.5901     91.4813   -999.2500
  1599.7500    184.8324     23.3457     40.0506     75.5522   -999.2500
  1600.0000    187.2608     22.3957     34.6188     53.7293   -999.2500
  1600.2500    189.6729     21.6254     30.8463     35.5991   -999.2500
  1600.5000    191.7597     20.4362     27.8002     23.9398   -999.2500
  1600.7500    193.3746     19.4621     24.3302     19.6745   -999.2500
  1601.0000    194.7138     19.6580     22.4629     19.1429   -999.2500
  1601.2500    195.8908     19.4367     21.2494     19.5480   -999.2500
  1601.5000    197.0578     19.0490     19.8660     19.4461   -999.2500
  1601.7500    198.0051     18.1872     18.4354     18.9430   -999.2500
  1602.0000    198.5743     17.3948     17.7552     17.9309   -999.2500
  1602.2500    198.7676     16.6494     17.3317     16.9530   -999.2500
  1602.5000    198.9769     16.4644     16.7308     16.2316   -999.2500
  1602.7500    199.2695     16.2553     16.3774     16.0071   -999.2500
  1603.0000    199.3465     16.0842     16.1704     16.0849   -999.2500
  1603.2500    199.2947     15.9636     16.3026     16.7283   -999.2500
  1603.5000    199.4832     16.0630     16.7847     18.4396   -999.2500
  1603.7500    178.6002     17.6023     17.2660     20.5509   -999.2500
  1604.0000     21.3422     58.1435     17.5971     22.0124   -999.2500
  1604.2500      0.0528     82.9326     17.6629     21.7153   -999.2500
  1604.5000   -999.2500    338.6316     18.0177     20.3852   -999.2500
  1604.7500   -999.2500    323.8320     18.2338     20.0431   -999.2500
  1605.0000   -999.2500    310.4719     18.7247     20.1598   -999.2500
  1605.2500   -999.2500    297.6541     19.1938     20.6053   -999.2500
  1605.5000   -999.2500    294.7987     19.6341     22.4537   -999.2500
  1605.7500   -999.2500    291.5080     19.9124     25.0851   -999.2500
  1606.0000   -999.2500    288.9767     19.8981     27.3386   -999.2500
  1606.2500   -999.2500    287.2375     19.1020     27.1682   -999.2500
  1606.5000   -999.2500    289.8528     17.7989     24.0509   -999.2500
  1606.7500   -999.2500    318.9180     16.3588     20.1070   -999.2500
  1607.0000   -999.2500   1167.6962     15.7329     16.2677   -999.2500
  1607.2500   -999.2500   1819.4698     15.0058     13.4625   -999.2500
  1607.5000   -999.2500 100000.0000     15.6751     13.1273   -999.2500
  1607.7500   -999.2500 100000.0000     62.1054     13.3630   -999.2500
  1608.0000   -999.2500 100000.0000    103.6950     13.8324   -999.2500
  1608.2500   -999.2500 100000.0000    810.4688     14.0323   -999.2500
  1608.5000   -999.2500 100000.0000    833.6880     13.1616   -999.2500
  1608.7500   -999.2500 100000.0000    857.0200     12.6586   -999.2500
  1609.0000   -999.2500 100000.0000    873.6323     12.4712   -999.2500
  1609.2500   -999.2500 100000.0000    877.8970     12.2700   -999.2500
  1609.5000   -999.2500 100000.0000    896.3049     12.2754   -999.2500
  1609.7500   -999.2500 100000.0000    908.9579     12.6703   -999.2500
  1610.0000   -999.2500 100000.0000    943.0872     14.1569   -999.2500
  1610.2500   -999.2500 100000.0000    960.5347     15.7670   -999.2500
  1610.5000   -999.2500 100000.0000    984.5611     16.0590   -999.2500
  1610.7500   -999.2500 100000.0000    999.0262     15.3560   -999.2500
  1611.0000   -999.2500   -999.2500    999.7136     14.3822   -999.2500
  1611.2500   -999.2500   -999.2500    960.2216     12.9172   -999.2500
  1611.5000   -999.2500   -999.2500    895.0786     12.7345   -999.2500
  1611.7500   -999.2500   -999.2500    822.9816     14.5324   -999.2500
  1612.0000   -999.2500   -999.2500    791.6894     16.2387   -999.2500
  1612.2500   -999.2500   -999.2500    755.0562     17.1233   -999.2500
  1612.5000   -999.2500   -999.2500    789.6422     18.7254   -999.2500
  1612.7500   -999.2500   -999.2500   3303.5640     18.5443   -999.2500
  1613.0000   -999.2500   -999.2500   5844.3555      1.3668   -999.2500
  1613.2500   -999.2500   -999.2500 100000.0000     -0.9941   -999.2500
  1613.5000   -999.2500   -999.2500 100000.0000   -999.2500   -999.2500
  1613.7500   -999.2500   -999.2500 100000.0000   -999.2500   -999.2500
  1614.0000   -999.2500   -999.2500 100000.0000   -999.2500   -999.2500
  1614.2500   -999.2500   -999.2500 100000.0000   -999.2500   -999.2500
  1614.5000   -999.2500   -999.2500 100000.0000   -999.2500   -999.2500
  1614.7500   -999.2500   -999.2500 100000.0000   -999.2500   -999.2500
  1615.0000   -999.2500   -999.2500 100000.0000   -999.2500   -999.2500
  1615.2500   -999.2500   -999.2500 100000.0000   -999.2500   -999.2500
  1615.5000   -999.2500   -999.2500 100000.0000   -999.2500   -999.2500
