~Version Information
 VERS.                                  2.0 : CWLS LAS VERSION
 WRAP.                                   NO : WRAPING MODE
 SWARE .                 MController 2.5.0J : SOFTWARE VERSION
~Well Information
 WELL.                         McLeod 9-42V: WELL
 COMP.                       Petrogulf Corp : COMPANY
 FLD.                       Purgatoire River: FIELD
 LOC.                  SE/NE Sec 9 T33S R67W: LOCATION
 DATE.                             11/11/04 : DATE(S) LOGGED
 SRVC.        Blanco Geological Services LLC: SERVICE COMPANY
 STAT.                                    CO: STATE
 CNTY.                            Las Animas: COUNTY
 CTRY.                                   USA: COUNTRY
 API.                           05-071-08071: API NUMBER
 STRT.FT                             424.00 : START DEPTH
 STOP.FT                            2270.00 : STOP DEPTH
 STEP.FT                               1.00 : DEPTH INCREMENT
 NULL.                                -9999 : NULL VALUE
~Curve information
 DEPTH.FT                                   :
 ROP.MIN/FT                                 :
 GAS.UNITS                                  :
~ASCII Log data
       424.0     -9999.00          3.9 
       425.0         0.80          3.9 
       426.0         0.20          4.7 
       427.0         0.10          4.0 
       428.0         0.10          4.9 
       429.0         0.10          4.2 
       430.0         0.10          3.7 
       431.0         0.10          3.8 
       432.0         0.10          3.2 
       433.0         0.07          3.1 
       434.0         0.10          5.1 
       435.0         0.07          5.1 
       436.0         0.10          5.0 
       437.0         0.27          5.7 
       438.0         0.45          4.6 
       439.0         0.27          4.2 
       440.0         0.40          6.0 
       441.0         0.37          5.4 
       442.0         0.27          5.4 
       443.0         0.10          5.1 
       444.0         0.13          5.9 
       445.0         0.07          4.6 
       446.0         0.10          4.0 
       447.0         0.07          4.2 
       448.0         0.53          4.1 
       449.0         0.32          4.7 
       450.0         0.50          5.5 
       451.0         0.43          5.1 
       452.0         0.23          5.1 
       453.0         0.20          5.0 
       454.0         0.07          4.9 
       455.0         0.10          5.7 
       456.0         0.10          5.5 
       457.0         0.13          5.5 
       458.0         0.07          5.8 
       459.0         0.27          5.7 
       460.0         0.27          5.1 
       461.0         0.67          5.0 
       462.0         0.38          4.9 
       463.0         0.20          5.9 
       464.0         0.97          5.2 
       465.0         1.00          5.9 
       466.0         0.47          5.9 
       467.0         0.20          5.7 
       468.0         0.68          6.0 
       469.0         0.33          5.1 
       470.0         0.27          5.1 
       471.0         0.10          5.7 
       472.0         1.03          5.4 
       473.0         0.37          6.5 
       474.0         0.50          5.4 
       475.0         0.48          6.1 
       476.0         0.37          6.2 
       477.0         1.00          5.6 
       478.0         0.43          7.4 
       479.0         1.07          7.7 
       480.0         0.35          7.2 
       481.0         0.90          6.3 
       482.0         0.40          6.2 
       483.0         0.63          7.0 
       484.0         0.37          7.3 
       485.0         1.12          6.9 
       486.0         0.57          5.4 
       487.0         0.33          4.9 
       488.0         1.63          4.2 
       489.0         0.48          4.1 
       490.0        10.08          3.4 
       491.0         0.40          4.5 
       492.0         1.23          5.5 
       493.0         0.10          5.5 
       494.0         0.07          4.9 
       495.0         0.10          5.4 
       496.0         0.13          5.2 
       497.0         0.07          5.7 
       498.0         0.13          5.8 
       499.0         0.10          5.4 
       500.0         0.10          6.0 
       501.0         0.25          5.6 
       502.0         0.23          5.6 
       503.0         0.20          5.4 
       504.0         0.13          6.0 
       505.0         0.17          5.7 
       506.0         0.13          6.4 
       507.0         0.13          5.4 
       508.0         0.10          5.5 
       509.0         0.10          5.5 
       510.0         0.10          4.8 
       511.0         0.17          5.0 
       512.0         0.10          4.8 
       513.0         0.17          4.8 
       514.0         0.17          5.0 
       515.0         0.23          4.9 
       516.0         0.20          4.7 
       517.0         0.23          5.2 
       518.0         0.17          6.2 
       519.0         0.17          7.6 
       520.0         0.13         10.8 
       521.0         0.18         16.7 
       522.0         0.23         26.6 
       523.0         0.13         32.8 
       524.0         0.20         40.9 
       525.0         0.20         43.2 
       526.0         0.27          5.0 
       527.0         0.23          4.6 
       528.0         0.28          3.9 
       529.0         0.27          4.5 
       530.0         0.27          4.6 
       531.0         0.27          4.2 
       532.0         0.20          4.9 
       533.0         0.20          5.8 
       534.0         0.17          4.5 
       535.0         0.17          4.4 
       536.0         0.13          4.7 
       537.0         0.17          4.9 
       538.0         0.23          5.2 
       539.0         0.20          5.1 
       540.0         0.20          4.4 
       541.0         0.23          4.9 
       542.0         0.30          5.5 
       543.0         0.28          4.7 
       544.0         0.23          5.1 
       545.0         0.13          5.4 
       546.0         0.13          4.9 
       547.0         0.13          5.4 
       548.0         0.17          5.6 
       549.0         0.13          4.9 
       550.0         0.13          4.7 
       551.0         0.13          4.5 
       552.0         0.17          4.7 
       553.0         0.17          4.1 
       554.0         0.13          4.6 
       555.0         0.13          5.3 
       556.0         0.27          5.1 
       557.0         0.17          5.0 
       558.0         0.23          5.0 
       559.0         0.27          5.5 
       560.0         0.20          5.8 
       561.0         0.20          5.4 
       562.0         0.30          5.5 
       563.0         0.23          5.4 
       564.0         0.23          5.3 
       565.0         0.20          5.3 
       566.0         0.37          6.1 
       567.0         0.32          5.4 
       568.0         0.20          5.9 
       569.0         0.17          5.3 
       570.0         0.40          5.7 
       571.0         0.23          5.7 
       572.0         0.17          5.0 
       573.0         0.17          5.4 
       574.0         0.20          4.7 
       575.0         0.20          4.6 
       576.0         0.20         15.2 
       577.0         0.17         21.3 
       578.0         0.23         23.0 
       579.0         0.20         23.7 
       580.0         0.20         23.5 
       581.0         0.23         24.4 
       582.0         0.23         24.4 
       583.0         0.22         22.8 
       584.0         0.17         22.3 
       585.0         0.27         23.0 
       586.0         0.17         24.1 
       587.0         0.27         18.1 
       588.0         0.13         17.2 
       589.0         0.13         17.9 
       590.0         0.25         19.7 
       591.0         0.17         20.8 
       592.0         0.17         23.9 
       593.0         0.17         27.6 
       594.0         0.17         33.7 
       595.0         0.17         38.6 
       596.0         0.17         39.2 
       597.0         0.13         38.4 
       598.0         0.13         36.2 
       599.0         0.13         31.5 
       600.0         0.13         28.6 
       601.0         0.13         38.7 
       602.0         0.17         84.3 
       603.0         0.13        110.6 
       604.0         0.17        112.3 
       605.0         0.17         98.8 
       606.0         0.17         83.2 
       607.0         0.13         72.1 
       608.0         0.13         62.9 
       609.0         0.17         53.3 
       610.0         0.13         46.3 
       611.0         0.17         40.3 
       612.0         0.18         34.6 
       613.0         0.20         31.6 
       614.0         0.20         27.7 
       615.0         0.17         24.9 
       616.0         0.17         22.4 
       617.0         0.17         20.8 
       618.0         0.27         12.4 
       619.0         0.27         10.9 
       620.0         0.35          9.7 
       621.0         0.30          9.2 
       622.0         0.33          9.5 
       623.0         0.23         10.9 
