~Version Information
VERS.                      2.0: CWLS Log ASCII Standard - VERSION 2.0
WRAP.                       NO: One line per depth step
~Well Information Block
STRT.FT               430.0000: 
STOP.FT              2826.2500: 
STEP.FT                 0.2500: 
NULL.                -999.2500: 
COMP.          Pioneer Natural Resources: COMPANY
WELL.           Ei-ei-oh 31-24: WELL
FLD.           Purgatoire River: FIELD
LOC.           235' FNL & 2001' FEL--: LOCATION
PROV.                 Colorado: PROVINCE
CNTY.               Las Animas: COUNTRY
SRVC.                Patterson: SERVICE COMPANY
DATE.          Thu Jun 16 06:46:37 2005: LOG DATE
UWI.           05 071 08403 00: UNIQUE WELL ID
~Curve Information Block
DEPT.FT            0 000 00 00: Depth
DIR.Ohm-m                     : IEL Induction Resistivity
SN.Ohm-m                      : IEL Short Normal
SP.mV                         : IEL Spontaneous Potential
GR.GAPI                       : Gamma Ray
~Parameter Information Block
~A  Depth       DIR          SN          SP          GR     
# ...
  2507.0000      8.3375      8.4889    329.5112    137.3711
  2507.2500      8.5603      8.6536    330.7696    141.3034
  2507.5000      8.7990      8.8565    331.9607    139.5664
  2507.7500      9.0469      9.0666    333.0072    135.2205
  2508.0000      9.2877      9.2288    333.8647    130.0404
  2508.2500      9.5012      9.2867    334.5195    129.7782
  2508.5000      9.6728      9.2163    334.9804    132.4087
  2508.7500      9.8040      9.0540    335.2699    132.9965
  2509.0000      9.9158      8.9050    335.4164    128.6104
  2509.2500     10.0424      8.9273    335.4513    122.8578
  2509.5000     10.2201      9.2913    335.4084    113.6232
  2509.7500     10.4775     10.1177    335.3276    108.7173
  2510.0000     10.8293     11.4114    335.2582    104.1166
  2510.2500     11.2740     13.0280    335.2600    102.5011
  2510.5000     11.7934     14.7108    335.4019    100.6473
  2510.7500     12.3542     16.1943    335.7557     98.8591
  2511.0000     12.9126     17.3108    336.3877     94.6208
  2511.2500     13.4198     18.0282    337.3479     90.7953
  2511.5000     13.8293     18.4063    338.6607     84.1607
  2511.7500     14.1035     18.5220    340.3175     80.0271
  2512.0000     14.2164     18.4220    342.2743     76.4651
  2512.2500     14.1551     18.1202    344.4550     76.7090
  2512.5000     13.9202     17.6190    346.7594     80.4712
  2512.7500     13.5263     16.9282    349.0757     84.0555
  2513.0000     13.0016     16.0718    351.2940     89.1342
  2513.2500     12.3837     15.0899    353.3194     91.8221
  2513.5000     11.7156     14.0396    355.0805     95.3863
  2513.7500     11.0404     12.9922    356.5339     98.6447
  2514.0000     10.3973     12.0217    357.6635    107.0604
  2514.2500      9.8168     11.1861    358.4762    114.9437
  2514.5000      9.3185     10.5113    358.9955    126.8717
  2514.7500      8.9101      9.9904    359.2551    132.6199
  2515.0000      8.5900      9.5946    359.2934    136.5688
  2515.2500      8.3496      9.2896    359.1500    136.6797
  2515.5000      8.1765      9.0468    358.8634    134.4288
  2515.7500      8.0574      8.8467    358.4703    131.7432
  2516.0000      7.9797      8.6758    358.0057    126.3613
  2516.2500      7.9346      8.5209    357.5034    122.2699
  2516.5000      7.9174      8.3666    356.9980    116.6512
  2516.7500      7.9277      8.1980    356.5263    114.0954
  2517.0000      7.9675      8.0089    356.1288    112.2862
  2517.2500      8.0391      7.8077    355.8511    111.5466
  2517.5000      8.1405      7.6155    355.7425    109.3719
  2517.7500      8.2619      7.4534    355.8534    107.1617
  2518.0000      8.3827      7.3301    356.2304    104.3786
  2518.2500      8.4733      7.2383    356.9088    103.8757
  2518.5000      8.5023      7.1639    357.9047    105.5529
  2518.7500      8.4466      7.1014    359.2073    107.9676
  2519.0000      8.3017      7.0623    360.7747    112.4827
  2519.2500      8.0840      7.0689    362.5327    114.9725
  2519.5000      7.8244      7.1411    364.3810    115.6282
  2519.7500      7.5571      7.2854    366.2028    113.4250
  2520.0000      7.3101      7.4902    367.8802    106.7391
  2520.2500      7.1002      7.7296    369.3079    100.2553
  2520.5000      6.9331      7.9716    370.4057     87.0663
  2520.7500      6.8057      8.1833    371.1257     76.2967
  2521.0000      6.7107      8.3342    371.4522     60.1798
  2521.2500      6.6418      8.4014    371.3986     52.0681
  2521.5000      6.5984      8.3794    370.9985     47.5878
  2521.7500      6.5864      8.2863    370.2985     50.5735
  2522.0000      6.6166      8.1616    369.3500     62.4583
  2522.2500      6.7003      8.0584    368.2042     72.9258
  2522.5000      6.8461      8.0303    366.9085     87.4809
  2522.7500      7.0572      8.1154    365.5052     94.1994
  2523.0000      7.3296      8.3206    364.0315     98.6436
  2523.2500      7.6517      8.6205    362.5198     98.7267
  2523.5000      8.0050      8.9736    360.9989     97.5320
  2523.7500      8.3670      9.3451    359.4945     97.6182
  2524.0000      8.7173      9.7178    358.0287    100.7320
  2524.2500      9.0429     10.0868    356.6193    104.4771
  2524.5000      9.3419     10.4484    355.2773    110.1606
  2524.7500      9.6225     10.7977    354.0055    112.4538
  2525.0000      9.8981     11.1320    352.7963    112.6728
  2525.2500     10.1821     11.4546    351.6318    111.2337
  2525.5000     10.4856     11.7762    350.4852    108.5199
  2525.7500     10.8170     12.1134    349.3231    107.2936
  2526.0000     11.1821     12.4848    348.1084    107.1491
  2526.2500     11.5833     12.9051    346.8039    108.0773
  2526.5000     12.0185     13.3833    345.3739    110.4068
  2526.7500     12.4806     13.9255    343.7857    112.4642
  2527.0000     12.9603     14.5385    342.0091    116.4496
  2527.2500     13.4529     15.2334    340.0163    119.3876
  2527.5000     13.9666     16.0334    337.7816    122.1458
  2527.7500     14.5250     16.9812    335.2829    121.2840
  2528.0000     15.1610     18.1423    332.5053    114.7352
  2528.2500     15.9073     19.6000    329.4460    107.7760
  2528.5000     16.7894     21.4402    326.1208     96.6676
  2528.7500     17.8227     23.7232    322.5698     90.3961
  2529.0000     19.0104     26.4528    318.8590     83.5310
  2529.2500     20.3392     29.5684    315.0787     80.1523
  2529.5000     21.7762     32.9838    311.3360     75.4191
  2529.7500     23.2735     36.6509    307.7439     71.9876
  2530.0000     24.7842     40.5833    304.4089     67.2502
  2530.2500     26.2771     44.7879    301.4210     65.7745
  2530.5000     27.7382     49.1470    298.8461     68.2781
  2530.7500     29.1545     53.3640    296.7237     72.8571
  2531.0000     30.4915     57.0384    295.0684     80.3583
  2531.2500     31.6810     59.8202    293.8738     83.0463
  2531.5000     32.6319     61.5310    293.1174     81.7519
  2531.7500     33.2662     62.1903    292.7646     78.6126
  2532.0000     33.5616     61.9688    292.7726     74.4938
  2532.2500     33.5707     61.1179    293.0921     73.8052
  2532.5000     33.4019     59.9001    293.6702     75.9324
  2532.7500     33.1767     58.5321    294.4522     78.1226
  2533.0000     32.9931     57.1478    295.3836     79.9417
  2533.2500     32.9081     55.7918    296.4127     79.6434
  2533.5000     32.9360     54.4437    297.4926     77.8276
  2533.7500     33.0562     53.0632    298.5829     76.1891
  2534.0000     33.2228     51.6337    299.6501     72.7205
  2534.2500     33.3761     50.1797    300.6689     69.5394
  2534.5000     33.4541     48.7508    301.6211     64.6328
  2534.7500     33.4043     47.3929    302.4961     62.3882
  2535.0000     33.2002     46.1355    303.2908     61.1098
  2535.2500     32.8556     44.9960    304.0100     60.8395
  2535.5000     32.4226     43.9842    304.6671     59.5175
  2535.7500     31.9658     43.0928    305.2848     57.6613
  2536.0000     31.5297     42.2820    305.8938     54.0602
  2536.2500     31.1221     41.4753    306.5313     51.7050
  2536.5000     30.7174     40.5711    307.2366     49.0267
  2536.7500     30.2697     39.4678    308.0458     48.1944
  2537.0000     29.7224     38.0990    308.9864     48.9711
  2537.2500     29.0175     36.4634    310.0722     50.8962
  2537.5000     28.1114     34.6290    311.3004     54.9299
  2537.7500     26.9904     32.6990    312.6507     57.4223
  2538.0000     25.6727     30.7585    314.0876     60.1408
  2538.2500     24.1974     28.8430    315.5639     61.8902
  2538.5000     22.6131     26.9484    317.0262     66.1027
  2538.7500     20.9752     25.0697    318.4208     70.2536
  2539.0000     19.3453     23.2364    319.6986     77.3885
  2539.2500     17.7867     21.5182    320.8197     81.9133
  2539.5000     16.3551     19.9950    321.7568     87.9452
  2539.7500     15.0890     18.7110    322.4958     91.8021
  2540.0000     14.0057     17.6454    323.0358     97.6918
  2540.2500     13.1013     16.7209    323.3864    101.3835
