~Version Information
VERS.                      2.0: CWLS Log ASCII Standard - VERSION 2.0
WRAP.                       NO: One line per depth step
~Well Information Block
STRT.FT               588.6000: 
STOP.FT              2281.0000: 
STEP.FT                 0.1000: 
NULL.                -999.2500: 
COMP.          Petrogulf Corporation: COMPANY
WELL.             State 16-41V: WELL
FLD.           Purgatorie River: FIELD
LOC.           335' FNL & 823' FEL: LOCATION
CNTY.               Las Animas: COUNTY
SRVC.                         : SERVICE COMPANY
DATE.          Tue Aug 02 07:31:25 2005: LOG DATE
UWI.                          : UNIQUE WELL ID
STAT.                 Colorado: STATE
~Curve Information Block
DEPT.FT            0 000 00 00: Depth
DCAL.in                       : CDL Caliper
RHOB.g/cc                     : CDL Bulk Density
RHOC.g/cc                     : CDL Density Correction
DPOR.pu                       : CDL Density Porosity
GR.GAPI                       : Gamma Ray
NPOR.pu                       : Neutron Porosity
~Parameter Information Block
~A  Depth       DCAL        RHOB        RHOC        DPOR         GR         NPOR    
# ...
  1251.0000      7.9984      2.6325      0.0485      1.0613    120.9537     28.7379
  1251.1000      7.9984      2.6380      0.0208      0.7245    115.6780     28.5401
  1251.2000      7.9984      2.6432      0.0692      0.4132    111.4251     28.3057
  1251.3000      8.1134      2.6341      0.0198      0.9651    109.1561     28.0420
  1251.4000      8.1134      2.6161      0.0123      2.0557    107.3928     27.7571
  1251.5000      8.1264      2.6047      0.0462      2.7442    106.6109     27.4595
  1251.6000      8.1264      2.6013      0.0429      2.9507    108.3994     27.1574
  1251.7000      8.1264      2.6003      0.0303      3.0147    109.2572     26.8586
  1251.8000      8.0551      2.5977      0.0726      3.1676    106.3999     26.5707
  1251.9000      8.0551      2.5873      0.0827      3.7986    103.9627     26.3005
  1252.0000      8.0198      2.5722     -0.0007      4.7129    103.9515     26.0543
  1252.1000      8.0198      2.5681      0.0165      4.9617    103.5154     25.8373
  1252.2000      8.0198      2.5724      0.0633      4.7028    103.7512     25.6538
  1252.3000      7.9846      2.5649      0.0583      5.1588    107.0648     25.5064
  1252.4000      7.9846      2.5451      0.0322      6.3591    110.7735     25.3958
  1252.5000      8.0084      2.5338      0.0429      7.0451    112.1027     25.3211
  1252.6000      8.0084      2.5433      0.0373      6.4643    111.8797     25.2791
  1252.7000      8.0084      2.5692      0.0747      4.8985    112.4909     25.2652
  1252.8000      7.9823      2.5998      0.0661      3.0401    113.8617     25.2732
  1252.9000      7.9823      2.6290      0.1233      1.2749    112.5598     25.2961
  1253.0000      7.9699      2.6510      0.1789     -0.0610    107.1226     25.3270
  1253.1000      7.9699      2.6600      0.1469     -0.6052    100.5015     25.3596
  1253.2000      7.9699      2.6586      0.1627     -0.5238     96.6235     25.3882
  1253.3000      7.9300      2.6545      0.1097     -0.2752     96.9018     25.4089
  1253.4000      7.9300      2.6508      0.1416     -0.0467     99.0014     25.4189
  1253.5000      7.9415      2.6477      0.1207      0.1422     98.9619     25.4171
  1253.6000      7.9415      2.6447      0.1701      0.3185     96.8713     25.4029
  1253.7000      7.9415      2.6325      0.1660      1.0610     96.0913     25.3765
  1253.8000      7.9414      2.6080      0.1023      2.5439     97.0624     25.3384
  1253.9000      7.9414      2.5840      0.0538      3.9972     97.7444     25.2894
  1254.0000      7.9925      2.5705      0.0643      4.8184     96.0768     25.2304
  1254.1000      7.9925      2.5701      0.0791      4.8431     92.6091     25.1630
  1254.2000      7.9925      2.5850      0.0507      3.9420     91.8591     25.0895
  1254.3000      8.0219      2.6090      0.1061      2.4835     95.6782     25.0131
  1254.4000      8.0219      2.6229      0.1269      1.6444    101.1609     24.9385
  1254.5000      7.9797      2.6186      0.1048      1.9045    106.6453     24.8709
  1254.6000      7.9797      2.6093      0.1060      2.4658    111.2959     24.8160
  1254.7000      7.9797      2.6067      0.1462      2.6237    113.2968     24.7792
  1254.8000      7.9656      2.6120      0.1303      2.3056    113.6503     24.7645
  1254.9000      7.9656      2.6215      0.1271      1.7282    115.6441     24.7747
  1255.0000      7.9904      2.6209      0.1212      1.7636    119.9722     24.8100
  1255.1000      7.9904      2.5926      0.1460      3.4763    122.8432     24.8690
  1255.2000      7.9904      2.5445      0.0632      6.3927    121.0544     24.9482
  1255.3000      7.9907      2.5094      0.0444      8.5231    116.8019     25.0432
  1255.4000      7.9907      2.5104      0.0550      8.4599    112.5311     25.1497
  1255.5000      8.0226      2.5462      0.0733      6.2905    108.4990     25.2633
  1255.6000      8.0226      2.5967      0.1352      3.2326    105.8301     25.3810
  1255.7000      8.0226      2.6347      0.1687      0.9299    105.9182     25.5002
  1255.8000      8.0191      2.6458      0.1849      0.2535    108.1449     25.6194
  1255.9000      8.0191      2.6339      0.1628      0.9787    110.0404     25.7375
  1256.0000      7.9502      2.6139      0.1264      2.1873    112.0103     25.8533
  1256.1000      7.9502      2.6019      0.1109      2.9135    114.9449     25.9654
  1256.2000      7.9502      2.5973      0.1241      3.1966    116.6933     26.0716
  1256.3000      7.9419      2.5866      0.1204      3.8411    116.4005     26.1695
  1256.4000      7.9419      2.5719      0.0697      4.7339    117.2175     26.2559
  1256.5000      7.9948      2.5691      0.0715      4.9032    121.5555     26.3278
  1256.6000      7.9948      2.5801      0.0993      4.2391    125.9410     26.3820
  1256.7000      7.9948      2.5951      0.0795      3.3256    126.2894     26.4158
  1256.8000      7.9919      2.6009      0.1479      2.9735    124.7200     26.4270
  1256.9000      7.9919      2.5875      0.0924      3.7877    125.7558     26.4141
  1257.0000      7.9793      2.5710      0.0635      4.7907    129.8672     26.3770
  1257.1000      7.9793      2.5707      0.0845      4.8073    134.1242     26.3166
  1257.2000      7.9793      2.5794      0.1134      4.2796    135.3358     26.2354
  1257.3000      7.9616      2.5867      0.1334      3.8387    133.6535     26.1371
  1257.4000      7.9616      2.5959      0.1106      3.2808    133.0983     26.0268
  1257.5000      7.9585      2.6038      0.1625      2.8006    134.6811     25.9106
  1257.6000      7.9585      2.5991      0.1705      3.0871    136.1393     25.7949
  1257.7000      7.9585      2.5838      0.1279      4.0116    139.0656     25.6866
  1257.8000      7.9937      2.5667      0.1420      5.0471    145.8352     25.5925
  1257.9000      7.9937      2.5474      0.1024      6.2182    152.9933     25.5188
  1258.0000      8.0272      2.5279      0.0944      7.4013    156.9719     25.4709
  1258.1000      8.0272      2.5151      0.0583      8.1735    157.7776     25.4534
  1258.2000      8.0272      2.5051      0.0774      8.7797    156.7325     25.4698
  1258.3000      8.0086      2.4909      0.0493      9.6413    156.0830     25.5225
  1258.4000      8.0086      2.4796      0.0572     10.3253    156.2026     25.6130
  1258.5000      8.0296      2.4776      0.0997     10.4485    156.7828     25.7416
  1258.6000      8.0296      2.4831      0.0727     10.1144    158.3560     25.9079
  1258.7000      8.0296      2.4993      0.0798      9.1348    159.4492     26.1107
  1258.8000      8.0395      2.5294      0.1313      7.3094    159.2487     26.3480
  1258.9000      8.0395      2.5693      0.1661      4.8936    160.5989     26.6172
  1259.0000      8.0410      2.6097      0.1794      2.4410    164.4497     26.9146
  1259.1000      8.0410      2.6402      0.2362      0.5925    166.9503     27.2358
  1259.2000      8.0410      2.6537      0.2257     -0.2244    165.1581     27.5746
  1259.3000      8.0276      2.6503      0.2264     -0.0176    160.1387     27.9233
  1259.4000      8.0276      2.6368      0.1795      0.8018    152.7821     28.2718
  1259.5000      7.9695      2.6196      0.2045      1.8453    144.5597     28.6079
  1259.6000      7.9695      2.5994      0.1775      3.0652    137.9063     28.9175
  1259.7000      7.9695      2.5815      0.0437      4.1496    132.5849     29.1852
  1259.8000      7.9978      2.5689      0.0703      4.9171    127.1483     29.3960
  1259.9000      7.9978      2.5584      0.0467      5.5525    122.6950     29.5364
  1260.0000      8.0356      2.5629      0.0000      5.2809    120.8569     29.5966
  1260.1000      8.0356      2.5970      0.0237      3.2112    118.6281     29.5723
  1260.2000      8.0356      2.6466      0.1247      0.2047    112.1737     29.4653
  1260.3000      7.9982      2.6857      0.1355     -2.1658    104.3379     29.2844
  1260.4000      7.9982      2.7062      0.1504     -3.4088    101.1932     29.0444
  1260.5000      7.9195      2.7161      0.1233     -4.0056    103.2217     28.7648
