~Version Information
VERS.                      2.0: CWLS Log ASCII Standard - VERSION 2.0
WRAP.                       NO: One line per depth step
~Well Information Block
STRT.FT                -8.2500: 
STOP.FT              1119.7500: 
STEP.FT                 0.2500: 
NULL.                -999.2500: 
COMP.          Pioneer Natural Resources: COMPANY
WELL.             Linda T 32-3: WELL
FLD.           Purgatorie River: FIELD
LOC.           1350' FNL & 2290' FEL------: LOCATION
PROV.                       CO: PROVINCE
CNTY.               Las Animas: COUNTRY
SRVC.                         : SERVICE COMPANY
DATE.          Thu Feb 10 08:20:40 2005: LOG DATE
UWI.          005 071 08215   : UNIQUE WELL ID
~Curve Information Block
DEPT.FT            0 000 00 00: Depth
CCL.                          : Casing Collar Locator
TT3.usec                      : CBL 3' Travel Time
AMP3.mV                       : CBL 3' Amplitude
GR.GAPI                       : Gamma Ray
~Parameter Information Block
~A  Depth       CCL         TT3         AMP3         GR     
# ...
   862.7500      0.0000    704.1701      4.5774     98.9591
   863.0000      0.0000    709.1495      4.7489     95.9018
   863.2500      0.0000    718.3695      4.8330     92.9077
   863.5000      0.0000    728.7291      4.8738     89.7368
   863.7500      0.0000    737.5284      4.9391     85.4724
   864.0000      0.0000    743.6032      5.0704     79.0004
   864.2500      0.0000    746.9426      5.2654     70.3138
   864.5000      0.0000    747.7441      5.4924     61.0597
   864.7500      0.0000    746.2661      5.6977     53.7718
   865.0000      0.0000    743.2216      5.8060     50.7085
   865.2500      0.0000    739.6838      5.7499     52.8508
   865.5000      0.0000    736.3804      5.5210     59.1779
   865.7500      0.0000    733.2837      5.1939     67.1191
   866.0000      0.0000    730.1450      4.8957     74.2539
   866.2500      0.0000    727.3113      4.7305     79.4248
   866.5000      0.0000    725.5805      4.7078     82.4754
   866.7500      0.0000    724.9913      4.7383     83.9232
   867.0000      0.0000    723.9899      4.7131     84.9358
   867.2500      0.0000    720.0594      4.5979     86.6878
   867.5000      0.0000    710.8727      4.4582     89.4359
   867.7500      0.0000    694.5883      4.3984     92.5505
   868.0000      0.0000    669.6730      4.4835     95.2784
   868.2500      0.0000    635.9673      4.7091     96.9551
   868.5000      0.0000    596.8273      5.0167     96.6186
   868.7500      0.0000    559.1284      5.3133     93.3052
   869.0000      0.0000    529.2928      5.4915     87.1806
   869.2500      0.0000    508.9289      5.4766     80.0144
   869.5000      0.0000    495.2103      5.2853     74.1823
   869.7500      0.0000    485.2228      5.0362     71.2842
   870.0000      0.0000    478.5872      4.8781     71.4648
   870.2500      0.0000    476.0592      4.8831     73.4417
   870.5000      0.0000    477.6214      4.9990     75.2500
   870.7500      0.0000    483.3811      5.0957     75.6267
   871.0000      0.0000    495.9785      5.0546     75.0451
   871.2500      0.0000    520.3958      4.8353     75.2971
   871.5000      0.0000    559.4534      4.4920     77.9586
   871.7500      0.0000    609.0236      4.1452     83.1775
   872.0000      0.0000    658.9220      3.9243     89.6242
   872.2500      0.0000    699.6199      3.9049     95.3124
   872.5000      0.0000    727.9325      4.0694     98.6630
   872.7500      0.0000    746.3001      4.3159     99.2590
   873.0000      0.0000    757.9644      4.5163     97.8191
   873.2500      0.0000    763.6033      4.5907     95.5104
   873.5000      0.0000    761.5204      4.5375     93.3937
   873.7500      0.0000    749.6808      4.4041     92.4940
   874.0000      0.0000    727.6138      4.2457     93.8642
   874.2500      0.0000    697.3072      4.1145     98.0922
   874.5000      0.0000    663.0159      4.0543    104.7737
   874.7500      0.0000    630.2986      4.0844    112.5664
   875.0000      0.0000    604.6431      4.1969    119.7633
   875.2500      0.0000    590.2733      4.3600    124.7550
   875.5000      0.0000    589.7392      4.5124    126.1359
   875.7500      0.0000    603.6685      4.5849    123.0132
   876.0000      0.0000    629.7522      4.5614    115.7824
   876.2500      0.0000    661.8865      4.5031    106.4027
   876.5000      0.0000    691.7052      4.4834     97.2732
   876.7500      0.0000    712.6058      4.5088     89.6649
   877.0000      0.0000    722.9559      4.5247     83.4548
   877.2500      0.0000    725.6430      4.4879     78.1233
   877.5000      0.0000    725.1496      4.4118     73.3595
   877.7500      0.0000    724.9583      4.3575     68.7358
   878.0000      0.0000    726.4048      4.3981     63.5821
   878.2500      0.0000    728.9022      4.5710     57.6548
   878.5000      0.0000    731.1761      4.8375     51.6638
   878.7500      0.0000    732.4802      5.0943     46.7919
   879.0000      0.0000    732.8041      5.2486     43.7583
   879.2500      0.0000    732.3112      5.2823     42.6302
   879.5000      0.0000    730.7419      5.2358     43.6044
   879.7500      0.0000    727.0540      5.1428     47.3966
   880.0000      0.0000    719.4637      5.0168     54.3405
   880.2500      0.0000    706.3517      4.8936     63.3929
   880.5000      0.0000    688.2270      4.8403     72.5530
   880.7500      0.0000    669.5074      4.8868     80.0889
   881.0000      0.0000    657.4755      4.9649     85.0221
   881.2500      0.0000    657.3138      4.9580     86.9953
   881.5000      0.0000    667.1335      4.8245     86.3573
   881.7500      0.0000    678.9108      4.6490     84.0650
   882.0000      0.0000    685.1947      4.5599     81.0862
   882.2500      0.0000    684.6184      4.6202     78.1906
   882.5000      0.0000    681.1993      4.8056     76.2429
   882.7500      0.0000    679.5726      5.0565     75.8952
   883.0000      0.0000    681.3571      5.3147     76.7069
   883.2500      0.0000    685.1736      5.5253     77.1018
   883.5000      0.0000    688.8932      5.6473     75.6268
   883.7500      0.0000    691.4108      5.6837     72.2823
   884.0000      0.0000    692.8129      5.6800     68.5865
   884.2500      0.0000    693.6653      5.6788     66.2867
   884.5000      0.0000    694.4413      5.6821     66.0170
   884.7500      0.0000    695.4505      5.6653     67.1987
   885.0000      0.0000    697.0915      5.6133     68.9963
   885.2500      0.0000    700.0417      5.5343     71.0850
   885.5000      0.0000    704.9733      5.4447     73.4770
   885.7500      0.0000    711.9510      5.3571     75.8733
   886.0000      0.0000    720.2159      5.2880     77.5792
   886.2500      0.0000    728.6368      5.2618     78.1657
   886.5000      0.0000    736.1360      5.2897     77.8502
   886.7500      0.0000    741.8615      5.3460     77.1157
   887.0000      0.0000    745.6482      5.3882     76.2929
   887.2500      0.0000    748.2656      5.4103     75.5143
   887.5000      0.0000    750.3878      5.4565     74.7769
   887.7500      0.0000    751.3803      5.5632     74.1694
   888.0000      0.0000    749.7751      5.7045     74.1319
   888.2500      0.0000    744.7633      5.8189     75.2367
   888.5000      0.0000    736.7244      5.8774     77.6019
   888.7500      0.0000    726.6357      5.9015     80.6729
   889.0000      0.0000    715.3997      5.9203     83.6006
   889.2500      0.0000    703.6406      5.9335     85.7038
   889.5000      0.0000    692.0176      5.9170     86.5892
   889.7500      0.0000    681.9522      5.8524     86.1145
   890.0000      0.0000    675.7186      5.7474     84.5837
   890.2500      0.0000    674.9501      5.6338     82.9022
   890.5000      0.0000    679.0891      5.5504     81.9918
   890.7500      0.0000    686.0330      5.5270     81.9043
   891.0000      0.0000    693.8432      5.5658     81.8994
   891.2500      0.0000    700.9918      5.6162     81.3678
   891.5000      0.0000    705.7047      5.5853     80.2411
   891.7500      0.0000    706.6583      5.4144     78.7955
   892.0000      0.0000    704.6147      5.1497     77.6823
   892.2500      0.0000    702.4525      4.9152     77.8653
   892.5000      0.0000    703.0184      4.8134     79.7641
   892.7500      0.0000    706.9576      4.8554     82.5560
   893.0000      0.0000    712.5057      4.9703     84.8511
   893.2500      0.0000    717.2557      5.0696     85.8931
   893.5000      0.0000    720.0929      5.1165     85.7318
   893.7500      0.0000    721.3644      5.1368     84.5451
   894.0000      0.0000    721.4000      5.1616     82.2763
   894.2500      0.0000    719.6307      5.1773     78.8566
   894.5000      0.0000    715.6039      5.1503     74.4891
   894.7500      0.0000    710.3990      5.0906     69.8083
   895.0000      0.0000    706.4228      5.0667     65.8671
   895.2500      0.0000    705.7044      5.1469     63.6063
   895.5000      0.0000    708.3084      5.3312     62.9318
   895.7500      0.0000    712.1698      5.5456     62.5620
   896.0000      0.0000    714.6334      5.6984     61.2527
