~Version Information
VERS.                      2.0: CWLS Log ASCII Standard - VERSION 2.0
WRAP.                       NO: One line per depth step
~Well Information Block
STRT.FT               -10.0000: 
STOP.FT              2297.5000: 
STEP.FT                 0.2500: 
NULL.                -999.2500: 
COMP.          Pioneer Natural Resources: COMPANY
WELL.              Bobsy 34-11: WELL
FLD.           Purgatorie River: FIELD
LOC.           1937' FEL & 451' FSL----------: LOCATION
PROV.                       CO: PROVINCE
CNTY.               Las Animas: COUNTRY
SRVC.          Patterson Wireline: SERVICE COMPANY
DATE.          Mon Apr 18 09:37:11 2005: LOG DATE
UWI.           05 071 08330 00: UNIQUE WELL ID
~Curve Information Block
DEPT.FT            0 000 00 00: Depth
CCL.                          : Casing Collar Locator
TT3.usec                      : CBL 3' Travel Time
AMP3.mV                       : CBL 3' Amplitude
GR.GAPI                       : Gamma Ray
~Parameter Information Block
~A  Depth       CCL         TT3         AMP3         GR     
# ...
   459.0000      0.0000    698.8115      3.1298     77.1357
   459.2500      0.0000    669.5397      3.1393     73.2664
   459.5000      0.0000    619.4055      3.2248     70.2972
   459.7500      0.0000    557.4955      3.2963     69.1257
   460.0000      0.0000    496.2137      3.2941     69.3143
   460.2500      0.0000    448.9568      3.2293     69.5147
   460.5000      0.0000    425.7090      3.1529     68.9155
   460.7500      0.0000    428.9821      3.1128     67.7738
   461.0000      0.0000    453.0137      3.1363     66.7818
   461.2500      0.0000    486.2906      3.2216     66.4460
   461.5000      0.0000    516.5063      3.3352     66.9314
   461.7500      0.0000    535.8298      3.4332     68.1012
   462.0000      0.0000    542.9573      3.4945     69.8353
   462.2500      0.0000    541.1826      3.5310     72.4676
   462.5000      0.0000    535.1567      3.5716     76.4913
   462.7500      0.0000    528.7090      3.6407     81.4254
   463.0000      0.0000    523.9288      3.7372     85.3875
   463.2500      0.0000    521.2435      3.8205     86.3592
   463.5000      0.0000    520.1290      3.8362     83.7639
   463.7500      0.0000    519.8657      3.7686     78.7024
   464.0000      0.0000    519.9437      3.6620     73.1162
   464.2500      0.0000    520.2011      3.5835     68.9025
   464.5000      0.0000    520.8603      3.5699     67.1766
   464.7500      0.0000    522.4036      3.6101     67.7776
   465.0000      0.0000    525.1428      3.6708     69.5871
   465.2500      0.0000    528.6967      3.7322     71.5934
   465.5000      0.0000    531.9576      3.8024     73.4969
   465.7500      0.0000    533.8547      3.8974     75.1497
   466.0000      0.0000    534.2898      4.0113     75.8358
   466.2500      0.0000    534.3158      4.1100     74.7104
   466.5000      0.0000    535.3819      4.1563     71.9383
   466.7500      0.0000    538.4230      4.1367     68.8959
   467.0000      0.0000    543.6286      4.0589     67.0579
   467.2500      0.0000    550.8936      3.9333     66.8999
   467.5000      0.0000    560.4249      3.7750     67.9471
   467.7500      0.0000    573.2430      3.6196     69.6251
   468.0000      0.0000    591.0488      3.5197     71.8652
   468.2500      0.0000    614.3918      3.5174     74.9298
   468.5000      0.0000    640.0352      3.6196     78.8242
   468.7500      0.0000    661.4957      3.7974     83.0965
   469.0000      0.0000    674.3486      4.0042     87.2490
   469.2500      0.0000    680.3956      4.1992     91.0104
   469.5000      0.0000    684.9930      4.3621     94.0420
   469.7500      0.0000    691.3196      4.4951     95.7804
   470.0000      0.0000    698.5987      4.6093     95.7984
   470.2500      0.0000    704.3935      4.7102     94.0344
   470.5000      0.0000    706.9736      4.7993     90.7059
   470.7500      0.0000    706.2221      4.8838     86.4195
   471.0000      0.0000    703.4643      4.9762     82.2217
   471.2500      0.0000    700.4783      5.0856     78.9635
   471.5000      0.0000    698.4042      5.2169     76.6070
   471.7500      0.0000    697.4553      5.3709     74.5644
   472.0000      0.0000    697.3160      5.5359     72.6865
   472.2500      0.0000    697.5737      5.6836     71.5642
   472.5000      0.0000    697.9308      5.7859     71.8627
   472.7500      0.0000    698.2526      5.8324     73.5495
   473.0000      0.0000    698.5298      5.8277     75.7139
   473.2500      0.0000    698.7966      5.7810     76.9876
   473.5000      0.0000    699.0839      5.7078     76.2294
   473.7500      0.0000    699.4090      5.6341     73.1744
   474.0000      0.0000    699.7756      5.5891     68.7681
   474.2500      0.0000    700.2159      5.5924     64.7549
   474.5000      0.0000    700.9523      5.6440     62.5019
   474.7500      0.0000    702.6902      5.7231     62.1206
   475.0000      0.0000    706.8657      5.7982     62.9542
   475.2500      0.0000    715.4071      5.8424     64.6914
   475.5000      0.0000    729.6425      5.8427     67.4996
   475.7500      0.0000    748.8558      5.8016     71.1847
   476.0000      0.0000    770.0227      5.7341     74.8744
   476.2500      0.0000    789.6016      5.6638     77.7450
   476.5000      0.0000    805.7311      5.6152     79.7807
   476.7500      0.0000    818.4179      5.5964     81.6995
   477.0000      0.0000    828.1799      5.5898     84.1807
   477.2500      0.0000    835.6917      5.5690     87.1299
   477.5000      0.0000    842.3320      5.5273     89.6201
   477.7500      0.0000    849.3668      5.4831     90.6136
   478.0000      0.0000    856.4492      5.4567     89.7823
   478.2500      0.0000    862.0530      5.4472     87.6572
   478.5000      0.0000    865.2964      5.4389     85.1132
   478.7500      0.0000    866.6215      5.4268     82.8300
   479.0000      0.0000    867.0010      5.4254     81.1894
   479.2500      0.0000    867.1296      5.4456     80.4837
   479.5000      0.0000    867.2801      5.4703     80.9581
   479.7500      0.0000    867.4747      5.4647     82.5659
   480.0000      0.0000    867.6389      5.4081     84.9468
   480.2500      0.0000    867.7026      5.3110     87.7564
   480.5000      0.0000    867.6636      5.2052     90.7581
   480.7500      0.0000    867.6009      5.1237     93.5509
   481.0000      0.0000    867.6005      5.0833     95.5935
   481.2500      0.0000    867.6758      5.0785     96.6636
   481.5000      0.0000    867.7749      5.0917     96.9656
   481.7500      0.0000    867.8409      5.1132     96.6529
   482.0000      0.0000    867.8389      5.1482     95.4802
   482.2500      0.0000    867.7509      5.2031     93.1817
   482.5000      0.0000    867.5852      5.2684     90.1193
   482.7500      0.0000    867.3941      5.3229     87.2459
   483.0000      0.0000    867.2481      5.3498     85.3183
   483.2500      0.0000    867.1645      5.3466     84.3885
   483.5000      0.0000    866.9607      5.3248     84.0839
   483.7500      0.0000    865.9793      5.3019     83.9117
   484.0000      0.0000    862.6716      5.2957     83.1749
   484.2500      0.0000    854.4846      5.3165     81.2244
   484.5000      0.0000    838.9785      5.3527     78.2950
   484.7500      0.0000    816.2303      5.3759     75.8130
   485.0000      0.0000    790.3126      5.3718     75.3242
   485.2500      0.0000    767.4011      5.3527     76.9378
   485.5000      0.0000    751.7753      5.3301     79.1402
   485.7500      0.0000    743.6993      5.3042     80.4498
   486.0000      0.0000    740.6581      5.2897     80.9416
   486.2500      0.0000    739.8063      5.3149     81.7868
   486.5000      0.0000    739.5344      5.3789     83.6982
   486.7500      0.0000    740.1414      5.4357     86.3733
   487.0000      0.0000    743.6469      5.4368     89.0859
   487.2500      0.0000    752.0402      5.3795     91.1637
   487.5000      0.0000    764.5129      5.3074     92.1527
   487.7500      0.0000    776.5741      5.2717     92.3130
   488.0000      0.0000    782.8278      5.2921     92.8224
   488.2500      0.0000    781.1915      5.3494     94.6669
   488.5000      0.0000    775.0060      5.4038     97.2741
   488.7500      0.0000    771.5271      5.4215     98.8707
   489.0000      0.0000    777.5199      5.3980     98.2477
   489.2500      0.0000    794.6187      5.3630     95.7924
   489.5000      0.0000    818.0901      5.3555     92.9543
   489.7500      0.0000    840.3234      5.3865     91.1301
   490.0000      0.0000    855.9479      5.4314     90.9075
   490.2500      0.0000    864.1044      5.4592     91.8311
   490.5000      0.0000    866.9453      5.4668     92.7331
   490.7500      0.0000    867.0996      5.4779     92.5727
   491.0000      0.0000    866.3394      5.5078     91.1921
   491.2500      0.0000    865.4980      5.5408     89.3871
   491.5000      0.0000    864.7549      5.5480     88.2740
   491.7500      0.0000    863.8530      5.5207     88.4386
   492.0000      0.0000    862.3232      5.4837     89.5066
   492.2500      0.0000    859.8773      5.4772     90.5452
