~Version Information
 VERS.                      2.0: CWLS Log ASCII Standard - VERSION 2.0
 WRAP.                       NO: One line per depth step
 ~Well Information Block
 STRT.FT                -8.0000: 
 STOP.FT              2581.0000: 
 STEP.FT                 0.2500: 
 NULL.                -999.2500: 
 COMP.          Petrogulf Corporation: COMPANY
 WELL.               YWAM 7-23V: WELL
 FLD.           Purgatorie River: FIELD
 LOC.           230' FSL & 225' FWL: LOCATION
 CNTY.               Las Animas: COUNTY
 SRVC.                         : SERVICE COMPANY
 DATE.          Mon Nov 22 10:51:24 2004: LOG DATE
 UWI.           05-071-08227-00: UNIQUE WELL ID
 STAT.                 Colorado: STATE
 PROV.                         :Province
 ~Curve Information Block
 DEPT.FT            0 000 00 00: Depth
 TT3.usec                      : CBL 3' Travel Time
 AMP3.mV                       : CBL 3' Amplitude
 GR.GAPI                       : Gamma Ray
 CCL.                          : Casing Collar Locator
 ~Parameter Information Block
 ~A  Depth       TT3         AMP3         GR         CCL     
# ...
  1700.5000    762.0761      6.8855    183.3019      0.0000
  1700.7500    758.4738      6.7308    178.3533      0.0000
  1701.0000    750.7011      6.5412    173.4180      0.0000
  1701.2500    734.6172      6.3320    169.6577      0.0000
  1701.5000    707.0726      6.1179    167.1492      0.0000
  1701.7500    668.9652      5.9134    166.4490      0.0000
  1702.0000    626.1729      5.7322    168.8335      0.0000
  1702.2500    586.3927      5.5837    174.6403      0.0000
  1702.5000    554.7518      5.4724    181.9702      0.0000
  1702.7500    532.3914      5.3981    187.5674      0.0000
  1703.0000    517.9908      5.3557    188.9635      0.0000
  1703.2500    509.4088      5.3374    186.1445      0.0000
  1703.5000    504.4234      5.3313    181.7510      0.0000
  1703.7500    501.1966      5.3214    179.3388      0.0000
  1704.0000    498.5573      5.2941    180.7433      0.0000
  1704.2500    495.8227      5.2523    185.0748      0.0000
  1704.5000    492.5221      5.2158    190.0817      0.0000
  1704.7500    488.5824      5.2039    193.7095      0.0000
  1705.0000    484.7039      5.2205    194.2359      0.0000
  1705.2500    482.1917      5.2593    190.2487      0.0000
  1705.5000    482.2839      5.3210    181.6875      0.0000
  1705.7500    486.1775      5.4245    170.5683      0.0000
  1706.0000    495.2622      5.6042    159.7716      0.0000
  1706.2500    508.9510      5.8969    151.1853      0.0000
  1706.5000    520.9808      6.3281    145.3790      0.0000
  1706.7500    520.7416      6.9014    142.3296      0.0000
  1707.0000    502.2470      7.5881    141.4181      0.0000
  1707.2500    471.6524      8.3199    141.0186      0.0000
  1707.5000    444.3897      8.9994    139.2479      0.0000
  1707.7500    435.3081      9.5343    135.5388      0.0000
  1708.0000    451.0942      9.8678    131.2581      0.0000
  1708.2500    488.6790      9.9845    128.7206      0.0000
  1708.5000    538.3406      9.8982    129.5447      0.0000
  1708.7500    587.8624      9.6380    133.4856      0.0000
  1709.0000    624.3073      9.2351    138.5334      0.0000
  1709.2500    635.8333      8.7100    142.5499      0.0000
  1709.5000    617.8882      8.0738    145.0072      0.0000
  1709.7500    578.5585      7.3547    146.7690      0.0000
  1710.0000    533.9462      6.6168    148.2212      0.0000
  1710.2500    497.0837      5.9403    148.5296      0.0000
  1710.5000    472.3474      5.3825    147.2635      0.0000
  1710.7500    458.4000      4.9614    146.0145      0.0000
  1711.0000    452.7916      4.6674    147.4478      0.0000
  1711.2500    453.6706      4.4784    152.8446      0.0000
  1711.5000    460.5305      4.3648    160.9161      0.0000
  1711.7500    474.5049      4.2959    168.7222      0.0000
  1712.0000    496.5872      4.2487    173.5782      0.0000
  1712.2500    524.8486      4.2073    174.5626      0.0000
  1712.5000    555.0868      4.1555    172.6394      0.0000
  1712.7500    584.7728      4.0834    169.4738      0.0000
  1713.0000    614.1956      4.0088    166.2058      0.0000
  1713.2500    641.7990      3.9703    163.2061      0.0000
  1713.5000    660.0403      3.9872    160.4777      0.0000
  1713.7500    659.7991      4.0386    157.9738      0.0000
  1714.0000    641.1983      4.0889    155.7585      2.9770
  1714.2500    618.7723      4.1194    154.1632      0.0000
  1714.5000    613.0103      4.1358    153.7271      0.0000
  1714.7500    634.9008      4.1684    154.8124      0.0000
  1715.0000    677.8491      4.2713    157.3282      0.0000
  1715.2500    723.8699      4.4937    160.7718      0.0000
  1715.5000    757.3347      4.8208    164.2425      0.0000
  1715.7500    773.6395      5.1580    166.5502      0.0000
  1716.0000    777.7786      5.4065    166.8008      0.0000
  1716.2500    777.7097      5.5577    165.0745      0.0000
  1716.5000    779.1962      5.6947    162.4347      0.0000
  1716.7500    784.1085      5.9102    160.2611      0.0000
  1717.0000    791.2137      6.2398    159.3560      0.0000
  1717.2500    798.1012      6.6524    159.3442      0.0000
  1717.5000    802.7762      7.0699    159.0066      0.0000
  1717.7500    803.6140      7.3993    157.4304      0.0000
  1718.0000    797.7946      7.5716    154.7101      0.0000
  1718.2500    780.4924      7.5758    151.5136      0.0000
  1718.5000    747.7349      7.4600    148.4974      0.0000
  1718.7500    702.8975      7.2985    146.4047      0.0000
  1719.0000    660.4807      7.1465    146.1613      0.0000
  1719.2500    639.6304      7.0138    148.1622      0.0000
  1719.5000    649.9587      6.8708    151.5056      0.0000
  1719.7500    682.9482      6.6717    154.3213      0.0000
  1720.0000    717.1091      6.3853    155.0288      0.0000
  1720.2500    730.5616      6.0188    153.4555      0.0000
  1720.5000    710.9155      5.6203    151.0646      0.0000
  1720.7500    659.6738      5.2559    150.1775      0.0000
  1721.0000    591.3682      4.9765    152.4104      0.0000
  1721.2500    525.9671      4.7977    157.3043      0.0000
  1721.5000    477.7344      4.7042    162.6415      0.0000
  1721.7500    449.4500      4.6696    166.3364      0.0000
  1722.0000    435.7074      4.6709    167.9020      0.0000
  1722.2500    429.6783      4.6900    168.1415      0.0000
  1722.5000    426.9053      4.7115    167.7519      0.0000
  1722.7500    425.4006      4.7245    166.4090      0.0000
  1723.0000    424.4972      4.7230    163.2239      0.0000
  1723.2500    424.0922      4.7037    158.2154      0.0000
  1723.5000    424.3760      4.6632    153.2511      0.0000
  1723.7500    425.6259      4.5967    150.8989      0.0000
  1724.0000    427.7732      4.4982    152.0568      0.0000
  1724.2500    430.1007      4.3639    155.0891      0.0000
  1724.5000    431.7676      4.1978    157.3390      0.0000
  1724.7500    432.9737      4.0116    156.9950      0.0000
  1725.0000    435.2036      3.8186    153.8335      0.0000
  1725.2500    439.7182      3.6266    149.1592      0.0000
  1725.5000    445.9379      3.4347    145.0176      0.0000
  1725.7500    451.7766      3.2343    142.5952      0.0000
  1726.0000    455.4484      3.0140    141.3261      0.0000
  1726.2500    456.7797      2.7707    139.8661      0.0000
  1726.5000    457.2204      2.5186    137.4551      0.0000
  1726.7500    459.2815      2.2862    133.9433      0.0000
  1727.0000    465.6235      2.1008    129.1093      0.0000
  1727.2500    477.1474      1.9733    122.8035      0.0000
  1727.5000    491.2994      1.8948    115.8389      0.0000
  1727.7500    503.3251      1.8421    110.1836      0.0000
  1728.0000    509.6629      1.7910    107.6458      0.0000
  1728.2500    508.9162      1.7310    108.2077      0.0000
  1728.5000    500.6256      1.6719    110.0151      0.0000
  1728.7500    486.7843      1.6305    111.0224      0.0000
  1729.0000    474.3304      1.6117    110.2399      0.0000
  1729.2500    471.9890      1.6037    107.5930      0.0000
  1729.5000    483.1867      1.5872    103.4675      0.0000
  1729.7500    503.3305      1.5497     98.6786      0.0000
  1730.0000    523.9378      1.4970     94.2867      0.0000
  1730.2500    538.3104      1.4550     90.9408      0.0000
  1730.5000    544.0135      1.4542     88.5009      0.0000
  1730.7500    542.4722      1.5053     86.5848      0.0000
  1731.0000    537.3666      1.5883     85.3576      0.0000
  1731.2500    532.1033      1.6659     85.5210      0.0000
  1731.5000    528.2742      1.7068     87.6632      0.0000
  1731.7500    527.8041      1.6982     91.8608      0.0000
  1732.0000    535.5971      1.6467     97.7722      0.0000
  1732.2500    556.0125      1.5718    104.8170      0.0000
  1732.5000    586.0581      1.4974    112.3031      0.0000
  1732.7500    615.6037      1.4399    119.5915      0.0000
  1733.0000    635.2018      1.4039    126.0304      0.0000
  1733.2500    641.4739      1.3876    130.6154      0.0000
  1733.5000    635.7176      1.3914    131.9403      0.0000
  1733.7500    621.2095      1.4204    128.9098      0.0000
