~Version Information
VERS.                      2.0: CWLS Log ASCII Standard - VERSION 2.0
WRAP.                       NO: One line per depth step
~Well Information Block
STRT.FT                -7.7500: 
STOP.FT               973.7500: 
STEP.FT                 0.2500: 
NULL.                -999.2500: 
COMP.          Pioneer Natural Resources: COMPANY
WELL.              Dylan 42-25: WELL
FLD.           Purgatorie River: FIELD
LOC.           2160' FNL & 855' FEL: LOCATION
PROV.                 Colorado: PROVINCE
CNTY.               Las Animas: COUNTRY
SRVC.          Patterson Wireline: SERVICE COMPANY
DATE.          Fri Apr 29 16:36:17 2005: LOG DATE
UWI.           05-071-08229-00: UNIQUE WELL ID
~Curve Information Block
DEPT.FT            0 000 00 00: Depth
CCL.                          : Casing Collar Locator
TT3.usec                      : CBL 3' Travel Time
AMP3.mV                       : CBL 3' Amplitude
GR.GAPI                       : Gamma Ray
~Parameter Information Block
~A  Depth       CCL         TT3         AMP3         GR     
    -7.7500   -999.2500   -999.2500   -999.2500     77.7697
    -7.5000   -999.2500   -999.2500   -999.2500     77.7749
    -7.2500   -999.2500   -999.2500   -999.2500     78.3928
    -7.0000   -999.2500   -999.2500   -999.2500     79.3518
    -6.7500   -999.2500   -999.2500   -999.2500     80.8453
    -6.5000   -999.2500   -999.2500   -999.2500     83.2047
    -6.2500   -999.2500   -999.2500   -999.2500     86.5720
    -6.0000   -999.2500   -999.2500   -999.2500     90.6297
    -5.7500   -999.2500   -999.2500   -999.2500     94.3771
    -5.5000   -999.2500   -999.2500   -999.2500     96.3555
    -5.2500   -999.2500   -999.2500   -999.2500     95.5153
    -5.0000   -999.2500   -999.2500   -999.2500     92.0759
    -4.7500   -999.2500   -999.2500   -999.2500     87.5867
    -4.5000   -999.2500   -999.2500   -999.2500     84.0640
    -4.2500   -999.2500   -999.2500   -999.2500     82.7163
    -4.0000   -999.2500   -999.2500   -999.2500     83.1714
    -3.7500   -999.2500   -999.2500   -999.2500     83.9087
    -3.5000   -999.2500   -999.2500   -999.2500     83.6121
    -3.2500   -999.2500   -999.2500   -999.2500     82.2792
    -3.0000   -999.2500   -999.2500   -999.2500     81.1061
    -2.7500   -999.2500   1167.0000      1.1823     81.1932
    -2.5000   -999.2500   1167.0000      1.1828     82.3169
    -2.2500   -999.2500   1167.0000      1.1826     83.1982
    -2.0000   -999.2500   1167.0000      1.1854     82.9738
    -1.7500   -999.2500   1167.0000      1.1928     82.0878
    -1.5000   -999.2500   1167.0000      1.2020     81.7123
    -1.2500   -999.2500   1167.0000      1.2079     82.3660
    -1.0000   -999.2500   1167.0000      1.2080     82.9295
    -0.7500   -999.2500   1167.0000      1.2054     81.2177
    -0.5000   -999.2500   1167.0000      1.2060     76.1053
    -0.2500   -999.2500   1167.0000      1.2118     68.9775
     0.0000   -999.2500   1167.0000      1.2211     62.4894
     0.2500   -999.2500   1167.0000      1.2487     54.8791
     0.5000   -999.2500   1167.0000      1.2659     51.2985
     0.7500   -999.2500   1167.0000      1.2756     46.1903
     1.0000   -999.2500   1167.0000      1.2688     39.8941
     1.2500   -999.2500   1167.0000      1.2469     34.1312
     1.5000   -999.2500   1167.0000      1.2222     31.0080
     1.7500   -999.2500   1167.0000      1.2075     31.6531
     2.0000   -999.2500   1167.0000      1.2059     35.6106
     2.2500   -999.2500   1167.0000      1.2128     41.3400
     2.5000      0.0000   1167.0000      1.2214     47.1856
     2.7500      0.0000   1167.0000      1.2264     52.1170
     3.0000      0.0000   1167.0000      1.2244     55.9291
     3.2500      0.0000   1167.0000      1.2144     58.9080
     3.5000      0.0000   1167.0000      1.1993     61.3452
     3.7500      0.0000   1167.0000      1.1853     63.1937
     4.0000      0.0000   1167.0000      1.1770     63.8814
     4.2500      0.0000   1167.0000      1.1739     62.6427
     4.5000      0.0000   1167.0000      1.1731     59.5786
     4.7500      0.0000   1167.0000      1.1735     56.3331
     5.0000      0.0000   1167.0000      1.1748     55.1354
     5.2500      0.0000   1167.0000      1.1759     57.0266
     5.5000      0.0000   1167.0000      1.1758     61.1839
     5.7500      0.0000   1167.0000      1.1752     65.7252
     6.0000      0.0000   1167.0000      1.1755     68.8770
     6.2500      0.0000   1167.0000      1.1787     69.6413
     6.5000      0.0000   1167.0000      1.1844     67.9237
     6.7500      0.0000   1167.0000      1.1889     64.4197
     7.0000      0.0000   1167.0000      1.1896     60.3735
     7.2500      0.0000   1167.0000      1.1887     57.1475
     7.5000      0.0000   1167.0000      1.1903     55.7672
     7.7500      0.0000   1166.9464      1.1939     56.7517
     8.0000      0.0000   1166.5973      1.1965     60.1838
     8.2500      0.0000   1164.8246      1.2015     65.7002
     8.5000     -3.0194   1157.8135      1.2308     72.3208
     8.7500      0.0000   1136.2197      1.3374     78.5191
     9.0000      0.0000   1084.4246      1.6068     82.9006
     9.2500      0.0000    987.6705      2.1252     85.0646
     9.5000      0.0000    846.9147      2.9057     85.7767
     9.7500      0.0000    687.4431      3.8304     86.3209
    10.0000      0.0000    546.7309      4.6892     87.7730
    10.2500      0.0000    450.0246      5.3057     90.6455
    10.5000      0.0000    398.2361      5.6366     94.6369
    10.7500      0.0000    376.5861      5.7565     98.4965
    11.0000      0.0000    369.4578      5.7724    100.4819
    11.2500      0.0000    367.5186      5.7617     99.4009
    11.5000      0.0000    366.9667      5.7624     95.5239
    11.7500      0.0000    366.6887      5.7869     90.4725
    12.0000      0.0000    366.4608      5.8360     85.9526
    12.2500      0.0000    366.2482      5.9062     82.5843
    12.5000      0.0000    366.0667      5.9866     80.0275
    12.7500      0.0000    365.9264      6.0566     77.9481
    13.0000      0.0000    365.8291      6.0930     76.5867
    13.2500      0.0000    365.7673      6.0724     76.4331
    13.5000      0.0000    365.7381      5.9674     77.5323
    13.7500      0.0000    365.7667      5.7563     79.3198
    14.0000      0.0000    365.9034      5.4568     81.2080
    14.2500      0.0000    366.1579      5.1465     83.0833
    14.5000      0.0000    366.4254      4.9278     84.9510
    14.7500      0.0000    366.5225      4.8513     86.2440
    15.0000      0.0000    366.3340      4.8802     85.8940
    15.2500      0.0000    365.8690      4.9440     83.2973
    15.5000      0.0000    365.1268      5.0083     79.1961
    15.7500      0.0000    363.9428      5.0731     75.5628
    16.0000     -3.1421    362.0951      5.1255     74.5207
    16.2500     -5.0000    359.7288      5.1279     77.0261
    16.5000      0.0000    357.6999      5.0519     82.2788
    16.7500      0.0000    357.2030      4.9208     88.3778
    17.0000      0.0000    358.7462      4.8210     93.5662
    17.2500      0.0000    361.5989      4.8481     96.9163
    17.5000      0.0000    364.4478      5.0184     98.3423
    17.7500      0.0000    366.4454      5.2536     98.4331
    18.0000      0.0000    367.5190      5.4734     97.9629
    18.2500      0.0000    367.9665      5.6697     97.1339
    18.5000      0.0000    368.0403      5.8678     95.6897
    18.7500      0.0000    367.8662      6.0606     94.0656
    19.0000      0.0000    367.5550      6.2125     93.6616
    19.2500      0.0000    367.2543      6.3031     95.4583
    19.5000      0.0000    367.0899      6.3424     98.8830
    19.7500      0.0000    367.1056      6.3558    102.2885
    20.0000      0.0000    367.3395      6.3663    104.0748
    20.2500      0.0000    368.0067      6.3861    103.2505
    20.5000      0.0000    369.7042      6.4132     99.6159
    20.7500      0.0000    373.5186      6.4368     94.0048
    21.0000      0.0000    380.8459      6.4490     88.0825
    21.2500      0.0000    392.8217      6.4497     83.3096
    21.5000      0.0000    409.5540      6.4436     80.0770
    21.7500      0.0000    429.4852      6.4340     78.0646
    22.0000      0.0000    449.1569      6.4218     77.1889
    22.2500      0.0000    463.8414      6.4072     77.7661
    22.5000      0.0000    469.4114      6.3908     79.8746
    22.7500      0.0000    464.6543      6.3740     82.9775
    23.0000      0.0000    452.2328      6.3571     86.1842
    23.2500      0.0000    437.2667      6.3364     88.8018
    23.5000      0.0000    424.5606      6.3039     90.7660
    23.7500      0.0000    416.6771      6.2550     92.4084
    24.0000      0.0000    414.0812      6.1949     93.5976
    24.2500      0.0000    416.6582      6.1368     93.5167
    24.5000      0.0000    425.1317      6.0933     91.6309
    24.7500      0.0000    441.6596      6.0716     88.4558
    25.0000      0.0000    469.3399      6.0722     84.9606
    25.2500      0.0000    510.0398      6.0877     81.5399
    25.5000      0.0000    561.0027      6.1063     77.9345
