~Version Information
VERS.                      2.0: CWLS Log ASCII Standard - VERSION 2.0
WRAP.                       NO: One line per depth step
~Well Information Block
STRT.FT                 3.7500: 
STOP.FT               979.7500: 
STEP.FT                 0.2500: 
NULL.                -999.2500: 
COMP.          Pioneer Natural Resources: COMPANY
WELL.          Rising Star 22-11: WELL
FLD.           Purgatoire River: FIELD
LOC.           2152' FNL & 2105' FWL: LOCATION
PROV.                 Colorado: PROVINCE
CNTY.               Las Animas: COUNTRY
SRVC.                Patterson: SERVICE COMPANY
DATE.          Sat Apr 16 09:17:01 2005: LOG DATE
UWI.           05 071 08354 00: UNIQUE WELL ID
~Curve Information Block
DEPT.FT            0 000 00 00: Depth
GR.GAPI                       : Gamma Ray
CCL.                          : Casing Collar Locator
TT3.usec                      : CBL 3' Travel Time
AMP3.mV                       : CBL 3' Amplitude
~Parameter Information Block
~A  Depth        GR         CCL         TT3         AMP3    
# ...
   305.2500     64.5869      0.0000   1240.7773      5.9606
   305.5000     61.8238      0.0000   1187.2606      6.0341
   305.7500     58.7240      0.0000   1140.4390      6.0986
   306.0000     56.9153      0.0000   1108.4535      6.1579
   306.2500     57.7863      0.0000   1090.6907      6.2153
   306.5000     61.3862      0.0000   1079.6230      6.2719
   306.7500     66.1409      0.0000   1065.0100      6.3284
   307.0000     69.8214      0.0000   1038.3749      6.3846
   307.2500     71.0739      0.0000    998.3440      6.4388
   307.5000     70.2473      0.0000    953.8286      6.4915
   307.7500     68.8884      0.0000    920.8061      6.5481
   308.0000     68.5168      0.0000    913.9173      6.6163
   308.2500     69.8257      0.0000    939.1815      6.6973
   308.5000     72.6800      0.0000    992.1959      6.7818
   308.7500     76.3634      0.0000   1062.2010      6.8567
   309.0000     79.7430      0.0000   1138.0267      6.9120
   309.2500     81.8268      0.0000   1210.2366      6.9409
   309.5000     82.6789      0.0000   1270.2021      6.9379
   309.7500     83.5787      0.0000   1311.8549      6.9044
   310.0000     85.7764      0.0000   1335.1355      6.8559
   310.2500     89.1334      0.0000   1345.3645      6.8185
   310.5000     92.3128      0.0000   1348.8419      6.8108
   310.7500     94.1534      0.0000   1349.6335      6.8282
   311.0000     94.6178      0.0000   1349.1531      6.8454
   311.2500     94.7165      0.0000   1346.4738      6.8274
   311.5000     95.8807      0.0000   1337.9171      6.7338
   311.7500     99.1457      0.0000   1317.2526      6.5088
   312.0000    104.4458      0.0000   1279.7948      6.0853
   312.2500    110.6388      0.0000   1230.9911      5.4326
   312.5000    116.3395      0.0000   1190.6128      4.6164
   312.7500    120.4168      0.0000   1181.5425      3.7885
   313.0000    121.7193      0.0000   1209.6885      3.0941
   313.2500    119.4932      0.0000   1258.0358      2.5946
   313.5000    114.9234      0.0000   1302.6387      2.2724
   313.7500    111.6171      0.0000   1330.8618      2.0763
   314.0000    113.4636      0.0000   1343.9397      1.9573
   314.2500    121.6850      3.0000   1348.4978      1.8916
   314.5000    134.0572      0.0000   1349.7089      1.8894
   314.7500    146.7557      0.0000   1349.9579      1.9948
   315.0000    156.6588      0.0000   1349.9749      2.2846
   315.2500    162.3006      0.0000   1349.8112      2.8391
   315.5000    163.6837      0.0000   1348.9796      3.6624
   315.7500    161.8659      0.0000   1345.6901      4.6177
   316.0000    158.5011      0.0000   1335.5560      5.4840
   316.2500    155.1175      0.0000   1311.2317      6.1014
   316.5000    152.3586      0.0000   1265.7433      6.4534
   316.7500    149.7448      0.0000   1199.3748      6.6220
   317.0000    146.3118      0.0000   1123.5479      6.6995
   317.2500    141.7322      0.0000   1054.9573      6.7401
   317.5000    136.7682      0.0000   1004.3165      6.7611
   317.7500    132.4005      0.0000    971.6298      6.7632
   318.0000    128.6317      0.0000    951.0600      6.7498
   318.2500    124.5522      0.0000    937.2473      6.7318
   318.5000    119.6619      0.0000    927.3101      6.7150
   318.7500    114.9716      0.0000    921.8655      6.6908
   319.0000    112.5805      0.0000    926.2651      6.6462
   319.2500    113.7380      0.0000    946.7852      6.5872
   319.5000    117.1741      0.0000    981.6885      6.5410
   319.7500    119.8661      0.0000   1017.8712      6.5298
   320.0000    119.8474      0.0000   1039.9631      6.5482
   320.2500    117.9889      0.0000   1043.0721      6.5715
   320.5000    116.8879      0.0000   1035.4745      6.5822
   320.7500    118.4272      0.0000   1030.1899      6.5847
   321.0000    122.4300      0.0000   1037.3175      6.5936
   321.2500    127.0457      0.0000   1064.1980      6.6098
   321.5000    130.3313      0.0000   1114.8394      6.6115
   321.7500    131.9509      0.0000   1182.9398      6.5710
   322.0000    133.3522      0.0000   1250.3485      6.4811
   322.2500    135.9246      0.0000   1298.2915      6.3631
   322.5000    139.2080      0.0000   1318.0782      6.2511
   322.7500    141.3635      0.0000   1310.8757      6.1740
   323.0000    141.0440      0.0000   1283.5986      6.1478
   323.2500    138.2524      0.0000   1247.8940      6.1745
   323.5000    133.8197      0.0000   1217.2416      6.2420
   323.7500    128.9426      0.0000   1199.9175      6.3275
   324.0000    125.0442      0.0000   1196.4568      6.4071
   324.2500    123.0382      0.0000   1202.8229      6.4681
   324.5000    122.3283      0.0000   1211.0399      6.5129
   324.7500    120.9902      0.0000   1209.3158      6.5503
   325.0000    117.3738      0.0000   1189.9927      6.5846
   325.2500    111.6302      0.0000   1157.2075      6.6147
   325.5000    105.5797      0.0000   1121.5055      6.6431
   325.7500    101.0913      0.0000   1089.1577      6.6764
   326.0000     98.7480      0.0000   1060.6399      6.7146
   326.2500     98.1077      0.0000   1035.5094      6.7464
   326.5000     98.9090      0.0000   1012.3605      6.7600
   326.7500    101.5406      0.0000    986.7204      6.7560
   327.0000    106.2365      0.0000    956.8724      6.7481
   327.2500    112.1263      0.0000    932.6024      6.7509
   327.5000    117.2546      0.0000    932.7724      6.7697
   327.7500    119.7217      0.0000    970.9445      6.8012
   328.0000    119.0378      0.0000   1041.3295      6.8391
   328.2500    116.2887      0.0000   1116.4675      6.8755
   328.5000    112.8769      0.0000   1162.1042      6.9044
   328.7500    109.4996      0.0000   1162.0605      6.9261
   329.0000    106.5148      0.0000   1133.0126      6.9460
   329.2500    104.6398      0.0000   1112.9449      6.9655
   329.5000    104.7944      0.0000   1130.8035      6.9768
   329.7500    107.5851      0.0000   1185.0109      6.9692
   330.0000    113.1216      0.0000   1250.2479      6.9438
   330.2500    121.0010      0.0000   1301.8586      6.9189
   330.5000    130.2132      0.0000   1331.5311      6.9161
   330.7500    139.2260      0.0000   1344.3888      6.9428
   331.0000    146.4520      0.0000   1348.6541      6.9896
   331.2500    150.8951      0.0000   1349.7477      7.0437
   331.5000    152.5635      0.0000   1349.9664      7.0985
   331.7500    152.2983      0.0000   1350.0000      7.1493
   332.0000    151.1011      0.0000   1350.0000      7.1912
   332.2500    149.6836      0.0000   1350.0000      7.2257
   332.5000    148.7194      0.0000   1350.0000      7.2655
   332.7500    149.2379      0.0000   1350.0000      7.3247
   333.0000    152.3447      0.0000   1350.0000      7.4033
   333.2500    158.2284      0.0000   1349.9664      7.4831
   333.5000    165.2695      0.0000   1349.7472      7.5430
   333.7500    170.3059      0.0000   1348.6335      7.5762
   334.0000    170.5124      0.0000   1344.2278      7.5872
   334.2500    165.5480      0.0000   1330.6516      7.5783
   334.5000    157.6267      0.0000   1298.0675      7.5459
   334.7500    149.2187      0.0000   1237.1532      7.4925
   335.0000    141.0437      0.0000   1148.4546      7.4336
   335.2500    132.6228      0.0000   1047.8474      7.3861
   335.5000    124.2776      0.0000    958.9435      7.3534
   335.7500    117.6364      0.0000    897.5846      7.3260
   336.0000    114.0005      0.0000    863.8721      7.2951
   336.2500    112.9249      0.0000    847.2819      7.2605
   336.5000    112.7782      0.0000    836.4974      7.2236
   336.7500    112.1478      0.0000    825.7296      7.1798
   337.0000    110.2853      0.0000    816.0049      7.1226
   337.2500    106.7666      0.0000    811.9832      7.0541
   337.5000    101.5990      0.0000    816.2101      6.9825
   337.7500     95.5721      0.0000    825.9550      6.9117
   338.0000     89.8849      0.0000    835.8473      6.8391
   338.2500     85.3342      0.0000    842.4278      6.7659
   338.5000     82.1251      0.0000    845.5192      6.7044
