~Version Information
VERS.                      2.0: CWLS Log ASCII Standard - VERSION 2.0
WRAP.                       NO: One line per depth step
~Well Information Block
STRT.FT               768.0000: 
STOP.FT              2635.5000: 
STEP.FT                 0.1000: 
NULL.                -999.2500: 
COMP.          Pioneer Natural Resources: COMPANY
WELL.               Zink 44-10: WELL
FLD.           Purgatoire River: FIELD
LOC.           548' FSL & 473' FEL: LOCATION
PROV.                 Colorado: PROVINCE
CNTY.               Las Animas: COUNTRY
SRVC.                Patterson: SERVICE COMPANY
DATE.          Tue May 31 07:05:25 2005: LOG DATE
UWI.           05 071 08380 00: UNIQUE WELL ID
~Curve Information Block
DEPT.FT            0 000 00 00: Depth
DCAL.in                       : CDL Caliper
RHOB.g/cc                     : CDL Bulk Density
RHOC.g/cc                     : CDL Density Correction
DPOR.pu                       : CDL Density Porosity
GR.GAPI                       : Gamma Ray
NPOR.pu                       : Neutron Porosity
~Parameter Information Block
~A  Depth       DCAL        RHOB        RHOC        DPOR         GR         NPOR    
# ...
  1632.0000      8.1543      2.5323      0.0856      7.1329    137.9084     32.8648
  1632.1000      8.1543      2.5245      0.0561      7.6063    139.0212     32.4458
  1632.2000      8.1543      2.5044      0.0632      8.8221    142.4294     32.1144
  1632.3000      8.1697      2.4780      0.0906     10.4264    148.3029     31.4561
  1632.4000      8.1697      2.4528      0.0925     11.9491    147.5753     30.6952
  1632.5000      8.2018      2.4293      0.1087     13.3776    137.8285     30.5643
  1632.6000      8.2018      2.4039      0.0784     14.9142    126.8049     31.1922
  1632.7000      8.2018      2.3692      0.0680     17.0172    120.2556     32.2453
  1632.8000      8.2274      2.3003      0.1062     21.1928    115.6696     33.2204
  1632.9000      8.2274      2.1813      0.0891     28.4047    108.9586     33.5992
  1633.0000      8.2306      2.0475      0.0457     36.5141     99.1036     33.5189
  1633.1000      8.2306      1.9446      0.0833     42.7540     85.6669     33.6568
  1633.2000      8.2306      1.8655      0.0295     47.5484     73.4850     34.1393
  1633.3000      8.2574      1.7679      0.0364     53.4635     69.0336     34.3868
  1633.4000      8.2574      1.6397     -0.0329     61.2324     69.0824     34.2287
  1633.5000      8.3779      1.5337     -0.1040     67.6562     67.0771     34.1137
  1633.6000      8.3779      1.4938      0.0735     70.0722     63.5622     34.2828
  1633.7000      8.3779      1.4934      0.1106     70.0955     62.6576     34.9394
  1633.8000      8.4591      1.5016      0.0945     69.6024     66.1517     35.9596
  1633.9000      8.4591      1.5311      0.0621     67.8101     71.4429     36.3898
  1634.0000      8.6203      1.5948      0.0867     63.9495     76.2381     35.7096
  1634.1000      8.6203      1.6702      0.1202     59.3838     80.3156     34.5623
  1634.2000      8.6203      1.7382      0.0992     55.2602     84.5774     33.6387
  1634.3000      8.7004      1.8190      0.1048     50.3608     89.3172     32.9502
  1634.4000      8.7004      1.9304      0.1660     43.6135     92.6184     32.6415
  1634.5000      8.7436      2.0417      0.1840     36.8660     92.5708     32.9886
  1634.6000      8.7436      2.1011      0.1749     33.2644     89.6588     33.8034
  1634.7000      8.7436      2.0910      0.0765     33.8796     88.5555     34.8682
  1634.8000      8.7395      2.0384      0.0029     37.0657     90.9123     35.8568
  1634.9000      8.7395      1.9709      0.0347     41.1599     91.4487     36.2836
  1635.0000      8.3053      1.8842      0.0416     46.4142     88.0444     36.1124
  1635.1000      8.3053      1.7637     -0.0121     53.7178     84.0880     35.5255
  1635.2000      8.3053      1.6178     -0.1434     62.5561     78.3411     34.7433
  1635.3000      8.2403      1.4800     -0.1822     70.9064     69.2436     34.1074
  1635.4000      8.2403      1.3861     -0.1990     76.6002     61.9286     34.2899
  1635.5000      8.2538      1.3470     -0.0768     78.9676     58.7016     35.1083
  1635.6000      8.2538      1.3393      0.0379     79.4345     56.7072     35.8122
  1635.7000      8.2538      1.3515     -0.0013     78.6965     55.6742     36.2463
  1635.8000      8.2302      1.4035      0.0503     75.5451     56.8770     35.9176
  1635.9000      8.2302      1.4887      0.0823     70.3842     61.4284     34.9418
  1636.0000      8.2824      1.5700      0.1131     65.4527     69.6953     34.3859
  1636.1000      8.2824      1.6441      0.0814     60.9644     81.4636     33.9998
  1636.2000      8.2824      1.7483      0.0983     54.6497     95.5945     33.5684
  1636.3000      8.7604      1.9019      0.1724     45.3396    107.4051     33.6241
  1636.4000      8.7604      2.0740      0.2031     34.9065    113.2263     33.9241
  1636.5000      9.0703      2.2120      0.2649     26.5448    114.9633     34.2840
  1636.6000      9.0703      2.3000      0.1933     21.2096    116.9321     34.8366
  1636.7000      9.0703      2.3648      0.1604     17.2827    122.8409     35.4341
  1636.8000      8.5646      2.4060      0.2070     14.7862    127.6281     35.8013
  1636.9000      8.5646      2.3915      0.1323     15.6639    121.4844     35.7862
  1637.0000      8.3495      2.3263      0.0534     19.6157    110.6636     35.1637
  1637.1000      8.3495      2.2375      0.0496     24.9979    105.3045     33.6573
  1637.2000      8.3495      2.1149      0.0144     32.4295    100.2947     31.7917
  1637.3000      8.3602      1.9456     -0.0895     42.6884     92.2101     30.8496
  1637.4000      8.3602      1.7658     -0.1158     53.5855     85.2562     31.4186
  1637.5000      8.4135      1.6149     -0.0452     62.7312     80.8744     32.7664
  1637.6000      8.4135      1.4859     -0.0547     70.5536     77.7676     33.6328
  1637.7000      8.4135      1.3706     -0.1198     77.5423     74.4246     33.6534
  1637.8000      8.4508      1.3034     -0.1147     81.6129     71.4869     33.6805
  1637.9000      8.4508      1.3142      0.0330     80.9547     71.0624     34.3305
  1638.0000      8.5551      1.3855      0.0464     76.6347     72.5676     34.8043
  1638.1000      8.5551      1.4857      0.0998     70.5628     75.7799     34.6262
  1638.2000      8.5551      1.5994      0.1420     63.6739     81.6788     34.7794
  1638.3000      8.9252      1.7183      0.1400     56.4666     89.1264     35.2956
  1638.4000      8.9252      1.8315      0.1826     49.6084     97.7337     34.9019
  1638.5000      9.3510      1.9377      0.2232     43.1722    108.8643     33.9067
  1638.6000      9.3510      2.0597      0.2252     35.7787    121.5836     33.7432
  1638.7000      9.3510      2.2099      0.2859     26.6747    133.6148     34.3070
  1638.8000      9.7877      2.3481      0.2617     18.2945    143.6306     34.7585
  1638.9000      9.7877      2.4223      0.2159     13.8029    149.1280     34.8844
  1639.0000      9.7949      2.4207      0.2384     13.8967    152.2012     34.7789
  1639.1000      9.7949      2.3564      0.2644     17.7968    157.5279     34.6650
  1639.2000      9.7949      2.2357      0.2253     25.1101    162.2031     34.7665
  1639.3000      8.6911      2.0689      0.1349     35.2186    164.0962     34.9364
  1639.4000      8.6911      1.9021     -0.0483     45.3292    163.2251     34.9401
  1639.5000      8.4728      1.7999     -0.0681     51.5235    159.5335     34.6686
  1639.6000      8.4728      1.7868     -0.0386     52.3164    156.3388     34.3071
  1639.7000      8.4728      1.8429      0.0158     48.9152    154.2042     34.2059
  1639.8000      8.5066      1.9403      0.1174     43.0109    151.4877     34.3567
  1639.9000      8.5066      2.0542      0.2211     36.1084    150.9080     34.4575
  1640.0000      8.7550      2.1610      0.3072     29.6388    153.6044     34.2251
  1640.1000      8.7550      2.2472      0.3228     24.4096    156.6912     33.5823
  1640.2000      8.7550      2.3126      0.2854     20.4484    160.1360     33.2155
  1640.3000      9.3098      2.3543      0.2800     17.9215    163.2770     33.5543
  1640.4000      9.3098      2.3712      0.1597     16.8997    162.4204     33.9470
  1640.5000      9.8398      2.3869      0.0550     15.9476    157.0459     33.8487
  1640.6000      9.8398      2.4251      0.1007     13.6285    150.3724     33.4852
  1640.7000      9.8398      2.4808      0.1147     10.2522    147.1613     33.2398
  1640.8000      9.6474      2.5419      0.1372      6.5495    150.3157     33.0125
  1640.9000      9.6474      2.5973      0.1589      3.1923    156.2704     32.7013
  1641.0000      8.9620      2.6326      0.1603      1.0566    159.7795     32.5384
  1641.1000      8.9620      2.6452      0.1539      0.2931    159.6524     32.3429
  1641.2000      8.9620      2.6403      0.1921      0.5876    155.9398     31.8618
  1641.3000      8.3238      2.6221      0.1058      1.6923    149.8026     31.6445
  1641.4000      8.3238      2.6041      0.1080      2.7846    147.4358     31.9441
  1641.5000      8.2672      2.5903      0.1089      3.6169    150.3612     31.8866
