~Version Information
VERS.                      2.0: CWLS Log ASCII Standard - VERSION 2.0
WRAP.                       NO: One line per depth step
~Well Information Block
STRT.FT                -6.2500: 
STOP.FT              2316.0000: 
STEP.FT                 0.2500: 
NULL.                -999.2500: 
COMP.          Pioneer Natural Resources: COMPANY
WELL.             Trimax 44-23: WELL
FLD.           Purgatorie River: FIELD
LOC.           527' FSL & 1064' FEL------: LOCATION
PROV.                       CO: PROVINCE
CNTY.               Las Animas: COUNTRY
SRVC.          Patterson Wireline: SERVICE COMPANY
DATE.          Sat Mar 19 11:18:53 2005: LOG DATE
UWI.           05 071 08326 00: UNIQUE WELL ID
~Curve Information Block
DEPT.FT            0 000 00 00: Depth
CCL.                          : Casing Collar Locator
TT3.usec                      : CBL 3' Travel Time
AMP3.mV                       : CBL 3' Amplitude
GR.GAPI                       : Gamma Ray
~Parameter Information Block
~A  Depth       CCL         TT3         AMP3         GR     
# ...
   764.2500      0.0000    811.3979      8.9617     56.2802
   764.5000      0.0000    818.1342      9.4889     58.4853
   764.7500      0.0000    820.0666      9.8273     60.0903
   765.0000      0.0000    818.9169     10.0126     61.0114
   765.2500      0.0000    816.4453     10.1083     61.4657
   765.5000      0.0000    813.6849     10.1676     61.8952
   765.7500      0.0000    810.5712     10.2195     62.5599
   766.0000      0.0000    805.7772     10.2749     63.2935
   766.2500      0.0000    798.0720     10.3293     64.0365
   766.5000      0.0000    788.0768     10.3578     65.4839
   766.7500      0.0000    777.8081     10.3226     68.7185
   767.0000      0.0000    768.5285     10.1996     74.0991
   767.2500      0.0000    759.8620     10.0031     80.6996
   767.5000      0.0000    751.2502      9.7766     86.9257
   767.7500      0.0000    743.8481      9.5566     91.6965
   768.0000      0.0000    740.6878      9.3457     95.0394
   768.2500      0.0000    744.7679      9.1215     97.6081
   768.5000      0.0000    756.2130      8.8670     99.8175
   768.7500      0.0000    770.5660      8.5860    101.5176
   769.0000      0.0000    780.5792      8.2893    102.3012
   769.2500      0.0000    781.7874      7.9760    102.0164
   769.5000      0.0000    777.3232      7.6372    101.0941
   769.7500      0.0000    776.0823      7.2769    100.2376
   770.0000      0.0000    784.7234      6.9289     99.6138
   770.2500      0.0000    801.4338      6.6509     98.5605
   770.5000      0.0000    817.6534      6.4976     96.3708
   770.7500      0.0000    824.8925      6.4856     93.2975
   771.0000      0.0000    819.6097      6.5777     90.6493
   771.2500      0.0000    803.7858      6.7022     89.9047
   771.5000      0.0000    783.0934      6.7931     91.7133
   771.7500      0.0000    763.9214      6.8191     95.4130
   772.0000      0.0000    750.2382      6.7897     99.1377
   772.2500      0.0000    742.3928      6.7443    100.5594
   772.5000      0.0000    738.4918      6.7329     98.1564
   772.7500      0.0000    736.4797      6.7939     92.2655
   773.0000      0.0000    735.1141      6.9362     84.9343
   773.2500      0.0000    733.8968      7.1345     78.5188
   773.5000      0.0000    732.7224      7.3419     74.3619
   773.7500      0.0000    731.6509      7.5101     72.7264
   774.0000      0.0000    730.7582      7.6069     73.4000
   774.2500      0.0000    729.9820      7.6244     75.7623
   774.5000      0.0000    728.9614      7.5771     78.6165
   774.7500      0.0000    727.0063      7.4911     80.7622
   775.0000      0.0000    723.3951      7.3880     81.9304
   775.2500      0.0000    718.0048      7.2763     82.8151
   775.5000      0.0000    711.7494      7.1520     84.0911
   775.7500      0.0000    706.2568      7.0104     85.5898
   776.0000      0.0000    702.9997      6.8626     86.5470
   776.2500      0.0000    702.8845      6.7437     86.6292
   776.5000      0.0000    706.5133      6.6941     86.5221
   776.7500      0.0000    714.3021      6.7254     87.2233
   777.0000      0.0000    725.8267      6.8026     88.7835
   777.2500      0.0000    739.0530      6.8626     90.1496
   777.5000      0.0000    750.9394      6.8531     90.3735
   777.7500      0.0000    759.9130      6.7641     89.5727
   778.0000      0.0000    768.0079      6.6337     88.6376
   778.2500      0.0000    779.2478      6.5234     88.5277
   778.5000      0.0000    795.1246      6.4745     89.8873
   778.7500      0.0000    812.6968      6.4796     92.7054
   779.0000      0.0000    827.3016      6.4977     96.1279
   779.2500      0.0000    835.5441      6.5020     99.0008
   779.5000      0.0000    835.7339      6.5041    100.8528
   779.7500      0.0000    827.7958      6.5255    102.1672
   780.0000      0.0000    813.8228      6.5578    103.5389
   780.2500      0.0000    797.4002      6.5629    104.8734
   780.5000      0.0000    781.2165      6.5087    105.6970
   780.7500      0.0000    765.8823      6.3935    105.8211
   781.0000      0.0000    752.0596      6.2348    105.1373
   781.2500      0.0000    743.3734      6.0449    103.1046
   781.5000      0.0000    745.3364      5.8254     99.1869
   781.7500      0.0000    760.0642      5.5876     93.7786
   782.0000      0.0000    782.9479      5.3690     88.3846
   782.2500      0.0000    805.6432      5.2200     85.0819
   782.5000      0.0000    821.8415      5.1708     85.5814
   782.7500      1.0000    830.2432      5.2186     89.7894
   783.0000      0.0000    833.8541      5.3391     95.1212
   783.2500      0.0000    836.9812      5.5028     98.2306
   783.5000      0.0000    841.4929      5.6890     97.7750
   783.7500      0.0000    845.4308      5.8901     95.0464
   784.0000      0.0000    845.3953      6.0922     92.1881
   784.2500      0.0000    839.7892      6.2394     90.4515
   784.5000      0.0000    830.0317      6.2398     89.8934
   784.7500      0.0000    819.7759      6.0378     89.9480
   785.0000      0.0000    812.8026      5.6741     90.0848
   785.2500      0.0000    810.4143      5.2506     90.3055
   785.5000      0.0000    810.3327      4.8417     91.2792
   785.7500      0.0000    808.1288      4.4585     93.7515
   786.0000      0.0000    800.1276      4.0902     97.5784
   786.2500      0.0000    785.8382      3.7530    101.4942
   786.5000      0.0000    768.2292      3.4901    104.0284
   786.7500      0.0000    751.6516      3.3338    104.4795
   787.0000      0.0000    739.2442      3.2746    103.0197
   787.2500      0.0000    731.7655      3.2629    100.4069
   787.5000      0.0000    728.1526      3.2402     97.9048
   787.7500      0.0000    726.7322      3.1795     96.9861
   788.0000      0.0000    725.9678      3.1067     98.6276
   788.2500      0.0000    724.4750      3.0798    102.6615
   788.5000      0.0000    720.9223      3.1383    107.4435
   788.7500      0.0000    714.7130      3.2692    110.2403
   789.0000      0.0000    707.2579      3.4179    108.8893
   789.2500      0.0000    702.0454      3.5276    103.6471
   789.5000      0.0000    702.2404      3.5658     96.9622
   789.7500      0.0000    707.7941      3.5268     91.2589
   790.0000      0.0000    715.4831      3.4236     87.5098
   790.2500      0.0000    721.8214      3.2791     85.6928
   790.5000      0.0000    725.1905      3.1186     85.5180
   790.7500      0.0000    725.1854      2.9630     86.4597
   791.0000      0.0000    720.7859      2.8268     87.8162
   791.2500      0.0000    710.2635      2.7221     89.0192
   791.5000      0.0000    694.0162      2.6617     89.6908
   791.7500      0.0000    677.6470      2.6557     89.4764
   792.0000      0.0000    669.8832      2.7082     88.1079
   792.2500      0.0000    674.9725      2.8192     85.4796
   792.5000      0.0000    688.1859      2.9911     81.4547
   792.7500      0.0000    700.9824      3.2285     75.8911
   793.0000      0.0000    709.4622      3.5295     69.1784
   793.2500      0.0000    716.0084      3.8853     62.5826
   793.5000      0.0000    723.9706      4.2863     57.8531
   793.7500      0.0000    732.9615      4.7194     56.4335
   794.0000      0.0000    739.5629      5.1490     58.6148
   794.2500      0.0000    741.6001      5.5197     62.8374
   794.5000      0.0000    740.4641      5.7964     66.0766
   794.7500      0.0000    739.0930      5.9930     65.8936
   795.0000      0.0000    739.2070      6.1457     62.4941
   795.2500      0.0000    741.7635      6.2671     58.3182
   795.5000      0.0000    748.2033      6.3450     55.4861
   795.7500      0.0000    758.5045      6.3779     54.1223
   796.0000      0.0000    769.1269      6.3922     53.2396
   796.2500      0.0000    776.0816      6.4219     52.4483
   796.5000      0.0000    779.5451      6.4804     52.3403
   796.7500      0.0000    782.7346      6.5479     53.7724
   797.0000      0.0000    786.8025      6.5824     57.2554
   797.2500      0.0000    789.7697      6.5535     62.6730
   797.5000      0.0000    790.3767      6.4760     69.1484
