~Version Information
VERS.                      2.0: CWLS Log ASCII Standard - VERSION 2.0
WRAP.                       NO: One line per depth step
~Well Information Block
STRT.FT               955.2500: 
STOP.FT              2226.0000: 
STEP.FT                 0.2500: 
NULL.                -999.2500: 
COMP.          Petrogulf Corporation: COMPANY
WELL.             Burson 8-13R: WELL
FLD.           Purgatorie River: FIELD
LOC.           1045' FNL & 2189' FEL: LOCATION
CNTY.               Las Animas: COUNTY
SRVC.                         : SERVICE COMPANY
DATE.          Fri Apr 30 04:52:15 2004: LOG DATE
UWI.           05 071 08039 00: UNIQUE WELL ID
STAT.                 Colorado: STATE
~Curve Information Block
DEPT.FT            0 000 00 00: Depth
SP.mV                         : DIL Spontaneous Potential
RILD.Ohm-m                    : DIL Deep Resistivity
RILM.Ohm-m                    : DIL Medium Resistivity
RLL3.Ohm-m                    : DIL Shallow Resistivity
~Parameter Information Block
~A  Depth        SP         RILD        RILM        RLL3    
# ...
  1960.2500    129.1268     18.6301     21.7667     53.9896
  1960.5000    129.1597     18.5061     21.6898     56.3100
  1960.7500    129.1670     18.3262     21.5225     57.9167
  1961.0000    129.1685     18.1258     21.2930     57.9824
  1961.2500    129.1771     17.9383     21.0441     56.0515
  1961.5000    129.1815     17.7941     20.8175     52.2544
  1961.7500    129.1516     17.7109     20.6416     47.4112
  1962.0000    129.0619     17.6833     20.5271     42.8773
  1962.2500    128.9120     17.6823     20.4666     39.9713
  1962.5000    128.7302     17.6712     20.4359     39.2655
  1962.7500    128.5596     17.6261     20.3994     40.3048
  1963.0000    128.4382     17.5483     20.3257     41.9570
  1963.2500    128.3839     17.4579     20.2080     43.0630
  1963.5000    128.3895     17.3782     20.0691     42.9517
  1963.7500    128.4282     17.3231     19.9431     41.6203
  1964.0000    128.4657     17.2937     19.8479     39.5824
  1964.2500    128.4734     17.2840     19.7767     37.5045
  1964.5000    128.4404     17.2898     19.7182     35.8541
  1964.7500    128.3764     17.3174     19.6804     34.7671
  1965.0000    128.3041     17.3826     19.6880     34.1626
  1965.2500    128.2454     17.4999     19.7555     33.9420
  1965.5000    128.2140     17.6698     19.8654     34.0998
  1965.7500    128.2169     17.8737     19.9749     34.6916
  1966.0000    128.2585     18.0816     20.0450     35.7010
  1966.2500    128.3403     18.2679     20.0672     36.9035
  1966.5000    128.4581     18.4208     20.0684     37.8736
  1966.7500    128.5984     18.5412     20.0966     38.2034
  1967.0000    128.7402     18.6323     20.2023     37.8098
  1967.2500    128.8613     18.6900     20.4191     37.0817
  1967.5000    128.9461     18.6997     20.7457     36.7300
  1967.7500    128.9892     18.6404     21.1393     37.4341
  1968.0000    128.9983     18.4904     21.5242     39.5042
  1968.2500    128.9971     18.2287     21.8158     42.7205
  1968.5000    129.0171     17.8350     21.9423     46.3800
  1968.7500    129.0768     17.2949     21.8553     49.4894
  1969.0000    129.1703     16.6124     21.5278     51.0116
  1969.2500    129.2835     15.8221     20.9557     50.1387
  1969.5000    129.4118     14.9854     20.1612     46.6508
  1969.7500    129.5560     14.1682     19.1907     41.2543
  1970.0000    129.7085     13.4125     18.1001     35.4817
  1970.2500    129.8552     12.7236     16.9364     30.9024
  1970.5000    129.9896     12.0800     15.7307     28.1429
  1970.7500    130.1178     11.4587     14.5075     26.5933
  1971.0000    130.2501     10.8538     13.2970     25.0472
  1971.2500    130.3897     10.2771     12.1403     22.6509
  1971.5000    130.5301      9.7459     11.0806     19.3927
  1971.7500    130.6588      9.2709     10.1510     15.8967
  1972.0000    130.7630      8.8545      9.3657     12.8707
  1972.2500    130.8364      8.4934      8.7198     10.7032
  1972.5000    130.8827      8.1850      8.1952      9.4097
  1972.7500    130.9129      7.9292      7.7695      8.7803
  1973.0000    130.9377      7.7294      7.4234      8.5275
  1973.2500    130.9626      7.5906      7.1460      8.3808
  1973.5000    130.9883      7.5177      6.9360      8.1497
  1973.7500    131.0150      7.5140      6.7999      7.7503
  1974.0000    131.0440      7.5788      6.7487      7.2018
  1974.2500    131.0784      7.7074      6.7962      6.6575
  1974.5000    131.1205      7.8919      6.9578      6.5025
  1974.7500    131.1665      8.1242      7.2500      7.4133
  1975.0000    131.2023      8.3997      7.6900     10.2632
  1975.2500    131.2077      8.7195      8.2926     15.8370
  1975.5000    131.1681      9.0900      9.0656     24.3449
  1975.7500    131.0857      9.5196     10.0042     34.8783
  1976.0000    130.9782     10.0165     11.0870     45.3510
  1976.2500    130.8660     10.5868     12.2769     53.4177
  1976.5000    130.7569     11.2330     13.5275     57.8854
  1976.7500    130.6439     11.9448     14.7890     59.3352
  1977.0000    130.5210     12.6808     16.0052     59.3596
  1977.2500    130.3988     13.3542     17.0998     59.2567
  1977.5000    130.3030     13.8483     17.9607     59.3945
  1977.7500    130.2601     14.0730     18.4457     59.4770
  1978.0000    130.2875     14.0177     18.4288     59.0024
  1978.2500    130.3918     13.7484     17.8724     57.3372
  1978.5000    130.5676     13.3551     16.8705     53.6652
  1978.7500    130.7979     12.9080     15.6174     47.4006
  1979.0000    131.0553     12.4480     14.3236     38.9336
  1979.2500    131.3095     11.9976     13.1468     29.7946
  1979.5000    131.5329     11.5726     12.1695     21.8373
  1979.7500    131.7054     11.1865     11.4122     16.2153
  1980.0000    131.8164     10.8496     10.8577     13.0417
  1980.2500    131.8688     10.5669     10.4718     11.7361
  1980.5000    131.8806     10.3395     10.2181     11.5364
  1980.7500    131.8781     10.1668     10.0663     11.8360
  1981.0000    131.8807     10.0499      9.9979     12.3054
  1981.2500    131.8918      9.9922     10.0067     12.8629
  1981.5000    131.9032      9.9975     10.0962     13.5782
  1981.7500    131.9078     10.0684     10.2744     14.5860
  1982.0000    131.9052     10.2059     10.5473     16.0347
  1982.2500    131.8997     10.4080     10.9162     18.0417
  1982.5000    131.8955     10.6688     11.3772     20.5975
  1982.7500    131.8933     10.9758     11.9245     23.4662
  1983.0000    131.8885     11.3088     12.5516     26.2552
  1983.2500    131.8734     11.6408     13.2475     28.7119
  1983.5000    131.8449     11.9404     13.9882     30.9928
  1983.7500    131.8103     12.1774     14.7281     33.6432
  1984.0000    131.7881     12.3283     15.3950     37.3783
  1984.2500    131.8003     12.3823     15.8924     42.7886
  1984.5000    131.8639     12.3436     16.1174     49.7955
  1984.7500    131.9859     12.2291     15.9972     56.9302
  1985.0000    132.1613     12.0627     15.5290     61.3036
  1985.2500    132.3730     11.8694     14.7888     60.0417
  1985.5000    132.5959     11.6706     13.9005     52.4150
  1985.7500    132.8071     11.4819     12.9896     40.6882
  1986.0000    132.9986     11.3119     12.1539     28.7069
  1986.2500    133.1847     11.1617     11.4555     19.5001
  1986.5000    133.3914     11.0255     10.9252     13.9886
  1986.7500    133.6297     10.8941     10.5703     11.4524
  1987.0000    133.8782     10.7606     10.3818     10.7508
  1987.2500    134.0933     10.6250     10.3402     11.1333
  1987.5000    134.2328     10.4961     10.4213     12.3366
  1987.7500    134.2720     10.3888     10.5984     14.2931
  1988.0000    134.2096     10.3188     10.8451     16.8182
  1988.2500    134.0660     10.2986     11.1357     19.4753
  1988.5000    133.8740     10.3358     11.4477     21.6831
  1988.7500    133.6642     10.4327     11.7644     22.9981
  1989.0000    133.4560     10.5864     12.0779     23.3551
  1989.2500    133.2618     10.7872     12.3884     23.0485
  1989.5000    133.0959     11.0156     12.6990     22.4934
  1989.7500    132.9754     11.2418     13.0084     22.0207
  1990.0000    132.9092     11.4312     13.3059     21.8342
  1990.2500    132.8918     11.5532     13.5701     22.0093
  1990.5000    132.9105     11.5879     13.7710     22.4486
  1990.7500    132.9563     11.5282     13.8720     22.9286
  1991.0000    133.0231     11.3782     13.8345     23.3307
  1991.2500    133.1013     11.1551     13.6281     23.8114
  1991.5000    133.1824     10.8899     13.2455     24.5812
  1991.7500    133.2684     10.6208     12.7134     25.4112
  1992.0000    133.3707     10.3814     12.0890     25.4872
  1992.2500    133.4981     10.1924     11.4446     23.9896
  1992.5000    133.6466     10.0601     10.8487     20.8870
  1992.7500    133.7994      9.9822     10.3536     17.0715
  1993.0000    133.9346      9.9540      9.9919     13.7120
  1993.2500    134.0342      9.9712      9.7791     11.5416
  1993.5000    134.0901     10.0306      9.7182     10.6769
