~Version Information
VERS.                      2.0: CWLS Log ASCII Standard - VERSION 2.0
WRAP.                       NO: One line per depth step
~Well Information Block
STRT.FT               698.9000: 
STOP.FT              2460.4000: 
STEP.FT                 0.1000: 
NULL.                -999.2500: 
COMP.          Petrogulf Corporation: COMPANY
WELL.             State 16-23V: WELL
FLD.           Purgatorie River: FIELD
LOC.           2414' FSL & 2215' FWL: LOCATION
PROV.                 Colorado: PROVINCE
CNTY.               Las Animas: COUNTRY
SRVC.                         : SERVICE COMPANY
DATE.          Mon Jun 09 14:24:56 2003: LOG DATE
UWI.           05 071 07865 00: UNIQUE WELL ID
~Curve Information Block
DEPT.FT            0 000 00 00: Depth
DCAL.in                       : CDL Caliper
RHOB.g/cc                     : CDL Bulk Density
RHOC.g/cc                     : CDL Density Correction
DPOR.pu                       : CDL Density Porosity
GR.GAPI                       : Gamma Ray
NPOR.pu                       : Neutron Porosity
~Parameter Information Block
~A  Depth       DCAL        RHOB        RHOC        DPOR         GR         NPOR    
# ...
  2225.3000      7.9906      2.4905      0.0907      9.6649     75.0916     25.9295
  2225.4000      7.9906      2.5030      0.0864      8.9120     73.7148     25.5380
  2225.5000      8.0021      2.5127      0.0824      8.3187     72.2137     25.1820
  2225.6000      8.0021      2.5200      0.0788      7.8787     70.7039     24.8666
  2225.7000      8.0021      2.5249      0.0754      7.5835     69.2940     24.5960
  2225.8000      8.0097      2.5275      0.0721      7.4224     68.0836     24.3734
  2225.9000      8.0097      2.5282      0.0689      7.3824     67.1506     24.2007
  2226.0000      8.0062      2.5271      0.0658      7.4492     66.5461     24.0779
  2226.1000      8.0062      2.5245      0.0627      7.6065     66.2940     24.0034
  2226.2000      8.0062      2.5207      0.0596      7.8372     66.3878     23.9736
  2226.3000      7.9985      2.5160      0.0567      8.1231     66.7946     23.9825
  2226.4000      7.9985      2.5106      0.0540      8.4460     67.4624     24.0220
  2226.5000      7.9878      2.5050      0.0516      8.7881     68.3267     24.0830
  2226.6000      7.9878      2.4993      0.0495      9.1327     69.3185     24.1550
  2226.7000      7.9878      2.4938      0.0480      9.4646     70.3727     24.2282
  2226.8000      7.9773      2.4888      0.0469      9.7712     71.4270     24.2935
  2226.9000      7.9773      2.4843      0.0462     10.0425     72.4280     24.3435
  2227.0000      7.9667      2.4805      0.0459     10.2716     73.3303     24.3734
  2227.1000      7.9667      2.4775      0.0460     10.4548     74.0963     24.3806
  2227.2000      7.9667      2.4752      0.0462     10.5914     74.6978     24.3651
  2227.3000      7.9599      2.4737      0.0464     10.6832     75.1158     24.3294
  2227.4000      7.9599      2.4729      0.0466     10.7345     75.3438     24.2781
  2227.5000      7.9741      2.4726      0.0468     10.7510     75.3876     24.2175
  2227.6000      7.9741      2.4728      0.0469     10.7398     75.2625     24.1549
  2227.7000      7.9741      2.4733      0.0469     10.7082     74.9925     24.0983
  2227.8000      8.0011      2.4740      0.0470     10.6639     74.6091     24.0551
  2227.9000      8.0011      2.4749      0.0472     10.6140     74.1474     24.0320
  2228.0000      8.0127      2.4757      0.0477     10.5649     73.6422     24.0335
  2228.1000      8.0127      2.4764      0.0485     10.5223     73.1289     24.0624
  2228.2000      8.0127      2.4769      0.0495     10.4906     72.6415     24.1190
  2228.3000      8.0110      2.4772      0.0508     10.4733     72.2122     24.2021
  2228.4000      8.0110      2.4772      0.0521     10.4725     71.8688     24.3087
  2228.5000      8.0122      2.4769      0.0533     10.4893     71.6342     24.4352
  2228.6000      8.0122      2.4764      0.0543     10.5235     71.5240     24.5778
  2228.7000      8.0122      2.4755      0.0548     10.5737     71.5477     24.7329
  2228.8000      8.0187      2.4745      0.0548     10.6375     71.7074     24.8969
  2228.9000      8.0187      2.4733      0.0543     10.7114     72.0031     25.0668
  2229.0000      8.0272      2.4719      0.0533     10.7912     72.4335     25.2400
  2229.1000      8.0272      2.4706      0.0519     10.8721     72.9971     25.4136
  2229.2000      8.0272      2.4693      0.0505     10.9490     73.6948     25.5852
  2229.3000      8.0304      2.4682      0.0493     11.0170     74.5203     25.7523
  2229.4000      8.0304      2.4673      0.0486     11.0713     75.4635     25.9125
  2229.5000      8.0240      2.4667      0.0487     11.1080     76.5006     26.0638
  2229.6000      8.0240      2.4665      0.0496     11.1240     77.5972     26.2042
  2229.7000      8.0240      2.4666      0.0515     11.1174     78.7045     26.3321
  2229.8000      8.0118      2.4671      0.0542     11.0875     79.7721     26.4461
  2229.9000      8.0118      2.4679      0.0574     11.0345     80.7493     26.5451
  2230.0000      7.9947      2.4692      0.0609     10.9599     81.5967     26.6283
  2230.1000      7.9947      2.4707      0.0644     10.8658     82.2914     26.6954
  2230.2000      7.9947      2.4725      0.0674     10.7547     82.8249     26.7461
  2230.3000      7.9795      2.4746      0.0697     10.6291     83.2046     26.7803
  2230.4000      7.9795      2.4769      0.0711     10.4910     83.4433     26.7976
  2230.5000      7.9765      2.4794      0.0715     10.3421     83.5548     26.7964
  2230.6000      7.9765      2.4820      0.0708     10.1828     83.5477     26.7745
  2230.7000      7.9765      2.4848      0.0692     10.0124     83.4241     26.7284
  2230.8000      7.9899      2.4878      0.0670      9.8291     83.1781     26.6534
  2230.9000      7.9899      2.4911      0.0643      9.6300     82.8020     26.5442
  2231.0000      8.0082      2.4947      0.0616      9.4114     82.2873     26.3957
  2231.1000      8.0082      2.4987      0.0591      9.1693     81.6285     26.2031
  2231.2000      8.0082      2.5032      0.0571      8.8995     80.8231     25.9628
  2231.3000      8.0179      2.5081      0.0558      8.5984     79.8694     25.6727
  2231.4000      8.0179      2.5137      0.0554      8.2632     78.7677     25.3319
  2231.5000      8.0155      2.5198      0.0559      7.8929     77.5155     24.9409
  2231.6000      8.0155      2.5265      0.0571      7.4878     76.1089     24.5014
  2231.7000      8.0155      2.5337      0.0590      7.0505     74.5421     24.0161
  2231.8000      8.0012      2.5413      0.0613      6.5856     72.8123     23.4882
  2231.9000      8.0012      2.5494      0.0639      6.0999     70.9167     22.9224
  2232.0000      7.9897      2.5576      0.0665      5.6020     68.8559     22.3243
  2232.1000      7.9897      2.5658      0.0689      5.1018     66.6332     21.7010
  2232.2000      7.9897      2.5739      0.0710      4.6107     64.2531     21.0608
  2232.3000      7.9866      2.5817      0.0726      4.1405     61.7240     20.4133
  2232.4000      7.9866      2.5889      0.0736      3.7031     59.0569     19.7683
  2232.5000      7.9844      2.5954      0.0739      3.3098     56.2742     19.1361
  2232.6000      7.9844      2.6010      0.0737      2.9709     53.4101     18.5262
  2232.7000      7.9844      2.6055      0.0729      2.6951     50.5170     17.9476
  2232.8000      7.9850      2.6089      0.0716      2.4893     47.6657     17.4086
  2232.9000      7.9850      2.6111      0.0701      2.3582     44.9441     16.9171
  2233.0000      7.9917      2.6120      0.0682      2.3040     42.4477     16.4805
  2233.1000      7.9917      2.6116      0.0662      2.3266     40.2710     16.1063
  2233.2000      7.9917      2.6100      0.0639      2.4238     38.4947     15.8022
  2233.3000      7.9959      2.6073      0.0615      2.5908     37.1750     15.5754
  2233.4000      7.9959      2.6034      0.0589      2.8213     36.3357     15.4328
  2233.5000      7.9975      2.5987      0.0560      3.1072     35.9648     15.3798
  2233.6000      7.9975      2.5933      0.0530      3.4392     36.0169     15.4201
  2233.7000      7.9975      2.5872      0.0498      3.8070     36.4218     15.5548
  2233.8000      8.0036      2.5807      0.0466      4.1998     37.0980     15.7822
  2233.9000      8.0036      2.5740      0.0436      4.6070     37.9600     16.0978
  2234.0000      8.0124      2.5672      0.0410      5.0179     38.9358     16.4939
  2234.1000      8.0124      2.5605      0.0388      5.4228     39.9745     16.9609
  2234.2000      8.0124      2.5541      0.0375      5.8128     41.0478     17.4873
  2234.3000      8.0179      2.5480      0.0370      6.1802     42.1538     18.0605
  2234.4000      8.0179      2.5424      0.0374      6.5186     43.3122     18.6681
  2234.5000      8.0187      2.5374      0.0387      6.8230     44.5567     19.2983
  2234.6000      8.0187      2.5330      0.0409      7.0896     45.9282     19.9406
  2234.7000      8.0187      2.5293      0.0438      7.3159     47.4650     20.5860
  2234.8000      8.0174      2.5262      0.0471      7.5004     49.1980     21.2268
