~Version Information
VERS.                      2.0: CWLS Log ASCII Standard - VERSION 2.0
WRAP.                       NO: One line per depth step
~Well Information Block
STRT.FT                -8.2500: 
STOP.FT              1119.7500: 
STEP.FT                 0.2500: 
NULL.                -999.2500: 
COMP.          Pioneer Natural Resources: COMPANY
WELL.             Linda T 32-3: WELL
FLD.           Purgatorie River: FIELD
LOC.           1350' FNL & 2290' FEL------: LOCATION
PROV.                       CO: PROVINCE
CNTY.               Las Animas: COUNTRY
SRVC.                         : SERVICE COMPANY
DATE.          Thu Feb 10 08:20:40 2005: LOG DATE
UWI.          005 071 08215   : UNIQUE WELL ID
~Curve Information Block
DEPT.FT            0 000 00 00: Depth
CCL.                          : Casing Collar Locator
TT3.usec                      : CBL 3' Travel Time
AMP3.mV                       : CBL 3' Amplitude
GR.GAPI                       : Gamma Ray
~Parameter Information Block
~A  Depth       CCL         TT3         AMP3         GR     
# ...
    58.7500      0.0000    267.9509     58.2684     91.1936
    59.0000      0.0000    267.9430     58.2215     95.8882
    59.2500      0.0000    267.9247     58.2991     97.6192
    59.5000      0.0000    267.8986     58.5341     96.3269
    59.7500      0.0000    267.8673     58.9158     93.4511
    60.0000      0.0000    267.8348     59.3956     90.6347
    60.2500      0.0000    267.8055     59.8886     88.5254
    60.5000      0.0000    267.7811     60.2956     86.7517
    60.7500      0.0000    267.7579     60.5327     84.7995
    61.0000      0.0000    267.7275     60.5457     82.7039
    61.2500      0.0000    267.6830     60.3341     80.9350
    61.5000      0.0000    267.6268     59.9827     79.7689
    61.7500      0.0000    267.5718     59.6369     78.8786
    62.0000      0.0000    267.5331     59.4110     77.7695
    62.2500      0.0000    267.5157     59.3236     76.7725
    62.5000      0.0000    267.5116     59.3214     77.3379
    62.7500      0.0000    267.5108     59.3408     80.8270
    63.0000      0.0000    267.5118     59.3384     86.9525
    63.2500      0.0000    267.5188     59.2994     93.7511
    63.5000      0.0000    267.5310     59.2402     99.1560
    63.7500      0.0000    267.5388     59.1853    102.2455
    64.0000      0.0000    267.5305     59.1229    103.0028
    64.2500      0.0000    267.5008     58.9973    101.5378
    64.5000      0.0000    267.4543     58.7596     98.0823
    64.7500      0.0000    267.4045     58.4221     93.5425
    65.0000      0.0000    267.3674     58.0560     89.5141
    65.2500      0.0000    267.3513     57.7417     87.3242
    65.5000      0.0000    267.3493     57.5236     86.8185
    65.7500      0.0000    267.3449     57.4008     86.3318
    66.0000      0.0000    267.3260     57.3485     84.3020
    66.2500      0.0000    267.2957     57.3424     80.8684
    66.5000      0.0000    267.2694     57.3619     77.5918
    66.7500      0.0000    267.2626     57.3768     75.9633
    67.0000      0.0000    267.2771     57.3487     76.6292
    67.2500      0.0000    267.2999     57.2578     79.4533
    67.5000      0.0000    267.3141     57.1212     83.3757
    67.7500      0.0000    267.3105     56.9789     86.3452
    68.0000      0.0000    267.2915     56.8616     86.2489
    68.2500      0.0000    267.2678     56.7695     82.2516
    68.5000      0.0000    267.2520     56.6775     75.0859
    68.7500      0.0000    267.2510     56.5640     66.1062
    69.0000      0.0000    267.2617     56.4363     56.4313
    69.2500      0.0000    267.2766     56.3226     47.0268
    69.5000      0.0000    267.2915     56.2416     39.0518
    69.7500      0.0000    267.3084     56.1925     33.6736
    70.0000      0.0000    267.3319     56.1700     31.6222
    70.2500      0.0000    267.3661     56.1701     32.9861
    70.5000      0.0000    267.4144     56.1797     37.1473
    70.7500      0.0000    267.4750     56.1829     42.9001
    71.0000      0.0000    267.5352     56.1851     49.1739
    71.2500      0.0000    267.5747     56.2171     55.8341
    71.5000      0.0000    267.5797     56.2919     63.3341
    71.7500      0.0000    267.5534     56.3554     71.6121
    72.0000      0.0000    267.5133     56.3022     79.9756
    72.2500      0.0000    267.4783     56.0645     88.0069
    72.5000      0.0000    267.4568     55.6831     95.7817
    72.7500      0.0000    267.4434     55.2794    102.9876
    73.0000      0.0000    267.4271     54.9611    108.4762
    73.2500      0.0000    267.4047     54.7563    111.2064
    73.5000      0.0000    267.3857     54.6263    111.3175
    73.7500      0.0000    267.3829     54.5275    109.7004
    74.0000      0.0000    267.4009     54.4558    106.7190
    74.2500      0.0000    267.4343     54.4396    102.1405
    74.5000      0.0000    267.4727     54.5004     96.5091
    74.7500      0.0000    267.5060     54.6256     91.7425
    75.0000      0.0000    267.5289     54.7706     89.5693
    75.2500      0.0000    267.5444     54.8818     89.6970
    75.5000      0.0000    267.5592     54.9237     90.1425
    75.7500      0.0000    267.5776     54.8928     89.3127
    76.0000      0.0000    267.5988     54.8115     87.3887
    76.2500      0.0000    267.6196     54.7100     85.6736
    76.5000      0.0000    267.6372     54.6082     84.8015
    76.7500      0.0000    267.6524     54.5094     83.7331
    77.0000      0.0000    267.6687     54.4144     80.7212
    77.2500      0.0000    267.6876     54.3450     75.2590
    77.5000      0.0000    267.7016     54.3494     68.7958
    77.7500      0.0000    267.6966     54.4694     63.3999
    78.0000      0.0000    267.6653     54.6977     59.9323
    78.2500      0.0000    267.6171     54.9792     57.6614
    78.5000      0.0000    267.5685     55.2561     55.4330
    78.7500      0.0000    267.5293     55.4998     52.9381
    79.0000      0.0000    267.5003     55.6954     50.9581
    79.2500      0.0000    267.4831     55.8218     50.6094
    79.5000      0.0000    267.4835     55.8678     52.1374
    79.7500      0.0000    267.5030     55.8529     54.3131
    80.0000      0.0000    267.5317     55.8143     55.3408
    80.2500      0.0000    267.5525     55.7783     54.5141
    80.5000      0.0000    267.5533     55.7497     52.6831
    80.7500      0.0000    267.5372     55.7136     51.2117
    81.0000      0.0000    267.5204     55.6475     50.9497
    81.2500      0.0000    267.5173     55.5517     52.0153
    81.5000      0.0000    267.5274     55.4660     53.9617
    81.7500      0.0000    267.5390     55.4319     56.1243
    82.0000      0.0000    267.5425     55.4368     58.0927
    82.2500      0.0000    267.5380     55.4272     59.7394
    82.5000      0.0000    267.5299     55.3797     60.7446
    82.7500      0.0000    267.5189     55.3294     60.4589
    83.0000      0.0000    267.5046     55.3133     58.5119
    83.2500      0.0000    267.4926     55.3114     55.5303
    83.5000      0.0000    267.4913     55.2696     52.9980
    83.7500      0.0000    267.5014     55.1656     52.0432
    84.0000      0.0000    267.5136     55.0317     52.3084
    84.2500      0.0000    267.5179     54.9200     52.4136
    84.5000      0.0000    267.5117     54.8653     51.5584
    84.7500      0.0000    267.4961     54.8773     50.2009
    85.0000      0.0000    267.4720     54.9491     49.2293
    85.2500      0.0000    267.4391     55.0581     49.0670
    85.5000      0.0000    267.4006     55.1661     49.6299
    85.7500      0.0000    267.3640     55.2282     50.6645
    86.0000      0.0000    267.3385     55.2132     51.8350
    86.2500      0.0000    267.3281     55.1184     52.5293
    86.5000      0.0000    267.3318     54.9494     51.9813
    86.7500      0.0000    267.3571     54.6496     50.0467
    87.0000      0.0000    267.4509     54.0242     47.7810
    87.2500      0.0000    267.7374     52.7411     46.7950
    87.5000      0.0000    268.4159     50.4688     47.8382
    87.7500      0.0000    269.6550     47.1285     50.1425
    88.0000      0.0000    271.4052     43.1336     52.2250
    88.2500      0.0000    273.3085     39.3750     53.1675
    88.5000      0.0000    274.8736     36.7966     52.9320
    88.7500      0.0000    275.7968     35.8124     51.6583
    89.0000      0.0000    276.1177     36.1016     49.2416
    89.2500      0.0000    276.0886     36.9600     45.9188
    89.5000      2.0000    275.9517     37.7921     42.8273
    89.7500     -2.0000    275.8367     38.2952     41.2880
    90.0000      0.0000    275.7823     38.3696     41.4878
    90.2500      0.0000    275.7635     38.1048     42.3283
    90.5000      0.0000    275.6677     37.9667     42.6711
    90.7500      0.0000    275.2797     38.8452     42.3267
    91.0000      0.0000    274.3778     41.5642     41.8017
    91.2500      0.0000    272.9271     46.1159     41.6284
    91.5000      0.0000    271.1858     51.4659     42.1106
    91.7500      0.0000    269.5715     56.2469     43.2202
    92.0000      0.0000    268.3969     59.6292     44.4541
