~Version Information
VERS.                      2.0: CWLS Log ASCII Standard - VERSION 2.0
WRAP.                       NO: One line per depth step
~Well Information Block
STRT.FT               840.0000: 
STOP.FT              2448.5000: 
STEP.FT                 0.2500: 
NULL.                -999.2500: 
COMP.          Petrogulf Corporation: COMPANY
WELL.             Leier 17-42V: WELL
FLD.           Purgatorie River: FIELD
LOC.           2309' FNL & 1062' FEL SENE 17 33S 67W: LOCATION
PROV.                 Colorado: PROVINCE
CNTY.               Las Animas: COUNTRY
SRVC.                Patterson: SERVICE COMPANY
DATE.          Thu Sep 22 09:40:29 2005: LOG DATE
UWI.                 071 08409: UNIQUE WELL ID
~Curve Information Block
DEPT.FT            0 000 00 00: Depth
SP.mV                         : DIL Spontaneous Potential
RILD.Ohm-m                    : DIL Deep Resistivity
RILM.Ohm-m                    : DIL Medium Resistivity
RLL3.Ohm-m                    : DIL Shallow Resistivity
GR.GAPI                       : Gamma Ray
~Parameter Information Block
~A  Depth        SP         RILD        RILM        RLL3         GR     
# ...
  1372.0000    189.8779      7.5825      7.0944      9.8200    133.6972
  1372.2500    190.0008      7.8900      7.1354      9.0309    124.3563
  1372.5000    190.0614      8.1254      7.2276      8.5042    115.1880
  1372.7500    190.4061      8.3533      7.5263      8.3021    135.1718
  1373.0000    191.1427      8.4663      8.0833      8.8000    143.5798
  1373.2500    192.4243      8.6466      8.7893     10.8271    142.8907
  1373.5000    194.1625      8.6711      9.5863     17.6181    157.4512
  1373.7500    196.4515      8.7262     10.2402     31.1448    150.0642
  1374.0000    198.7008      8.7853     10.5765     35.6333    117.6002
  1374.2500    200.7100      8.7346     10.5732     23.3365     99.2113
  1374.5000    202.1995      8.7498     10.5223     16.9377     94.4260
  1374.7500    202.9606      8.8400     10.2887     14.9976     89.4298
  1375.0000    203.3282      8.9456     10.0374     14.1404    101.4669
  1375.2500    203.4813      9.2403     10.0375     13.7619     99.0338
  1375.5000    203.3600      9.4192      9.9746     13.5455     83.0707
  1375.7500    203.0176      9.5339      9.8458     13.2753     89.1255
  1376.0000    202.5769      9.6075      9.7157     12.7696     90.1588
  1376.2500    202.1110      9.6672      9.5785     12.2794     92.0666
  1376.5000    201.6310      9.6937      9.2632     12.1347    122.3435
  1376.7500    201.1219      9.8019      9.0456     11.9535    134.4988
  1377.0000    200.6733     10.0219      8.9687     11.1425    114.5101
  1377.2500    200.2823     10.3006      9.0348     10.1801    143.1807
  1377.5000    199.8453     10.4638      9.1950      9.6520    149.6319
  1377.7500    199.4256     10.9307      9.7333     10.1368    130.8171
  1378.0000    198.9848     11.2711     10.6050     12.3827    154.7724
  1378.2500    198.5640     11.8058     11.8311     16.3125    153.1421
  1378.5000    198.1297     12.3007     13.3615     20.9145    151.4038
  1378.7500    197.8371     12.8963     14.9299     28.2310    136.8318
  1379.0000    197.6243     13.7704     16.6149     40.6179    105.3106
  1379.2500    197.3645     14.5352     18.1320     54.6295     87.4128
  1379.5000    197.2459     15.7611     19.5623     60.1147    112.5586
  1379.7500    197.0196     16.9865     21.5963     49.1360     92.2303
  1380.0000    196.5198     18.7354     24.2232     38.0706     77.6028
  1380.2500    195.6970     20.7520     27.3030     43.5355     69.6768
  1380.5000    195.0877     21.5884     31.6270     57.8833     80.4786
  1380.7500    194.7927     23.0192     35.0922     64.6475     99.2065
  1381.0000    194.7931     23.8301     39.6159     67.7117     84.4286
  1381.2500    195.0180     24.0173     43.1171     70.9327     97.8503
  1381.5000    195.4271     22.6822     43.8622     71.2408     90.7286
  1381.7500    196.0064     21.0433     42.0671     63.8010    106.0131
  1382.0000    196.8288     19.6388     38.3995     52.1682     95.1556
  1382.2500    197.8119     18.0702     32.6034     42.6284     78.3561
  1382.5000    198.8177     16.4210     26.7340     36.2881     64.9954
  1382.7500    199.6913     15.1090     22.4952     26.9411     89.5998
  1383.0000    200.4401     14.1028     18.5588     19.3061     96.7399
  1383.2500    201.0526     13.2568     15.6491     14.5440    103.0501
  1383.5000    201.5410     12.4114     13.6954     11.4724    120.1203
  1383.7500    202.0571     11.6292     12.2001      9.8647    119.0485
  1384.0000    202.5906     10.8652     10.9750      9.0292    125.9743
  1384.2500    203.2037     10.3543     10.2379      8.8180    122.5746
  1384.5000    203.7449      9.6629      9.6921      9.0482    140.2408
  1384.7500    204.0168      9.1867      9.1822      9.2329    137.8144
  1385.0000    204.1162      8.7595      8.6534      9.2018    151.2670
  1385.2500    204.1094      8.3730      8.2937      8.8229    132.7047
  1385.5000    203.9675      8.0564      8.0293      8.7884    130.6147
  1385.7500    203.7883      7.8175      7.7467      8.5878    117.1573
  1386.0000    203.6036      7.6261      7.6000      8.1675    125.9015
  1386.2500    203.3499      7.4402      7.4448      8.0367    130.7286
  1386.5000    203.0988      7.2859      7.3761      8.3158    134.1888
  1386.7500    202.8283      7.0961      7.3019      8.5650    142.1635
  1387.0000    202.4890      6.9533      7.2260      8.7551    141.2629
  1387.2500    202.0370      6.8589      7.0897      8.8527    131.2504
  1387.5000    201.6830      6.7701      6.9186      8.8266    130.0273
  1387.7500    201.2968      6.6898      6.7243      8.4849    126.3118
  1388.0000    200.9597      6.6373      6.5265      7.8691    124.1492
  1388.2500    200.5709      6.6278      6.3438      7.4474    118.8554
  1388.5000    200.1635      6.6055      6.2637      7.0932    131.3650
  1388.7500    199.8411      6.6174      6.1869      7.0131    145.4092
  1389.0000    199.5668      6.6201      6.1424      7.0130    170.4743
  1389.2500    199.0939      6.6304      6.1855      7.0306    178.1178
  1389.5000    198.5515      6.6095      6.2209      6.8927    167.6844
  1389.7500    197.9987      6.5838      6.3225      7.0010    136.8914
  1390.0000    197.3672      6.5170      6.4468      7.5101    160.5281
  1390.2500    196.7803      6.5179      6.5419      8.5266    152.2995
  1390.5000    196.2346      6.5353      6.6528      9.5243    147.7052
  1390.7500    195.6369      6.5438      6.7103      9.6025    132.9628
  1391.0000    195.0905      6.5868      6.7503      9.2591    139.4395
  1391.2500    194.6289      6.6545      6.7712      8.9382    118.7064
  1391.5000    194.2260      6.7606      6.7863      8.8145    145.5647
  1391.7500    193.8830      6.8682      6.8255      8.7010    163.4950
  1392.0000    193.6456      6.9698      6.8790      8.4206    178.6549
  1392.2500    193.5730      7.1074      7.0148      7.8136    165.8129
  1392.5000    193.5200      7.1428      7.1621      7.8535    169.4761
  1392.7500    193.2741      7.1858      7.2931      9.1512    159.5684
  1393.0000    192.7728      7.2414      7.4628     10.4833    134.0877
  1393.2500    192.1301      7.2694      7.6029     11.0951    152.7961
  1393.5000    191.1719      7.2784      7.5858     11.0850    139.9435
  1393.7500    190.0070      7.2563      7.5617     10.4953    133.9294
  1394.0000    188.5369      7.3399      7.4899      9.9655    127.6650
  1394.2500    186.9743      7.4566      7.3588      9.2974    138.6873
  1394.5000    185.3702      7.6156      7.2757      8.5600    146.9393
  1394.7500    183.7141      7.7480      7.3104      7.7978    110.8546
  1395.0000    182.0298      7.8022      7.4493      7.5104    120.9346
  1395.2500    180.4533      7.9010      7.8094      7.8559    124.8706
  1395.5000    179.0011      7.9194      8.0989      9.3581    119.2685
  1395.7500    177.7633      7.9755      8.3383     12.6614    133.7677
  1396.0000    176.7536      8.1738      8.4818     14.7191    144.1515
  1396.2500    176.0823      8.2994      8.4506     13.9982    147.8420
  1396.5000    175.7465      8.5776      8.3692     12.2550    147.4405
  1396.7500    175.7619      9.0185      8.2965     10.2673    150.8899
  1397.0000    176.1078      9.4220      8.4203      8.6579    145.5025
  1397.2500    176.7562      9.9741      8.9295      8.2762    151.0676
  1397.5000    177.6131     10.6463      9.6906      9.6745    170.5142
  1397.7500    178.5607     11.3889     10.8646     13.0053    152.2658
  1398.0000    179.4745     12.0027     12.3626     17.1992    134.7392
  1398.2500    180.2648     12.4564     13.9070     22.0658    131.3411
  1398.5000    180.9629     12.8159     15.5688     33.0885    113.5695
  1398.7500    181.7327     13.1540     17.2090     50.7175     98.4590
  1399.0000    182.6704     13.3792     18.6903     56.7821     96.0663
  1399.2500    183.7728     13.7684     20.1127     63.9774     87.6714
  1399.5000    184.7761     14.2297     20.3524     97.0152     62.2034
  1399.7500    185.9402     14.8482     20.1899    130.1719     81.5417
