~Version Information
VERS.                      2.0: CWLS Log ASCII Standard - VERSION 2.0
WRAP.                       NO: One line per depth step
~Well Information Block
STRT.FT               260.0000: 
STOP.FT              2610.0000: 
STEP.FT                 0.1000: 
NULL.                -999.2500: 
COMP.          Pioneer Natural Resources: COMPANY
WELL.           Costello 44-24: WELL
FLD.           Purgatoire River: FIELD
LOC.           327' FSL & 378' FEL: LOCATION
PROV.                 Colorado: PROVINCE
CNTY.               Las Animas: COUNTRY
SRVC.                Patterson: SERVICE COMPANY
DATE.          Mon Jul 11 10:42:19 2005: LOG DATE
UWI.           05 071 08413 00: UNIQUE WELL ID
~Curve Information Block
DEPT.FT            0 000 00 00: Depth
DCAL.in                       : CDL Caliper
RHOB.g/cc                     : CDL Bulk Density
RHOC.g/cc                     : CDL Density Correction
DPOR.pu                       : CDL Density Porosity
GR.GAPI                       : Gamma Ray
NPOR.pu                       : Neutron Porosity
~Parameter Information Block
~A  Depth       DCAL        RHOB        RHOC        DPOR         GR         NPOR    
# ...
  1815.2000      8.4972      2.1669      0.5087     29.2764    144.2663     19.8364
  1815.3000      8.6057      2.1619      0.5232     29.5810    143.2973     19.3171
  1815.4000      8.6057      2.1639      0.4974     29.4577    148.3496     19.0344
  1815.5000      8.9037      2.2015      0.4917     27.1826    155.5867     19.1584
  1815.6000      8.9037      2.2882      0.4994     21.9262    159.2226     19.9947
  1815.7000      8.9037      2.3872      0.5106     15.9301    157.0258     21.2286
  1815.8000      8.9894      2.4613      0.4986     11.4358    153.7575     22.0884
  1815.9000      8.9894      2.5164      0.5059      8.0995    156.3866     22.5853
  1816.0000      8.9690      2.5658      0.5363      5.1013    162.4605     23.3002
  1816.1000      8.9690      2.5980      0.5348      3.1541    167.4000     24.1926
  1816.2000      8.9690      2.5958      0.4446      3.2845    170.4959     24.7715
  1816.3000      8.9576      2.5702      0.3737      4.8385    169.9931     25.0618
  1816.4000      8.9576      2.5567      0.2901      5.6560    166.0922     25.4428
  1816.5000      8.8727      2.5730      0.2755      4.6674    164.4141     26.0388
  1816.6000      8.8727      2.5947      0.2131      3.3503    171.9630     26.7454
  1816.7000      8.8727      2.5939      0.2073      3.3997    184.4270     27.2371
  1816.8000      8.5647      2.5815      0.1588      4.1510    186.4055     27.3797
  1816.9000      8.5647      2.5947      0.1396      3.3497    175.4198     27.5244
  1817.0000      8.2161      2.6347      0.2267      0.9300    164.5481     27.8736
  1817.1000      8.2161      2.6559      0.2097     -0.3581    158.0555     28.3721
  1817.2000      8.2161      2.6372      0.0879      0.7729    149.4907     29.0836
  1817.3000      8.2120      2.6120      0.0571      2.3007    137.9151     29.9998
  1817.4000      8.2120      2.6161      0.0691      2.0543    127.4622     30.9525
  1817.5000      8.1811      2.6612      0.0487     -0.6815    121.5643     31.9323
  1817.6000      8.1811      2.7374      0.1269     -5.2969    121.6937     32.9674
  1817.7000      8.1811      2.8109      0.1251     -9.7500    123.3107     33.7379
  1817.8000      8.1437      2.8648      0.1014    -13.0163    121.5437     33.8444
  1817.9000      8.1437      2.9126      0.0824    -15.9130    120.4021     33.4267
  1818.0000      8.1305      2.9657      0.0966    -19.1339    120.8259     32.9641
  1818.1000      8.1305      3.0123      0.1528    -21.9580    115.4629     32.5060
  1818.2000      8.1305      3.0240      0.1292    -22.6683    104.8959     31.7342
  1818.3000      8.1234      2.9932      0.0346    -20.8023     98.0250     30.7052
  1818.4000      8.1234      2.9394      0.0261    -17.5398     99.2752     29.6083
  1818.5000      8.0955      2.8777     -0.0293    -13.7995    103.6493     28.3831
  1818.6000      8.0955      2.8012     -0.0082     -9.1626    106.0050     27.0595
  1818.7000      8.0955      2.6987     -0.0790     -2.9523    106.3474     25.9819
  1818.8000      8.0361      2.5976     -0.0467      3.1779    106.0713     25.3295
  1818.9000      8.0361      2.5444     -0.0053      6.4026    108.1916     24.9410
  1819.0000      8.0313      2.5534      0.0095      5.8572    114.4208     24.6430
  1819.1000      8.0313      2.5966      0.0967      3.2373    122.5857     24.3269
  1819.2000      8.0313      2.6328      0.1044      1.0445    128.4986     24.0264
  1819.3000      8.0265      2.6384      0.1416      0.7012    130.0078     23.8642
  1819.4000      8.0265      2.6144      0.1244      2.1569    129.9197     23.8672
  1819.5000      8.0306      2.5761      0.1107      4.4759    130.8188     23.9451
  1819.6000      8.0306      2.5333      0.1157      7.0750    132.4471     24.1727
  1819.7000      8.0306      2.4940      0.0569      9.4551    134.5896     24.5046
  1819.8000      8.0451      2.4757      0.0234     10.5647    138.7358     24.6983
  1819.9000      8.0451      2.4778      0.0491     10.4381    144.0278     24.7392
  1820.0000      8.0480      2.4802      0.0576     10.2897    146.2692     24.8003
  1820.1000      8.0480      2.4834      0.0169     10.0963    146.0934     25.0818
  1820.2000      8.0480      2.5028      0.0430      8.9211    147.4334     25.3437
  1820.3000      8.0811      2.5332      0.1003      7.0780    150.5575     25.2607
  1820.4000      8.0811      2.5494      0.1254      6.0960    153.6995     25.0963
  1820.5000      8.0990      2.5340      0.1156      7.0330    159.6635     25.2432
  1820.6000      8.0990      2.5032      0.0440      8.8966    170.0959     25.5518
  1820.7000      8.0990      2.4876      0.0706      9.8404    176.4245     25.5475
  1820.8000      8.0867      2.4941      0.0944      9.4491    172.5289     25.4359
  1820.9000      8.0867      2.5195      0.1025      7.9102    164.3665     25.5146
  1821.0000      8.0804      2.5645      0.1567      5.1800    160.2411     25.2973
  1821.1000      8.0804      2.6119      0.1555      2.3080    157.8414     24.6145
  1821.2000      8.0804      2.6342      0.1737      0.9587    152.5848     24.2366
  1821.3000      8.1000      2.6233      0.1563      1.6190    147.0720     24.6423
  1821.4000      8.1000      2.5939      0.0881      3.3989    145.8626     25.2632
  1821.5000      8.1551      2.5652      0.0691      5.1387    150.6789     25.4605
  1821.6000      8.1551      2.5445      0.0452      6.3960    157.4990     25.2010
  1821.7000      8.1551      2.5256      0.0367      7.5384    160.8313     24.8503
  1821.8000      8.1063      2.4996     -0.0070      9.1163    158.4110     24.6398
  1821.9000      8.1063      2.4560      0.0531     11.7576    153.5873     24.3438
  1822.0000      8.0864      2.3979     -0.0085     15.2806    152.6333     23.4070
  1822.1000      8.0864      2.3533     -0.0520     17.9814    154.8184     21.7131
  1822.2000      8.0864      2.3215      0.0476     19.9119    153.8106     19.8953
  1822.3000      8.0863      2.2503     -0.0044     24.2233    149.0237     18.6414
  1822.4000      8.0863      2.1144     -0.0550     32.4626    145.5546     18.1437
  1822.5000      8.0841      1.9613     -0.1506     41.7367    142.0376     18.1389
  1822.6000      8.0841      1.8676     -0.1148     47.4153    135.6904     18.4618
  1822.7000      8.0841      1.8607     -0.0194     47.8380    130.0118     19.1019
  1822.8000      8.0855      1.9154      0.0455     44.5218    126.6356     19.9556
  1822.9000      8.0855      2.0054      0.1131     39.0647    123.3449     21.0324
  1823.0000      8.1012      2.1083      0.2208     32.8319    119.0703     22.3316
  1823.1000      8.1012      2.2031      0.2470     27.0843    112.3059     23.3878
  1823.2000      8.1012      2.2888      0.3193     21.8888    106.7973     23.8883
  1823.3000      8.1050      2.3817      0.3297     16.2633    108.5624     24.1835
  1823.4000      8.1050      2.4898      0.3267      9.7120    112.6645     24.5058
  1823.5000      8.1545      2.5825      0.2669      4.0890    113.0727     24.6171
  1823.6000      8.1545      2.6202      0.1151      1.8058    111.4426     24.4657
  1823.7000      8.1545      2.6078      0.0626      2.5566    110.4257     24.2624
  1823.8000      8.1573      2.5838      0.0449      4.0149    111.4512     24.0326
  1823.9000      8.1573      2.5788      0.0202      4.3179    115.6876     23.9585
  1824.0000      8.1048      2.5865      0.0513      3.8464    117.7192     24.2148
  1824.1000      8.1048      2.5763      0.0865      4.4650    112.0896     24.2833
  1824.2000      8.1048      2.5532      0.0489      5.8640    107.5907     23.8197
  1824.3000      8.0989      2.5454      0.0438      6.3423    110.9925     23.3731
  1824.4000      8.0989      2.5398      0.1089      6.6792    116.8898     23.3555
  1824.5000      8.1048      2.5178      0.0190      8.0105    123.1532     23.5060
  1824.6000      8.1048      2.5011      0.0239      9.0248    129.6730     23.4747
  1824.7000      8.1048      2.5049      0.0826      8.7918    131.2038     23.5337
