~Version Information
VERS.                      2.0: CWLS Log ASCII Standard - VERSION 2.0
WRAP.                       NO: One line per depth step
~Well Information Block
STRT.FT               292.0000: 
STOP.FT               801.0000: 
STEP.FT                 0.1000: 
NULL.                -999.2500: 
COMP.          Pioneer Natural Resources: COMPANY
WELL.          HG Duran 34-27 Tr: WELL
FLD.           Purgatoire River: FIELD
LOC.           1076' FSL & 1465' FEL: LOCATION
PROV.                 Colorado: PROVINCE
CNTY.               Las Animas: COUNTRY
SRVC.                Patterson: SERVICE COMPANY
DATE.          Wed Apr 13 08:36:06 2005: LOG DATE
UWI.           05 071 08218 00: UNIQUE WELL ID
~Curve Information Block
DEPT.FT            0 000 00 00: Depth
DCAL.in                       : CDL Caliper
RHOB.g/cc                     : CDL Bulk Density
RHOC.g/cc                     : CDL Density Correction
DPOR.pu                       : CDL Density Porosity
GR.GAPI                       : Gamma Ray
NPOR.pu                       : Neutron Porosity
~Parameter Information Block
~A  Depth       DCAL        RHOB        RHOC        DPOR         GR         NPOR    
# ...
   762.4000      7.9613      2.2872      0.0579     21.9904    146.4969     30.4029
   762.5000      7.9964      2.2942      0.0801     21.5645    153.9063     30.7969
   762.6000      7.9964      2.2914      0.0112     21.7335    155.2095     30.3190
   762.7000      7.9964      2.2987     -0.0279     21.2937    153.2755     29.3332
   762.8000      8.0612      2.3266     -0.0091     19.5999    150.9809     28.5356
   762.9000      8.0612      2.3664      0.0102     17.1898    146.8453     28.5181
   763.0000      8.0014      2.3960      0.0406     15.3947    141.1297     28.8861
   763.1000      8.0014      2.3922      0.0472     15.6221    136.2451     28.5294
   763.2000      8.0014      2.3611      0.0197     17.5092    132.8791     27.7671
   763.3000      7.9887      2.3440      0.0050     18.5464    130.7772     27.7149
   763.4000      7.9887      2.3654      0.0493     17.2455    132.0059     28.4700
   763.5000      7.9949      2.3962      0.1035     15.3822    135.5296     29.0583
   763.6000      7.9949      2.3991      0.1157     15.2059    137.2304     28.7004
   763.7000      7.9949      2.3726      0.0961     16.8109    137.2552     27.9738
   763.8000      7.9816      2.3329      0.0710     19.2205    139.2462     27.9001
   763.9000      7.9816      2.2957      0.0830     21.4704    143.3116     28.5148
   764.0000      7.8754      2.2710      0.0195     22.9701    143.5249     29.2723
   764.1000      7.8754      2.2529      0.0502     24.0663    138.2769     29.8487
   764.2000      7.8754      2.2242      0.0509     25.8055    133.4019     30.0316
   764.3000      7.8581      2.1711      0.0200     29.0234    129.8617     29.7859
   764.4000      7.8581      2.0916     -0.0085     33.8407    124.5087     29.3190
   764.5000      7.9153      2.0084     -0.0381     38.8868    119.1462     29.1880
   764.6000      7.9153      1.9560     -0.0399     42.0604    116.3382     29.6851
   764.7000      7.9153      1.9444     -0.0447     42.7627    111.9296     30.3659
   764.8000      8.0468      1.9522     -0.0039     42.2886    101.8375     30.9680
   764.9000      8.0468      1.9660     -0.0086     41.4567     89.3479     31.4634
   765.0000      8.0686      2.0059      0.0223     39.0356     80.8877     31.5308
   765.1000      8.0686      2.0890      0.1449     33.9970     80.0288     30.8924
   765.2000      8.0686      2.1924      0.2490     27.7303     84.2430     29.8530
   765.3000      8.0908      2.2814      0.2700     22.3410     87.7851     28.6888
   765.4000      8.0908      2.3520      0.2134     18.0586     86.1054     27.5689
   765.5000      8.0847      2.4202      0.0886     13.9278     80.7641     27.2395
   765.6000      8.0847      2.4772      0.1853     10.4721     78.4387     27.9674
   765.7000      8.0847      2.5021      0.1465      8.9648     81.2998     28.5507
   765.8000      7.7905      2.5070      0.1200      8.6693     84.2133     27.3364
   765.9000      7.7905      2.5174      0.0919      8.0368     83.5437     24.8051
   766.0000      7.7692      2.5376      0.0752      6.8118     80.0175     22.9643
   766.1000      7.7692      2.5549      0.0442      5.7661     75.7075     22.3583
   766.2000      7.7692      2.5575      0.0952      5.6032     74.2200     22.3658
   766.3000      7.7927      2.5451      0.0735      6.3574     75.6693     22.6134
   766.4000      7.7927      2.5324      0.0790      7.1256     76.2996     23.0063
   766.5000      7.8009      2.5412      0.0089      6.5925     74.6529     23.1327
   766.6000      7.8009      2.5660      0.1038      5.0900     72.4448     22.9861
   766.7000      7.8009      2.5780      0.0402      4.3648     69.8975     23.0448
   766.8000      7.7985      2.5655      0.0392      5.1231     67.8549     23.1945
   766.9000      7.7985      2.5266      0.0257      7.4780     68.4184     23.2965
   767.0000      7.8023      2.4845     -0.0471     10.0331     70.4050     23.5411
   767.1000      7.8023      2.4839     -0.0263     10.0681     72.4969     23.7571
   767.2000      7.8023      2.5249      0.0433      7.5788     75.7579     23.6266
   767.3000      7.8234      2.5668      0.0913      5.0418     78.7907     23.2416
   767.4000      7.8234      2.5820      0.0758      4.1239     79.1085     23.0837
   767.5000      7.8534      2.5661      0.0432      5.0843     78.2069     23.3618
   767.6000      7.8534      2.5261      0.0754      7.5096     79.6341     23.7822
   767.7000      7.8534      2.4834      0.0421     10.1000     83.3176     24.0663
   767.8000      7.8245      2.4642      0.0298     11.2633     86.9065     23.9968
   767.9000      7.8245      2.4680      0.0506     11.0311     90.5674     24.0988
   768.0000      7.7942      2.4662      0.0445     11.1403     97.1329     25.0163
   768.1000      7.7942      2.4499     -0.0066     12.1275    106.6087     25.9603
   768.2000      7.7942      2.4498     -0.0095     12.1350    112.6990     26.4185
   768.3000      7.7827      2.4810      0.0345     10.2446    113.4661     26.9357
   768.4000      7.7827      2.5166      0.0358      8.0822    115.1445     27.2649
   768.5000      7.7998      2.5326      0.0317      7.1179    121.0279     27.0233
   768.6000      7.7998      2.5289      0.0643      7.3390    126.7534     26.4565
   768.7000      7.7998      2.5111      0.0399      8.4156    128.8392     26.0088
   768.8000      7.8273      2.4886     -0.0136      9.7792    130.3566     26.1055
   768.9000      7.8273      2.4699      0.0402     10.9147    131.4437     26.6888
   769.0000      7.8593      2.4543      0.0051     11.8626    128.8953     27.0321
   769.1000      7.8593      2.4405     -0.0008     12.6966    127.5760     27.0432
   769.2000      7.8593      2.4213      0.0368     13.8602    132.2757     27.3428
   769.3000      7.8695      2.3921     -0.0451     15.6332    138.8333     28.1669
   769.4000      7.8695      2.3733     -0.0718     16.7682    141.9464     29.2022
   769.5000      7.8760      2.3882     -0.0127     15.8694    141.5631     29.5441
   769.6000      7.8760      2.4329     -0.0013     13.1591    141.3600     28.9965
   769.7000      7.8760      2.4855      0.0795      9.9692    143.1069     28.5104
   769.8000      7.8928      2.5296      0.0869      7.2982    145.3006     28.1161
   769.9000      7.8928      2.5570      0.0787      5.6362    144.5760     27.1628
   770.0000      7.9192      2.5586      0.0692      5.5407    139.0250     26.0936
   770.1000      7.9192      2.5398      0.0319      6.6793    130.6078     25.7873
   770.2000      7.9192      2.5252      0.0288      7.5651    120.9589     26.4989
   770.3000      7.9059      2.5220      0.0798      7.7592    110.0074     27.8329
   770.4000      7.9059      2.5092      0.0348      8.5339    101.4251     28.6344
   770.5000      7.8650      2.4793     -0.0306     10.3449     99.3172     28.1279
   770.6000      7.8650      2.4539     -0.0297     11.8820    101.2241     26.8103
   770.7000      7.8650      2.4509     -0.0464     12.0648    103.0282     25.5941
   770.8000      7.8504      2.4670      0.0101     11.0892    103.5080     25.0021
   770.9000      7.8504      2.4871      0.0293      9.8713    101.6584     24.9623
   771.0000      7.8480      2.5004      0.0774      9.0641     97.8369     24.7472
   771.1000      7.8480      2.5126      0.0333      8.3288     93.9866     23.9762
   771.2000      7.8480      2.5422      0.0570      6.5314     89.8438     22.8030
   771.3000      7.8179      2.5884      0.1004      3.7361     86.0661     21.5112
   771.4000      7.8179      2.6256      0.0848      1.4778     84.5815     20.8131
   771.5000      7.8043      2.6321      0.1376      1.0843     84.6227     21.2824
   771.6000      7.8043      2.6072      0.0761      2.5940     82.4840     22.1946
   771.7000      7.8043      2.5710      0.0659      4.7870     76.3354     22.5618
   771.8000      7.7975      2.5383      0.0312      6.7679     71.9374     22.9699
   771.9000      7.7975      2.5126      0.0279      8.3286     73.6781     23.6597
