~Version Information
VERS.                      2.0: CWLS Log ASCII Standard - VERSION 2.0
WRAP.                       NO: One line per depth step
~Well Information Block
STRT.FT                -3.2500: 
STOP.FT              2202.2500: 
STEP.FT                 0.2500: 
NULL.                -999.2500: 
COMP.          Pioneer Natural Resources: COMPANY
WELL.           Parklane 43-34: WELL
FLD.           Purgatorie River: FIELD
LOC.           1704' FSL & 1119' FEL--: LOCATION
PROV.                       CO: PROVINCE
CNTY.               Las Animas: COUNTRY
SRVC.                         : SERVICE COMPANY
DATE.          Thu Oct 14 14:49:09 2004: LOG DATE
UWI.           005 071 08162  : UNIQUE WELL ID
~Curve Information Block
DEPT.FT            0 000 00 00: Depth
GR.GAPI                       : Gamma Ray
CCL.                          : Casing Collar Locator
TT3.usec                      : CBL 3' Travel Time
AMP3.mV                       : CBL 3' Amplitude
~Parameter Information Block
~A  Depth        GR         CCL         TT3         AMP3    
# ...
  2040.2500     75.7840      0.0000    745.3419      1.7330
  2040.5000     68.8026     -2.0000    749.8424      1.3733
  2040.7500     63.8430     -2.0000    752.5386      1.2112
  2041.0000     61.0557      0.0000    750.5543      1.4572
  2041.2500     59.5570      0.0000    732.2682      2.4283
  2041.5000     58.5297      0.0000    685.7125      4.5404
  2041.7500     57.9635      0.0000    610.6053      8.1556
  2042.0000     58.2944      0.0000    521.1377     13.3896
  2042.2500     59.4010      0.0000    436.6766     20.0604
  2042.5000     60.3633      0.0000    369.9814     27.7217
  2042.7500     60.3997      0.0000    323.3724     35.6734
  2043.0000     59.6631      0.0000    293.1339     43.1917
  2043.2500     58.9502      0.0000    274.7845     50.0025
  2043.5000     59.0066      0.0000    264.7306     56.3308
  2043.7500     60.1467      0.0000    259.9712     62.2834
  2044.0000     62.2129      0.0000    258.0743     67.4084
  2044.2500     64.9590      0.0000    257.4486     71.0062
  2044.5000     68.6586      0.0000    257.2819     72.6548
  2044.7500     73.9963      0.0000    257.2511     72.3583
  2045.0000     81.0743      0.0000    257.2618     70.4728
  2045.2500     88.7412      0.0000    257.2885     67.7345
  2045.5000     94.9686      0.0000    257.3119     65.2133
  2045.7500     97.5568      0.0000    257.3215     63.8492
  2046.0000     94.8976      0.0000    257.3598     63.8424
  2046.2500     87.1846      0.0000    257.5859     64.5720
  2046.5000     77.1242      0.0000    258.3253     65.1316
  2046.7500     68.6033      0.0000    260.0849     64.8203
  2047.0000     64.0165      0.0000    263.5774     63.1732
  2047.2500     62.9080      0.0000    269.7324     59.8586
  2047.5000     63.3061      0.0000    279.6974     54.8616
  2047.7500     64.0219      0.0000    294.3105     48.7888
  2048.0000     65.2303      0.0000    312.2685     42.8055
  2048.2500     67.2049      0.0000    328.2397     38.1615
  2048.5000     69.4482      0.0000    334.8759     35.6411
  2048.7500     71.4119     -2.0000    329.2121     35.1887
  2049.0000     73.3559      0.0000    316.2992     35.9507
  2049.2500     75.7774      0.0000    304.5426     36.9199
  2049.5000     78.3152      0.0000    298.2745     37.6746
  2049.7500     79.8297      0.0000    296.2066     38.3909
  2050.0000     79.6396      0.0000    295.5519     39.1629
  2050.2500     78.3718      0.0000    295.3712     39.5908
  2050.5000     77.4118      0.0000    296.1157     39.1951
  2050.7500     77.5925      0.0000    297.8175     37.9739
  2051.0000     78.5364      0.0000    299.7222     36.3005
  2051.2500     79.1510      0.0000    301.1282     34.4552
  2051.5000     78.6352      0.0000    301.9472     32.4888
  2051.7500     77.2161      0.0000    302.5365     30.4131
  2052.0000     76.0652      0.0000    303.6208     28.3166
  2052.2500     76.2527      0.0000    306.9225     26.3127
  2052.5000     77.6340      0.0000    316.4037     24.4764
  2052.7500     78.9229      0.0000    338.6644     22.8450
  2053.0000     78.8018      0.0000    379.9977     21.4331
  2053.2500     76.8563      0.0000    440.0308     20.2408
  2053.5000     73.6370      0.0000    507.9091     19.2567
  2053.7500     70.0724      0.0000    567.4764     18.4625
  2054.0000     66.8984      0.0000    607.9217     17.8295
  2054.2500     64.5608      0.0000    628.9981     17.3160
  2054.5000     63.4118      0.0000    637.2831     16.8769
  2054.7500     63.6769      0.0000    640.1729     16.4736
  2055.0000     65.1898      0.0000    643.0302     16.0770
  2055.2500     67.3393      0.0000    648.6038     15.6688
  2055.5000     69.4153      0.0000    657.1170     15.2447
  2055.7500     70.9567      0.0000    667.1711     14.8119
  2056.0000     71.7519      0.0000    676.9243     14.3804
  2056.2500     71.6766      0.0000    684.4500     13.9588
  2056.5000     70.7599      0.0000    688.0027     13.5528
  2056.7500     69.4868      0.0000    687.2242     13.1687
  2057.0000     68.8437      0.0000    684.0803     12.8191
  2057.2500     69.7594      0.0000    681.9911     12.5193
  2057.5000     72.5049      0.0000    684.0468     12.2751
  2057.7500     76.8236      0.0000    691.7913     12.0730
  2058.0000     82.3068      0.0000    704.5770     11.8873
  2058.2500     88.2441      0.0000    719.5063     11.6976
  2058.5000     93.5217      0.0000    732.7792     11.5007
  2058.7500     97.2777      0.0000    741.9100     11.3050
  2059.0000     99.4712      0.0000    746.7936     11.1153
  2059.2500    100.3125      0.0000    748.8450     10.9281
  2059.5000     99.3869      0.0000    749.5640     10.7363
  2059.7500     96.0273      0.0000    749.7714     10.5353
  2060.0000     90.6354      0.0000    749.5532     10.3222
  2060.2500     84.9931      0.0000    748.4319     10.0939
  2060.5000     80.9610      0.0000    745.7626      9.8472
  2060.7500     79.2907      0.0000    741.5901      9.5838
  2061.0000     79.8767      0.0000    737.4245      9.3157
  2061.2500     82.5127      0.0000    735.6351      9.0627
  2061.5000     86.7936      0.0000    737.4241      8.8405
  2061.7500     91.4648      0.0000    741.6143      8.6531
  2062.0000     94.4305      0.0000    745.8173      8.4980
  2062.2500     94.0037      0.0000    748.3898      8.3734
  2062.5000     90.4567      0.0000    748.9669      8.2803
  2062.7500     85.9575      0.0000    747.6609      8.2215
  2063.0000     82.5948      0.0000    744.5004      8.1995
  2063.2500     80.9135      0.0000    739.9276      8.2161
  2063.5000     80.5458      0.0000    735.5815      8.2710
  2063.7500     81.2716      0.0000    733.7910      8.3599
  2064.0000     82.8732      0.0000    735.6642      8.4714
  2064.2500     84.6299      0.0000    739.9651      8.5893
  2064.5000     85.6540      0.0000    744.3348      8.7055
  2064.7500     85.7237      0.0000    747.2788      8.8337
  2065.0000     85.6240      0.0000    748.7307      9.0040
  2065.2500     86.5401      0.0000    749.2772      9.2372
  2065.5000     88.8625      0.0000    749.4240      9.5206
  2065.7500     91.6167      0.0000    749.4357      9.8094
  2066.0000     93.3590      0.0000    749.3706     10.0507
  2066.2500     93.5900      0.0000    748.8011     10.2087
  2066.5000     93.0161      0.0000    746.3007     10.2729
  2066.7500     92.6396      0.0000    739.6919     10.2523
  2067.0000     92.9446      0.0000    727.9763     10.1681
  2067.2500     93.8694      0.0000    713.6620     10.0479
  2067.5000     95.3343      0.0000    702.4597      9.9126
  2067.7500     97.6522      0.0000    699.5869      9.7641
  2068.0000    101.0784      0.0000    705.9081      9.5892
  2068.2500    104.7753      0.0000    717.4235      9.3758
  2068.5000    106.6077      0.0000    728.1723      9.1242
  2068.7500    104.5018      0.0000    733.7374      8.8493
  2069.0000     98.1472      0.0000    732.8513      8.5758
  2069.2500     89.3115      0.0000    727.0250      8.3246
  2069.5000     80.5899      0.0000    719.3799      8.1009
  2069.7500     73.8547      0.0000    713.4036      7.8916
  2070.0000     69.5829      0.0000    711.9076      7.6728
  2070.2500     67.2205      0.0000    716.6332      7.4212
  2070.5000     66.0159      0.0000    728.1737      7.1278
  2070.7500     65.6733      0.0000    745.2491      6.8021
  2071.0000     66.3564      0.0000    763.7209      6.4650
  2071.2500     67.9912      0.0000    777.6310      6.1529
  2071.5000     69.7470      0.0000    782.8784      5.9182
  2071.7500     70.5503      0.0000    779.9674      5.7936
  2072.0000     70.0941      0.0000    772.7978      5.7577
  2072.2500     69.1328      0.0000    766.0682      5.7585
  2072.5000     68.8225      0.0000    764.2186      5.7695
  2072.7500     69.9419      0.0000    770.0674      5.8294
  2073.0000     72.6117      0.0000    781.6870      6.0337
  2073.2500     76.4899      0.0000    791.7266      6.4515
  2073.5000     81.0210      0.0000    792.3289      7.0048
