~Version Information
VERS.                      2.0: CWLS Log ASCII Standard - VERSION 2.0
WRAP.                       NO: One line per depth step
~Well Information Block
STRT.FT                -4.7500: 
STOP.FT              1784.7500: 
STEP.FT                 0.2500: 
NULL.                -999.2500: 
COMP.          Pioneer Natural Resources: COMPANY
WELL.          Buckeye 11-13 Tr: WELL
FLD.           Purgatorie River: FIELD
LOC.           211' FNL & 1054' FWL--: LOCATION
STAT.                       CO: State
CNTY.               Las Animas: COUNTY
CTRY. USA : Country
SECT. 13 : Section
TOWN. 33S : Township
RANG. 67W : range
SRVC.          Patterson Wireline: SERVICE COMPANY
DATE.          Wed Mar 16 09:19:21 2005: LOG DATE
API.           05 071 08317 00: UNIQUE WELL ID
~Curve Information Block
DEPT.FT            0 000 00 00: Depth
CCL.                          : Casing Collar Locator
TT3.usec                      : CBL 3' Travel Time
AMP3.mV                       : CBL 3' Amplitude
GR.GAPI                       : Gamma Ray
~Parameter Information Block
~A  Depth       CCL         TT3         AMP3         GR     
# ...
   698.7500      0.0000    789.8443      5.8630    113.5668
   699.0000      0.0000    789.5755      5.8211    112.9157
   699.2500      0.0000    788.6995      5.8205    109.7494
   699.5000      0.0000    785.1165      5.8725    105.5615
   699.7500      0.0000    778.6918      5.9835    102.5035
   700.0000      0.0000    773.4510      6.1301    102.0098
   700.2500     -2.0000    775.4083      6.2617    104.4235
   700.5000      0.0000    786.8865      6.3233    109.4682
   700.7500      0.0000    803.2818      6.2863    116.4570
   701.0000      0.0000    816.2047      6.1789    124.0833
   701.2500      0.0000    820.0016      6.0813    130.5880
   701.5000      0.0000    815.3004      6.0722    134.5682
   701.7500      0.0000    806.6429      6.1762    135.7060
   702.0000      0.0000    797.7604      6.3660    134.6756
   702.2500      0.0000    789.9413      6.5968    132.2670
   702.5000      0.0000    783.6578      6.8230    128.5914
   702.7500      0.0000    779.5354      6.9980    123.2825
   703.0000      0.0000    777.6888      7.0894    116.4571
   703.2500      0.0000    777.6327      7.1053    109.2273
   703.5000      0.0000    779.0800      7.0905    103.1088
   703.7500      0.0000    782.0131      7.0837     99.1226
   704.0000      0.0000    786.0281      7.0823     97.6402
   704.2500      0.0000    789.9288      7.0557     98.7662
   704.5000      0.0000    791.9170      6.9893    102.3076
   704.7500      0.0000    790.6425      6.9044    107.3657
   705.0000      0.0000    786.6655      6.8299    112.5213
   705.2500      0.0000    782.4116      6.7677    116.8132
   705.5000      0.0000    779.9828      6.7033    120.5065
   705.7500      0.0000    779.1738      6.6427    124.5739
   706.0000      0.0000    777.9843      6.6176    129.0548
   706.2500      0.0000    774.6586      6.6452    132.0953
   706.5000      0.0000    768.9122      6.7030    131.3411
   706.7500      0.0000    761.9515      6.7550    126.5398
   707.0000      0.0000    756.0360      6.7933    120.2315
   707.2500      0.0000    753.4915      6.8373    115.7422
   707.5000      0.0000    755.1985      6.8982    114.9032
   707.7500      0.0000    759.8761      6.9591    117.2521
   708.0000      0.0000    765.1445      6.9976    120.4512
   708.2500      0.0000    769.3844      7.0145    121.5925
   708.5000      0.0000    772.6623      7.0265    119.1647
   708.7500      0.0000    776.2463      7.0334    114.3391
   709.0000      0.0000    781.3300      7.0088    110.0389
   709.2500      0.0000    787.7279      6.9320    108.3606
   709.5000      0.0000    793.4174      6.8163    108.7759
   709.7500      0.0000    795.6907      6.6912    108.6362
   710.0000      0.0000    793.2883      6.5661    105.1629
   710.2500      0.0000    787.4984      6.4260     97.2538
   710.5000      0.0000    781.0686      6.2590     86.1705
   710.7500      0.0000    776.1482      6.0714     74.7983
   711.0000      0.0000    773.2571      5.8794     65.8267
   711.2500      0.0000    771.7693      5.6964     60.1746
   711.5000      0.0000    770.8826      5.5268     56.9527
   711.7500      0.0000    770.1428      5.3716     54.7651
   712.0000      0.0000    769.4529      5.2399     52.9940
   712.2500      0.0000    768.8945      5.1473     51.9110
   712.5000      0.0000    768.5856      5.0981     51.8656
   712.7500      0.0000    768.6332      5.0811     52.6081
   713.0000      0.0000    769.1857      5.0937     53.3267
   713.2500      0.0000    770.5831      5.1577     53.2502
   713.5000      0.0000    773.4636      5.2975     52.3181
   713.7500      0.0000    778.4785      5.5008     51.3055
   714.0000      0.0000    785.5574      5.7127     51.0889
   714.2500      0.0000    793.4240      5.8729     51.6603
   714.5000      0.0000    800.1130      5.9594     51.9589
   714.7500      0.0000    804.0181      5.9970     50.8312
   715.0000      0.0000    804.3656      6.0297     48.2239
   715.2500      0.0000    801.0837      6.0837     45.3997
   715.5000      0.0000    794.8986      6.1493     43.9446
   715.7500      0.0000    787.5694      6.1901     44.6598
   716.0000      0.0000    781.3785      6.1716     47.4541
   716.2500      0.0000    777.8973      6.0852     52.0200
   716.5000      0.0000    777.1158      5.9550     58.2795
   716.7500      0.0000    777.6449      5.8275     66.2257
   717.0000      0.0000    777.8024      5.7549     75.5262
   717.2500      0.0000    776.8280      5.7725     85.2757
   717.5000      0.0000    775.1854      5.8784     94.2238
   717.7500      0.0000    773.7063      6.0288    101.4743
   718.0000      0.0000    772.6979      6.1540    107.0192
   718.2500      0.0000    772.1426      6.1920    111.6090
   718.5000      0.0000    772.6136      6.1217    116.2004
   718.7500      0.0000    775.5204      5.9763    121.2647
   719.0000      0.0000    781.9448      5.8249    126.1747
   719.2500      0.0000    791.0734      5.7316    129.4654
   719.5000      0.0000    800.1530      5.7212    130.3660
   719.7500      0.0000    806.2045      5.7749    129.8999
   720.0000      0.0000    807.5930      5.8536    129.8810
   720.2500      0.0000    804.2136      5.9261    131.1349
   720.5000      0.0000    796.9877      5.9780    133.2702
   720.7500      0.0000    787.4919      6.0061    135.5620
   721.0000      0.0000    777.5501      6.0112    137.1394
   721.2500      0.0000    768.6886      6.0002    136.9013
   721.5000      0.0000    761.7618      5.9880    134.4878
   721.7500      0.0000    756.8707      5.9945    131.2964
   722.0000      0.0000    753.5751      6.0393    129.7642
   722.2500      0.0000    751.4191      6.1328    131.4398
   722.5000      0.0000    750.3814      6.2659    135.9561
   722.7500      0.0000    750.6960      6.4083    141.5115
   723.0000      0.0000    752.3336      6.5232    145.7148
   723.2500      0.0000    754.9854      6.5876    146.3052
   723.5000      0.0000    758.5313      6.5977    142.3128
   723.7500      0.0000    763.1358      6.5627    135.2566
   724.0000      0.0000    768.8495      6.4977    128.8114
   724.2500      0.0000    775.4423      6.4215    126.3593
   724.5000      0.0000    782.5858      6.3541    128.3865
   724.7500      0.0000    789.6577      6.3090    132.4342
   725.0000      0.0000    795.2012      6.2900    135.5822
   725.2500      0.0000    797.2546      6.2954    136.5140
   725.5000      0.0000    794.8544      6.3262    135.4884
   725.7500      0.0000    789.1769      6.3869    133.4719
   726.0000      0.0000    783.0867      6.4814    131.7670
   726.2500      0.0000    779.7994      6.6110    131.6759
   726.5000      0.0000    781.7476      6.7719    133.7806
   726.7500      0.0000    789.4344      6.9471    137.4805
   727.0000      0.0000    800.4591      7.1041    141.3606
   727.2500      0.0000    810.4091      7.2074    144.0639
   727.5000      0.0000    815.8066      7.2387    145.0054
   727.7500      0.0000    816.0735      7.2067    144.5138
   728.0000      0.0000    812.5213      7.1404    143.2383
   728.2500      0.0000    806.4094      7.0766    141.3557
   728.5000      0.0000    798.6662      7.0466    138.4964
   728.7500      0.0000    790.7235      7.0658    134.5535
   729.0000      0.0000    784.5153      7.1295    130.4548
   729.2500      0.0000    781.3742      7.2155    127.9172
   729.5000      0.0000    781.1113      7.2931    128.3059
   729.7500      0.0000    782.1266      7.3348    131.7098
   730.0000      0.0000    782.4729      7.3240    137.0787
   730.2500      0.0000    781.1824      7.2585    143.0302
   730.5000      0.0000    778.7645      7.1513    148.3757
   730.7500      0.0000    776.4269      7.0337    151.9304
   731.0000      0.0000    774.9700      6.9498    152.2982
   731.2500      0.0000    774.4372      6.9363    148.6244
   731.5000      0.0000    774.4492      6.9941    141.7610
   731.7500      0.0000    774.5888      7.0798    134.0872
   732.0000      0.0000    774.5986      7.1355    127.7919
