~Version Information
VERS.                      2.0: CWLS Log ASCII Standard - VERSION 2.0
WRAP.                       NO: One line per depth step
~Well Information Block
STRT.FT               750.3000: 
STOP.FT              1254.0000: 
STEP.FT                 0.1000: 
NULL.                -999.2500: 
COMP.          Petrogulf Corporation: COMPANY
WELL.           Montoya 13-41V: WELL
FLD.           Purgatorie River: FIELD
LOC.           449' FNL & 891' FEL: LOCATION
CNTY.               Las Animas: COUNTY
SRVC.                         : SERVICE COMPANY
DATE.          Tue Aug 17 15:47:43 2004: LOG DATE
UWI.           05 071 08021 00: UNIQUE WELL ID
STAT.                 Colorado: STATE
~Curve Information Block
DEPT.FT            0 000 00 00: Depth
DCAL.in                       : CDL Caliper
RHOB.g/cc                     : CDL Bulk Density
RHOC.g/cc                     : CDL Density Correction
DPOR.pu                       : CDL Density Porosity
GR.GAPI                       : Gamma Ray
NPOR.pu                       : Neutron Porosity
~Parameter Information Block
~A  Depth       DCAL        RHOB        RHOC        DPOR         GR         NPOR    
# ...
  1086.3000      8.1027      2.6115     -0.0471      2.3358    139.2436     25.0916
  1086.4000      8.1027      2.5758     -0.0585      4.4958    134.3224     25.9619
  1086.5000      8.1037      2.5523     -0.0158      5.9190    135.5481     26.7867
  1086.6000      8.1037      2.5293     -0.0013      7.3155    138.4392     27.1392
  1086.7000      8.1037      2.5083     -0.0235      8.5899    136.7686     27.2257
  1086.8000      8.1052      2.5038     -0.0159      8.8578    133.2320     27.0888
  1086.9000      8.1052      2.5189      0.0271      7.9432    135.2567     26.5509
  1087.0000      8.1048      2.5417      0.0160      6.5628    143.5351     25.9555
  1087.1000      8.1048      2.5632      0.0673      5.2601    152.2545     26.1562
  1087.2000      8.1048      2.5772      0.0915      4.4129    157.5284     26.9297
  1087.3000      8.1085      2.5848      0.0836      3.9505    165.3910     27.4953
  1087.4000      8.1085      2.5895      0.0968      3.6651    177.0786     27.9094
  1087.5000      8.1112      2.5833      0.1049      4.0395    179.6227     28.1976
  1087.6000      8.1112      2.5652      0.0298      5.1411    169.9652     27.9545
  1087.7000      8.1112      2.5506      0.0181      6.0273    159.0803     27.5022
  1087.8000      8.1231      2.5521      0.0073      5.9323    153.6088     27.2888
  1087.9000      8.1231      2.5623      0.0449      5.3172    153.3965     26.7895
  1088.0000      8.1481      2.5621      0.0336      5.3284    154.5003     25.8230
  1088.1000      8.1481      2.5439      0.0241      6.4322    154.1909     25.3593
  1088.2000      8.1481      2.5161     -0.0261      8.1139    156.8076     25.6660
  1088.3000      8.1293      2.4960     -0.0026      9.3348    162.1821     26.0982
  1088.4000      8.1293      2.4978     -0.0283      9.2264    163.4848     26.8054
  1088.5000      8.1046      2.5234     -0.0158      7.6728    160.7381     27.6337
  1088.6000      8.1046      2.5573      0.0348      5.6191    159.0597     27.5261
  1088.7000      8.1046      2.5800      0.0278      4.2449    160.0643     26.8334
  1088.8000      8.0944      2.6002     -0.0024      3.0210    161.8053     26.6516
  1088.9000      8.0944      2.6359      0.0761      0.8522    164.2578     26.8073
  1089.0000      8.0937      2.6673      0.1306     -1.0482    165.2480     26.8788
  1089.1000      8.0937      2.6691      0.0827     -1.1593    165.7383     26.7893
  1089.2000      8.0937      2.6555      0.0953     -0.3355    169.9809     26.9607
  1089.3000      8.0936      2.6474      0.0501      0.1582    174.3195     27.9202
  1089.4000      8.0936      2.6410      0.0387      0.5471    171.9216     28.8050
  1089.5000      8.0948      2.6286      0.0451      1.2988    163.3747     28.7734
  1089.6000      8.0948      2.6213      0.0226      1.7371    151.2194     28.4319
  1089.7000      8.0948      2.6224      0.0648      1.6756    136.4093     28.4172
  1089.8000      8.0937      2.6146      0.0051      2.1477    128.0803     28.3885
  1089.9000      8.0937      2.5946      0.0183      3.3578    134.6525     27.9685
  1090.0000      8.0938      2.5755     -0.0109      4.5132    148.1538     27.5743
  1090.1000      8.0938      2.5676      0.0232      4.9945    159.7191     27.8109
  1090.2000      8.0938      2.5685      0.0696      4.9395    165.3533     28.7752
  1090.3000      8.0919      2.5712      0.0596      4.7786    164.4225     29.5707
  1090.4000      8.0919      2.5733      0.0278      4.6490    167.7352     29.1421
  1090.5000      8.0959      2.5735      0.0583      4.6352    178.7664     27.9625
  1090.6000      8.0959      2.5704      0.0800      4.8272    186.0375     27.1469
  1090.7000      8.0959      2.5620      0.0827      5.3337    184.9929     27.1509
  1090.8000      8.1025      2.5488      0.0465      6.1326    179.2945     27.7149
  1090.9000      8.1025      2.5347      0.0808      6.9862    170.4530     28.0739
  1091.0000      8.1125      2.5233      0.0289      7.6764    160.4039     27.8425
  1091.1000      8.1125      2.5152      0.0321      8.1699    155.6490     27.3259
  1091.2000      8.1125      2.5052      0.0340      8.7734    157.0294     27.1037
  1091.3000      8.1340      2.4883      0.0341      9.7987    155.8825     27.1935
  1091.4000      8.1340      2.4565      0.0001     11.7295    150.3970     27.2961
  1091.5000      8.1455      2.3921     -0.0120     15.6299    146.2439     27.5470
  1091.6000      8.1455      2.2886     -0.0264     21.9024    147.6664     27.7934
  1091.7000      8.1455      2.1618     -0.0721     29.5896    148.6196     27.6692
  1091.8000      8.1556      2.0279     -0.1362     37.7046    140.7548     27.7196
  1091.9000      8.1556      1.9057     -0.1858     45.1118    125.8362     28.5354
  1092.0000      8.1863      1.8268     -0.1970     49.8900    112.9478     29.8649
  1092.1000      8.1863      1.8037     -0.1668     51.2883    109.5135     31.0711
  1092.2000      8.1863      1.8099     -0.0527     50.9128    112.8796     31.6616
  1092.3000      8.1778      1.8256     -0.0161     49.9611    114.3521     31.7375
  1092.4000      8.1778      1.8689      0.0288     47.3419    111.7892     31.6225
  1092.5000      8.1398      1.9499      0.1811     42.4331    109.5025     31.2086
  1092.6000      8.1398      2.0478      0.1941     36.4965    111.2454     30.4736
  1092.7000      8.1398      2.1463      0.1727     30.5272    114.4696     29.8149
  1092.8000      8.1691      2.2392      0.1857     24.8969    116.1679     29.5764
  1092.9000      8.1691      2.3235      0.1646     19.7874    119.6973     29.4130
  1093.0000      8.0266      2.4038      0.1657     14.9200    120.9972     29.0613
  1093.1000      8.0266      2.4729      0.2031     10.7332    113.7625     29.0877
  1093.2000      8.0266      2.5108      0.1582      8.4335    102.3438     29.2851
  1093.3000      8.0073      2.5196      0.0940      7.9029     92.9457     28.4461
  1093.4000      8.0073      2.5252      0.0819      7.5661     88.4913     26.2336
  1093.5000      8.0025      2.5455      0.0631      6.3348     88.0599     23.6584
  1093.6000      8.0025      2.5692      0.1466      4.8964     88.3415     22.0181
  1093.7000      8.0025      2.5762      0.1388      4.4704     88.5517     21.2874
  1093.8000      7.9687      2.5756      0.1171      4.5076     85.1924     20.4401
  1093.9000      7.9687      2.5859      0.1138      3.8851     77.5237     19.2594
  1094.0000      7.9697      2.6059      0.1227      2.6753     70.6490     18.2555
  1094.1000      7.9697      2.6258      0.1187      1.4647     65.0443     17.6482
  1094.2000      7.9697      2.6373      0.1167      0.7687     61.8183     17.5020
  1094.3000      8.0006      2.6380      0.1083      0.7293     63.0805     17.8670
  1094.4000      8.0006      2.6360      0.0597      0.8472     65.1204     18.5956
  1094.5000      8.0025      2.6372      0.0985      0.7773     66.0511     19.0540
  1094.6000      8.0025      2.6343      0.0951      0.9527     67.2471     18.5607
  1094.7000      8.0025      2.6269      0.0498      1.4009     64.1862     17.6849
  1094.8000      8.0047      2.6293      0.0107      1.2550     54.3497     17.0415
  1094.9000      8.0047      2.6484      0.0468      0.0984     46.8331     16.4062
  1095.0000      8.0046      2.6688      0.0611     -1.1422     47.7797     16.0912
  1095.1000      8.0046      2.6693      0.0573     -1.1712     52.0238     16.2372
  1095.2000      8.0046      2.6482     -0.0073      0.1075     54.9706     16.1698
  1095.3000      8.0040      2.6183      0.0223      1.9213     55.6736     15.8082
  1095.4000      8.0040      2.5903     -0.0242      3.6176     52.4314     15.4963
  1095.5000      8.0049      2.5766     -0.0132      4.4456     48.8707     15.0693
  1095.6000      8.0049      2.5811     -0.0417      4.1732     50.5262     14.8091
  1095.7000      8.0049      2.5917     -0.0056      3.5331     56.2843     15.3015
  1095.8000      8.0045      2.5918     -0.0229      3.5294     59.1235     15.9841
