~Version Information
VERS.                      2.0: CWLS Log ASCII Standard - VERSION 2.0
WRAP.                       NO: One line per depth step
~Well Information Block
STRT.FT               -10.0000: 
STOP.FT              2544.2500: 
STEP.FT                 0.2500: 
NULL.                -999.2500: 
COMP.          Pioneer Natural Resources: COMPANY
WELL.            Cortina 23-25: WELL
FLD.           Purgatorie River: FIELD
LOC.           2344' FWL  & 2526' FSL------: LOCATION
PROV.                       CO: PROVINCE
CNTY.               Las Animas: COUNTRY
SRVC.          Patterson Wireline: SERVICE COMPANY
DATE.          Fri Apr 01 11:50:55 2005: LOG DATE
UWI.           05 071 08340 00: UNIQUE WELL ID
~Curve Information Block
DEPT.FT            0 000 00 00: Depth
CCL.                          : Casing Collar Locator
TT3.usec                      : CBL 3' Travel Time
AMP3.mV                       : CBL 3' Amplitude
GR.GAPI                       : Gamma Ray
~Parameter Information Block
~A  Depth       CCL         TT3         AMP3         GR     
   -10.0000   -999.2500   -999.2500   -999.2500   -999.2500
    -9.7500   -999.2500   -999.2500   -999.2500   -999.2500
    -9.5000   -999.2500   -999.2500   -999.2500     55.6828
    -9.2500   -999.2500   -999.2500   -999.2500     53.6006
    -9.0000   -999.2500   -999.2500   -999.2500     52.4159
    -8.7500   -999.2500   -999.2500   -999.2500     52.3263
    -8.5000   -999.2500   -999.2500   -999.2500     52.4485
    -8.2500   -999.2500   -999.2500   -999.2500     51.9163
    -8.0000   -999.2500   -999.2500   -999.2500     50.6844
    -7.7500   -999.2500   -999.2500   -999.2500     49.5090
    -7.5000   -999.2500   -999.2500   -999.2500     49.4757
    -7.2500   -999.2500   -999.2500   -999.2500     51.3654
    -7.0000   -999.2500   -999.2500   -999.2500     55.0561
    -6.7500   -999.2500   -999.2500   -999.2500     59.4034
    -6.5000   -999.2500   -999.2500   -999.2500     62.8056
    -6.2500   -999.2500   -999.2500   -999.2500     64.0690
    -6.0000   -999.2500   -999.2500   -999.2500     62.9885
    -5.7500   -999.2500   -999.2500   -999.2500     60.3289
    -5.5000   -999.2500   -999.2500   -999.2500     57.1811
    -5.2500   -999.2500   -999.2500   -999.2500     54.1633
    -5.0000   -999.2500   -999.2500   -999.2500     51.3054
    -4.7500   -999.2500   -999.2500   -999.2500     48.7378
    -4.5000   -999.2500   1167.0000      2.4477     47.2288
    -4.2500   -999.2500   1167.0000      2.4460     47.7235
    -4.0000   -999.2500   1167.0000      2.4455     50.3150
    -3.7500   -999.2500   1167.0000      2.4358     53.8162
    -3.5000   -999.2500   1167.0000      2.4133     56.4603
    -3.2500   -999.2500   1167.0000      2.3848     57.0846
    -3.0000   -999.2500   1167.0000      2.3614     55.6854
    -2.7500   -999.2500   1167.0000      2.3485     52.8691
    -2.5000   -999.2500   1167.0000      2.3438     48.9735
    -2.2500   -999.2500   1167.0000      2.3456     43.9857
    -2.0000   -999.2500   1167.0000      2.3590     38.1191
    -1.7500   -999.2500   1167.0000      2.3895     32.0231
    -1.5000   -999.2500   1167.0000      2.4314     26.4134
    -1.2500   -999.2500   1167.0000      2.4666     21.8240
    -1.0000   -999.2500   1167.0000      2.4759     18.6695
    -0.7500   -999.2500   1167.0000      2.4546     17.2033
    -0.5000   -999.2500   1167.0000      2.4174     17.3743
    -0.2500   -999.2500   1167.0000      2.3871     19.0060
     0.0000   -999.2500   1167.0000      2.3877     26.9178
     0.2500   -999.2500   1167.0000      2.4109     33.1074
     0.5000   -999.2500   1167.0000      2.4421     47.4199
     0.7500   -999.2500   1167.0000      2.4758     55.6897
     1.0000      0.0000   1167.0000      2.5009     65.0472
     1.2500      0.0000   1167.0000      2.5047     74.0698
     1.5000      0.0000   1167.0000      2.4848     80.2821
     1.7500      0.0000   1167.0000      2.4537     82.5449
     2.0000      0.0000   1167.0000      2.4300     82.4157
     2.2500      0.0000   1167.0000      2.4235     82.6226
     2.5000      0.0000   1167.0000      2.4277     84.3106
     2.7500      0.0000   1167.0000      2.4299     86.2021
     3.0000      0.0000   1167.0000      2.4254     86.4733
     3.2500      0.0000   1167.0000      2.4193     85.0616
     3.5000      0.0000   1167.0000      2.4155     83.8197
     3.7500      0.0000   1167.0000      2.4101     84.6125
     4.0000     -2.0000   1167.0000      2.3969     87.5944
     4.2500      0.0000   1167.0000      2.3770     91.2949
     4.5000     -2.0000   1167.0000      2.3606     94.0250
     4.7500      2.0000   1167.0000      2.3586     95.1316
     5.0000      0.0000   1167.0000      2.3727     95.1216
     5.2500      0.0000   1167.0000      2.3937     94.8801
     5.5000      0.0000   1167.0000      2.4095     95.0182
     5.7500     -2.0000   1167.0000      2.4151     95.9059
     6.0000     -2.0000   1167.0000      2.4134     97.7790
     6.2500     -2.0000   1167.0000      2.4078    100.4918
     6.5000     -2.0000   1167.0000      2.3993    103.5924
     6.7500      0.0000   1167.0000      2.3912    106.8993
     7.0000      0.0000   1167.0000      2.3915    110.5562
     7.2500     -2.0000   1167.0000      2.4072    114.3366
     7.5000     -2.0000   1167.0000      2.4359    117.4941
     7.7500      0.0000   1167.0000      2.4646    119.7040
     8.0000      0.0000   1167.0000      2.4790    121.6194
     8.2500      0.0000   1166.9431      2.4780    124.0223
     8.5000      0.0000   1166.5718      2.4871    126.7189
     8.7500      0.0000   1164.6858      2.5828    128.6040
     9.0000      0.0000   1157.2257      2.9511    128.5654
     9.2500      2.0000   1134.2444      3.9802    126.1319
     9.5000      0.0000   1079.1049      6.2565    121.6977
     9.7500      0.0000    976.0646     10.2676    116.5984
    10.0000      0.0000    826.1432     15.8812    112.7226
    10.2500      0.0000    656.4706     22.1171    111.4687
    10.5000      0.0000    508.1577     27.6328    113.0386
    10.7500      0.0000    412.2403     31.5221    116.7326
    11.0000      0.0000    379.7852     33.6120    121.4240
    11.2500      0.0000    411.8206     34.1186    125.5183
    11.5000      0.0000    507.4911     33.2522    127.2587
    11.7500      0.0000    655.7943     31.1783    125.8664
    12.0000      0.0000    825.6286     28.1750    122.0961
    12.2500      0.0000    975.7580     24.7055    117.2072
    12.5000      0.0000   1078.9600     21.3668    111.7129
    12.7500      0.0000   1134.1899     18.7672    105.5778
    13.0000      0.0000   1157.2095     17.3275     99.2694
    13.2500      0.0000   1164.6819     17.0810     94.0343
    13.5000      0.0000   1166.5710     17.6769     91.1048
    13.7500      0.0000   1166.9430     18.6293     90.8271
    14.0000     -2.0000   1167.0000     19.5259     92.4944
    14.2500      0.0000   1167.0000     20.0027     94.8512
    14.5000      2.0000   1167.0000     19.6884     96.7205
    14.7500      0.0000   1167.0000     18.3703     97.2901
    15.0000      0.0000   1167.0000     16.2319     96.0739
    15.2500      0.0000   1167.0000     13.8174     92.7800
    15.5000      0.0000   1167.0000     11.7063     87.5098
    15.7500      0.0000   1167.0000     10.2275     81.3307
    16.0000      0.0000   1166.9904      9.4223     76.2938
    16.2500      0.0000   1166.9370      9.1477     74.1537
    16.5000      0.0000   1166.6609      9.1663     74.9183
    16.7500      0.0000   1165.5902      9.2158     77.1488
    17.0000      0.0000   1162.3223      9.0944     79.5588
    17.2500      0.0000   1154.3557      8.7234     81.5353
    17.5000      0.0000   1138.4895      8.1500     82.2965
    17.7500      0.0000   1111.9396      7.4971     80.8547
    18.0000      0.0000   1073.7617      6.8990     77.1777
    18.2500      0.0000   1026.4470      6.4509     72.5863
    18.5000      0.0000    976.8500      6.1854     68.6836
    18.7500      0.0000    934.1055      6.0772     66.2239
    19.0000      0.0000    904.5713      6.0695     64.9171
    19.2500      0.0000    888.4874      6.1034     64.0265
    19.5000      0.0000    881.6289      6.1391     63.1517
    19.7500      0.0000    879.3038      6.1625     62.4759
    20.0000      0.0000    878.6581      6.1788     62.3968
    20.2500      0.0000    878.6011      6.1980     63.2013
    20.5000      0.0000    878.9145      6.2201     65.0522
    20.7500      0.0000    879.7423      6.2328     67.9278
    21.0000      0.0000    881.5633      6.2240     71.4309
    21.2500      0.0000    885.0809      6.1949     74.7355
    21.5000      0.0000    890.3259      6.1600     76.7916
    21.7500      0.0000    895.6074      6.1336     76.7324
    22.0000      0.0000    898.0828      6.1189     74.4011
    22.2500      0.0000    896.1930      6.1095     70.5939
    22.5000      0.0000    891.2488      6.1011     66.5966
    22.7500      0.0000    886.1629      6.0975     63.3374
    23.0000      0.0000    883.1302      6.1067     60.9675
    23.2500      0.0000    882.9392      6.1310     59.2187
