~Version Information
VERS.                      2.0: CWLS Log ASCII Standard - VERSION 2.0
WRAP.                       NO: One line per depth step
~Well Information Block
STRT.FT               430.0000: 
STOP.FT              1910.2500: 
STEP.FT                 0.2500: 
NULL.                -999.2500: 
COMP.          Pioneer Natural Resources: COMPANY
WELL.          Formula 23-11 Tr: WELL
FLD.           Purgatoire River: FIELD
LOC.           1976' FSL & 1935' FWL--: LOCATION
PROV.                 Colorado: PROVINCE
CNTY.               Las Animas: COUNTRY
SRVC.                Patterson: SERVICE COMPANY
DATE.          Fri Jun 10 22:41:39 2005: LOG DATE
UWI.           05 071 08399 00: UNIQUE WELL ID
~Curve Information Block
DEPT.FT            0 000 00 00: Depth
SN.Ohm-m                      : IEL Short Normal
SP.mV                         : IEL Spontaneous Potential
DIR.Ohm-m                     : IEL Induction Resistivity
GR.GAPI                       : Gamma Ray
~Parameter Information Block
~A  Depth        SN          SP         DIR          GR     
# ...
  1569.0000      5.7684    -62.0219      5.5298    113.6724
  1569.2500      5.7880    -61.5009      5.5266    114.8327
  1569.5000      5.7845    -61.1009      5.5258    116.3896
  1569.7500      5.7568    -60.8228      5.5234    117.5803
  1570.0000      5.7092    -60.6468      5.5159    119.7155
  1570.2500      5.6523    -60.5390      5.5025    121.0818
  1570.5000      5.5992    -60.4610      5.4843    122.7300
  1570.7500      5.5573    -60.3806      5.4645    123.7993
  1571.0000      5.5216    -60.2777      5.4468    126.1243
  1571.2500      5.4753    -60.1455      5.4346    128.3665
  1571.5000      5.3983    -59.9872      5.4301    132.2413
  1571.7500      5.2780    -59.8091      5.4338    134.5015
  1572.0000      5.1175    -59.6151      5.4448    136.6106
  1572.2500      4.9359    -59.4034      5.4613    137.2252
  1572.5000      4.7623    -59.1670      5.4819    137.5938
  1572.7500      4.6252    -58.8966      5.5062    137.7370
  1573.0000      4.5451    -58.5844      5.5348    137.7967
  1573.2500      4.5294    -58.2278      5.5686    137.6100
  1573.5000      4.5715    -57.8303      5.6079    136.9389
  1573.7500      4.6573    -57.4019      5.6528    136.3201
  1574.0000      4.7764    -56.9566      5.7029    135.1728
  1574.2500      4.9305    -56.5091      5.7581    134.1295
  1574.5000      5.1264    -56.0720      5.8200    132.1632
  1574.7500      5.3605    -55.6530      5.8912    131.0698
  1575.0000      5.6097    -55.2544      5.9746    130.9914
  1575.2500      5.8396    -54.8734      6.0718    132.2260
  1575.5000      6.0217    -54.5046      6.1818    135.0152
  1575.7500      6.1442    -54.1427      6.3013    136.6054
  1576.0000      6.2132    -53.7848      6.4245    137.7661
  1576.2500      6.2516    -53.4306      6.5451    137.7392
  1576.5000      6.2950    -53.0822      6.6581    136.8090
  1576.7500      6.3788    -52.7413      6.7607    135.8824
  1577.0000      6.5171    -52.4080      6.8526    134.8389
  1577.2500      6.6917    -52.0805      6.9336    134.8062
  1577.5000      6.8606    -51.7557      7.0015    135.7205
  1577.7500      6.9803    -51.4318      7.0503    136.5148
  1578.0000      7.0243    -51.1091      7.0730    137.1543
  1578.2500      6.9880    -50.7902      7.0637    136.9901
  1578.5000      6.8835    -50.4791      7.0217    135.9198
  1578.7500      6.7349    -50.1786      6.9516    134.8877
  1579.0000      6.5721    -49.8875      6.8623    133.5488
  1579.2500      6.4222    -49.5997      6.7652    133.2426
  1579.5000      6.3005    -49.3044      6.6721    133.9223
  1579.7500      6.2071    -48.9882      6.5934    134.8047
  1580.0000      6.1328    -48.6382      6.5360    135.8466
  1580.2500      6.0692    -48.2466      6.5025    135.9767
  1580.5000      6.0201    -47.8129      6.4923    135.0946
  1580.7500      6.0106    -47.3451      6.5033    133.9033
  1581.0000      6.0850    -46.8581      6.5350    132.1341
  1581.2500      6.2871    -46.3695      6.5892    131.7624
  1581.5000      6.6305    -45.8962      6.6696    133.0224
  1581.7500      7.0795    -45.4507      6.7816    134.6525
  1582.0000      7.5580    -45.0400      6.9302    137.2028
  1582.2500      7.9895    -44.6669      7.1207    138.8050
  1582.5000      8.3455    -44.3303      7.3592    141.3654
  1582.7500      8.6676    -44.0253      7.6542    143.0650
  1583.0000      9.0399    -43.7427      8.0173    144.3667
  1583.2500      9.5385    -43.4670      8.4624    143.3313
  1583.5000     10.2009    -43.1773      9.0024    137.1929
  1583.7500     11.0387    -42.8501      9.6454    129.4601
  1584.0000     12.0751    -42.4633     10.3917    112.9112
  1584.2500     13.3733    -42.0006     11.2350     99.9070
  1584.5000     15.0334    -41.4533     12.1656     80.5586
  1584.7500     17.1553    -40.8198     13.1773     69.3545
  1585.0000     19.7669    -40.1029     14.2688     56.9912
  1585.2500     22.7345    -39.3075     15.4398     52.5396
  1585.5000     25.7301    -38.4385     16.6784     52.4402
  1585.7500     28.3373    -37.5012     17.9494     56.4892
  1586.0000     30.2482    -36.5024     19.1883     66.2009
  1586.2500     31.3849    -35.4517     20.3043     72.8102
  1586.5000     31.8583    -34.3623     21.1985     79.8281
  1586.7500     31.8416    -33.2505     21.7922     82.2561
  1587.0000     31.4774    -32.1344     22.0563     84.0960
  1587.2500     30.8570    -31.0321     22.0220     85.1776
  1587.5000     30.0414    -29.9596     21.7653     87.5537
  1587.7500     29.0890    -28.9295     21.3793     90.0475
  1588.0000     28.0670    -27.9500     20.9499     96.1261
  1588.2500     27.0400    -27.0252     20.5418    102.1729
  1588.5000     26.0483    -26.1559     20.1917    113.8405
  1588.7500     25.0972    -25.3420     19.9067    122.2223
  1589.0000     24.1715    -24.5837     19.6697    132.6475
  1589.2500     23.2689    -23.8832     19.4518    136.5254
  1589.5000     22.4275    -23.2439     19.2295    137.0223
  1589.7500     21.7299    -22.6686     18.9971    134.9856
  1590.0000     21.2709    -22.1575     18.7698    131.7221
  1590.2500     21.1012    -21.7066     18.5781    130.7540
  1590.5000     21.1880    -21.3070     18.4562    130.9465
  1590.7500     21.4253    -20.9461     18.4305    131.1367
  1591.0000     21.6877    -20.6105     18.5087    130.1694
  1591.2500     21.8900    -20.2882     18.6744    128.5671
  1591.5000     22.0142    -19.9701     18.8914    124.7865
  1591.7500     22.0947    -19.6502     19.1177    121.2044
  1592.0000     22.1770    -19.3248     19.3221    114.3162
  1592.2500     22.2817    -18.9917     19.4912    109.3349
  1592.5000     22.3909    -18.6495     19.6228    102.9617
  1592.7500     22.4614    -18.2985     19.7162    100.2493
  1593.0000     22.4494    -17.9421     19.7667     98.8934
  1593.2500     22.3325    -17.5879     19.7703     99.3872
  1593.5000     22.1191    -17.2484     19.7310    100.6783
  1593.7500     21.8409    -16.9401     19.6633    100.8894
  1594.0000     21.5385    -16.6807     19.5871     99.2010
  1594.2500     21.2493    -16.4883     19.5181     96.7881
  1594.5000     21.0035    -16.3791     19.4595     92.0401
  1594.7500     20.8206    -16.3686     19.4031     88.6518
  1595.0000     20.7037    -16.4727     19.3375     84.0392
  1595.2500     20.6358    -16.7096     19.2585     81.6721
  1595.5000     20.5868    -17.0997     19.1722     79.3834
  1595.7500     20.5282    -17.6620     19.0940     78.4367
  1596.0000     20.4493    -18.4059     19.0428     77.3809
  1596.2500     20.3647    -19.3197     19.0345     76.9204
  1596.5000     20.3055    -20.3573     19.0760     76.7855
  1596.7500     20.3000    -21.4292     19.1610     76.9498
  1597.0000     20.3580    -22.4016     19.2734     77.0591
  1597.2500     20.4700    -23.1106     19.3972     76.7751
  1597.5000     20.6158    -23.3922     19.5249     75.5462
  1597.7500     20.7757    -23.1220     19.6611     74.1691
  1598.0000     20.9370    -22.2564     19.8179     71.6170
  1598.2500     21.0937    -20.8597     20.0073     69.9508
  1598.5000     21.2413    -19.1048     20.2352     67.9912
  1598.7500     21.3727    -17.2437     20.4966     67.1791
  1599.0000     21.4825    -15.5529     20.7732     66.8435
  1599.2500     21.5721    -14.2698     21.0322     67.1808
  1599.5000     21.6456    -13.5409     21.2328     67.9490
  1599.7500     21.6992    -13.3967     21.3407     68.1094
  1600.0000     21.7195    -13.7595     21.3425     67.5182
  1600.2500     21.6937    -14.4782     21.2486     67.0333
  1600.5000     21.6176    -15.3761     21.0826     67.3697
  1600.7500     21.4934    -16.2945     20.8678     68.5760
  1601.0000     21.3216    -17.1207     20.6213     71.2974
  1601.2500     21.1016    -17.7965     20.3556     73.2165
  1601.5000     20.8399    -18.3107     20.0830     75.7745
  1601.7500     20.5580    -18.6823     19.8181     77.2017
  1602.0000     20.2873    -18.9436     19.5787     78.9822
  1602.2500     20.0547    -19.1278     19.3827     80.0313
