~Version Information
VERS.                      2.0: CWLS Log ASCII Standard - VERSION 2.0
WRAP.                       NO: One line per depth step
~Well Information Block
STRT.FT                -6.2500: 
STOP.FT              2316.0000: 
STEP.FT                 0.2500: 
NULL.                -999.2500: 
COMP.          Pioneer Natural Resources: COMPANY
WELL.             Trimax 44-23: WELL
FLD.           Purgatorie River: FIELD
LOC.           527' FSL & 1064' FEL------: LOCATION
PROV.                       CO: PROVINCE
CNTY.               Las Animas: COUNTRY
SRVC.          Patterson Wireline: SERVICE COMPANY
DATE.          Sat Mar 19 11:18:53 2005: LOG DATE
UWI.           05 071 08326 00: UNIQUE WELL ID
~Curve Information Block
DEPT.FT            0 000 00 00: Depth
CCL.                          : Casing Collar Locator
TT3.usec                      : CBL 3' Travel Time
AMP3.mV                       : CBL 3' Amplitude
GR.GAPI                       : Gamma Ray
~Parameter Information Block
~A  Depth       CCL         TT3         AMP3         GR     
# ...
   462.7500      0.0000    808.5151      4.7652     55.5805
   463.0000      0.0000    799.1208      4.8549     55.4783
   463.2500      0.0000    790.0204      5.0004     56.3411
   463.5000      0.0000    787.2133      5.1985     58.7469
   463.7500      0.0000    792.1044      5.4022     62.3755
   464.0000      0.0000    800.2285      5.5597     65.8823
   464.2500      0.0000    805.6702      5.6557     67.6947
   464.5000      0.0000    806.0908      5.7098     67.2011
   464.7500      0.0000    803.2745      5.7478     65.2437
   465.0000      0.0000    800.1423      5.7848     63.2335
   465.2500      0.0000    798.3584      5.8248     61.7885
   465.5000      0.0000    798.3257      5.8684     60.4477
   465.7500      0.0000    800.2012      5.9181     58.6620
   466.0000      0.0000    804.1887      5.9758     56.6974
   466.2500      0.0000    809.7760      6.0365     55.3417
   466.5000      0.0000    815.0527      6.0918     54.8869
   466.7500      0.0000    817.2205      6.1405     54.8121
   467.0000      0.0000    813.9342      6.1875     54.6314
   467.2500      0.0000    804.1951      6.2317     54.6387
   467.5000      0.0000    788.5370      6.2603     55.3641
   467.7500      0.0000    769.1290      6.2613     56.4862
   468.0000      0.0000    749.5888      6.2361     56.7468
   468.2500      0.0000    733.7280      6.1994     55.1662
   468.5000      0.0000    723.6191      6.1680     52.2733
   468.7500      0.0000    718.5351      6.1536     49.9365
   469.0000      0.0000    715.8636      6.1592     49.7553
   469.2500      0.0000    713.3083      6.1822     51.6444
   469.5000      0.0000    710.3207      6.2205     54.1560
   469.7500      0.0000    707.6129      6.2718     55.9351
   470.0000      0.0000    705.8399      6.3272     56.5358
   470.2500      0.0000    705.0021      6.3714     56.2257
   470.5000      0.0000    704.7313      6.3954     55.6246
   470.7500      0.0000    704.6841      6.4065     55.4062
   471.0000      0.0000    704.6611      6.4241     55.8569
   471.2500      0.0000    704.5691      6.4642     56.6769
   471.5000      0.0000    704.3989      6.5279     57.3521
   471.7500      0.0000    704.2071      6.6036     57.6157
   472.0000      0.0000    704.0682      6.6755     57.5570
   472.2500      0.0000    704.0168      6.7300     57.4786
   472.5000      0.0000    704.0407      6.7581     57.6115
   472.7500      0.0000    704.1117      6.7597     57.8424
   473.0000      0.0000    704.2079      6.7464     57.8370
   473.2500      0.0000    704.3035      6.7327     57.5346
   473.5000      0.0000    704.3519      6.7251     57.3458
   473.7500      0.0000    704.3026      6.7216     57.7125
   474.0000      0.0000    704.1482      6.7215     58.6245
   474.2500      0.0000    703.9377      6.7294     59.7871
   474.5000      0.0000    703.7260      6.7435     61.1131
   474.7500      0.0000    703.5275      6.7488     62.6963
   475.0000      0.0000    703.3385      6.7244     64.4267
   475.2500      0.0000    703.1932      6.6565     66.0193
   475.5000      0.0000    703.1678      6.5422     67.3583
   475.7500      0.0000    703.3182      6.3880     68.4602
   476.0000      0.0000    703.6148      6.2081     69.2096
   476.2500      0.0000    703.9788      6.0250     69.4559
   476.5000      0.0000    704.4740      5.8695     69.1264
   476.7500      0.0000    705.5667      5.7735     67.8779
   477.0000      0.0000    708.1750      5.7533     65.0671
   477.2500      0.0000    713.1850      5.7958     60.6658
   477.5000      0.0000    720.5381      5.8670     55.9061
   477.7500      0.0000    728.7277      5.9360     52.4387
   478.0000      0.0000    735.4747      5.9893     51.0139
   478.2500      0.0000    739.0106      6.0242     51.2669
   478.5000      0.0000    738.6962      6.0391     52.3711
   478.7500      0.0000    734.8528      6.0353     53.5202
   479.0000      0.0000    728.6867      6.0247     54.2216
   479.2500      0.0000    722.2598      6.0285     54.5887
   479.5000      0.0000    717.6101      6.0620     55.1161
   479.7500      0.0000    715.4059      6.1207     55.8737
   480.0000      0.0000    714.8973      6.1831     56.2666
   480.2500      0.0000    715.4868      6.2277     55.8783
   480.5000      0.0000    717.7643      6.2475     55.1399
   480.7500      0.0000    722.4866      6.2515     54.7597
   481.0000      0.0000    729.0103      6.2533     54.7816
   481.2500      0.0000    735.4178      6.2602     54.6469
   481.5000      0.0000    740.0759      6.2707     54.1028
   481.7500      0.0000    742.6441      6.2803     53.6616
   482.0000      0.0000    743.7393      6.2879     53.9977
   482.2500      0.0000    744.1078      6.2949     55.0862
   482.5000      0.0000    744.1979      6.2992     56.1959
   482.7500      0.0000    744.1770      6.2954     56.6720
   483.0000      0.0000    744.0878      6.2821     56.4269
   483.2500      0.0000    743.9534      6.2668     55.6876
   483.5000      0.0000    743.8164      6.2617     54.7369
   483.7500      0.0000    743.7272      6.2777     54.0703
   484.0000      0.0000    743.7162      6.3176     54.4696
   484.2500      0.0000    743.7779      6.3701     56.5447
   484.5000      0.0000    743.8812      6.4113     60.1334
   484.7500      0.0000    743.9590      6.4220     64.2932
   485.0000      0.0000    743.8154      6.4059     68.1102
   485.2500      0.0000    742.9585      6.3852     71.4729
   485.5000      0.0000    740.5596      6.3796     74.7369
   485.7500      0.0000    735.8437      6.3949     77.7498
   486.0000      0.0000    728.8691      6.4328     79.8325
   486.2500      0.0000    720.9954      6.5006     80.7365
   486.5000      0.0000    714.3492      6.6004     80.9140
   486.7500      0.0000    710.7190      6.7144     80.6682
   487.0000      0.0000    710.9463      6.8133     79.6102
   487.2500      0.0000    714.9598      6.8847     77.2986
   487.5000      0.0000    721.7777      6.9460     74.1422
   487.7500      0.0000    729.5086      7.0240     71.3046
   488.0000      0.0000    736.0391      7.1261     69.7546
   488.2500      0.0000    740.1846      7.2423     69.6735
   488.5000      0.0000    742.1638      7.3759     70.8130
   488.7500      0.0000    743.0269      7.5514     73.0582
   489.0000      0.0000    743.8668      7.7806     76.3481
   489.2500      0.0000    745.5718      8.0281     80.2069
   489.5000      0.0000    748.9739      8.2312     83.6675
   489.7500      0.0000    754.6991      8.3535     85.6828
   490.0000      0.0000    762.4049      8.4063     85.6048
   490.2500      0.0000    770.0556      8.4164     83.5829
   490.5000      0.0000    774.2740      8.3879     80.8161
   490.7500      0.0000    771.9638      8.3067     79.0792
   491.0000      0.0000    762.2779      8.1779     79.3486
   491.2500      0.0000    747.6348      8.0413     80.8755
   491.5000      0.0000    732.8527      7.9391     81.9213
   491.7500      0.0000    722.6829      7.8720     81.2164
   492.0000      0.0000    719.4517      7.7992     78.4823
   492.2500      0.0000    722.3780      7.6829     74.1015
   492.5000      0.0000    728.6263      7.5258     68.9938
   492.7500      0.0000    735.1167      7.3592     64.5499
   493.0000      0.0000    739.9637      7.2051     61.9431
   493.2500      0.0000    742.8026      7.0566     61.3035
   493.5000      0.0000    744.1684      6.8938     61.7197
   493.7500      0.0000    744.7660      6.7083     62.0563
   494.0000      0.0000    745.2079      6.5073     61.8496
   494.2500      0.0000    746.1143      6.2974     61.6035
   494.5000      0.0000    748.3156      6.0782     62.1900
   494.7500      0.0000    752.8122      5.8570     63.8557
   495.0000      0.0000    760.1421      5.6563     65.9539
   495.2500      0.0000    769.5411      5.4948     67.7111
   495.5000      0.0000    779.0263      5.3665     68.9677
   495.7500      0.0000    786.4692      5.2494     70.0121
   496.0000      0.0000    790.2488      5.1286     70.8562
