~Version Information
VERS.                      2.0: CWLS Log ASCII Standard - VERSION 2.0
WRAP.                       NO: One line per depth step
~Well Information Block
STRT.FT               472.0000: 
STOP.FT              2641.5000: 
STEP.FT                 0.1000: 
NULL.                -999.2500: 
COMP.          Pioneer Natural Resources: COMPANY
WELL.              Wagner 13-9: WELL
FLD.           Purgatoire River: FIELD
LOC.           1819' FSL & 1111' FWL: LOCATION
PROV.                 Colorado: PROVINCE
CNTY.               Las Animas: COUNTRY
SRVC.                Patterson: SERVICE COMPANY
DATE.          Tue Apr 19 08:56:38 2005: LOG DATE
UWI.           05 071 08302 00: UNIQUE WELL ID
~Curve Information Block
DEPT.FT            0 000 00 00: Depth
DCAL.in                       : CDL Caliper
RHOB.g/cc                     : CDL Bulk Density
RHOC.g/cc                     : CDL Density Correction
DPOR.pu                       : CDL Density Porosity
GR.GAPI                       : Gamma Ray
NPOR.pu                       : Neutron Porosity
~Parameter Information Block
~A  Depth       DCAL        RHOB        RHOC        DPOR         GR         NPOR    
# ...
  1048.0000      8.0177      2.5718      0.0213      4.7406    101.3502     24.2743
  1048.1000      8.0177      2.5892     -0.0099      3.6850    103.5819     24.6217
  1048.2000      8.0177      2.6137      0.0873      2.2016    104.8203     25.1936
  1048.3000      8.0006      2.6157      0.0297      2.0786    103.7662     25.9628
  1048.4000      8.0006      2.6022      0.0011      2.8998    101.0050     26.2589
  1048.5000      8.0050      2.6028     -0.0224      2.8597    100.4734     25.9318
  1048.6000      8.0050      2.6185      0.0519      1.9088    105.3533     25.4830
  1048.7000      8.0050      2.6278      0.0421      1.3485    110.8088     25.2729
  1048.8000      8.0243      2.6200      0.0817      1.8195    110.2427     25.3842
  1048.9000      8.0243      2.6015     -0.0174      2.9413    104.6315     25.7353
  1049.0000      8.0415      2.5880      0.0105      3.7567     99.7053     26.0415
  1049.1000      8.0415      2.5835      0.0369      4.0312     98.9722     26.2054
  1049.2000      8.0415      2.5792      0.0172      4.2894    103.9612     26.6027
  1049.3000      8.0550      2.5736      0.0226      4.6317    113.2251     27.3539
  1049.4000      8.0550      2.5714      0.0088      4.7636    119.7376     27.8597
  1049.5000      8.0681      2.5822     -0.0024      4.1066    121.0379     27.7504
  1049.6000      8.0681      2.6061      0.0556      2.6634    122.3824     27.8263
  1049.7000      8.0681      2.6194      0.0519      1.8557    125.3502     28.7236
  1049.8000      8.0797      2.6100      0.0013      2.4214    125.8014     29.9619
  1049.9000      8.0797      2.5950      0.0461      3.3351    122.4720     30.5949
  1050.0000      8.0828      2.5890      0.0076      3.6970    118.7036     30.3967
  1050.1000      8.0828      2.5941      0.0218      3.3849    116.8400     30.1161
  1050.2000      8.0828      2.6062      0.0663      2.6573    115.4892     30.0280
  1050.3000      8.0777      2.6195      0.0446      1.8468    111.3100     29.5401
  1050.4000      8.0777      2.6289      0.0486      1.2796    104.4544     28.4745
  1050.5000      8.0682      2.6331      0.0160      1.0223     98.6023     27.1972
  1050.6000      8.0682      2.6387      0.0053      0.6821     95.2097     25.8357
  1050.7000      8.0682      2.6458      0.0313      0.2565     91.8378     24.8227
  1050.8000      8.0560      2.6435      0.0184      0.3937     87.9085     24.6729
  1050.9000      8.0560      2.6286      0.0002      1.2984     85.7479     25.1535
  1051.0000      8.0479      2.6147     -0.0024      2.1408     85.6916     25.5592
  1051.1000      8.0479      2.6118      0.0004      2.3136     87.4056     25.4188
  1051.2000      8.0479      2.6155      0.0080      2.0935     90.0402     24.9765
  1051.3000      8.0552      2.6259      0.0146      1.4627     90.8016     24.7623
  1051.4000      8.0552      2.6440      0.0391      0.3636     91.8359     24.8924
  1051.5000      8.0780      2.6532      0.0770     -0.1966     97.9173     24.8159
  1051.6000      8.0780      2.6402      0.0172      0.5954    105.4017     24.2252
  1051.7000      8.0780      2.6148      0.0039      2.1321    109.2718     23.8488
  1051.8000      8.0970      2.5934     -0.0034      3.4292    111.3812     24.1555
  1051.9000      8.0970      2.5826     -0.0071      4.0875    116.3641     24.6666
  1052.0000      8.1027      2.5726      0.0439      4.6882    124.1488     25.2001
  1052.1000      8.1027      2.5550      0.0122      5.7575    129.8557     26.0046
  1052.2000      8.1027      2.5431     -0.0047      6.4789    133.1226     27.1113
  1052.3000      8.1001      2.5486     -0.0090      6.1456    137.5018     28.3071
  1052.4000      8.1001      2.5644      0.0337      5.1901    139.6923     28.9703
  1052.5000      8.0890      2.5793      0.0309      4.2844    134.9341     28.8415
  1052.6000      8.0890      2.5870      0.0639      3.8172    126.9484     28.6792
  1052.7000      8.0890      2.5875      0.0618      3.7874    121.9496     29.0994
  1052.8000      8.0691      2.5861      0.0545      3.8709    122.9454     29.9081
  1052.9000      8.0691      2.5835      0.0183      4.0319    128.4364     30.8043
  1053.0000      8.0485      2.5734      0.0504      4.6445    132.9737     31.6293
  1053.1000      8.0485      2.5582      0.0482      5.5645    134.2089     32.4370
  1053.2000      8.0485      2.5520      0.0214      5.9405    135.7793     32.9545
  1053.3000      8.0310      2.5585      0.0469      5.5477    139.5587     32.6286
  1053.4000      8.0310      2.5742      0.0458      4.5925    141.4857     31.6611
  1053.5000      8.0181      2.6063      0.0947      2.6477    136.5579     30.7689
  1053.6000      8.0181      2.6558      0.1147     -0.3536    128.8439     30.2237
  1053.7000      8.0181      2.7031      0.1842     -3.2160    126.0108     30.0917
  1053.8000      8.0095      2.7318      0.1504     -4.9594    126.7798     30.5060
  1053.9000      8.0095      2.7420      0.1934     -5.5756    125.5237     30.9389
  1054.0000      8.0104      2.7344      0.1539     -5.1135    119.6048     30.6578
  1054.1000      8.0104      2.7123      0.1379     -3.7740    112.0392     29.8245
  1054.2000      8.0104      2.6839      0.0726     -2.0547    107.9597     28.9539
  1054.3000      8.0213      2.6609      0.0502     -0.6636    108.6927     28.0825
  1054.4000      8.0213      2.6473      0.0531      0.1631    109.7229     27.2523
  1054.5000      8.0303      2.6321      0.0823      1.0828    107.0127     26.4583
  1054.6000      8.0303      2.6097      0.0379      2.4396    102.5610     25.6614
  1054.7000      8.0303      2.5943     -0.0119      3.3741     99.2049     25.1614
  1054.8000      8.0327      2.5955      0.0479      3.3016     96.4843     25.2063
  1054.9000      8.0327      2.6042      0.0534      2.7728     94.1066     25.5179
  1055.0000      8.0327      2.6161      0.0200      2.0536     91.8343     25.1881
  1055.1000      8.0327      2.6289      0.1038      1.2774     89.3719     24.5826
  1055.2000      8.0327      2.6345      0.0488      0.9414     87.7151     24.9217
  1055.3000      8.0348      2.6339      0.0629      0.9742     87.4370     25.5234
  1055.4000      8.0348      2.6301      0.0250      1.2045     87.7390     25.3602
  1055.5000      8.0435      2.6188      0.0735      1.8939     87.6123     25.1586
  1055.6000      8.0435      2.6037     -0.0172      2.8085     85.5024     25.3579
  1055.7000      8.0435      2.5985      0.0341      3.1204     80.8731     25.3775
  1055.8000      8.0625      2.6028      0.0159      2.8610     77.8836     25.2051
  1055.9000      8.0625      2.6072      0.0622      2.5969     80.5945     25.2303
  1056.0000      8.0886      2.6068      0.0447      2.6209     83.9672     25.5614
  1056.1000      8.0886      2.6003      0.0586      3.0145     84.4886     26.1774
  1056.2000      8.0886      2.5907      0.0554      3.5969     86.7329     26.5772
  1056.3000      8.1081      2.5864     -0.0006      3.8530     92.4606     26.2864
  1056.4000      8.1081      2.5899      0.0271      3.6439     99.0420     25.9566
  1056.5000      8.1149      2.5947      0.0151      3.3521    105.0369     26.0177
  1056.6000      8.1149      2.5978      0.0107      3.1616    109.2824     26.0552
  1056.7000      8.1149      2.6001     -0.0011      3.0239    110.1833     26.0536
  1056.8000      8.1153      2.5995      0.0078      3.0596    107.4860     26.1755
  1056.9000      8.1153      2.6035     -0.0451      2.8158    100.5679     25.8861
  1057.0000      8.1143      2.6263     -0.0090      1.4378     91.8737     25.0707
  1057.1000      8.1143      2.6549      0.0661     -0.2954     84.5757     24.7095
  1057.2000      8.1143      2.6633      0.0617     -0.8076     79.3188     25.2400
  1057.3000      8.1134      2.6496      0.0211      0.0222     78.4798     26.0926
  1057.4000      8.1134      2.6319     -0.0060      1.0956     81.1892     26.8353
  1057.5000      8.1131      2.6303     -0.0314      1.1967     82.4839     27.1963
