~Version Information
VERS.                      2.0: CWLS Log ASCII Standard - VERSION 2.0
WRAP.                       NO: One line per depth step
~Well Information Block
STRT.FT               318.1000: 
STOP.FT              2688.0000: 
STEP.FT                 0.1000: 
NULL.                -999.2500: 
COMP.          Petrogulf Corporation: COMPANY
WELL.            Montoya 1-24V: WELL
FLD.           Purgatorie River: FIELD
LOC.           605' FSL & 2557' FWL: LOCATION
CNTY.               Las Animas: COUNTY
SRVC.                         : SERVICE COMPANY
DATE.          Wed Oct 20 14:56:37 2004: LOG DATE
UWI.           05 071 08194 00: UNIQUE WELL ID
STAT.                 Colorado: STATE
~Curve Information Block
DEPT.FT            0 000 00 00: Depth
DCAL.in                       : CDL Caliper
RHOB.g/cc                     : CDL Bulk Density
RHOC.g/cc                     : CDL Density Correction
DPOR.pu                       : CDL Density Porosity
GR.GAPI                       : Gamma Ray
NPOR.pu                       : Neutron Porosity
~Parameter Information Block
~A  Depth       DCAL        RHOB        RHOC        DPOR         GR         NPOR    
# ...
   500.5000      8.1960      2.6163      0.0462      2.0419    139.6546     30.0475
   500.6000      8.1960      2.6271      0.0721      1.3895    134.4246     29.8026
   500.7000      8.1960      2.6322      0.0787      1.0783    129.7807     29.9731
   500.8000      8.1781      2.6304      0.0453      1.1871    128.4489     30.7112
   500.9000      8.1781      2.6191      0.0359      1.8730    129.9880     31.3211
   501.0000      8.1535      2.5954      0.0598      3.3096    130.5569     31.2808
   501.1000      8.1535      2.5685     -0.0204      4.9372    126.9593     30.5687
   501.2000      8.1535      2.5598     -0.0249      5.4689    118.8196     29.5210
   501.3000      8.1027      2.5779     -0.0035      4.3692    110.7409     28.6097
   501.4000      8.1027      2.6105     -0.0098      2.3931    108.7686     28.0291
   501.5000      8.0965      2.6339      0.0825      0.9739    110.4045     27.7026
   501.6000      8.0965      2.6414     -0.0175      0.5222    109.8893     27.4649
   501.7000      8.0965      2.6534      0.0462     -0.2063    106.7839     26.9735
   501.8000      8.0863      2.6822      0.0105     -1.9533    101.3535     26.1061
   501.9000      8.0863      2.7146      0.0625     -3.9130     95.0328     25.4534
   502.0000      8.0870      2.7245      0.1082     -4.5126     92.0032     25.4185
   502.1000      8.0870      2.7075      0.0307     -3.4826     92.3262     25.3862
   502.2000      8.0870      2.6859      0.0286     -2.1738     93.6990     24.9271
   502.3000      8.0769      2.6723      0.0448     -1.3495     96.2761     24.2974
   502.4000      8.0769      2.6693      0.0032     -1.1727     97.7884     23.5750
   502.5000      8.1219      2.6770      0.0187     -1.6364     97.3180     22.6214
   502.6000      8.1219      2.6797     -0.0154     -1.8002     99.3412     21.6795
   502.7000      8.1219      2.6657      0.0157     -0.9495    106.3677     21.2056
   502.8000      8.1680      2.6372      0.0297      0.7752    115.2493     21.3099
   502.9000      8.1680      2.6038     -0.0355      2.7985    120.2414     21.9386
   503.0000      8.1801      2.5759     -0.0246      4.4937    120.8575     22.6904
   503.1000      8.1801      2.5579     -0.0294      5.5825    122.8256     22.9034
   503.2000      8.1801      2.5501     -0.0125      6.0518    127.3944     22.6403
   503.3000      8.2155      2.5438      0.0275      6.4374    132.8209     22.5730
   503.4000      8.2155      2.5408     -0.0319      6.6202    139.8871     23.0334
   503.5000      8.1971      2.5574      0.0082      5.6113    144.8543     23.8157
   503.6000      8.1971      2.5876      0.0221      3.7846    143.2371     24.4556
   503.7000      8.1971      2.6087      0.0338      2.5045    139.6532     24.6849
   503.8000      8.1976      2.6095      0.0497      2.4522    138.3088     24.6734
   503.9000      8.1976      2.5990      0.0206      3.0903    136.2457     24.7115
   504.0000      8.2028      2.5865      0.0114      3.8499    136.0229     24.9376
   504.1000      8.2028      2.5713      0.0583      4.7682    142.1079     25.3374
   504.2000      8.2028      2.5586      0.0072      5.5392    148.9685     25.8123
   504.3000      8.2208      2.5539      0.0084      5.8218    150.9960     25.9860
   504.4000      8.2208      2.5581     -0.0152      5.5697    149.2649     25.6138
   504.5000      8.2261      2.5804      0.0105      4.2206    147.4919     24.9274
   504.6000      8.2261      2.6207      0.0404      1.7741    148.0535     24.5110
   504.7000      8.2261      2.6521      0.1338     -0.1264    147.8079     24.7935
   504.8000      8.2315      2.6543      0.0459     -0.2620    144.1511     25.5012
   504.9000      8.2315      2.6426     -0.0071      0.4472    142.0193     25.9592
   505.0000      8.2663      2.6320      0.0007      1.0885    142.3425     25.8712
   505.1000      8.2663      2.6172      0.0380      1.9852    138.7520     25.6952
   505.2000      8.2663      2.5995     -0.0012      3.0590    134.6380     26.2452
   505.3000      8.2800      2.5956      0.0200      3.2955    135.0145     27.5113
   505.4000      8.2800      2.6132      0.0003      2.2330    135.2705     28.4841
   505.5000      8.2845      2.6419      0.0147      0.4915    133.8415     28.8089
   505.6000      8.2845      2.6595      0.0870     -0.5764    135.7572     28.7333
   505.7000      8.2845      2.6469      0.0697      0.1893    143.7644     28.3623
   505.8000      8.2561      2.6156      0.0044      2.0832    152.8276     28.2863
   505.9000      8.2561      2.5967      0.0022      3.2324    158.3052     29.0427
   506.0000      8.2670      2.5997      0.0324      3.0513    161.6386     30.0512
   506.1000      8.2670      2.6101      0.0115      2.4199    163.4634     30.3481
   506.2000      8.2670      2.6120      0.0764      2.3054    162.2461     29.6696
   506.3000      8.2587      2.6039      0.0222      2.7911    156.5425     28.7909
   506.4000      8.2587      2.6067     -0.0210      2.6220    148.2822     28.6835
   506.5000      8.2690      2.6226      0.0906      1.6619    141.9186     29.0686
   506.6000      8.2690      2.6162      0.1464      2.0471    141.1829     28.8383
   506.7000      8.2690      2.5882     -0.0175      3.7424    146.4809     28.0091
   506.8000      8.2779      2.5735      0.0460      4.6377    153.6848     27.6015
   506.9000      8.2779      2.5624     -0.0044      5.3067    158.7363     27.9190
   507.0000      8.2646      2.5401     -0.0460      6.6583    159.2298     28.2395
   507.1000      8.2646      2.5292     -0.0784      7.3209    156.4913     27.9288
   507.2000      8.2646      2.5367      0.0263      6.8669    156.5382     27.4746
   507.3000      8.2669      2.5350     -0.0052      6.9674    159.8168     27.6565
   507.4000      8.2669      2.5077     -0.0032      8.6214    157.9336     28.1400
   507.5000      8.2636      2.4647      0.0227     11.2274    147.5574     28.4227
   507.6000      8.2636      2.4287     -0.0384     13.4125    140.9575     28.7576
   507.7000      8.2636      2.4136      0.0115     14.3249    151.9589     29.2471
   507.8000      8.2778      2.4169     -0.0396     14.1265    174.5615     29.6882
   507.9000      8.2778      2.4264      0.0433     13.5508    188.9804     29.9862
   508.0000      8.2736      2.4166      0.0530     14.1426    184.9794     29.7912
   508.1000      8.2736      2.3853      0.0113     16.0454    173.2637     29.1101
   508.2000      8.2736      2.3622      0.0062     17.4448    165.7272     28.7333
   508.3000      8.2949      2.3587      0.0324     17.6562    160.6560     29.0667
   508.4000      8.2949      2.3622      0.0512     17.4426    158.5025     29.5889
   508.5000      8.2908      2.3820     -0.0108     16.2450    161.8536     29.4193
   508.6000      8.2908      2.4490      0.0526     12.1820    166.9887     28.3435
   508.7000      8.2908      2.5537      0.2585      5.8380    169.5083     27.2318
   508.8000      8.3171      2.6537      0.2154     -0.2251    170.0567     26.8408
   508.9000      8.3171      2.7310      0.3326     -4.9106    170.4875     26.8519
   509.0000      8.3231      2.7801      0.4208     -7.8844    169.1554     26.7124
   509.1000      8.3231      2.8035      0.2898     -9.3004    168.2414     26.4464
   509.2000      8.3231      2.8159      0.3030    -10.0556    169.2830     26.2567
   509.3000      8.3315      2.8073      0.3729     -9.5325    168.7137     26.4868
   509.4000      8.3315      2.7599      0.2717     -6.6583    166.8546     27.1762
   509.5000      8.4466      2.6989      0.0730     -2.9618    164.5256     27.9718
   509.6000      8.4466      2.6582      0.1426     -0.4949    158.1729     28.7189
   509.7000      8.4466      2.6321      0.0706      1.0824    147.9666     29.0056
   509.8000      8.4469      2.6109      0.0557      2.3715    139.6104     28.6565
   509.9000      8.4469      2.5997      0.0597      3.0471    136.7973     28.3060
   510.0000      8.4510      2.5997      0.0492      3.0507    138.3977     28.2705
