~Version Information
VERS.                      2.0: CWLS Log ASCII Standard - VERSION 2.0
WRAP.                       NO: One line per depth step
~Well Information Block
STRT.FT                -4.7500: 
STOP.FT              2809.5000: 
STEP.FT                 0.2500: 
NULL.                -999.2500: 
COMP.          Pioneer Natural Resources: COMPANY
WELL.              Lynch 43-30: WELL
FLD.           Purgatorie River: FIELD
LOC.           1438' FSL & 429' FEL--: LOCATION
PROV.                       CO: PROVINCE
CNTY.               Las Animas: COUNTRY
SRVC.                         : SERVICE COMPANY
DATE.          Sat Oct 30 09:52:34 2004: LOG DATE
UWI.          005 071 08170   : UNIQUE WELL ID
~Curve Information Block
DEPT.FT            0 000 00 00: Depth
GR.GAPI                       : Gamma Ray
CCL.                          : Casing Collar Locator
TT3.usec                      : CBL 3' Travel Time
AMP3.mV                       : CBL 3' Amplitude
~Parameter Information Block
~A  Depth        GR         CCL         TT3         AMP3    
# ...
  1469.2500    131.1863      0.0000    755.3970      6.8346
  1469.5000    124.8159      0.0000    758.9828      6.7700
  1469.7500    120.5150      0.0000    761.8684      6.6572
  1470.0000    119.5035      0.0000    762.8251      6.4881
  1470.2500    121.8709      0.0000    760.3627      6.2891
  1470.5000    126.8349      0.0000    752.7440      6.1045
  1470.7500    133.4457      0.0000    738.1492      5.9670
  1471.0000    140.8371      0.0000    716.2828      5.8800
  1471.2500    147.9700      0.0000    690.4608      5.8258
  1471.5000    153.6500      0.0000    666.9489      5.7877
  1471.7500    156.9477      0.0000    651.4093      5.7677
  1472.0000    157.4696      0.0000    646.7365      5.7887
  1472.2500    155.6100      0.0000    654.3359      5.8792
  1472.5000    152.9182      0.0000    675.5742      6.0444
  1472.7500    151.5889      0.0000    710.0568      6.2456
  1473.0000    152.9005      0.0000    752.2680      6.4055
  1473.2500    156.2554      0.0000    791.0829      6.4399
  1473.5000    159.9065      0.0000    814.6680      6.2896
  1473.7500    162.3684      0.0000    818.2493      5.9405
  1474.0000    162.9709      0.0000    808.2618      5.4322
  1474.2500    161.2688      0.0000    797.6456      4.8512
  1474.5000    156.3891      0.0000    795.4678      4.2886
  1474.7500    147.3426      0.0000    800.8049      3.7895
  1475.0000    133.8737      0.0000    806.3338      3.3444
  1475.2500    116.8013      0.0000    806.5488      2.9227
  1475.5000     97.6952      0.0000    801.8395      2.5019
  1475.7500     78.5927      0.0000    796.0230      2.0738
  1476.0000     61.8571      0.0000    791.9477      1.6453
  1476.2500     49.7039      0.0000    789.6811      1.2380
  1476.5000     43.3747      0.0000    787.7955      0.8818
  1476.7500     42.5645      0.0000    785.8428      0.6019
  1477.0000     45.5301      0.0000    785.5111      0.4109
  1477.2500     49.9311      0.0000    788.9980      0.3084
  1477.5000     54.1808      0.0000    796.5521      0.2878
  1477.7500     58.2186      0.0000    806.5262      0.3390
  1478.0000     62.7540      0.0000    817.9261      0.4484
  1478.2500     67.9911      0.0000    831.8793      0.6017
  1478.5000     73.5956      0.0000    849.5613      0.7948
  1478.7500     79.6216      0.0000    868.6248      1.0370
  1479.0000     86.5633      0.0000    883.1455      1.3441
  1479.2500     94.2987      0.0000    888.2292      1.7336
  1479.5000    101.5586      0.0000    883.8327      2.2316
  1479.7500    106.8252      0.0000    873.1075      2.8736
  1480.0000    109.6564      0.0000    858.2358      3.6840
  1480.2500    110.9692      0.0000    840.3819      4.6428
  1480.5000    111.9562      0.0000    823.3065      5.6717
  1480.7500    112.7373      0.0000    813.0788      6.6516
  1481.0000    112.2494      0.0000    812.1631      7.4556
  1481.2500    109.6249      0.0000    815.9978      7.9838
  1481.5000    105.7008      0.0000    817.3438      8.1969
  1481.7500    102.7279      0.0000    812.8927      8.1337
  1482.0000    102.1449      0.0000    804.5618      7.8912
  1482.2500    102.8945      0.0000    795.8131      7.5745
  1482.5000    102.3747      0.0000    788.5751      7.2561
  1482.7500     98.7685      0.0000    783.2455      6.9692
  1483.0000     92.1230      0.0000    779.8063      6.7288
  1483.2500     83.8967      0.0000    778.1750      6.5489
  1483.5000     76.2642      0.0000    778.1681      6.4406
  1483.7500     71.3179      0.0000    779.5754      6.3994
  1484.0000     69.7488      0.0000    781.8207      6.4001
  1484.2500     70.2188      0.0000    783.5903      6.4099
  1484.5000     70.7541      0.0000    783.5855      6.4106
  1484.7500     70.8506      0.0000    781.9784      6.4061
  1485.0000     71.6684      0.0000    780.8488      6.4080
  1485.2500     74.0993      0.0000    782.8903      6.4171
  1485.5000     77.4408      0.0000    789.3275      6.4240
  1485.7500     80.2592      0.0000    798.7741      6.4233
  1486.0000     81.9057      0.0000    808.3093      6.4205
  1486.2500     82.8222      0.0000    815.9798      6.4256
  1486.5000     83.9712      0.0000    821.9351      6.4420
  1486.7500     86.1692      0.0000    826.9194      6.4600
  1487.0000     89.3709      0.0000    830.4525      6.4654
  1487.2500     92.5019      0.0000    831.0615      6.4582
  1487.5000     94.4774      0.0000    827.9621      6.4555
  1487.7500     95.2946      0.0000    821.9753      6.4689
  1488.0000     95.6379      0.0000    814.7032      6.4839
  1488.2500     95.6538      0.0000    807.5240      6.4683
  1488.5000     94.9725      0.0000    801.6553      6.4048
  1488.7500     94.1043      0.0000    797.9766      6.3144
  1489.0000     94.8504      0.0000    795.6982      6.2435
  1489.2500     98.5086      0.0000    792.0393      6.2255
  1489.5000    103.8711      0.0000    784.7568      6.2568
  1489.7500    107.5072      0.0000    775.0421      6.3038
  1490.0000    106.2739      0.0000    766.9075      6.3281
  1490.2500     99.7411      0.0000    763.5182      6.3085
  1490.5000     90.5278      0.0000    764.4606      6.2465
  1490.7500     82.4541      0.0000    766.3578      6.1563
  1491.0000     78.0658      0.0000    765.9225      6.0525
  1491.2500     77.4299      0.0000    762.6163      5.9507
  1491.5000     79.0537      0.0000    758.8083      5.8718
  1491.7500     81.8277      0.0000    757.8448      5.8361
  1492.0000     85.8188      0.0000    762.0652      5.8494
  1492.2500     91.1287      0.0000    771.7621      5.8949
  1492.5000     96.4755      0.0000    784.7706      5.9407
  1492.7500     99.5005      0.0000    796.9553      5.9602
  1493.0000     98.6660      0.0000    804.2452      5.9495
  1493.2500     94.7408      0.0000    805.2307      5.9254
  1493.5000     90.2135      0.0000    801.8483      5.9041
  1493.7500     87.0423      0.0000    797.3671      5.8880
  1494.0000     85.0033      0.0000    793.8834      5.8666
  1494.2500     82.4856      0.0000    791.5632      5.8158
  1494.5000     78.8608      0.0000    789.3726      5.6909
  1494.7500     75.4765      0.0000    785.9604      5.4345
  1495.0000     74.0035      0.0000    780.3464      5.0112
  1495.2500     74.3507      0.0000    772.6489      4.4385
  1495.5000     74.7730      0.0000    764.5589      3.7779
  1495.7500     73.7852      0.0000    758.7982      3.1022
  1496.0000     71.6321      0.0000    758.0768      2.4702
  1496.2500     70.0539      0.0000    764.8754      1.9196
  1496.5000     70.7379      0.0000    781.5991      1.4680
  1496.7500     73.8311      0.0000    808.6879      1.1158
  1497.0000     77.8700      0.0000    841.4317      0.8518
  1497.2500     81.2990      0.0000    870.1819      0.6614
  1497.5000     84.1810      0.0000    885.6299      0.5383
  1497.7500     88.5018      0.0000    884.1965      0.4879
  1498.0000     96.6095      0.0000    868.9987      0.5200
  1498.2500    108.8247      0.0000    846.9939      0.6434
  1498.5000    122.2843      0.0000    825.1672      0.8692
  1498.7500    132.5252      0.0000    807.7922      1.2115
  1499.0000    136.7832      0.0000    795.5103      1.6769
  1499.2500    135.7513      0.0000    786.3071      2.2577
  1499.5000    132.1447      0.0000    777.7982      2.9390
  1499.7500    128.1912      0.0000    769.1317      3.7032
  1500.0000    124.8866      0.0000    761.1595      4.5117
  1500.2500    122.7711      0.0000    755.2150      5.2872
  1500.5000    122.1467      0.0000    751.8730      5.9274
  1500.7500    122.3968      0.0000    750.6163      6.3495
  1501.0000    122.1880      0.0000    750.3912      6.5323
  1501.2500    121.1927      0.0000    750.3059      6.5243
  1501.5000    121.0767      0.0000    749.9572      6.4140
  1501.7500    123.9232      0.0000    749.2268      6.2815
  1502.0000    129.7903      0.0000    747.8719      6.1689
  1502.2500    136.3068      0.0000    745.2622      6.0863
  1502.5000    140.4305      0.0000    740.6478      6.0337
