~Version Information
VERS.                      2.0: CWLS Log ASCII Standard - VERSION 2.0
WRAP.                       NO: One line per depth step
~Well Information Block
STRT.FT                15.0000: 
STOP.FT              2409.7500: 
STEP.FT                 0.2500: 
NULL.                -999.2500: 
COMP.          Pioneer Natural Resources: COMPANY
WELL.          Oink Oink 14-36: WELL
FLD.           Purgatoire River: FIELD
LOC.           216' FSL & 263' FWL: LOCATION
PROV.                 Colorado: PROVINCE
CNTY.               Las Animas: COUNTRY
SRVC.                Patterson: SERVICE COMPANY
DATE.          Wed Jun 22 11:05:26 2005: LOG DATE
UWI.           05 071 08394 00: UNIQUE WELL ID
~Curve Information Block
DEPT.FT            0 000 00 00: Depth
GR.GAPI                       : Gamma Ray
CCL.                          : Casing Collar Locator
TT3.usec                      : CBL 3' Travel Time
AMP3.mV                       : CBL 3' Amplitude
~Parameter Information Block
~A  Depth        GR         CCL         TT3         AMP3    
# ...
   953.0000     74.6606      0.0000    643.1429      5.7322
   953.2500     71.9152      0.0000    658.3685      5.7689
   953.5000     67.0080      0.0000    669.5696      5.7836
   953.7500     62.0279      0.0000    676.1570      5.7694
   954.0000     58.5017      0.0000    678.7567      5.7315
   954.2500     56.3011      0.0000    677.5167      5.6883
   954.5000     54.2358      0.0000    673.3380      5.6652
   954.7500     51.6330      0.0000    669.1512      5.6798
   955.0000     49.1579      0.0000    668.3904      5.7286
   955.2500     48.0367      0.0000    672.3527      5.7884
   955.5000     48.6597      0.0000    679.5589      5.8327
   955.7500     50.1631      0.0000    687.3380      5.8493
   956.0000     51.3217      0.0000    693.5456      5.8438
   956.2500     51.6700      0.0000    697.2550      5.8316
   956.5000     51.6884      0.0000    698.5264      5.8261
   956.7500     52.0913      0.0000    697.7221      5.8315
   957.0000     53.0905      0.0000    695.1867      5.8446
   957.2500     54.3233      0.0000    691.5938      5.8627
   957.5000     55.4447      0.0000    688.0179      5.8882
   957.7500     56.7432      0.0000    685.3403      5.9206
   958.0000     58.9681      0.0000    683.8596      5.9468
   958.2500     62.5863      0.0000    683.1168      5.9439
   958.5000     67.5816      0.0000    681.1744      5.8939
   958.7500     74.1418      0.0000    674.4875      5.7999
   959.0000     82.9609      0.0000    660.1317      5.6870
   959.2500     94.1852      0.0000    639.0333      5.5874
   959.5000    106.1674      0.0000    616.8857      5.5229
   959.7500    115.9686      0.0000    601.4360      5.4979
   960.0000    121.6405      0.0000    597.6557      5.5051
   960.2500    123.8194      0.0000    604.3583      5.5310
   960.5000    124.6432      0.0000    615.5385      5.5581
   960.7500    125.4494      0.0000    625.1631      5.5680
   961.0000    126.1102      0.0000    630.4800      5.5485
   961.2500    126.1392      0.0000    631.4766      5.4982
   961.5000    125.3943      0.0000    628.9806      5.4258
   961.7500    123.7298      0.0000    624.3146      5.3421
   962.0000    121.0570      0.0000    619.9976      5.2537
   962.2500    117.9915      0.0000    619.1049      5.1652
   962.5000    115.5852      0.0000    623.0285      5.0858
   962.7500    114.2506      0.0000    630.4698      5.0292
   963.0000    113.4626      0.0000    638.9681      5.0005
   963.2500    112.3745      0.0000    646.5279      4.9890
   963.5000    110.2857      0.0000    651.3788      4.9822
   963.7500    106.8622      0.0000    651.6695      4.9810
   964.0000    102.5538      0.0000    647.0494      4.9913
   964.2500     98.7405      0.0000    640.5411      5.0075
   964.5000     97.1043      2.6866    636.8958      5.0158
   964.7500     98.6893      3.0000    637.4197      5.0096
   965.0000    103.3124      2.9855    637.4921      5.0044
   965.2500    109.3505      0.0000    631.8671      5.0421
   965.5000    114.0696      0.0000    622.5873      5.1724
   965.7500    115.0954      0.0000    618.9686      5.4069
   966.0000    112.4553      0.0000    628.6036      5.6879
   966.2500    109.0459      0.0000    649.8466      5.9245
   966.5000    108.4507      0.0000    673.6665      6.0641
   966.7500    111.9347      0.0000    691.2828      6.1151
   967.0000    117.4454      0.0000    699.3690      6.1110
   967.2500    121.2786      0.0000    700.1505      6.0719
   967.5000    120.8624      0.0000    698.5101      5.9963
   967.7500    116.7171      0.0000    698.3034      5.8773
   968.0000    112.0892      0.0000    699.8151      5.7203
   968.2500    110.1334      0.0000    700.4902      5.5475
   968.5000    110.9526      0.0000    698.3224      5.3832
   968.7500    111.4126      0.0000    694.2275      5.2353
   969.0000    107.9038      0.0000    691.0686      5.0951
   969.2500     99.3774      0.0000    691.1000      4.9529
   969.5000     88.0758      0.0000    694.3461      4.8121
   969.7500     77.7533      0.0000    698.5049      4.6893
   970.0000     71.3194      0.0000    700.3106      4.6017
   970.2500     69.8653      0.0000    697.8398      4.5534
   970.5000     73.2374      0.0000    691.7310      4.5351
   970.7500     80.8251      0.0000    683.9767      4.5350
   971.0000     91.4760      0.0000    675.9939      4.5515
   971.2500    103.0182      0.0000    668.1985      4.5902
   971.5000    112.8256      0.0000    660.7072      4.6519
   971.7500    119.4926      0.0000    653.8792      4.7282
   972.0000    123.6793      0.0000    648.4768      4.8086
   972.2500    126.8003      0.0000    645.5997      4.8885
   972.5000    129.0082      0.0000    646.2998      4.9681
   972.7500    128.9743      0.0000    651.2667      5.0466
   973.0000    125.6252      0.0000    660.6154      5.1244
   973.2500    119.4800      0.0000    673.1194      5.2091
   973.5000    112.0566      0.0000    685.5591      5.3188
   973.7500    104.6582      0.0000    694.1679      5.4852
   974.0000     98.2096      0.0000    697.6624      5.7532
   974.2500     93.6402      0.0000    698.3870      6.1754
   974.5000     91.5091      0.0000    700.0441      6.8056
   974.7500     91.3265      0.0000    704.6479      7.7046
   975.0000     91.8961      0.0000    711.6908      8.9486
   975.2500     92.4154      0.0000    718.9724     10.6035
   975.5000     92.8659      0.0000    722.5728     12.6613
   975.7500     93.3694      0.0000    715.6810     14.9959
   976.0000     93.6655      0.0000    689.5370     17.4062
   976.2500     93.4428      0.0000    638.8298     19.7201
   976.5000     92.8943      0.0000    567.9577     21.8656
   976.7500     92.6948      0.0000    490.8343     23.8573
   977.0000     93.4930      0.0000    422.7482     25.7282
   977.2500     95.5664      0.0000    372.2387     27.4485
   977.5000     98.8155      0.0000    339.9290     28.8700
   977.7500    102.6596      0.0000    322.4828     29.7554
   978.0000    105.7496      0.0000    316.7018     29.9062
   978.2500    106.2905      0.0000    322.2520     29.3014
   978.5000    103.3810      0.0000    342.3219     28.1294
   978.7500     98.1855      0.0000    379.8661     26.6964
   979.0000     93.3740      0.0000    429.6846     25.3049
   979.2500     90.9957      0.0000    474.4065     24.1768
   979.5000     90.7858      0.0000    493.5554     23.4027
   979.7500     90.6208      0.0000    481.3362     22.8992
   980.0000     88.7375      0.0000    454.6417     22.4342
   980.2500     85.5219      0.0000    440.5982     21.7535
   980.5000     83.1116      0.0000    456.0960     20.7190
   980.7500     83.1963      0.0000    499.4038     19.3459
   981.0000     85.3233      0.0000    557.1564     17.7525
   981.2500     87.5432      0.0000    614.5137     16.1033
   981.5000     88.4934      0.0000    660.9567     14.5648
   981.7500     88.4400      0.0000    692.9896     13.2477
   982.0000     88.4422      0.0000    713.3631     12.1638
   982.2500     89.1638      0.0000    726.2889     11.2442
   982.5000     90.7064      0.0000    733.6108     10.4035
   982.7500     93.1378      0.0000    735.5514      9.5934
   983.0000     96.8079      0.0000    732.9547      8.8141
   983.2500    102.0377      0.0000    727.6805      8.0961
   983.5000    108.5271      0.0000    721.4988      7.4719
   983.7500    115.2903      0.0000    715.1645      6.9602
   984.0000    121.3531      0.0000    708.4133      6.5655
   984.2500    126.2473      0.0000    701.0303      6.2802
   984.5000    129.7110      0.0000    693.8437      6.0851
   984.7500    131.4172      0.0000    688.1652      5.9508
   985.0000    131.4282      0.0000    683.7342      5.8476
   985.2500    130.5145      0.0000    676.8412      5.7574
   985.5000    129.6369      0.0000    660.6437      5.6787
   985.7500    129.3257      0.0000    628.7957      5.6205
   986.0000    129.6281      0.0000    581.0203      5.5915
   986.2500    130.3338      0.0000    525.9328      5.5917
