~Version Information
VERS.                      2.0: CWLS Log ASCII Standard - VERSION 2.0
WRAP.                       NO: One line per depth step
~Well Information Block
STRT.FT               360.0000: 
STOP.FT              1622.7000: 
STEP.FT                 0.1000: 
NULL.                -999.2500: 
COMP.          Pioneer Natural Resources: COMPANY
WELL.                Eric 42-9: WELL
FLD.           Purgatoire River: FIELD
LOC.           2050' FNL & 850' FEL: LOCATION
PROV.                 Colorado: PROVINCE
CNTY.               Las Animas: COUNTRY
SRVC.                Patterson: SERVICE COMPANY
DATE.          Mon Nov 01 08:19:51 2004: LOG DATE
UWI.           05 071 07999 00: UNIQUE WELL ID
~Curve Information Block
DEPT.FT            0 000 00 00: Depth
DCAL.in                       : CDL Caliper
RHOB.g/cc                     : CDL Bulk Density
RHOC.g/cc                     : CDL Density Correction
DPOR.pu                       : CDL Density Porosity
NPOR.pu                       : Neutron Porosity
GR.GAPI                       : Gamma Ray
~Parameter Information Block
~A  Depth       DCAL        RHOB        RHOC        DPOR        NPOR         GR     
   360.0000      2.7861      1.8900      0.3408     46.0618     40.5796     46.8727
   360.1000      2.7861      1.8928      0.3802     45.8905     40.3191     50.4780
   360.2000      2.7861      1.8915      0.3448     45.9714     39.9951     50.6570
   360.3000      2.7807      1.8874      0.3346     46.2206     39.8447     51.6276
   360.4000      2.7807      1.8868      0.3497     46.2556     40.2481     52.7169
   360.5000      2.7804      1.8902      0.3644     46.0483     41.0361     53.0888
   360.6000      2.7804      1.8935      0.3718     45.8486     41.4865     53.8013
   360.7000      2.7804      1.8934      0.3697     45.8564     41.3577     54.9838
   360.8000      2.7826      1.8934      0.3627     45.8521     40.9717     57.0548
   360.9000      2.7826      1.8987      0.3700     45.5356     40.5733     59.9721
   361.0000      2.7832      1.9072      0.3821     45.0172     40.0452     60.5208
   361.1000      2.7832      1.9166      0.3691     44.4500     39.3285     57.1503
   361.2000      2.7832      1.9265      0.3881     43.8470     39.0509     52.8444
   361.3000      2.7849      1.9345      0.3962     43.3620     39.6225     50.9982
   361.4000      2.7849      1.9388      0.3906     43.1034     40.4317     51.0163
   361.5000      2.7881      1.9407      0.4014     42.9897     41.0041     51.1501
   361.6000      2.7881      1.9455      0.3798     42.6944     41.2956     52.8828
   361.7000      2.7881      1.9583      0.3938     41.9213     41.2498     58.2931
   361.8000      2.7894      1.9740      0.3948     40.9714     41.1388     63.3732
   361.9000      2.7894      1.9833      0.4075     40.4044     41.0819     62.5133
   362.0000      2.7881      1.9826      0.4116     40.4489     40.6876     57.6303
   362.1000      2.7881      1.9746      0.3931     40.9359     39.9609     52.2826
   362.2000      2.7881      1.9655      0.3980     41.4852     39.4917     47.3681
   362.3000      2.7863      1.9608      0.3757     41.7670     39.5309     44.2104
   362.4000      2.7863      1.9590      0.3901     41.8818     40.0103     44.8216
   362.5000      2.7844      1.9514      0.3823     42.3383     40.7620     46.9940
   362.6000      2.7844      1.9386      0.3635     43.1124     41.2753     45.9700
   362.7000      2.7844      1.9319      0.3474     43.5235     41.3343     43.4964
   362.8000      2.7848      1.9362      0.3698     43.2604     41.3256     42.4168
   362.9000      2.7848      1.9451      0.3922     42.7242     41.7122     41.5714
   363.0000      2.7860      1.9507      0.3846     42.3800     42.5106     39.8493
   363.1000      2.7860      1.9497      0.4002     42.4408     43.1847     38.2435
   363.2000      2.7860      1.9425      0.3647     42.8779     43.4688     38.2881
   363.3000      2.7858      1.9325      0.3900     43.4859     43.6369     40.0080
   363.4000      2.7858      1.9211      0.3680     44.1775     43.6767     42.7797
   363.5000      2.7848      1.9088      0.3779     44.9184     43.6055     43.8723
   363.6000      2.7848      1.8943      0.3591     45.8012     43.8121     40.5514
   363.7000      2.7848      1.8731      0.3660     47.0866     44.2432     35.5027
   363.8000      2.7840      1.8457      0.3433     48.7440     44.6483     34.9142
   363.9000      2.7840      1.8189      0.3457     50.3718     44.9829     38.2898
   364.0000      2.7826      1.7957      0.3411     51.7735     45.0845     39.8804
   364.1000      2.7826      1.7775      0.3273     52.8788     44.7061     38.9990
   364.2000      2.7826      1.7675      0.3339     53.4868     44.2239     39.3185
   364.3000      2.7799      1.7669      0.3383     53.5185     44.3821     41.6874
   364.4000      2.7799      1.7729      0.3516     53.1606     44.8241     43.1509
   364.5000      2.7788      1.7806      0.3495     52.6905     44.8295     43.0490
   364.6000      2.7788      1.7890      0.3462     52.1844     44.4957     44.2672
   364.7000      2.7788      1.7973      0.3618     51.6766     44.1921     48.5618
   364.8000      2.7785      1.8045      0.3481     51.2433     44.0266     55.0141
   364.9000      2.7785      1.8127      0.3523     50.7471     44.1828     60.7150
   365.0000      2.7779      1.8225      0.3666     50.1488     44.7893     63.4273
   365.1000      2.7779      1.8309      0.3669     49.6407     45.4607     63.8162
   365.2000      2.7779      1.8386      0.3789     49.1781     45.7227     63.0732
   365.3000      2.7781      1.8474      0.3818     48.6451     45.5515     61.4020
   365.4000      2.7781      1.8529      0.3856     48.3083     45.0954     60.1412
   365.5000      2.7790      1.8465      0.3971     48.6990     44.6152     62.3727
   365.6000      2.7790      1.8284      0.3763     49.7956     44.2418     67.0210
   365.7000      2.7790      1.8137      0.3700     50.6851     43.8254     70.1524
   365.8000      2.7798      1.8153      0.3641     50.5868     43.4972     72.5135
   365.9000      2.7798      1.8306      0.3868     49.6580     43.4714     75.9043
   366.0000      2.7803      1.8487      0.3918     48.5631     43.6482     78.3713
   366.1000      2.7803      1.8642      0.3840     47.6255     43.9440     78.8123
   366.2000      2.7803      1.8799      0.4008     46.6699     44.2522     78.6809
   366.3000      2.7810      1.8968      0.4237     45.6473     44.4511     79.6160
   366.4000      2.7810      1.9103      0.4094     44.8292     44.5514     80.7807
   366.5000      2.7799      1.9195      0.4180     44.2711     44.4183     80.4686
   366.6000      2.7799      1.9262      0.4144     43.8673     43.9263     78.5937
   366.7000      2.7799      1.9296      0.4167     43.6622     43.2287     77.5167
   366.8000      2.7744      1.9351      0.3944     43.3289     42.6208     80.1644
   366.9000      2.7744      1.9530      0.3968     42.2422     42.3530     84.1334
   367.0000      2.7728      1.9810      0.4164     40.5485     42.0981     84.8256
   367.1000      2.7728      2.0053      0.4379     39.0756     41.7007     81.2949
   367.2000      2.7728      2.0194      0.4214     38.2171     41.5582     76.9524
   367.3000      2.7823      2.0262      0.4182     37.8031     41.6535     75.5361
   367.4000      2.7823      2.0300      0.3892     37.5771     41.5486     77.1187
   367.5000      2.7919      2.0346      0.3718     37.2946     41.1703     77.7869
   367.6000      2.7919      2.0393      0.4024     37.0099     40.9363     75.2254
   367.7000      2.7919      2.0449      0.3440     36.6718     41.1254     72.5273
   367.8000      2.7971      2.0599      0.3373     35.7649     41.4413     72.7606
   367.9000      2.7971      2.0814      0.3914     34.4622     41.5200     75.8393
   368.0000      2.8008      2.0954      0.3559     33.6112     41.4074     80.6867
   368.1000      2.8008      2.0972      0.3347     33.5013     41.3961     84.8003
   368.2000      2.8008      2.0907      0.3102     33.8953     41.4249     84.4472
   368.3000      2.8030      2.0791      0.3225     34.6019     41.2690     81.1574
   368.4000      2.8030      2.0685      0.2355     35.2433     41.0441     80.0535
   368.5000      2.8060      2.0667      0.2626     35.3543     40.8781     80.8221
   368.6000      2.8060      2.0675      0.2619     35.3018     40.7252     82.0632
   368.7000      2.8060      2.0605      0.2674     35.7258     40.5139     84.6415
   368.8000      2.8106      2.0448      0.2043     36.6759     40.2934     84.1968
   368.9000      2.8106      2.0267      0.1981     37.7767     40.2171     79.6149
   369.0000      2.8146      2.0104      0.1725     38.7657     40.2543     78.3351
   369.1000      2.8146      1.9981      0.1320     39.5108     40.3288     81.5599
   369.2000      2.8146      1.9962      0.1380     39.6256     40.4268     82.5640
   369.3000      2.8181      2.0086      0.1245     38.8730     40.5409     79.9086
   369.4000      2.8181      2.0234      0.1701     37.9786     40.7057     78.9943
   369.5000      2.8235      2.0209      0.1518     38.1278     40.9982     82.1917
