~Version Information
 VERS.                                  2.0 : CWLS LAS VERSION
 WRAP.                                   NO : WRAPING MODE
 SWARE .                 MController 2.5.0J : SOFTWARE VERSION
~Well Information
 WELL.                          Quack 22-24 : WELL
 COMP.    PIONEER NATURAL RESOURCES USA INC : COMPANY
 FLD.                      PURGATOIRE RIVER : FIELD
 LOC.                 SE/NW Sec 24 32S  67W : LOCATION
 DATE.                                  N/A : DATE(S) LOGGED
 SRVC.       Blanco Geological Services LLC : SERVICE COMPANY
 STAT.                                   CO : STATE
 CNTY.                           LAS ANIMAS : COUNTY
 CTRY.                                  USA : COUNTRY
 API.                       05-071-08402-00 : API NUMBER
 STRT.FT                             201.00 : START DEPTH
 STOP.FT                            2610.00 : STOP DEPTH
 STEP.FT                               1.00 : DEPTH INCREMENT
 NULL.                                -9999 : NULL VALUE
~Curve information
 DEPTH.FT                                   :
 ROP.MIN/FT                                 :
 GAS.UNITS                                  :
~ASCII Log data
# ...
      1601.0         0.13        629.9 
      1602.0         0.13        630.5 
      1603.0         0.17        632.9 
      1604.0         0.37        632.2 
      1605.0         0.43        630.2 
      1606.0         0.40        620.4 
      1607.0         0.30        614.0 
      1608.0         0.30        613.7 
      1609.0         0.33        615.7 
      1610.0         0.33        607.6 
      1611.0         0.27        473.5 
      1612.0         0.32        440.0 
      1613.0         0.33        186.4 
      1614.0         0.33        302.1 
      1615.0         0.27        432.7 
      1616.0         2.68       2532.7 
      1617.0         0.67       1000.1 
      1618.0         0.47        754.2 
      1619.0         0.63        681.7 
      1620.0         0.53        693.2 
      1621.0         0.60        691.8 
      1622.0         0.32        675.0 
      1623.0         0.30        661.5 
      1624.0         0.30        650.7 
      1625.0         0.27        641.3 
      1626.0         0.27        597.5 
      1627.0         0.23        600.9 
      1628.0         0.23        629.2 
      1629.0         0.40        650.7 
      1630.0         0.27        651.4 
      1631.0         0.17        650.4 
      1632.0         0.13        645.4 
      1633.0         0.17        642.3 
      1634.0         0.27        633.9 
      1635.0         0.28        637.3 
      1636.0         0.40        641.6 
      1637.0         0.50        641.6 
      1638.0         0.27        634.9 
      1639.0         0.30        628.5 
      1640.0         0.27        518.0 
      1641.0         0.37        440.0 
      1642.0         0.27        165.9 
      1643.0         0.17        216.4 
      1644.0         0.23        324.0 
      1645.0         0.27        471.9 
      1646.0         2.78       2898.6 
      1647.0         0.60        916.6 
      1648.0         0.52        736.0 
      1649.0         0.43        689.5 
      1650.0         0.43        697.6 
      1651.0         0.40        690.8 
      1652.0         0.43        671.6 
      1653.0         0.30        666.9 
      1654.0         0.33        664.6 
      1655.0         0.23        660.5 
      1656.0         0.27        657.8 
      1657.0         0.38        653.4 
      1658.0         0.33        649.4 
      1659.0         0.30        647.4 
      1660.0         0.33        644.0 
      1661.0         0.40        637.6 
      1662.0         0.37        597.8 
      1663.0         0.37        558.1 
      1664.0         0.37        624.8 
      1665.0         0.33        672.0 
      1666.0         0.25        686.8 
      1667.0         0.27        688.8 
      1668.0         0.17        690.5 
      1669.0         0.13        691.8 
      1670.0         0.17        689.5 
      1671.0         0.37        660.2 
      1672.0         0.40        478.6 
      1673.0         0.37        440.0 
      1674.0         0.33        309.5 
      1675.0         0.27        461.6 
      1676.0         2.48       2735.2 
      1677.0         0.67       1112.0 
      1678.0         0.20        838.1 
      1679.0         0.23        787.5 
      1680.0         0.40        738.0 
      1681.0         0.42        684.4 
      1682.0         0.40        706.3 
      1683.0         0.37        710.0 
      1684.0         0.33        700.6 
      1685.0         0.60        688.8 
      1686.0         0.63        621.4 
      1687.0         0.50        619.7 
      1688.0         0.48        638.3 
      1689.0         0.40        639.3 
      1690.0         0.33        630.2 
      1691.0         0.43        619.7 
      1692.0         0.43        621.4 
      1693.0         0.33        616.7 
      1694.0         0.33        620.4 
      1695.0         0.27        620.1 
      1696.0         0.37        633.2 
      1697.0         0.25        641.6 
      1698.0         0.20        623.5 
      1699.0         0.27        533.2 
      1700.0         0.23        440.0 
      1701.0         0.20        440.0 
      1702.0         0.27        178.6 
      1703.0         0.13        222.3 
      1704.0         0.23        330.4 
      1705.0         0.27        474.7 
      1706.0         3.18       2711.0 
      1707.0         0.33        752.8 
      1708.0         0.27        691.5 
      1709.0         0.37        689.8 
      1710.0         0.40        710.4 
      1711.0         0.48        708.4 
      1712.0         0.30        673.0 
      1713.0         0.27        672.0 
      1714.0         0.37        661.5 
      1715.0         0.37        649.1 
      1716.0         0.23        634.6 
      1717.0         0.33        627.5 
      1718.0         0.27        630.9 
      1719.0         0.33        637.3 
      1720.0         0.33        637.6 
      1721.0         0.32        616.7 
      1722.0         0.30        618.1 
      1723.0         0.37        640.6 
      1724.0         0.40        651.1 
      1725.0         0.20        651.1 
      1726.0         0.23        651.4 
      1727.0         0.27        655.5 
      1728.0         0.30        663.5 
      1729.0         0.33        668.3 
      1730.0         0.33        664.6 
      1731.0         0.33        619.4 
      1732.0         0.35        480.6 
      1733.0         0.33        440.0 
      1734.0         0.30        256.8 
      1735.0         0.27        396.4 
      1736.0         2.88       2759.5 
      1737.0         0.33       1013.6 
      1738.0         0.20        891.0 
      1739.0         0.23        823.9 
      1740.0         0.33        758.6 
      1741.0         0.43        698.9 
      1742.0         0.43        708.4 
      1743.0         0.37        706.7 
      1744.0         0.27        685.4 
      1745.0         0.28        675.7 
      1746.0         0.50        672.6 
      1747.0         0.30        651.8 
      1748.0         0.43        669.9 
      1749.0         0.63        676.0 
      1750.0         0.30        652.4 
      1751.0         0.33        638.3 
      1752.0         0.37        625.1 
      1753.0         0.33        629.9 
      1754.0         0.28        634.9 
      1755.0         0.27        635.6 
      1756.0         0.37        630.9 
      1757.0         0.33        623.8 
      1758.0         0.40        632.9 
      1759.0         0.33        634.9 
      1760.0         0.33        566.5 
      1761.0         0.27        442.5 
      1762.0         0.33        440.0 
      1763.0         0.32        237.7 
      1764.0         0.40        434.8 
      1765.0         0.33       1420.9 
      1766.0         2.92       2699.9 
      1767.0         0.67        806.1 
      1768.0         0.57        692.9 
      1769.0         0.43        657.1 
      1770.0         0.50        655.8 
      1771.0         0.40        681.1 
      1772.0         0.23        681.1 
      1773.0         0.25        677.0 
      1774.0         0.27        667.9 
      1775.0         0.27        658.2 
      1776.0         0.30        656.5 
      1777.0         0.33        651.4 
      1778.0         0.30        642.3 
      1779.0         0.30        642.7 
      1780.0         0.33        640.6 
      1781.0         0.30        634.6 
      1782.0         0.33        623.8 
      1783.0         0.30        623.5 
      1784.0         0.35        659.5 
      1785.0         0.30        688.1 
      1786.0         0.30        703.6 
      1787.0         0.27        713.7 
      1788.0         0.27        713.4 
      1789.0         0.23        656.5 
      1790.0         0.27        548.0 
      1791.0         0.30        483.6 
      1792.0         0.27        630.9 
      1793.0         0.23        836.4 
      1794.0         0.33       1202.9 
      1795.0         0.33       1602.9 
      1796.0         1.85       2747.0 
      1797.0         0.57       1317.2 
      1798.0         0.50        962.4 
      1799.0         0.82        785.8 
      1800.0         0.80        697.6 
