~Version Information
VERS.                      2.0: CWLS Log ASCII Standard - VERSION 2.0
WRAP.                       NO: One line per depth step
~Well Information Block
STRT.FT               250.0000: 
STOP.FT              2600.7000: 
STEP.FT                 0.1000: 
NULL.                -999.2500: 
COMP.          Pioneer Natural Resources: COMPANY
WELL.              Quack 22-24: WELL
FLD.           Purgatoire River: FIELD
LOC.           2492' FNL & 2459' FWL--: LOCATION
PROV.                 Colorado: PROVINCE
CNTY.               Las Animas: COUNTRY
SRVC.                Patterson: SERVICE COMPANY
DATE.          Mon Jun 13 08:03:15 2005: LOG DATE
UWI.            05 071 0840200: UNIQUE WELL ID
~Curve Information Block
DEPT.FT            0 000 00 00: Depth
DCAL.in                       : CDL Caliper
RHOB.g/cc                     : CDL Bulk Density
RHOC.g/cc                     : CDL Density Correction
DPOR.pu                       : CDL Density Porosity
NPOR.pu                       : Neutron Porosity
GR.GAPI                       : Gamma Ray
~Parameter Information Block
~A  Depth       DCAL        RHOB        RHOC        DPOR        NPOR         GR     
# ...
  1334.8000      9.2573      1.6433      0.1460     61.0135     28.5824     72.6772
  1334.9000      9.2573      1.6894      0.0946     58.2153     27.4013     74.0455
  1335.0000      8.7964      1.7679      0.0273     53.4628     26.4337     74.9846
  1335.1000      8.7964      1.8805      0.0966     46.6357     25.5548     79.8200
  1335.2000      8.7964      2.0004      0.1302     39.3719     24.5148     83.1993
  1335.3000      8.6258      2.1197      0.1972     32.1392     23.0346     79.4259
  1335.4000      8.6258      2.2449      0.3063     24.5497     21.1684     73.0908
  1335.5000      8.5756      2.3564      0.3564     17.7936     19.4632     73.7101
  1335.6000      8.5756      2.4311      0.3551     13.2642     18.6075     84.3031
  1335.7000      8.5756      2.4795      0.2971     10.3341     18.6381     98.6468
  1335.8000      8.4116      2.5224      0.2487      7.7322     18.7475    111.5933
  1335.9000      8.4116      2.5548      0.2511      5.7691     18.3420    122.4178
  1336.0000      8.2435      2.5663      0.1580      5.0755     17.5823    128.0486
  1336.1000      8.2435      2.5704      0.1202      4.8243     16.7718    123.9834
  1336.2000      8.2435      2.5789      0.1078      4.3072     16.3020    114.5593
  1336.3000      8.1762      2.5826      0.1054      4.0820     16.4192    109.7969
  1336.4000      8.1762      2.5729      0.1005      4.6706     16.7354    111.7631
  1336.5000      8.1643      2.5576      0.0661      5.5985     16.6963    115.4919
  1336.6000      8.1643      2.5493      0.0804      6.1054     16.1413    114.1835
  1336.7000      8.1643      2.5551      0.0442      5.7486     15.4614    104.3975
  1336.8000      8.1638      2.5729      0.0762      4.6736     15.2301     95.4899
  1336.9000      8.1638      2.5812      0.0992      4.1677     15.7245     95.3874
  1337.0000      8.1634      2.5629      0.0674      5.2765     16.6412    100.4248
  1337.1000      8.1634      2.5358     -0.0043      6.9201     17.2534    105.2604
  1337.2000      8.1634      2.5227      0.0260      7.7173     17.3889    107.4695
  1337.3000      8.1666      2.5135      0.0315      8.2740     17.6583    106.6308
  1337.4000      8.1666      2.4966      0.0128      9.2962     18.3250    104.6928
  1337.5000      8.1728      2.4802      0.0285     10.2907     18.9178    103.1655
  1337.6000      8.1728      2.4724     -0.0138     10.7633     19.1807    102.3389
  1337.7000      8.1728      2.4764      0.0110     10.5215     19.3231    103.6991
  1337.8000      8.1728      2.4928      0.0055      9.5257     19.2655    109.5836
  1337.9000      8.1728      2.5163      0.0731      8.1019     18.9552    117.7856
  1338.0000      8.1656      2.5357      0.0745      6.9290     18.6004    122.5207
  1338.1000      8.1656      2.5450      0.1216      6.3616     18.3823    120.1528
  1338.2000      8.1656      2.5494      0.1094      6.0964     18.2926    114.4499
  1338.3000      8.1593      2.5628      0.1403      5.2823     18.3536    111.3655
  1338.4000      8.1593      2.5840      0.2167      3.9988     18.4846    110.1664
  1338.5000      8.1579      2.5930      0.1826      3.4530     18.3784    105.1899
  1338.6000      8.1579      2.5897      0.1378      3.6535     18.4306     97.3963
  1338.7000      8.1579      2.5930      0.0905      3.4538     19.1866     93.0205
  1338.8000      8.1596      2.6059      0.1647      2.6733     19.9480     91.4624
  1338.9000      8.1596      2.6164      0.1402      2.0355     19.8828     91.4896
  1339.0000      8.1613      2.6170      0.1390      2.0026     19.3574     94.5984
  1339.1000      8.1613      2.6049      0.1033      2.7335     19.1140     95.6901
  1339.2000      8.1613      2.5854      0.0831      3.9157     19.2892     92.2247
  1339.3000      8.1640      2.5623      0.1064      5.3131     19.6311     90.6472
  1339.4000      8.1640      2.5345      0.0682      6.9984     20.0477     94.7130
  1339.5000      8.1696      2.5133      0.0121      8.2852     20.6774    104.2427
  1339.6000      8.1696      2.5106      0.0288      8.4509     21.3808    114.3615
  1339.7000      8.1696      2.5213      0.0166      7.7995     22.0158    118.1613
  1339.8000      8.1766      2.5338      0.0448      7.0449     22.7627    117.7702
  1339.9000      8.1766      2.5395      0.0629      6.6985     23.6051    117.6512
  1340.0000      8.1810      2.5441      0.0595      6.4206     24.0547    118.4199
  1340.1000      8.1810      2.5615      0.0236      5.3630     23.7428    120.7599
  1340.2000      8.1810      2.5875      0.0991      3.7889     23.1594    124.2199
  1340.3000      8.1817      2.6020      0.0637      2.9068     22.9248    122.2672
  1340.4000      8.1817      2.6038      0.0804      2.8023     22.8891    114.1553
  1340.5000      8.1821      2.6085      0.0999      2.5127     22.6331    110.3250
  1340.6000      8.1821      2.6239      0.0832      1.5848     21.9910    115.2790
  1340.7000      8.1821      2.6410      0.1045      0.5431     21.0962    121.6808
  1340.8000      8.1824      2.6529      0.0862     -0.1732     20.2753    121.6163
  1340.9000      8.1824      2.6632      0.1151     -0.7980     19.8458    116.6579
  1341.0000      8.1750      2.6763      0.1035     -1.5948     19.7715    110.1980
  1341.1000      8.1750      2.6930      0.1225     -2.6082     19.6456    103.5811
  1341.2000      8.1750      2.7085      0.1103     -3.5441     19.2820     98.8722
  1341.3000      8.1570      2.7159      0.1014     -3.9958     19.0212     95.1696
  1341.4000      8.1570      2.7160      0.0663     -4.0005     18.9524     90.1527
  1341.5000      8.1409      2.7154      0.0555     -3.9662     18.6276     82.6652
  1341.6000      8.1409      2.7142      0.0569     -3.8917     17.8706     75.4192
  1341.7000      8.1409      2.7084      0.0643     -3.5369     17.0720     72.6662
  1341.8000      8.1357      2.6979      0.0388     -2.9050     16.5857     72.2093
  1341.9000      8.1357      2.6849      0.0166     -2.1168     16.4450     69.5616
  1342.0000      8.1359      2.6675      0.0260     -1.0587     16.5320     66.1448
  1342.1000      8.1359      2.6460     -0.0066      0.2395     16.7403     66.1758
  1342.2000      8.1359      2.6367      0.0105      0.8063     16.9329     71.2761
  1342.3000      8.1374      2.6493      0.0074      0.0412     16.8892     77.4930
  1342.4000      8.1374      2.6702      0.0263     -1.2222     16.8661     79.1088
  1342.5000      8.1380      2.6713      0.0912     -1.2900     17.3179     77.2810
  1342.6000      8.1380      2.6390      0.0152      0.6648     17.8587     79.1151
  1342.7000      8.1380      2.5914      0.0222      3.5501     17.9137     86.5305
  1342.8000      8.1363      2.5461     -0.0089      6.2948     17.9209     93.6497
  1342.9000      8.1363      2.5104     -0.0183      8.4600     18.4099     93.3954
  1343.0000      8.1340      2.4972     -0.0262      9.2601     19.0594     85.0669
  1343.1000      8.1340      2.5149     -0.0225      8.1863     19.3455     75.7156
  1343.2000      8.1340      2.5458      0.0475      6.3160     19.3404     71.8986
  1343.3000      8.1334      2.5548      0.0595      5.7687     19.3466     74.0649
  1343.4000      8.1334      2.5298      0.0485      7.2850     19.4423     79.5832
  1343.5000      8.1345      2.4975     -0.0070      9.2436     19.6456     86.0532
  1343.6000      8.1345      2.4826      0.0210     10.1442     19.8572     91.3013
  1343.7000      8.1345      2.4775      0.0292     10.4571     19.9006     93.3750
  1343.8000      8.1393      2.4756      0.0228     10.5687     19.7927     95.4744
  1343.9000      8.1393      2.4864      0.0243      9.9129     19.7947    102.3687
  1344.0000      8.1398      2.5051      0.0806      8.7817     20.2373    110.4657
  1344.1000      8.1398      2.5130      0.1024      8.3013     20.7825    113.1659
  1344.2000      8.1398      2.5104      0.0391      8.4584     20.9942    110.8924
  1344.3000      8.1264      2.5134      0.1054      8.2777     20.9577    105.6023
