~Version Information
VERS.                      2.0: CWLS Log ASCII Standard - VERSION 2.0
WRAP.                       NO: One line per depth step
~Well Information Block
STRT.FT               899.1000: 
STOP.FT              2501.5000: 
STEP.FT                 0.1000: 
NULL.                -999.2500: 
COMP.          Petrogulf Corporation: COMPANY
WELL.           Deremer 17-21V: WELL
FLD.           Purgatorie River: FIELD
LOC.           851' FNL & 963' FWL: LOCATION
CNTY.               Las Animas: COUNTY
SRVC.                         : SERVICE COMPANY
DATE.          Tue Nov 18 09:12:06 2003: LOG DATE
UWI.                          : UNIQUE WELL ID
STAT.                 Colorado: STATE
~Curve Information Block
DEPT.FT            0 000 00 00: Depth
DPOR.pu                       : CDL Density Porosity
NEU.NAPI                      : Neutron
NPOR.pu                       : Neutron Porosity
RHOB.g/cc                     : CDL Bulk Density
RHOC.g/cc                     : CDL Density Correction
GR.GAPI                       : Gamma Ray
DCAL.in                       : CDL Caliper
~Parameter Information Block
~A  Depth       DPOR        NEU         NPOR        RHOB        RHOC         GR         DCAL    
# ...
  2075.1000      5.4151   1266.7678     19.1608      2.5607      0.0984     54.5566      7.8514
  2075.2000      5.4066   1272.3474     18.9081      2.5608      0.0667     62.1412      7.8514
  2075.3000      5.4096   1282.0621     18.4669      2.5607      0.0969     68.0797      7.8468
  2075.4000      4.8762   1283.3137     18.4099      2.5695      0.0459     72.9257      7.8468
  2075.5000      4.4287   1275.9672     18.7439      2.5769      0.1484     76.5725      7.8291
  2075.6000      4.7502   1266.1715     19.1878      2.5716      0.0825     76.0770      7.8291
  2075.7000      5.1014   1254.5222     19.7135      2.5658      0.0774     72.4837      7.8291
  2075.8000      4.7860   1245.5415     20.1172      2.5710      0.1061     66.4882      7.8139
  2075.9000      4.4324   1247.6517     20.0225      2.5769      0.0787     58.8547      7.8139
  2076.0000      4.4972   1259.0251     19.5105      2.5758      0.0293     55.3233      7.8124
  2076.1000      5.0780   1267.6278     19.1219      2.5662      0.0726     57.4825      7.8124
  2076.2000      6.0863   1268.2439     19.0940      2.5496      0.0452     61.2654      7.8124
  2076.3000      7.1775   1266.2826     19.1828      2.5316      0.0755     64.1987      7.8258
  2076.4000      8.2851   1263.2483     19.3199      2.5133      0.0100     65.0776      7.8258
  2076.5000      9.2991   1257.1097     19.5969      2.4966      0.0369     64.4225      7.8422
  2076.6000      9.6468   1246.7279     20.0639      2.4908      0.0013     64.5420      7.8422
  2076.7000      9.0578   1234.7968     20.5985      2.5005      0.0473     64.2640      7.8422
  2076.8000      8.2475   1230.2152     20.8032      2.5139      0.0490     61.7419      7.8518
  2076.9000      8.3259   1235.2610     20.5777      2.5126      0.0838     58.9519      7.8518
  2077.0000      9.6631   1241.9823     20.2768      2.4906      0.0747     57.7977      7.8501
  2077.1000     10.4930   1245.0986     20.1371      2.4769     -0.0032     58.1389      7.8501
  2077.2000      9.0802   1250.7177     19.8847      2.5002      0.0838     59.4266      7.8501
  2077.3000      7.0535   1261.2244     19.4113      2.5336      0.1324     61.6120      7.8406
  2077.4000      6.5236   1267.8228     19.1131      2.5424      0.0673     63.5837      7.8406
  2077.5000      7.0139   1264.3479     19.2702      2.5343      0.0460     64.8113      7.8372
  2077.6000      7.1924   1249.4468     19.9418      2.5313      0.0147     68.1714      7.8372
  2077.7000      6.8298   1225.5046     21.0132      2.5373      0.1025     74.1510      7.8372
  2077.8000      7.1860   1204.1552     21.9612      2.5314      0.1335     78.0768      7.8353
  2077.9000      8.5806   1202.0524     22.0542      2.5084      0.0175     76.9084      7.8353
  2078.0000      9.6418   1221.9854     21.1700      2.4909      0.0511     72.6263      7.8223
  2078.1000      9.5664   1245.0603     20.1388      2.4922     -0.0088     69.3232      7.8223
  2078.2000      8.5244   1252.7273     19.7943      2.5093      0.0695     68.8328      7.8223
  2078.3000      7.2545   1243.1576     20.2241      2.5303      0.0630     69.3260      7.8040
  2078.4000      6.2670   1227.8704     20.9078      2.5466      0.0597     67.9318      7.8040
  2078.5000      5.7690   1219.6276     21.2749      2.5548      0.1489     64.4707      7.7984
  2078.6000      5.8405   1220.2656     21.2465      2.5536      0.0714     62.1450      7.7984
  2078.7000      5.4562   1227.6058     20.9196      2.5600      0.0831     62.8850      7.7984
  2078.8000      3.8100   1242.7174     20.2439      2.5871      0.1208     65.2103      7.8096
  2078.9000      2.1438   1258.1508     19.5500      2.6146      0.2220     66.1773      7.8096
  2079.0000      2.5884   1261.2181     19.4116      2.6073      0.2182     64.0802      7.8170
  2079.1000      5.4244   1252.7839     19.7917      2.5605      0.1150     60.3906      7.8170
  2079.2000      8.5414   1241.8842     20.2812      2.5091      0.0537     58.7702      7.8170
  2079.3000     10.2712   1229.7587     20.8235      2.4805      0.0406     58.7375      7.8091
  2079.4000     10.7319   1211.6903     21.6274      2.4729     -0.0452     59.2043      7.8091
  2079.5000     10.3316   1190.2485     22.5750      2.4795     -0.0135     60.5767      7.8217
  2079.6000      9.0541   1166.0765     23.6357      2.5006     -0.0130     60.5122      7.8217
  2079.7000      6.9156   1119.5289     25.6577      2.5359      0.0422     57.1518      7.8217
  2079.8000      4.8314   1042.3671     28.9603      2.5703      0.1192     55.3540      7.8455
  2079.9000      4.0980    959.6017     32.4545      2.5824      0.1996     60.4458      7.8455
  2080.0000      4.5555    900.5405     34.9309      2.5748      0.1122     67.4647      7.8429
  2080.1000      4.6334    869.7645     36.2191      2.5735      0.1127     70.2153      7.8429
  2080.2000      3.6781    838.7460     37.5178      2.5893      0.1530     69.7191      7.8429
  2080.3000      2.5104    787.2885     39.6762      2.6086      0.1670     69.7147      7.8151
  2080.4000      1.6005    736.7285     41.8068      2.6236      0.0809     69.7171      7.8151
  2080.5000     -0.2744    711.2971     42.8841      2.6545      0.0579     67.8795      7.8047
  2080.6000     -4.4540    712.1466     42.8480      2.7235      0.1119     66.4475      7.8047
  2080.7000    -10.7798    735.5167     41.8581      2.8279      0.1245     64.5726      7.8047
  2080.8000    -18.4350    786.9667     39.6897      2.9542      0.1520     59.5035      7.8262
  2080.9000    -25.8888    859.1526     36.6633      3.0772      0.2267     52.1466      7.8262
  2081.0000    -30.5948    924.2515     33.9377      3.1548      0.2339     44.5983      7.8502
  2081.1000    -32.6967    972.5328     31.9109      3.1895      0.1131     40.3940      7.8502
  2081.2000    -35.6784   1023.0757     29.7784      3.2387      0.0884     38.9566      7.8502
  2081.3000    -39.7198   1086.6334     27.0724      3.3054      0.1337     37.1032      7.8603
  2081.4000    -40.4209   1143.9517     24.6000      3.3169      0.0249     37.1698      7.8603
  2081.5000    -35.3764   1175.3826     23.2283      3.2337     -0.0775     40.0502      7.8469
  2081.6000    -27.1359   1187.2081     22.7089      3.0977     -0.1754     43.6283      7.8469
  2081.7000    -19.0015   1199.1492     22.1825      2.9635     -0.2761     48.0064      7.8469
  2081.8000    -11.8386   1216.5676     21.4109      2.8453     -0.1800     53.9441      7.8131
  2081.9000     -5.5808   1228.3607     20.8859      2.7421     -0.1828     61.2510      7.8131
  2082.0000     -1.6218   1232.7875     20.6883      2.6768     -0.2438     68.3889      7.7912
  2082.1000      0.0476   1240.2341     20.3552      2.6492     -0.0267     72.7648      7.7912
  2082.2000      2.2335   1249.5648     19.9365      2.6131     -0.0703     73.4307      7.7912
  2082.3000      5.2135   1251.1378     19.8658      2.5640     -0.0484     73.7328      7.7905
  2082.4000      7.1676   1247.7456     20.0182      2.5317      0.0974     77.5194      7.7905
  2082.5000      8.1357   1241.3749     20.3041      2.5158      0.1059     83.6826      7.8077
  2082.6000      8.4037   1224.7096     21.0487      2.5113      0.0742     90.0346      7.8077
  2082.7000      7.0526   1200.0128     22.1443      2.5336      0.0321     94.8052      7.8077
  2082.8000      4.1432   1182.7405     22.9054      2.5816      0.1239     95.2174      7.8405
  2082.9000      1.5584   1178.5896     23.0876      2.6243      0.2142     91.5662      7.8405
  2083.0000      1.1917   1177.5160     23.1347      2.6303      0.1496     87.4717      7.8596
  2083.1000      3.2041   1175.8651     23.2071      2.5971      0.1813     85.1586      7.8596
  2083.2000      6.5192   1178.8563     23.0759      2.5424      0.1051     85.6572      7.8596
  2083.3000      9.5376   1183.8140     22.8582      2.4926      0.0918     90.5074      7.8497
  2083.4000     10.8323   1182.4261     22.9192      2.4713      0.0679     95.2152      7.8497
