~Version Information
VERS.                      2.0: CWLS Log ASCII Standard - VERSION 2.0
WRAP.                       NO: One line per depth step
~Well Information Block
STRT.FT               588.6000: 
STOP.FT              2281.0000: 
STEP.FT                 0.1000: 
NULL.                -999.2500: 
COMP.          Petrogulf Corporation: COMPANY
WELL.             State 16-41V: WELL
FLD.           Purgatorie River: FIELD
LOC.           335' FNL & 823' FEL: LOCATION
CNTY.               Las Animas: COUNTY
SRVC.                         : SERVICE COMPANY
DATE.          Tue Aug 02 07:31:25 2005: LOG DATE
UWI.                          : UNIQUE WELL ID
STAT.                 Colorado: STATE
~Curve Information Block
DEPT.FT            0 000 00 00: Depth
DCAL.in                       : CDL Caliper
RHOB.g/cc                     : CDL Bulk Density
RHOC.g/cc                     : CDL Density Correction
DPOR.pu                       : CDL Density Porosity
GR.GAPI                       : Gamma Ray
NPOR.pu                       : Neutron Porosity
~Parameter Information Block
~A  Depth       DCAL        RHOB        RHOC        DPOR         GR         NPOR    
# ...
  2134.2000      7.9608      2.5461     -0.0049      6.2967     76.0894     58.7006
  2134.3000      7.9697      2.5665      0.0429      5.0608     79.8099     58.7936
  2134.4000      7.9697      2.5718      0.0506      4.7416     80.2225     58.8886
  2134.5000      7.9954      2.5575      0.0752      5.6085     78.9285     58.9826
  2134.6000      7.9954      2.5378      0.0473      6.7993     80.6358     59.0719
  2134.7000      7.9954      2.5225      0.0780      7.7295     83.1546     59.1524
  2134.8000      8.0022      2.5091      0.0682      8.5391     82.4759     59.2200
  2134.9000      8.0022      2.4948      0.0930      9.4087     79.9843     59.2706
  2135.0000      8.0163      2.4802      0.0562     10.2935     78.0486     59.3008
  2135.1000      8.0163      2.4726      0.0247     10.7485     77.8949     59.3076
  2135.2000      8.0163      2.4888     -0.0071      9.7722     79.2389     59.2894
  2135.3000      8.0119      2.5350      0.0814      6.9724     79.2843     59.2456
  2135.4000      8.0119      2.5822      0.1350      4.1075     76.9540     59.1770
  2135.5000      8.0567      2.6001      0.1025      3.0216     73.3080     59.0856
  2135.6000      8.0567      2.5990      0.0925      3.0929     69.7471     58.9749
  2135.7000      8.0567      2.5999      0.1046      3.0353     67.0653     58.8493
  2135.8000      8.0355      2.6073      0.0787      2.5905     63.6877     58.7141
  2135.9000      8.0355      2.6228      0.0877      1.6470     59.2824     58.5751
  2136.0000      7.9297      2.6444      0.1087      0.3398     56.2893     58.4386
  2136.1000      7.9297      2.6569      0.1115     -0.4209     55.9364     58.3106
  2136.2000      7.9297      2.6548      0.0878     -0.2916     56.4262     58.1970
  2136.3000      7.8793      2.6522      0.0649     -0.1358     56.3077     58.1029
  2136.4000      7.8793      2.6528      0.1196     -0.1719     57.1802     58.0321
  2136.5000      7.9078      2.6423      0.0773      0.4638     59.5172     57.9872
  2136.6000      7.9078      2.6198      0.0509      1.8318     61.7358     57.9686
  2136.7000      7.9078      2.5917      0.0591      3.5351     63.5047     57.9749
  2136.8000      7.9673      2.5673     -0.0154      5.0151     65.3432     58.0032
  2136.9000      7.9673      2.5653      0.0132      5.1324     67.8474     58.0487
  2137.0000      7.9643      2.5836      0.0821      4.0214     70.4449     58.1062
  2137.1000      7.9643      2.5981      0.0900      3.1431     71.8558     58.1703
  2137.2000      7.9643      2.5971      0.0985      3.2073     72.3611     58.2363
  2137.3000      7.9769      2.5832      0.1501      4.0458     72.5281     58.3008
  2137.4000      7.9769      2.5649      0.1093      5.1587     72.8590     58.3616
  2137.5000      7.9583      2.5545      0.1069      5.7858     74.3485     58.4180
  2137.6000      7.9583      2.5552      0.1232      5.7476     76.5911     58.4706
  2137.7000      7.9583      2.5581      0.1057      5.5687     78.0275     58.5203
  2137.8000      7.9520      2.5602      0.0880      5.4439     78.0403     58.5683
  2137.9000      7.9520      2.5628      0.0867      5.2836     76.1103     58.6156
  2138.0000      7.9885      2.5663      0.0550      5.0723     72.7426     58.6624
  2138.1000      7.9885      2.5720      0.0803      4.7285     72.3115     58.7083
  2138.2000      7.9885      2.5718      0.1241      4.7420     75.5174     58.7522
  2138.3000      7.9702      2.5580      0.0759      5.5768     76.7343     58.7929
  2138.4000      7.9702      2.5435      0.0453      6.4527     75.2088     58.8289
  2138.5000      7.9498      2.5404      0.0728      6.6441     75.4260     58.8593
  2138.6000      7.9498      2.5388      0.0712      6.7410     78.1893     58.8832
  2138.7000      7.9498      2.5301      0.0804      7.2677     80.6721     58.9004
  2138.8000      7.9790      2.5264      0.0620      7.4917     81.8331     58.9107
  2138.9000      7.9790      2.5368      0.1281      6.8603     82.4037     58.9141
  2139.0000      8.0346      2.5465      0.1480      6.2730     82.4183     58.9106
  2139.1000      8.0346      2.5471      0.0799      6.2364     82.9040     58.8995
  2139.2000      8.0346      2.5518      0.1280      5.9511     84.2923     58.8800
  2139.3000      8.0379      2.5674      0.0938      5.0047     84.2218     58.8510
  2139.4000      8.0379      2.5857      0.1294      3.8958     81.6175     58.8111
  2139.5000      8.0162      2.5959      0.1452      3.2801     78.8046     58.7593
  2139.6000      8.0162      2.5985      0.1424      3.1219     76.5419     58.6948
  2139.7000      8.0162      2.5980      0.1155      3.1490     72.3192     58.6175
  2139.8000      7.9865      2.5904      0.1134      3.6125     66.4392     58.5280
  2139.9000      7.9865      2.5716      0.0911      4.7488     63.3766     58.4279
  2140.0000      7.9610      2.5495      0.0809      6.0885     63.7610     58.3194
  2140.1000      7.9610      2.5415      0.0382      6.5780     63.6308     58.2054
  2140.2000      7.9610      2.5587      0.0431      5.5314     61.5004     58.0892
  2140.3000      7.9892      2.5879      0.1112      3.7658     59.7819     57.9742
  2140.4000      7.9892      2.6052      0.1143      2.7140     59.7351     57.8638
  2140.5000      8.0124      2.6035      0.0948      2.8176     59.0937     57.7609
  2140.6000      8.0124      2.5912      0.0715      3.5631     56.6342     57.6679
  2140.7000      8.0124      2.5858      0.0368      3.8893     54.8915     57.5868
  2140.8000      8.0012      2.5972      0.0817      3.1978     56.6095     57.5190
  2140.9000      8.0012      2.6089      0.0533      2.4933     62.2244     57.4656
  2141.0000      7.9838      2.6028      0.0807      2.8628     67.2570     57.4272
  2141.1000      7.9838      2.5890      0.0487      3.6950     66.0328     57.4046
  2141.2000      7.9838      2.5884      0.0180      3.7330     60.2356     57.3984
  2141.3000      7.9887      2.5973      0.1048      3.1960     56.1719     57.4094
  2141.4000      7.9887      2.5999      0.0419      3.0379     55.5975     57.4380
  2141.5000      7.9764      2.6013      0.0437      2.9523     55.5272     57.4850
  2141.6000      7.9764      2.6050      0.0827      2.7258     54.7540     57.5506
  2141.7000      7.9764      2.5993      0.0662      3.0734     54.3447     57.6349
  2141.8000      7.9780      2.5800      0.0469      4.2417     55.0192     57.7379
  2141.9000      7.9780      2.5590      0.0479      5.5177     57.6265     57.8587
  2142.0000      7.9601      2.5499      0.0136      6.0681     61.9744     57.9963
  2142.1000      7.9601      2.5500      0.0440      6.0611     66.2596     58.1486
  2142.2000      7.9601      2.5463      0.0506      6.2860     70.2731     58.3130
  2142.3000      7.9833      2.5386      0.0087      6.7529     75.2603     58.4859
  2142.4000      7.9833      2.5371      0.0008      6.8402     80.5693     58.6628
  2142.5000      7.9846      2.5406      0.0403      6.6288     84.4104     58.8387
  2142.6000      7.9846      2.5366      0.1021      6.8745     87.8856     59.0082
  2142.7000      7.9846      2.5231      0.0628      7.6939     92.2043     59.1660
  2142.8000      7.9700      2.5188      0.0403      7.9534     95.0115     59.3071
  2142.9000      7.9700      2.5380      0.0834      6.7889     95.8821     59.4272
  2143.0000      7.9875      2.5665      0.1175      5.0622     96.1915     59.5233
  2143.1000      7.9875      2.5850      0.1225      3.9387     95.5712     59.5934
  2143.2000      7.9875      2.5947      0.1537      3.3533     95.3064     59.6369
  2143.3000      8.0058      2.6034      0.1942      2.8227     95.7842     59.6545
  2143.4000      8.0058      2.6138      0.1671      2.1960     94.7032     59.6482
  2143.5000      8.0336      2.6224      0.1706      1.6709     91.9150     59.6208
  2143.6000      8.0336      2.6273      0.1279      1.3732     89.0983     59.5762
  2143.7000      8.0336      2.6351      0.1331      0.9011     87.9008     59.5191
