~Version Information
VERS.                      2.0: CWLS Log ASCII Standard - VERSION 2.0
WRAP.                       NO: One line per depth step
~Well Information Block
STRT.FT               494.2500: 
STOP.FT              1992.0000: 
STEP.FT                 0.2500: 
NULL.                -999.2500: 
COMP.          Petrogulf Corporation: COMPANY
WELL.               Furu 6-23R: WELL
FLD.           Purgatoire River: FIELD
LOC.           2211' FSL & 1780' FWL--: LOCATION
CNTY.               Las Animas: COUNTY
SRVC.                Patterson: SERVICE COMPANY
DATE.          Wed Jun 21 14:57:59 2006: LOG DATE
UWI.           05 071 08266 00: UNIQUE WELL ID
STAT.                 Colorado: STATE
~Curve Information Block
DEPT.FT            0 000 00 00: Depth
GR.GAPI                       : Gamma Ray
RILD.Ohm-m                    : DIL Deep Resistivity
RILM.Ohm-m                    : DIL Medium Resistivity
RLL3.Ohm-m                    : DIL Shallow Resistivity
SP.mV                         : DIL Spontaneous Potential
~Parameter Information Block
~A  Depth        GR         RILD        RILM        RLL3         SP     
# ...
  1586.2500    125.8625     13.2158     12.4144     13.6261     88.2698
  1586.5000    117.6527     13.6155     12.9963     14.7546     88.0624
  1586.7500    112.4070     14.0547     13.7020     16.0882     87.8461
  1587.0000    106.7061     14.5257     14.5119     17.5338     87.6165
  1587.2500    104.6750     15.0281     15.4046     19.0867     87.3654
  1587.5000    103.4918     15.5668     16.3560     20.7526     87.0922
  1587.7500    103.2278     16.1473     17.3394     22.4067     86.8087
  1588.0000    102.7045     16.7689     18.3259     23.7673     86.5385
  1588.2500    101.8230     17.4221     19.2874     24.5910     86.3165
  1588.5000     98.8266     18.0888     20.1985     24.9652     86.1832
  1588.7500     95.4206     18.7446     21.0386     25.4330     86.1621
  1589.0000     88.8795     19.3602     21.7924     26.7532     86.2357
  1589.2500     84.6173     19.9023     22.4477     29.3392     86.3491
  1589.5000     80.2427     20.3374     22.9897     32.7441     86.4497
  1589.7500     79.2856     20.6409     23.3958     35.7154     86.5265
  1590.0000     80.9284     20.8096     23.6370     36.9622     86.6113
  1590.2500     83.8165     20.8661     23.6925     36.0495     86.7433
  1590.5000     89.9571     20.8493     23.5676     33.6135     86.9287
  1590.7500     94.4689     20.7958     23.3011     30.7563     87.1282
  1591.0000    100.3477     20.7229     22.9534     28.2599     87.2850
  1591.2500    103.0375     20.6221     22.5870     26.2904     87.3662
  1591.5000    104.9348     20.4653     22.2499     24.6859     87.3803
  1591.7500    104.9565     20.2193     21.9675     23.3751     87.3573
  1592.0000    103.5750     19.8626     21.7401     22.4872     87.3209
  1592.2500    101.9545     19.3941     21.5410     22.1765     87.2766
  1592.5000     99.1168     18.8296     21.3193     22.4727     87.2176
  1592.7500     97.6177     18.1910     21.0084     23.2624     87.1364
  1593.0000     97.2513     17.4995     20.5421     24.2767     87.0369
  1593.2500     98.6790     16.7766     19.8748     25.0903     86.9413
  1593.5000    103.1228     16.0488     19.0008     25.2771     86.8812
  1593.7500    107.2485     15.3459     17.9605     24.6519     86.8787
  1594.0000    114.7701     14.6942     16.8303     23.3259     86.9333
  1594.2500    120.5096     14.1083     15.6979     21.5161     87.0254
  1594.5000    129.2356     13.5872     14.6391     19.3745     87.1274
  1594.7500    133.9665     13.1178     13.7049     17.0407     87.2163
  1595.0000    137.3138     12.6812     12.9196     14.7904     87.2877
  1595.2500    136.4752     12.2613     12.2839     13.0447     87.3644
  1595.5000    131.2736     11.8491     11.7789     12.2046     87.4946
  1595.7500    126.2953     11.4446     11.3719     12.4111     87.7403
  1596.0000    118.9664     11.0545     11.0238     13.3534     88.1609
  1596.2500    115.3399     10.6894     10.7008     14.3096     88.7866
  1596.5000    112.5274     10.3612     10.3840     14.5497     89.5914
  1596.7500    112.0204     10.0799     10.0738     13.8476     90.4852
  1597.0000    111.9496      9.8528      9.7849     12.5931     91.3409
  1597.2500    111.7197      9.6821      9.5370     11.3933     92.0464
  1597.5000    111.0083      9.5645      9.3458     10.6175     92.5515
  1597.7500    110.7577      9.4908      9.2182     10.2905     92.8796
  1598.0000    111.4474      9.4481      9.1510     10.2619     93.0994
  1598.2500    112.4785      9.4240      9.1331     10.3806     93.2770
  1598.5000    113.8566      9.4106      9.1486     10.5593     93.4400
  1598.7500    114.2923      9.4056      9.1823     10.7642     93.5731
  1599.0000    114.9660      9.4114      9.2235     10.9836     93.6466
  1599.2500    116.3801      9.4306      9.2678     11.1975     93.6534
  1599.5000    120.8128      9.4638      9.3156     11.3671     93.6282
  1599.7500    124.7829      9.5089      9.3690     11.4532     93.6412
  1600.0000    130.0824      9.5629      9.4296     11.4480     93.7684
  1600.2500    131.9109      9.6240      9.4978     11.3856     94.0452
  1600.5000    131.0250      9.6932      9.5740     11.3223     94.4289
  1600.7500    128.2110      9.7729      9.6587     11.3046     94.8076
  1601.0000    122.1356      9.8643      9.7517     11.3496     95.0637
  1601.2500    118.0519      9.9658      9.8519     11.4447     95.1367
  1601.5000    113.8389     10.0726      9.9589     11.5677     95.0356
  1601.7500    113.0207     10.1795     10.0738     11.7110     94.8034
  1602.0000    114.6739     10.2831     10.1991     11.8823     94.4738
  1602.2500    116.8318     10.3840     10.3370     12.0833     94.0537
  1602.5000    119.6720     10.4866     10.4886     12.2978     93.5387
  1602.7500    120.5396     10.5968     10.6537     12.5072     92.9387
  1603.0000    120.2267     10.7200     10.8313     12.7120     92.2862
  1603.2500    119.4230     10.8599     11.0203     12.9335     91.6269
  1603.5000    118.4149     11.0187     11.2190     13.1981     91.0021
  1603.7500    118.3223     11.1965     11.4255     13.5149     90.4337
  1604.0000    119.1021     11.3911     11.6389     13.8625     89.9192
  1604.2500    119.9210     11.5981     11.8599     14.2045     89.4416
  1604.5000    120.9836     11.8130     12.0914     14.5328     88.9849
  1604.7500    121.3142     12.0345     12.3376     14.8979     88.5360
  1605.0000    120.9424     12.2666     12.6033     15.3849     88.0707
  1605.2500    120.0826     12.5174     12.8920     16.0513     87.5553
  1605.5000    118.1592     12.7961     13.2053     16.8719     86.9727
  1605.7500    116.7505     13.1102     13.5424     17.7194     86.3445
  1606.0000    114.7638     13.4638     13.9026     18.4077     85.7139
  1606.2500    113.4913     13.8581     14.2889     18.8104     85.1086
  1606.5000    111.5625     14.2937     14.7121     18.9833     84.5270
  1606.7500    110.3998     14.7732     15.1915     19.1662     83.9528
  1607.0000    109.1099     15.3010     15.7523     19.6471     83.3756
  1607.2500    108.3330     15.8816     16.4193     20.6133     82.7996
  1607.5000    106.2544     16.5180     17.2111     22.0954     82.2415
  1607.7500    103.8080     17.2108     18.1371     24.0074     81.7217
  1608.0000     98.8841     17.9602     19.1998     26.2534     81.2506
  1608.2500     95.4378     18.7656     20.3998     28.9131     80.8210
  1608.5000     90.7959     19.6256     21.7387     32.4560     80.4258
  1608.7500     87.8621     20.5358     23.2180     37.7372     80.1001
  1609.0000     82.8804     21.4870     24.8311     45.4897     79.9466
  1609.2500     79.1330     22.4637     26.5525     55.4857     80.0856
  1609.5000     74.0424     23.4465     28.3299     66.0835     80.5393
  1609.7500     71.9034     24.4173     30.0847     74.7441     81.1577
  1610.0000     71.2717     25.3688     31.7302     79.2895     81.6877
  1610.2500     72.2796     26.3074     33.2019     79.0494     81.9399
  1610.5000     74.6901     27.2432     34.4837     75.1285     81.9060
  1610.7500     76.1296     28.1705     35.6102     69.6734     81.7400
  1611.0000     77.2091     29.0522     36.6443     64.7251     81.6405
  1611.2500     77.0657     29.8192     37.6513     61.4481     81.7299
  1611.5000     75.5552     30.3863     38.6844     60.0587     82.0013
  1611.7500     73.6821     30.6778     39.7747     60.1855     82.3560
  1612.0000     69.7224     30.6551     40.9103     61.3275     82.6908
  1612.2500     66.6640     30.3283     42.0079     63.2799     82.9634
  1612.5000     62.5013     29.7435     42.9024     66.3158     83.1984
  1612.7500     60.6677     28.9555     43.3743     70.9081     83.4527
  1613.0000     59.9227     28.0099     43.2039     77.2149     83.7858
  1613.2500     60.6092     26.9465     42.2266     84.7228     84.2476
  1613.5000     62.6806     25.8115     40.3851     91.9775     84.8718
  1613.7500     64.5930     24.6604     37.7792     96.3674     85.6675
  1614.0000     69.0467     23.5458     34.6729     94.7273     86.6164
