~Version Information
 VERS.                                  2.0 : CWLS LAS VERSION
 WRAP.                                   NO : WRAPING MODE
 SWARE .                  MController 2.6.3 : SOFTWARE VERSION
~Well Information
 WELL.                        Chevron 13-13 : WELL
 COMP.    Pioneer Natural Resources USA Inc : COMPANY
 FLD.                      Purgatoire River : FIELD
 LOC.                NW/SW Sec 13 T32S R66W : LOCATION
 DATE.                         2/10-11/2007 : DATE(S) LOGGED
 SRVC.        Ismay Geological Services Ltd : SERVICE COMPANY
 STAT.                                   CO : STATE
 CNTY.                           Las Animas : COUNTY
 CTRY.                                  USA : COUNTRY
 API.                          05-071-08319 : API NUMBER
 STRT.FT                             985.00 : START DEPTH
 STOP.FT                            2410.00 : STOP DEPTH
 STEP.FT                               1.00 : DEPTH INCREMENT
 NULL.                                -9999 : NULL VALUE
~Curve information
 DEPTH.FT                                   :
 ROP.MIN/FT                                 :
 GAS.UNITS                                  :
~ASCII Log data
# ...
     1485.00         0.27         17.5 
     1486.00         0.23         16.0 
     1487.00         0.25         13.6 
     1488.00         0.23         12.9 
     1489.00         0.20         13.1 
     1490.00         0.27         14.8 
     1491.00         2.37         73.9 
     1492.00         0.65         85.2 
     1493.00         0.60         71.7 
     1494.00         0.40         51.9 
     1495.00         0.37         44.0 
     1496.00         0.30         38.1 
     1497.00         0.30         37.2 
     1498.00         0.23         33.1 
     1499.00         0.27         31.3 
     1500.00         0.23         29.7 
     1501.00         0.25         28.4 
     1502.00         0.23         26.6 
     1503.00         0.23         25.7 
     1504.00         0.27         24.6 
     1505.00         0.27         23.9 
     1506.00         0.23         23.4 
     1507.00         0.23         23.0 
     1508.00         0.23         22.5 
     1509.00         0.23         22.1 
     1510.00         0.23         22.1 
     1511.00         0.20         22.2 
     1512.00         0.23         22.7 
     1513.00         0.23         21.9 
     1514.00         0.23         22.5 
     1515.00         0.23         22.3 
     1516.00         0.25         20.6 
     1517.00         0.23         18.1 
     1518.00         0.20         18.1 
     1519.00         0.27         14.8 
     1520.00         0.20         14.8 
     1521.00         5.42        186.2 
     1522.00         0.55         62.2 
     1523.00         0.90         60.7 
     1524.00         0.57         53.1 
     1525.00         0.33         44.8 
     1526.00         0.90         51.9 
     1527.00         0.17         52.9 
     1528.00         0.25         53.8 
     1529.00         0.30         50.4 
     1530.00         0.17         47.3 
     1531.00         0.17         47.3 
     1532.00         0.23         46.8 
     1533.00         0.23         48.4 
     1534.00         0.20         49.7 
     1535.00         0.20         49.7 
     1536.00         0.17         50.2 
     1537.00         0.27         50.5 
     1538.00         0.27         50.6 
     1539.00         0.27         50.7 
     1540.00         0.23         50.1 
     1541.00         0.30         50.1 
     1542.00         0.25         49.6 
     1543.00         0.27         49.6 
     1544.00         0.20         48.1 
     1545.00         0.27         46.9 
     1546.00         0.27         44.4 
     1547.00         0.23         41.7 
     1548.00         0.23         36.6 
     1549.00         0.23         35.8 
     1550.00         0.17         36.7 
     1551.00         4.58        131.9 
     1552.00         0.22         73.5 
     1553.00         0.17         73.7 
     1554.00         0.17         72.0 
     1555.00         0.40         71.6 
     1556.00         0.40         66.9 
     1557.00         0.43         62.9 
     1558.00         0.27         59.0 
     1559.00         0.30         52.4 
     1560.00         0.30         51.2 
     1561.00         0.23         47.2 
     1562.00         0.33         46.2 
     1563.00         0.35         45.5 
     1564.00         0.30         44.1 
     1565.00         0.30         42.7 
     1566.00         0.27         42.9 
     1567.00         0.30         42.4 
     1568.00         0.27         42.6 
     1569.00         0.27         41.0 
     1570.00         0.30         40.5 
     1571.00         0.33         37.2 
     1572.00         0.23         39.2 
     1573.00         0.23         43.5 
     1574.00         0.27         49.7 
     1575.00         0.17         50.7 
     1576.00         0.25         50.7 
     1577.00         0.27         51.1 
     1578.00         0.27         45.2 
     1579.00         0.27         35.4 
     1580.00         0.40         42.3 
     1581.00         4.75        263.3 
     1582.00         0.58        102.0 
     1583.00         0.30         90.8 
     1584.00         0.23         83.0 
     1585.00         0.27         74.7 
     1586.00         0.27         64.9 
     1587.00         0.33         63.1 
     1588.00         0.27         58.0 
     1589.00         0.17         56.2 
     1590.00         0.20         52.5 
     1591.00         0.17         53.1 
     1592.00         0.20         53.1 
     1593.00         0.17         54.1 
     1594.00         0.17         54.1 
     1595.00         0.23         54.9 
     1596.00         0.45         55.1 
     1597.00         0.27         53.6 
     1598.00         0.20         51.2 
     1599.00         0.27         50.4 
     1600.00         0.37         50.4 
     1601.00         0.27         47.4 
     1602.00         0.20         48.6 
     1603.00         0.30         51.1 
     1604.00         0.23         51.9 
     1605.00         0.20         50.9 
     1606.00         0.33         47.1 
     1607.00         0.27         44.8 
     1608.00         0.23         35.0 
     1609.00         0.25         38.3 
     1610.00         0.40         48.9 
     1611.00         4.05        225.8 
     1612.00         0.87        124.0 
     1613.00         0.37         69.0 
     1614.00         0.20         59.1 
     1615.00         0.23         59.7 
     1616.00         0.17         59.7 
     1617.00         0.17         60.2 
     1618.00         0.25         60.8 
     1619.00         0.33         57.4 
     1620.00         0.27         57.0 
     1621.00         0.27         47.2 
     1622.00         0.30         54.4 
     1623.00         0.23         54.4 
     1624.00         0.20         57.0 
     1625.00         0.17         58.1 
     1626.00         0.17         58.1 
     1627.00         0.27         58.2 
     1628.00         0.23         58.6 
     1629.00         0.23         57.0 
     1630.00         0.20         55.1 
     1631.00         0.28         53.4 
     1632.00         0.57         52.2 
     1633.00         0.23         50.5 
     1634.00         0.27         49.4 
     1635.00         0.27         49.1 
     1636.00         0.20         45.4 
     1637.00         0.23         35.7 
     1638.00         0.23         29.4 
     1639.00         0.20         30.5 
     1640.00         0.27         41.0 
     1641.00         5.27        294.2 
     1642.00         0.43         84.6 
     1643.00         0.43         74.0 
     1644.00         0.10         76.6 
     1645.00         0.63         81.3 
     1646.00         0.47         70.4 
     1647.00         0.58         65.4 
     1648.00         0.23         54.2 
     1649.00         0.20         51.0 
     1650.00         0.27         49.4 
     1651.00         0.23         46.0 
     1652.00         0.23         44.2 
     1653.00         0.23         42.2 
     1654.00         0.23         39.7 
     1655.00         0.20         39.1 
     1656.00         0.17         60.0 
     1657.00         0.20         66.9 
     1658.00         0.23        106.3 
     1659.00         0.17        123.6 
     1660.00         0.13        126.8 
     1661.00         0.12        126.8 
     1662.00         0.17        124.7 
     1663.00         0.20        124.7 
     1664.00         0.20        120.2 
     1665.00         0.27        111.6 
     1666.00         0.27        110.7 
     1667.00         0.27         70.7 
     1668.00         0.27         60.5 
     1669.00         0.23         58.1 
     1670.00         0.27         65.2 
     1671.00         3.55        440.0 
     1672.00         0.70        268.2 
     1673.00         0.52         99.0 
     1674.00         0.43         71.6 
     1675.00         0.30         65.8 
     1676.00         0.33         60.2 
     1677.00         0.33         55.5 
     1678.00         0.30         53.3 
     1679.00         0.23         51.6 
     1680.00         0.33         51.0 
     1681.00         0.33         51.1 
     1682.00         0.33         53.1 
     1683.00         0.32         55.5 
     1684.00         0.27         58.7 
