~Version Information
VERS.                      2.0: CWLS Log ASCII Standard - VERSION 2.0
WRAP.                       NO: One line per depth step
~Well Information Block
STRT.FT               845.0000: 
STOP.FT              2308.2500: 
STEP.FT                 0.2500: 
NULL.                -999.2500: 
COMP.          Pioneer Natural Resources: COMPANY
WELL.             Vector 33-23: WELL
FLD.           Purgatoire River: FIELD
LOC.           1560' FEL & 1988' FSL----: LOCATION
PROV.                 Colorado: PROVINCE
CNTY.               Las Animas: COUNTRY
SRVC.                Patterson: SERVICE COMPANY
DATE.          Sat Mar 26 12:39:07 2005: LOG DATE
UWI.           05 071 08336 00: UNIQUE WELL ID
~Curve Information Block
DEPT.FT            0 000 00 00: Depth
SN.Ohm-m                      : IEL Short Normal
SP.mV                         : IEL Spontaneous Potential
DIR.Ohm-m                     : IEL Induction Resistivity
GR.GAPI                       : Gamma Ray
~Parameter Information Block
~A  Depth        SN          SP         DIR          GR     
# ...
  1716.0000     14.8754   -106.8188     15.9538    128.3013
  1716.2500     15.1977   -106.5613     16.1318    131.4534
  1716.5000     15.5779   -106.2940     16.2215    135.6552
  1716.7500     16.0102   -106.1018     16.2584    138.2146
  1717.0000     16.4826   -106.0662     16.2805    141.7773
  1717.2500     16.9902   -106.2542     16.3279    143.2780
  1717.5000     17.5388   -106.7114     16.4395    142.0323
  1717.7500     18.1476   -107.4574     16.6467    137.8949
  1718.0000     18.8557   -108.4853     16.9696    127.0618
  1718.2500     19.7245   -109.7648     17.4210    118.2111
  1718.5000     20.8283   -111.2470     18.0184    105.8706
  1718.7500     22.2319   -112.8706     18.7961     99.7521
  1719.0000     23.9648   -114.5674     19.8077     94.2249
  1719.2500     26.0009   -116.2673     21.1117     92.0889
  1719.5000     28.2542   -117.9003     22.7427     88.9611
  1719.7500     30.5891   -119.3992     24.6778     86.0848
  1720.0000     32.8454   -120.7008     26.8089     80.6273
  1720.2500     34.8665   -121.7496     28.9423     76.7577
  1720.5000     36.5248   -122.5020     30.8368     71.4666
  1720.7500     37.7410   -122.9334     32.2750     68.6810
  1721.0000     38.4982   -123.0430     33.1330     66.3741
  1721.2500     38.8527   -122.8578     33.4157     66.4904
  1721.5000     38.9275   -122.4313     33.2420     69.4753
  1721.7500     38.8780   -121.8378     32.7898     73.3303
  1722.0000     38.8374   -121.1624     32.2310     81.5842
  1722.2500     38.8685   -120.4892     31.6877     88.1018
  1722.5000     38.9544   -119.8898     31.2239     97.0018
  1722.7500     39.0253   -119.4129     30.8586    100.4278
  1723.0000     39.0051   -119.0777     30.5887     99.2953
  1723.2500     38.8519   -118.8700     30.4051     94.2735
  1723.5000     38.5809   -118.7420     30.2992     82.7612
  1723.7500     38.2569   -118.6163     30.2586     74.5756
  1724.0000     37.9471   -118.3934     30.2561     64.4862
  1724.2500     37.6520   -117.9633     30.2408     59.8209
  1724.5000     37.2576   -117.2188     30.1338     55.2579
  1724.7500     36.5606   -116.0701     29.8305     53.2988
  1725.0000     35.3685   -114.4565     29.2151     52.0028
  1725.2500     33.6145   -112.3548     28.1961     52.6981
  1725.5000     31.4046   -109.7821     26.7562     56.8797
  1725.7500     28.9650   -106.7928     24.9811     62.1119
  1726.0000     26.5309   -103.4712     23.0329     74.1596
  1726.2500     24.2540    -99.9212     21.0840     85.0816
  1726.5000     22.1785    -96.2554     19.2572    104.9090
  1726.7500     20.2799    -92.5846     17.6071    119.1397
  1727.0000     18.5251    -89.0103     16.1346    138.9588
  1727.2500     16.9105    -85.6194     14.8151    149.3607
  1727.5000     15.4610    -82.4814     13.6229    158.7568
  1727.7500     14.2073    -79.6488     12.5461    161.0037
  1728.0000     13.1664    -77.1583     11.5892    161.0244
  1728.2500     12.3377    -75.0338     10.7669    160.9529
  1728.5000     11.7083    -73.2883     10.0953    163.0342
  1728.7500     11.2595    -71.9261      9.5840    165.8569
  1729.0000     10.9691    -70.9425      9.2329    170.5829
  1729.2500     10.8134    -70.3224      9.0343    172.9122
  1729.5000     10.7694    -70.0375      8.9757    173.8219
  1729.7500     10.8197    -70.0425      9.0432    172.2466
  1730.0000     10.9509    -70.2736      9.2230    165.7566
  1730.2500     11.1456    -70.6488      9.5000    158.1850
  1730.5000     11.3720    -71.0714      9.8547    142.2440
  1730.7500     11.5841    -71.4376     10.2596    129.8428
  1731.0000     11.7402    -71.6472     10.6780    112.1064
  1731.2500     11.8289    -71.6144     11.0664    102.8744
  1731.5000     11.8784    -71.2789     11.3816     95.1937
  1731.7500     11.9345    -70.6136     11.5876     94.7211
  1732.0000     12.0171    -69.6285     11.6612    100.7854
  1732.2500     12.0918    -68.3688     11.5928    108.5626
  1732.5000     12.0832    -66.9089     11.3849    123.2530
  1732.7500     11.9212    -65.3421     11.0522    133.1444
  1733.0000     11.5849    -63.7695     10.6215    145.3440
  1733.2500     11.1116    -62.2878     10.1307    150.9199
  1733.5000     10.5707    -60.9808      9.6242    155.6032
  1733.7500     10.0313    -59.9133      9.1452    156.9696
  1734.0000      9.5443    -59.1299      8.7277    157.8346
  1734.2500      9.1396    -58.6553      8.3929    158.1005
  1734.5000      8.8274    -58.4977      8.1493    157.8165
  1734.7500      8.6022    -58.6516      7.9956    156.8583
  1735.0000      8.4502    -59.1009      7.9247    154.5025
  1735.2500      8.3575    -59.8208      7.9253    152.9251
  1735.5000      8.3142    -60.7791      7.9832    151.3997
  1735.7500      8.3133    -61.9381      8.0813    150.9175
  1736.0000      8.3490    -63.2561      8.2023    150.2239
  1736.2500      8.4153    -64.6893      8.3309    149.3800
  1736.5000      8.5066    -66.1943      8.4563    147.6298
  1736.7500      8.6176    -67.7297      8.5725    146.5821
  1737.0000      8.7413    -69.2576      8.6769    145.9860
  1737.2500      8.8657    -70.7442      8.7679    146.4514
  1737.5000      8.9738    -72.1605      8.8445    148.1295
  1737.7500      9.0516    -73.4815      8.9055    149.2789
  1738.0000      9.0976    -74.6864      8.9504    149.5895
  1738.2500      9.1227    -75.7584      8.9805    148.2557
  1738.5000      9.1396    -76.6839      8.9995    144.2228
  1738.7500      9.1548    -77.4540      9.0141    141.0956
  1739.0000      9.1658    -78.0653      9.0319    137.4515
  1739.2500      9.1638    -78.5221      9.0589    136.1058
  1739.5000      9.1369    -78.8389      9.0971    135.2813
  1739.7500      9.0752    -79.0416      9.1437    135.1928
  1740.0000      8.9781    -79.1683      9.1912    135.5736
  1740.2500      8.8611    -79.2666      9.2296    135.9761
  1740.5000      8.7547    -79.3890      9.2502    135.9836
  1740.7500      8.6926    -79.5865      9.2483    135.3732
  1741.0000      8.6966    -79.9015      9.2238    134.6674
  1741.2500      8.7669    -80.3613      9.1787    135.4398
  1741.5000      8.8849    -80.9752      9.1150    139.0611
  1741.7500      9.0206    -81.7334      9.0335    142.2885
  1742.0000      9.1389    -82.6098      8.9354    146.2114
  1742.2500      9.2055    -83.5673      8.8240    147.4837
  1742.5000      9.1953    -84.5633      8.7038    147.6315
  1742.7500      9.0971    -85.5560      8.5788    147.3648
  1743.0000      8.9157    -86.5093      8.4506    148.1555
  1743.2500      8.6709    -87.3958      8.3185    150.1384
  1743.5000      8.3957    -88.1992      8.1819    154.7645
  1743.7500      8.1308    -88.9140      8.0435    157.5902
  1744.0000      7.9159    -89.5442      7.9104    158.7747
  1744.2500      7.7841    -90.0998      7.7939    156.8161
  1744.5000      7.7599    -90.5914      7.7071    150.4532
  1744.7500      7.8589    -91.0250      7.6627    144.9330
  1745.0000      8.0872    -91.3943      7.6719    136.6172
  1745.2500      8.4366    -91.6763      7.7431    132.0531
  1745.5000      8.8728    -91.8274      7.8803    127.6383
  1745.7500      9.3231    -91.7833      8.0809    126.0368
  1746.0000      9.6801    -91.4630      8.3342    124.0370
  1746.2500      9.8335    -90.7768      8.6211    122.1201
  1746.5000      9.7238    -89.6368      8.9167    117.9234
  1746.7500      9.3846    -87.9714      9.1943    114.4794
  1747.0000      8.9414    -85.7382      9.4307    109.3757
  1747.2500      8.5578    -82.9371      9.6094    107.0005
  1747.5000      8.3562    -79.6172      9.7214    106.5908
  1747.7500      8.3657    -75.8783      9.7631    108.5776
  1748.0000      8.5300    -71.8630      9.7337    113.5543
  1748.2500      8.7608    -67.7422      9.6349    117.1741
  1748.5000      8.9875    -63.6944      9.4723    122.3275
  1748.7500      9.1726    -59.8842      9.2566    125.6235
  1749.0000      9.2976    -56.4432      9.0035    130.0497
  1749.2500      9.3489    -53.4576      8.7300    132.2139
