~Version Information
 VERS.                                  2.0 : CWLS LAS VERSION
 WRAP.                                   NO : WRAPING MODE
 SWARE .                 MController 2.5.0J : SOFTWARE VERSION
~Well Information
 WELL.                      Victory 12-14Tr : WELL
 COMP.    Pioneer Natural Resources USA Inc : COMPANY
 FLD.                      Purgatoire River : FIELD
 LOC.                SW/NW Sec 14 T32S R66W : LOCATION
 DATE.                           7/16-17/05 : DATE(S) LOGGED
 SRVC.       BLANCO Geological Services LLC : SERVICE COMPANY
 STAT.                                   CO : STATE
 CNTY.                           Las Animas : COUNTY
 CTRY.                                  USA : COUNTRY
 API.                       05-071-08433-00 : API NUMBER
 STRT.FT                             797.00 : START DEPTH
 STOP.FT                            1900.00 : STOP DEPTH
 STEP.FT                               1.00 : DEPTH INCREMENT
 NULL.                                -9999 : NULL VALUE
~Curve information
 DEPTH.FT                                   :
 ROP.MIN/FT                                 :
 GAS.UNITS                                  :
~ASCII Log data
# ...
      1397.0         0.23        107.7 
      1398.0         0.22        107.9 
      1399.0         0.20        108.0 
      1400.0         0.23        108.7 
      1401.0         0.20        108.7 
      1402.0         0.20        103.9 
      1403.0         0.20         96.3 
      1404.0         0.23         94.1 
      1405.0         0.83         86.3 
      1406.0         1.28        218.8 
      1407.0         0.33        237.7 
      1408.0         0.50        225.9 
      1409.0         0.23        194.9 
      1410.0         0.27        170.0 
      1411.0         0.30        144.8 
      1412.0         0.27        143.7 
      1413.0         0.27        144.2 
      1414.0         0.30        143.3 
      1415.0         0.30        140.5 
      1416.0         0.23        136.6 
      1417.0         0.32        130.8 
      1418.0         0.23        122.2 
      1419.0         0.23        120.2 
      1420.0         0.23        109.7 
      1421.0         0.20        104.1 
      1422.0         0.20        100.0 
      1423.0         0.17         98.7 
      1424.0         0.20         98.4 
      1425.0         0.20         98.5 
      1426.0         0.17         99.3 
      1427.0         0.20        100.1 
      1428.0         0.20        100.6 
      1429.0         0.20        101.1 
      1430.0         0.17        101.1 
      1431.0         0.23        101.5 
      1432.0         0.17        101.5 
      1433.0         0.22         98.4 
      1434.0         0.20         88.3 
      1435.0         0.17         87.1 
      1436.0         1.67        200.8 
      1437.0         0.27        207.9 
      1438.0         0.17        207.9 
      1439.0         0.20        218.9 
      1440.0         0.23        232.8 
      1441.0         0.42        234.2 
      1442.0         0.60        208.4 
      1443.0         0.50        172.3 
      1444.0         0.47        153.0 
      1445.0         0.43        148.4 
      1446.0         0.40        140.3 
      1447.0         0.40        133.5 
      1448.0         0.47        123.9 
      1449.0         0.45        111.9 
      1450.0         0.47        105.6 
      1451.0         0.43        105.7 
      1452.0         0.30        109.2 
      1453.0         0.17        112.2 
      1454.0         0.23        114.1 
      1455.0         0.27        114.9 
      1456.0         0.27        114.7 
      1457.0         0.23        111.9 
      1458.0         0.20        111.9 
      1459.0         0.23        112.0 
      1460.0         0.22        107.1 
      1461.0         0.20        105.5 
      1462.0         0.23        104.1 
      1463.0         0.10        104.1 
      1464.0         0.10        104.1 
      1465.0         0.17        101.0 
      1466.0         1.30         91.3 
      1467.0         0.50        144.6 
      1468.0         0.40        193.7 
      1469.0         0.07        193.7 
      1470.0         0.25        234.4 
      1471.0         0.50        251.7 
      1472.0         0.30        241.7 
      1473.0         0.30        210.0 
      1474.0         0.53        146.5 
      1475.0         0.30        146.7 
      1476.0         0.30        148.8 
      1477.0         0.30        148.4 
      1478.0         0.27        146.4 
      1479.0         0.27        137.3 
      1480.0         0.25        132.5 
      1481.0         0.23        129.1 
      1482.0         0.23        128.7 
      1483.0         0.20        120.9 
      1484.0         0.27        118.2 
      1485.0         0.20        115.4 
      1486.0         0.27        113.1 
      1487.0         0.20        109.2 
      1488.0         0.27        108.2 
      1489.0         0.23        107.2 
      1490.0         0.23        105.3 
      1491.0         0.27        101.1 
      1492.0         0.17         98.6 
      1493.0         0.27         99.9 
      1494.0         0.13         99.9 
      1495.0         0.22        101.6 
      1496.0         3.25        211.9 
      1497.0         0.13        211.9 
      1498.0         0.37        215.7 
      1499.0         0.33        215.0 
      1500.0         0.27        179.2 
      1501.0         0.30        167.3 
      1502.0         0.27        150.5 
      1503.0         0.27        148.1 
      1504.0         0.30        144.4 
      1505.0         0.27        140.8 
      1506.0         0.30        138.1 
      1507.0         0.23        128.5 
      1508.0         0.25        123.3 
      1509.0         0.27        119.7 
      1510.0         0.20        113.2 
      1511.0         0.23        109.8 
      1512.0         0.23        108.0 
      1513.0         0.13         99.4 
      1514.0         0.10         97.1 
      1515.0         0.13         97.2 
      1516.0         0.10        102.7 
      1517.0         0.10        102.7 
      1518.0         0.10        102.7 
      1519.0         0.17        107.2 
      1520.0         0.17        111.1 
      1521.0         0.27        110.8 
      1522.0         0.20        103.2 
      1523.0         0.20        103.2 
      1524.0         0.20         95.1 
      1525.0         0.17         78.8 
      1526.0         2.35        227.8 
      1527.0         0.40        228.0 
      1528.0         0.40        194.7 
      1529.0         0.27        169.0 
      1530.0         0.28        166.3 
      1531.0         0.27        147.2 
      1532.0         0.23        144.1 
      1533.0         0.17        142.2 
      1534.0         0.20        142.2 
      1535.0         0.27        137.5 
      1536.0         0.30        133.1 
      1537.0         0.23        120.8 
      1538.0         0.13        119.4 
      1539.0         0.13        116.3 
      1540.0         0.10        116.3 
      1541.0         0.27        113.4 
      1542.0         0.27        110.8 
      1543.0         0.27        109.2 
      1544.0         0.20        107.4 
      1545.0         0.23        106.8 
      1546.0         0.22        104.6 
      1547.0         0.27        103.8 
      1548.0         0.23        102.8 
      1549.0         0.17        101.3 
      1550.0         0.13        101.3 
      1551.0         0.23         99.4 
      1552.0         0.17         96.2 
      1553.0         0.17         91.1 
      1554.0         0.20         76.3 
      1555.0         0.17         70.5 
      1556.0         2.12        210.9 
      1557.0         0.27        225.6 
      1558.0         0.37        227.0 
      1559.0         0.30        203.3 
      1560.0         0.27        197.6 
      1561.0         0.27        171.6 
      1562.0         0.30        152.1 
      1563.0         0.30        144.8 
      1564.0         0.23        143.5 
      1565.0         0.13        143.5 
      1566.0         0.28        143.1 
      1567.0         0.30        131.3 
      1568.0         0.30        128.8 
      1569.0         0.30        115.6 
      1570.0         0.30        112.9 
      1571.0         0.30        111.2 
      1572.0         0.27        107.7 
      1573.0         0.27        104.5 
      1574.0         0.23        104.0 
      1575.0         0.23        103.9 
      1576.0         0.23        102.0 
      1577.0         0.17         99.8 
      1578.0         0.13         99.8 
      1579.0         0.17        100.6 
      1580.0         0.12        100.6 
      1581.0         0.13        102.5 
      1582.0         0.23         97.6 
      1583.0         0.20         97.6 
      1584.0         0.20         92.5 
      1585.0         0.20         80.7 
      1586.0         2.35        207.7 
      1587.0         0.27        221.4 
      1588.0         0.27        221.8 
      1589.0         0.27        201.3 
      1590.0         0.23        185.0 
      1591.0         0.23        179.7 
      1592.0         0.27        161.7 
      1593.0         0.27        147.4 
      1594.0         0.30        143.0 
      1595.0         0.23        139.9 
      1596.0         0.27        136.3 
