~Version Information
VERS.                      2.0: CWLS Log ASCII Standard - VERSION 2.0
WRAP.                       NO: One line per depth step
~Well Information Block
STRT.FT               -19.0000: 
STOP.FT              1343.5000: 
STEP.FT                 0.5000: 
NULL.                -999.2500: 
COMP.          Evergreen Operating Corporation: COMPANY
WELL.            Trigger 13-35: WELL
FLD.           Purgatorie River: FIELD
LOC.           2245' FSL & 594' FWL: LOCATION
PROV.                 Colorado: PROVINCE
CNTY.               Las Animas: COUNTRY
SRVC.                         : SERVICE COMPANY
DATE.          Mon Jun 23 12:06:52 2003: LOG DATE
UWI.           05-071-07838-00: UNIQUE WELL ID
~Curve Information Block
DEPT.FT            0 000 00 00: Depth
TT3.usec                      : CBL 3' Travel Time
AMP3.mV                       : CBL 3' Amplitude
GR.GAPI                       : Gamma Ray
CCL.                          : Casing Collar Locator
~Parameter Information Block
~A  Depth       TT3         AMP3         GR         CCL     
# ...
   852.0000    660.4783      3.1291    142.7959      0.0000
   852.5000    630.1368      3.1424    149.9704      0.0000
   853.0000    696.2181      3.1736    147.3808      0.0000
   853.5000    749.4310      3.2111    126.9393      0.0000
   854.0000    774.9489      3.3893    118.4947      0.0000
   854.5000    784.7188      3.7016    141.8432      0.0000
   855.0000    785.3807      3.8960    166.9963      0.0000
   855.5000    768.5259      3.9740    169.9351      0.0000
   856.0000    764.7073      3.9688    167.4376      0.0000
   856.5000    784.4892      3.7464    171.6756      0.0000
   857.0000    790.3370      3.4411    179.1005      0.0000
   857.5000    787.8815      3.0429    176.1888      0.0000
   858.0000    778.2657      2.5710    161.2581      0.0000
   858.5000    757.9335      2.3187    156.4953      0.0000
   859.0000    726.9808      2.2443    162.9383      0.0000
   859.5000    739.0045      2.2202    165.4389      0.0000
   860.0000    717.7133      2.3191    164.7292      0.0000
   860.5000    659.2236      2.3625    169.6907      0.0000
   861.0000    603.5110      2.3786    183.5631      0.0000
   861.5000    622.8978      2.3847    203.1154      0.0000
   862.0000    721.5197      2.2829    203.0581      0.0000
   862.5000    744.1078      2.2059    178.0521      0.0000
   863.0000    677.2062      2.1899    146.4313      0.0000
   863.5000    636.4765      2.2368    115.6332      0.0000
   864.0000    646.8840      2.3646     92.9281      0.0000
   864.5000    654.3774      2.3679     85.8397      0.0000
   865.0000    654.8899      2.4017     94.2554      0.0000
   865.5000    685.3847      2.5305    108.8614      0.0000
   866.0000    707.8522      2.4390    120.3401      0.0000
   866.5000    742.2050      2.0832    131.1663      0.0000
   867.0000    776.1912      2.0359    133.7017      5.0000
   867.5000    771.4713      2.1711    130.4210     -5.0000
   868.0000    810.1146      2.3638    127.5709      0.0000
   868.5000    805.9500      2.5275    127.9079      0.0000
   869.0000    779.6528      2.6563    132.5468      0.0000
   869.5000    745.9502      2.6433    133.6393      0.0000
   870.0000    730.2517      2.6057    132.7778      0.0000
   870.5000    725.6465      2.3893    132.1623      0.0000
   871.0000    705.1089      2.1328    123.4981      0.0000
   871.5000    664.0765      1.9392    110.3272      0.0000
   872.0000    682.6422      1.9749    103.1539      0.0000
   872.5000    739.2360      1.9736    100.9502      0.0000
   873.0000    770.6589      1.9118    100.4398      0.0000
   873.5000    785.2695      1.9732    103.3319      0.0000
   874.0000    788.9594      1.9546    104.4703      0.0000
   874.5000    788.9843      1.9074     99.3942      0.0000
   875.0000    788.3964      1.9192     95.5107      0.0000
   875.5000    788.0457      1.8814     92.1634      0.0000
   876.0000    788.0011      1.8758     86.3261      0.0000
   876.5000    787.9676      1.9288     86.8714      0.0000
   877.0000    786.7081      1.9683     91.4803      0.0000
   877.5000    777.6509      2.0011     91.4476      0.0000
   878.0000    767.1351      1.9635     95.1685      0.0000
   878.5000    767.7652      2.0283    103.7890      0.0000
   879.0000    762.1874      2.0615    102.2825      0.0000
   879.5000    758.0722      2.1120     90.3022      0.0000
   880.0000    757.6097      2.1271     83.9163      0.0000
   880.5000    757.7960      2.0104     81.8147      0.0000
   881.0000    758.8529      1.9794     85.0640      0.0000
   881.5000    768.8732      1.9660     96.0796      0.0000
   882.0000    793.9389      1.9713    104.7856      0.0000
   882.5000    805.4939      2.0160    106.4024      0.0000
   883.0000    803.1281      1.9934     99.7927      0.0000
   883.5000    810.0416      2.0148     94.7539      0.0000
   884.0000    809.8928      1.9529    100.6185      0.0000
   884.5000    784.4473      1.9080    109.9594      0.0000
   885.0000    765.7603      1.9264    112.4979      0.0000
   885.5000    763.1877      1.9747    107.5738      0.0000
   886.0000    762.6969      2.0034    104.9041      0.0000
   886.5000    762.4116      2.0001    107.2991      0.0000
   887.0000    762.5507      2.0233    107.8346      0.0000
   887.5000    762.3375      1.9882    108.4817      0.0000
   888.0000    758.4573      1.9957    109.2705      0.0000
   888.5000    747.8830      1.9465    105.4498      0.0000
   889.0000    744.1580      2.0048    100.6824      0.0000
   889.5000    744.4177      1.9885    101.6976      0.0000
   890.0000    748.0367      1.9337    108.2191      0.0000
   890.5000    752.3002      1.9324    116.0944      0.0000
   891.0000    759.9296      1.8860    120.1462      0.0000
   891.5000    761.6685      1.9500    120.4857      0.0000
   892.0000    751.4009      1.9862    119.7510      0.0000
   892.5000    735.4157      1.9975    114.1707      0.0000
   893.0000    730.4841      1.9455    107.8521      0.0000
   893.5000    730.5923      1.9897    103.0723      0.0000
   894.0000    730.5894      1.9565     99.4582      0.0000
   894.5000    730.1943      1.9141    103.0693      0.0000
   895.0000    730.2795      1.9172    108.1360      0.0000
   895.5000    731.2438      2.0164    109.4900      0.0000
   896.0000    739.5899      2.0766    109.7317      0.0000
   896.5000    734.4536      2.0308    106.6978      0.0000
   897.0000    657.3497      1.9822    103.8822      0.0000
   897.5000    565.9735      1.9395    103.2993      0.0000
   898.0000    506.3772      1.9901    103.9650      0.0000
   898.5000    508.5840      2.0164    108.9433      0.0000
   899.0000    622.3647      2.0761    114.2276      0.0000
   899.5000    708.0538      2.0682    115.4901      0.0000
   900.0000    714.2545      2.0614    115.1160      0.0000
   900.5000    711.6100      1.9414    112.6945      0.0000
   901.0000    724.5341      1.9307    107.6859      0.0000
   901.5000    734.9097      1.9486    100.8432      0.0000
   902.0000    754.0148      1.9771     92.7690      0.0000
   902.5000    761.5463      1.9432     88.5759      0.0000
   903.0000    762.6200      1.9199     92.2451      0.0000
   903.5000    762.9924      1.8861    102.5943      0.0000
   904.0000    763.2664      1.9184    111.8924      0.0000
   904.5000    763.7770      1.9428    115.3036      0.0000
   905.0000    764.6817      1.8990    113.5359      0.0000
   905.5000    762.3751      1.8233    105.7204      0.0000
   906.0000    751.9003      1.8631    102.5162      0.0000
   906.5000    730.9065      1.9500    106.1569      0.0000
   907.0000    720.9520      2.0918    102.2985      0.0000
   907.5000    746.1429      2.3175     98.2016      0.0000
   908.0000    758.1315      2.2607    100.0734      0.0000
   908.5000    753.8530      1.9691    104.4098      0.0000
   909.0000    751.3541      1.7550    110.5574      0.0000
   909.5000    752.2322      1.5010    118.7360      0.0000
   910.0000    730.9222      1.4404    126.4222      0.0000
   910.5000    668.4166      1.5800    131.2003     -5.0000
   911.0000    660.6662      1.6390    134.4026      0.0000
   911.5000    723.4688      1.7029    143.8475      0.0000
   912.0000    758.5737      1.9583    157.9763      0.0000
   912.5000    745.5386      2.1572    171.5155      0.0000
   913.0000    684.8477      2.2077    184.4263      0.0000
   913.5000    637.7015      2.4321    189.6324      0.0000
   914.0000    689.6028      2.5387    188.3232      0.0000
   914.5000    739.0709      2.4939    178.5081      0.0000
   915.0000    759.3603      2.4328    164.7105      0.0000
   915.5000    760.6578      2.4402    156.0722      0.0000
   916.0000    730.6467      2.4382    152.4276      0.0000
   916.5000    660.0725      2.4275    150.9060      0.0000
   917.0000    679.2757      2.4458    154.7017      0.0000
   917.5000    652.4755      2.4434    164.7505      0.0000
   918.0000    548.5546      2.4572    176.0161      0.0000
   918.5000    511.0353      2.4650    187.8419      0.0000
