~Version Information
VERS.                      2.0: CWLS Log ASCII Standard - VERSION 2.0
WRAP.                       NO: One line per depth step
~Well Information Block
STRT.FT                -4.2500: 
STOP.FT              2018.7500: 
STEP.FT                 0.2500: 
NULL.                -999.2500: 
COMP.          Petrogulf Corporation: COMPANY
WELL.             State 16-21R: WELL
FLD.           Purgatoire River: FIELD
LOC.           203' FNL & 1560' FWL----: LOCATION
PROV.                 Colorado: PROVINCE
CNTY.               Las Animas: COUNTRY
SRVC.                         : SERVICE COMPANY
DATE.          Thu Sep 29 11:32:19 2005: LOG DATE
API.           05-071-08313 : API Number
~Curve Information Block
DEPT.FT            0 000 00 00: Depth
GR.GAPI                       : Gamma Ray
CCL.                          : Casing Collar Locator
AMP3.mV                       : CBL 3' Amplitude
AMP5.mV                       : CBL 5' Amplitude
~Parameter Information Block
~A  Depth        GR         CCL         AMP3        AMP5    
# ...
   129.7500     99.8696      0.0000      5.5697      0.6486
   130.0000     98.6771      0.0000      5.5097      0.6072
   130.2500     97.5908      0.0000      5.4692      0.5601
   130.5000     97.9161      0.0000      5.4380      0.5211
   130.7500    100.4302      0.0000      5.4001      0.4915
   131.0000    104.6305      0.0000      5.3553      0.4675
   131.2500    108.7473      0.0000      5.3199      0.4499
   131.5000    110.6716      0.0000      5.3063      0.4427
   131.7500    109.1930      0.0000      5.3090      0.4467
   132.0000    104.6898      0.0000      5.3180      0.4592
   132.2500     98.8291      0.0000      5.3369      0.4782
   132.5000     93.5721      0.0000      5.3783      0.5023
   132.7500     90.1056      0.0000      5.4457      0.5263
   133.0000     88.2490      0.0000      5.5275      0.5404
   133.2500     86.9209      0.0000      5.6059      0.5342
   133.5000     85.6242      0.0000      5.6664      0.5047
   133.7500     85.4118      0.0000      5.7047      0.4620
   134.0000     87.8437      0.0000      5.7296      0.4253
   134.2500     93.0823      0.0000      5.7556      0.4085
   134.5000     99.4434      0.0000      5.7918      0.4121
   134.7500    104.4315      0.0000      5.8291      0.4269
   135.0000    105.8358      0.0000      5.8391      0.4453
   135.2500    102.5527      0.0000      5.7970      0.4661
   135.5000     95.2680      0.0000      5.7134      0.4913
   135.7500     86.3582      0.0000      5.6254      0.5174
   136.0000     78.7423      0.0000      5.5536      0.5340
   136.2500     74.5114      0.0000      5.4892      0.5316
   136.5000     74.2373      1.4041      5.4330      0.5111
   136.7500     77.1452      0.0000      5.4312      0.4809
   137.0000     81.8162      0.0000      5.5694      0.4471
   137.2500     86.9187      0.0000      5.9234      0.4113
   137.5000     91.6088      0.0000      6.4862      0.3772
   137.7500     95.4249      0.0000      7.1241      0.3568
   138.0000     97.8896      0.0000      7.6360      0.3658
   138.2500     98.5033      0.0000      7.8971      0.4145
   138.5000     97.4190      0.0000      7.9394      0.4998
   138.7500     95.8754      0.0000      7.8879      0.6006
   139.0000     95.3915      0.0000      7.8546      0.6874
   139.2500     96.4560      0.0000      7.8992      0.7438
   139.5000     98.2543      0.0000      8.0330      0.7778
   139.7500     99.6419      0.0000      8.2227      0.8076
   140.0000    100.1494      0.0000      8.4034      0.8400
   140.2500    100.0919      0.0000      8.5134      0.8677
   140.5000    100.1601      0.0000      8.5295      0.8832
   140.7500    101.1188      0.0000      8.4694      0.8870
   141.0000    103.4923      0.0000      8.3604      0.8813
   141.2500    107.1666      0.0000      8.2119      0.8632
   141.5000    111.3687      0.0000      8.0258      0.8298
   141.7500    115.0226      0.0000      7.8251      0.7870
   142.0000    117.0389      0.0000      7.6574      0.7498
   142.2500    116.5276      0.0000      7.5672      0.7295
   142.5000    113.2180      0.0000      7.5692      0.7230
   142.7500    107.8933      0.0000      7.6462      0.7176
   143.0000    102.2089      0.0000      7.7615      0.7076
   143.2500     97.7747      0.0000      7.8704      0.7012
   143.5000     95.2548      0.0000      7.9310      0.7097
   143.7500     94.3076      0.0000      7.9168      0.7305
   144.0000     94.2063      0.0000      7.8224      0.7442
   144.2500     94.3611      0.0000      7.6568      0.7294
   144.5000     94.3376      0.0000      7.4323      0.6808
   144.7500     93.7571      0.0000      7.1567      0.6117
   145.0000     92.5404      0.0000      6.8335      0.5425
   145.2500     91.0743      0.0000      6.4710      0.4846
   145.5000     89.6436      0.0000      6.0894      0.4369
   145.7500     87.8034      0.0000      5.7163      0.3929
   146.0000     84.8735      0.0000      5.3756      0.3512
   146.2500     80.9744      0.0000      5.0821      0.3155
   146.5000     77.0931      0.0000      4.8446      0.2866
   146.7500     74.2592      0.0000      4.6702      0.2595
   147.0000     73.1260      0.0000      4.5633      0.2305
   147.2500     74.1154      0.0000      4.5156      0.2034
   147.5000     77.2028      0.0000      4.5016      0.1864
   147.7500     81.3629      0.0000      4.4844      0.1843
   148.0000     84.7433      0.0000      4.4337      0.1937
   148.2500     85.8600      0.0000      4.3449      0.2049
   148.5000     84.7828      0.0000      4.2444      0.2105
   148.7500     83.2199      0.0000      4.1707      0.2110
   149.0000     83.2853      0.0000      4.1419      0.2120
   149.2500     85.7813      0.0000      4.1434      0.2149
   149.5000     89.5868      0.0000      4.1436      0.2134
   149.7500     92.8831      0.0000      4.1161      0.2002
   150.0000     94.8024      0.0000      4.0473      0.1757
   150.2500     95.6956      0.0000      3.9341      0.1466
   150.5000     96.2169      0.0000      3.7842      0.1188
   150.7500     96.5418      0.0000      3.6211      0.0931
   151.0000     96.2595      0.0000      3.4803      0.0681
   151.2500     94.8354      0.0000      3.3939      0.0462
   151.5000     92.3619      0.0000      3.3733      0.0338
   151.7500     89.8704      0.0000      3.4078      0.0370
   152.0000     88.7208      0.0000      3.4767      0.0567
   152.2500     89.5463      0.0000      3.5626      0.0887
   152.5000     91.6742      0.0000      3.6529      0.1256
   152.7500     93.6055      0.0000      3.7334      0.1597
   153.0000     94.3154      0.0000      3.7854      0.1839
   153.2500     94.1615      0.0000      3.7961      0.1927
   153.5000     94.2732      0.0000      3.7716      0.1843
   153.7500     95.0635      0.0000      3.7350      0.1630
   154.0000     95.6810      0.0000      3.7079      0.1398
   154.2500     94.9826      0.0000      3.6946      0.1240
   154.5000     92.7817      0.0000      3.6840      0.1157
   154.7500     89.9303      0.0000      3.6637      0.1063
   155.0000     87.3292      0.0000      3.6326      0.0895
   155.2500     85.3060      0.0000      3.5985      0.0683
   155.5000     84.0666      0.0000      3.5673      0.0526
   155.7500     84.1806      0.0000      3.5384      0.0508
   156.0000     86.1040      0.0000      3.5101      0.0647
   156.2500     89.3559      0.0000      3.4881      0.0899
   156.5000     92.5376      0.0000      3.4881      0.1215
   156.7500     94.2503      0.0000      3.5255      0.1559
   157.0000     93.9932      0.0000      3.6020      0.1909
   157.2500     92.4126      0.0000      3.7097      0.2232
   157.5000     90.8432      0.0000      3.8463      0.2504
   157.7500     90.3661      0.0000      4.0173      0.2725
   158.0000     90.9615      0.0000      4.2203      0.2922
   158.2500     91.5333      0.0000      4.4336      0.3121
   158.5000     90.9048      0.0000      4.6279      0.3319
   158.7500     88.7751      0.0000      4.7905      0.3498
   159.0000     85.7020      0.0000      4.9321      0.3652
   159.2500     82.4852      0.0000      5.0695      0.3809
   159.5000     79.8499      0.0000      5.2048      0.4005
   159.7500     78.3296      0.0000      5.3223      0.4233
   160.0000     77.8717      0.0000      5.4032      0.4428
   160.2500     77.6011      0.0000      5.4392      0.4528
   160.5000     76.3782      0.0000      5.4329      0.4551
   160.7500     73.7311      0.0000      5.3920      0.4580
   161.0000     70.2692      0.0000      5.3250      0.4671
   161.2500     67.2856      0.0000      5.2425      0.4765
   161.5000     65.7894      0.0000      5.1557      0.4733
   161.7500     65.7433      0.0000      5.0732      0.4487
   162.0000     66.5210      0.0000      4.9997      0.4071
   162.2500     68.2070      0.0000      4.9385      0.3639
   162.5000     71.8718      0.0000      4.8930      0.3347
   162.7500     78.1982      0.0000      4.8672      0.3247
   163.0000     86.2352      0.0000      4.8630      0.3292
