~Version Information
 VERS.                      2.0: CWLS Log ASCII Standard - VERSION 2.0
 WRAP.                       NO: One line per depth step
 ~Well Information Block
 STRT.FT               887.5000: 
 STOP.FT              2605.5000: 
 STEP.FT                 0.2500: 
 NULL.                -999.2500: 
 COMP.          Petrogulf Corporation: COMPANY
 WELL.               YWAM 7-23V: WELL
 FLD.           Purgatorie River: FIELD
 LOC.           230' FSL & 225' FWL: LOCATION
 CNTY.               Las Animas: COUNTY
 SRVC.                         : SERVICE COMPANY
 DATE.          Sat Oct 30 08:34:45 2004: LOG DATE
 UWI.           05 071 08227 00: UNIQUE WELL ID
 STAT.                 Colorado: STATE
 PROV.                         :Province
 ~Curve Information Block
 DEPT.FT            0 000 00 00: Depth
 SP.mV                         : DIL Spontaneous Potential
 RILD.Ohm-m                    : DIL Deep Resistivity
 RILM.Ohm-m                    : DIL Medium Resistivity
 RLL3.Ohm-m                    : DIL Shallow Resistivity
 GR.GAPI                       : Gamma Ray
 ~Parameter Information Block
 ~A  Depth        SP         RILD        RILM        RLL3         GR     
# ...
  2567.5000     23.4444      6.9153      7.3099      6.7678    100.6273
  2567.7500     23.3356      6.9807      7.3432      6.6691    101.3769
  2568.0000     23.1889      7.0530      7.4031      6.6587    102.5628
  2568.2500     23.0103      7.1316      7.4936      6.7644    103.6226
  2568.5000     22.8070      7.2156      7.6170      7.0080    105.1280
  2568.7500     22.5868      7.3040      7.7733      7.3994    105.4238
  2569.0000     22.3569      7.3956      7.9599      7.9323    103.9325
  2569.2500     22.1234      7.4890      8.1708      8.5824    101.5676
  2569.5000     21.8913      7.5830      8.3971      9.3076     96.5277
  2569.7500     21.6648      7.6763      8.6268     10.0504     92.7669
  2570.0000     21.4475      7.7674      8.8466     10.7412     87.5879
  2570.2500     21.2423      7.8548      9.0428     11.3052     84.8349
  2570.5000     21.0512      7.9366      9.2035     11.6730     81.9218
  2570.7500     20.8754      8.0102      9.3206     11.7946     80.8455
  2571.0000     20.7146      8.0726      9.3909     11.6534     81.0471
  2571.2500     20.5683      8.1203      9.4160     11.2739     82.7851
  2571.5000     20.4356      8.1495      9.4014     10.7202     87.6671
  2571.7500     20.3167      8.1568      9.3547     10.0821     91.6860
  2572.0000     20.2133      8.1397      9.2840      9.4545     97.4271
  2572.2500     20.1288      8.0971      9.1960      8.9160    100.8145
  2572.5000     20.0683      8.0297      9.0956      8.5147    105.6189
  2572.7500     20.0370      7.9403      8.9855      8.2626    108.6174
  2573.0000     20.0395      7.8333      8.8668      8.1398    111.6727
  2573.2500     20.0782      7.7144      8.7397      8.1052    111.9520
  2573.5000     20.1521      7.5896      8.6043      8.1091    109.6884
  2573.7500     20.2563      7.4645      8.4616      8.1054    107.3157
  2574.0000     20.3821      7.3440      8.3134      8.0611    104.3910
  2574.2500     20.5177      7.2315      8.1629      7.9614    103.4606
  2574.5000     20.6488      7.1290      8.0137      7.8098    103.5178
  2574.7500     20.7606      7.0373      7.8693      7.6239    104.0924
  2575.0000     20.8394      6.9561      7.7330      7.4283    104.8318
  2575.2500     20.8747      6.8845      7.6072      7.2472    104.9240
  2575.5000     20.8601      6.8214      7.4930      7.0987    104.7881
  2575.7500     20.7948      6.7660      7.3909      6.9920    105.0338
  2576.0000     20.6833      6.7180      7.3003      6.9270    106.3591
  2576.2500     20.5347      6.6776      7.2208      6.8951    107.6213
  2576.5000     20.3606      6.6458      7.1516      6.8823    109.4131
  2576.7500     20.1735      6.6240      7.0929      6.8729    110.3784
  2577.0000     19.9848      6.6140      7.0455      6.8531    110.9315
  2577.2500     19.8035      6.6172      7.0110      6.8150    109.4381
  2577.5000     19.6354      6.6350      6.9922      6.7598    100.6678
  2577.7500     19.4833      6.6680      6.9922      6.6986     88.8002
  2578.0000     19.3476      6.7163      7.0146      6.6509     63.3116
  2578.2500     19.2272      6.7791      7.0627      6.6409     44.7022
  2578.5000     19.1198      6.8549      7.1394      6.6913     21.4143
  2578.7500     19.0232      6.9416      7.2469      6.8172     11.2170
  2579.0000     18.9349      7.0364      7.3857      7.0229      3.3077
  2579.2500     18.8534      7.1359      7.5552      7.3011      1.2297
  2579.5000     18.7775      7.2365      7.7523      7.6367      0.2107
  2579.7500     18.7071      7.3341      7.9720      8.0115      0.0528
  2580.0000     18.6430      7.4242      8.2061      8.4064      0.0032
  2580.2500     18.5869      7.5021      8.4436      8.8018   -999.2500
  2580.5000     18.5408      7.5627      8.6706      9.1751   -999.2500
  2580.7500     18.5069      7.6010      8.8708      9.4994   -999.2500
  2581.0000     18.4870      7.6120      9.0272      9.7449   -999.2500
  2581.2500     18.4820      7.5914      9.1234      9.8848   -999.2500
  2581.5000     18.4920      7.5362      9.1471      9.9019   -999.2500
  2581.7500     18.5158      7.4449      9.0915      9.7929   -999.2500
  2582.0000     18.5508      7.3184      8.9576      9.5682   -999.2500
  2582.2500     18.5924      7.1598      8.7532      9.2480   -999.2500
  2582.5000     18.6342      6.9747      8.4925      8.8565   -999.2500
  2582.7500     18.6679      6.7703      8.1926      8.4171   -999.2500
  2583.0000     18.6844      6.5547      7.8713      7.9522   -999.2500
  2583.2500     18.6744      6.3363      7.5448      7.4832   -999.2500
  2583.5000     18.6307      6.1225      7.2262      7.0322   -999.2500
  2583.7500     18.5487      5.9199      6.9252      6.6205   -999.2500
  2584.0000     18.4282      5.7334      6.6481      6.2657   -999.2500
  2584.2500     18.2735      5.5665      6.3989      5.9771   -999.2500
  2584.5000     18.0923      5.4216      6.1794      5.7536   -999.2500
  2584.7500     17.8951      5.2999      5.9905      5.5851   -999.2500
  2585.0000     17.6932      5.2022      5.8322      5.4569   -999.2500
  2585.2500     17.4969      5.1286      5.7048      5.3559   -999.2500
  2585.5000     17.3144      5.0789      5.6082      5.2751   -999.2500
  2585.7500     17.1509      5.0528      5.5428      5.2157   -999.2500
  2586.0000     17.0074      5.0494      5.5088      5.1849   -999.2500
  2586.2500     16.8820      5.0683      5.5065      5.1923   -999.2500
  2586.5000     16.7696      5.1085      5.5361      5.2467   -999.2500
  2586.7500     16.6622      5.1696      5.5972      5.3544   -999.2500
  2587.0000     16.5499      5.2519      5.6891      5.5190   -999.2500
  2587.2500     16.4196      5.3568      5.8104      5.7408   -999.2500
  2587.5000     16.2550      5.4876      5.9587      6.0161   -999.2500
  2587.7500     16.0341      5.6335      6.1309      6.3345   -999.2500
  2588.0000     15.7286      5.8192      6.3227      6.6773   -999.2500
  2588.2500     15.3034      6.0780      6.5291      7.0185   -999.2500
  2588.5000     14.7199      6.4127      6.7443      7.3281   -999.2500
  2588.7500     13.9421      6.8500      6.9626      7.5796   -999.2500
  2589.0000     12.9460      7.4249      7.1783      7.7572   -999.2500
  2589.2500     11.7303      8.1835      7.3866      7.8602   -999.2500
  2589.5000     10.3238      9.1856      7.5835      7.9033   -999.2500
  2589.7500      8.7862     10.5081      7.7659      7.9120   -999.2500
  2590.0000      7.2018     12.2481      7.9320      7.9134   -999.2500
  2590.2500      5.6648     14.5222      8.0810      7.9280   -999.2500
  2590.5000      4.2626     17.4585      8.2138      7.9630   -999.2500
  2590.7500      3.0601     21.1748      8.3335      8.0111   -999.2500
  2591.0000      2.0911     25.7381      8.4464      8.0546   -999.2500
  2591.2500      1.3576     31.1120      8.5629      8.0735   -999.2500
  2591.5000      0.8360     37.9143      8.6983      8.0541   -999.2500
  2591.7500      0.4876     44.5453      8.8734      7.9954   -999.2500
  2592.0000      0.2691     51.2208      9.1148      7.9112   -999.2500
  2592.2500      0.1403     57.6749      9.4555      7.8266   -999.2500
  2592.5000      0.0690     63.7920      9.9362      7.7706   -999.2500
  2592.7500      0.0320     69.5865     10.6078      7.7672   -999.2500
  2593.0000      0.0139     75.1221     11.5350      7.8284   -999.2500
  2593.2500      0.0056     80.4321     12.8021      7.9496   -999.2500
  2593.5000      0.0020     85.4764     14.5200      8.1094   -999.2500
  2593.7500      0.0006     90.1445     16.8338      8.2737   -999.2500
  2594.0000   -999.2500     94.2940     19.9272      8.4026   -999.2500
  2594.2500   -999.2500     97.8006     24.0180      8.4595   -999.2500
  2594.5000   -999.2500    926.0137     29.3287      8.4195   -999.2500
  2594.7500   -999.2500   1133.1724     36.0155      8.2757   -999.2500
  2595.0000   -999.2500   1338.7355     44.0440      8.0411   -999.2500
  2595.2500   -999.2500   1518.9319     53.0492      7.7461   -999.2500
