~Version Information
VERS.                      2.0: CWLS Log ASCII Standard - VERSION 2.0
WRAP.                       NO: One line per depth step
~Well Information Block
STRT.FT               300.0000: 
STOP.FT               871.2500: 
STEP.FT                 0.2500: 
NULL.                -999.2500: 
COMP.          Pioneer Natural Resources: COMPANY
WELL.            Hustler 12-17: WELL
FLD.           Purgatoire River: FIELD
LOC.           2150' FNL & 450' FWL: LOCATION
PROV.                 Colorado: PROVINCE
CNTY.               Las Animas: COUNTRY
SRVC.                Patterson: SERVICE COMPANY
DATE.          Mon Dec 20 09:25:34 2004: LOG DATE
UWI.           05 071 08236 00: UNIQUE WELL ID
~Curve Information Block
DEPT.FT            0 000 00 00: Depth
SN.Ohm-m                      : IEL Short Normal
SP.mV                         : IEL Spontaneous Potential
DIR.Ohm-m                     : IEL Induction Resistivity
GR.GAPI                       : Gamma Ray
~Parameter Information Block
~A  Depth        SN          SP         DIR          GR     
# ...
   467.5000    645.9807   -800.0005      8.5256    118.8263
   467.7500    645.9807   -800.0005      8.8015    118.3249
   468.0000    645.9807   -800.0005      9.1050    117.8054
   468.2500    645.9807   -800.0005      9.4314    117.0163
   468.5000    645.9807   -800.0005      9.7709    114.8027
   468.7500    645.9807   -800.0005     10.1111    112.9534
   469.0000    645.9807   -800.0005     10.4412    110.4879
   469.2500    645.9807   -800.0005     10.7560    109.4699
   469.5000    645.9807   -800.0005     11.0571    109.1887
   469.7500    645.9807   -800.0005     11.3512    109.6676
   470.0000    645.9807   -800.0005     11.6457    110.6284
   470.2500    645.9807   -800.0005     11.9436    111.0108
   470.5000    645.9807   -800.0005     12.2415    110.9861
   470.7500    645.9807   -800.0005     12.5327    110.6531
   471.0000    645.9807   -800.0005     12.8137    109.6431
   471.2500    645.9807   -800.0005     13.0901    108.4104
   471.5000    645.9807   -800.0005     13.3772    105.3639
   471.7500    645.9807   -800.0005     13.6929    102.5369
   472.0000    645.9807   -800.0005     14.0468     97.4396
   472.2500    645.9807   -800.0005     14.4326     93.7112
   472.5000    645.9807   -800.0005     14.8312     87.9977
   472.7500    645.9807   -800.0005     15.2230     84.3938
   473.0000    645.9807   -800.0005     15.6010     80.0353
   473.2500    645.9807   -800.0005     15.9742     78.2357
   473.5000    645.9807   -800.0005     16.3581     77.1844
   473.7500    645.9807   -800.0005     16.7603     77.0146
   474.0000    645.9807   -800.0005     17.1707     76.3362
   474.2500    645.9807   -800.0005     17.5608     75.3346
   474.5000    645.9807   -800.0005     17.8935     73.5289
   474.7500    645.9807   -800.0005     18.1410     72.5176
   475.0000    645.9807   -800.0005     18.2986     71.3916
   475.2500    645.9807   -800.0005     18.3855     70.7495
   475.5000    645.9807   -800.0005     18.4335     69.9038
   475.7500    645.9807   -800.0005     18.4730     69.5231
   476.0000    645.9807   -800.0005     18.5268     69.2488
   476.2500    645.9807   -800.0005     18.6106     69.1173
   476.5000    645.9807   -800.0005     18.7338     68.6653
   476.7500    645.9807   -800.0005     18.8996     68.0302
   477.0000    645.9807   -800.0005     19.1094     66.3354
   477.2500    645.9807   -800.0005     19.3690     64.6133
   477.5000    645.9807   -800.0005     19.6894     61.2816
   477.7500    645.9807   -800.0005     20.0773     58.9452
   478.0000    645.9807   -800.0005     20.5230     56.3135
   478.2500    645.9807   -800.0005     20.9965     55.6077
   478.5000    645.9807   -800.0005     21.4559     55.9914
   478.7500    645.9807   -800.0005     21.8611     56.6670
   479.0000    645.9807   -800.0005     22.1860     57.5606
   479.2500    645.9807   -800.0005     22.4218     58.1755
   479.5000    645.9807   -800.0005     22.5740     59.8592
   479.7500    645.9807   -800.0005     22.6550     61.6892
   480.0000    645.9807   -800.0005     22.6796     64.8979
   480.2500    645.9807   -800.0005     22.6639     66.6421
   480.5000    645.9807   -800.0005     22.6228     67.6628
   480.7500    645.9807   -800.0005     22.5654     67.2258
   481.0000    645.9807   -800.0005     22.4943     65.8609
   481.2500    645.9807   -800.0005     22.4134     65.2027
   481.5000    645.9807   -800.0005     22.3385     64.9413
   481.7500    645.9807   -800.0005     22.2981     64.8077
   482.0000    645.9807   -800.0005     22.3224     63.7042
   482.2500    645.9807   -800.0005     22.4289     62.2292
   482.5000    645.9807   -800.0005     22.6144     59.5706
   482.7500    645.9807   -800.0005     22.8547     58.0984
   483.0000    645.9807   -800.0005     23.1104     57.0631
   483.2500    645.9807   -800.0005     23.3369     57.2321
   483.5000    645.9807   -800.0005     23.4977     58.3825
   483.7500    645.9807   -800.0005     23.5739     59.4206
   484.0000    645.9807   -800.0005     23.5674     61.2474
   484.2500    645.9807   -800.0005     23.4923     62.9592
   484.5000    645.9807   -800.0005     23.3636     67.0422
   484.7500    645.9807   -800.0005     23.1900     70.9657
   485.0000    645.9807   -800.0005     22.9771     78.1617
   485.2500    645.9807   -800.0005     22.7369     83.1679
   485.5000    645.9807   -800.0005     22.4937     89.6998
   485.7500    645.9807   -800.0005     22.2791     92.8164
   486.0000    645.9807   -800.0005     22.1186     95.0874
   486.2500    645.9807   -800.0005     22.0238     94.9469
   486.5000    645.9807   -800.0005     21.9958     92.6611
   486.7500    645.9807   -800.0005     22.0392     90.2724
   487.0000    645.9807   -800.0005     22.1706     86.4747
   487.2500    645.9807   -800.0005     22.4129     84.3362
   487.5000    645.9807   -800.0005     22.7801     82.3116
   487.7500    645.9807   -800.0005     23.2648     81.9423
   488.0000    645.9807   -800.0005     23.8371     82.8683
   488.2500    645.9807   -800.0005     24.4559     84.2090
   488.5000    645.9807   -800.0005     25.0844     86.5055
   488.7500    645.9807   -800.0005     25.7015     87.7521
   489.0000    645.9807   -800.0005     26.3053     88.5117
   489.2500    645.9807   -800.0005     26.9056     87.8948
   489.5000    645.9807   -800.0005     27.5108     84.8148
   489.7500    645.9807   -800.0005     28.1139     81.4351
   490.0000    645.9807   -800.0005     28.6868     75.3276
   490.2500    645.9807   -800.0005     29.1895     71.1925
   490.5000    645.9807   -800.0005     29.5872     65.4601
   490.7500    645.9807   -800.0005     29.8666     62.0287
   491.0000    645.9807   -800.0005     30.0432     57.5949
   491.2500    645.9807   -800.0005     30.1562     55.2443
   491.5000    645.9807   -800.0005     30.2543     52.7997
   491.7500    645.9807   -800.0005     30.3741     51.9057
   492.0000    645.9807   -800.0005     30.5219     51.5142
   492.2500    645.9807   -800.0005     30.6706     51.7026
   492.5000    645.9807   -800.0005     30.7735     52.3399
   492.7500    645.9807   -800.0005     30.7831     52.8905
   493.0000    645.9807   -800.0005     30.6704     53.8294
   493.2500    645.9807   -800.0005     30.4401     54.4897
   493.5000    645.9807   -800.0005     30.1383     55.3169
   493.7500    645.9807   -800.0005     29.8453     55.4939
   494.0000    645.9807   -800.0005     29.6491     54.7368
   494.2500    645.9807   -800.0005     29.6109     53.5925
   494.5000    645.9807   -800.0005     29.7393     51.7231
   494.7500    645.9807   -800.0005     29.9808     50.9644
   495.0000    645.9807   -800.0005     30.2334     51.0796
   495.2500    645.9807   -800.0005     30.3792     51.9210
   495.5000    645.9807   -800.0005     30.3267     53.8478
   495.7500    645.9807   -800.0005     30.0405     55.3205
   496.0000    645.9807   -800.0005     29.5428     57.8460
   496.2500    645.9807   -800.0005     28.8975     60.1040
   496.5000    645.9807   -800.0005     28.1926     65.0601
   496.7500    645.9807   -800.0005     27.5260     69.4413
   497.0000    645.9807   -800.0005     26.9896     76.6852
   497.2500    645.9807   -800.0005     26.6475     81.0756
   497.5000    645.9807   -800.0005     26.5184     85.6672
   497.7500    645.9807   -800.0005     26.5655     86.9635
   498.0000    645.9807   -800.0005     26.7021     86.0791
   498.2500    645.9807   -800.0005     26.8193     83.7619
   498.5000    645.9807   -800.0005     26.8371     78.4726
   498.7500    645.9807   -800.0005     26.7546     74.5564
   499.0000    645.9807   -800.0005     26.6564     69.9205
   499.2500    645.9807   -800.0005     26.6640     68.5747
   499.5000    645.9807   -800.0005     26.8678     69.6100
   499.7500    645.9807   -800.0005     27.2745     71.6757
   500.0000    645.9807   -800.0005     27.7900     74.5665
   500.2500    645.9807   -800.0005     28.2439     75.0715
   500.5000    645.9807   -800.0005     28.4568     72.9814
   500.7500    645.9807   -800.0005     28.3229     70.3385
