~Version Information
VERS.                      2.0: CWLS Log ASCII Standard - VERSION 2.0
WRAP.                       NO: One line per depth step
~Well Information Block
STRT.FT               519.6000: 
STOP.FT              2727.5000: 
STEP.FT                 0.1000: 
NULL.                -999.2500: 
COMP.          Petrogulf Corporation: COMPANY
WELL.              Silva 6-22V: WELL
FLD.           Purgatorie River: FIELD
LOC.           1936' FNL & 1798' FWL: LOCATION
CNTY.               Las Animas: COUNTY
SRVC.                         : SERVICE COMPANY
DATE.          Tue Nov 09 12:21:27 2004: LOG DATE
UWI.           05 071 08143 00: UNIQUE WELL ID
STAT.                 Colorado: STATE
~Curve Information Block
DEPT.FT            0 000 00 00: Depth
DCAL.in                       : CDL Caliper
RHOB.g/cc                     : CDL Bulk Density
RHOC.g/cc                     : CDL Density Correction
DPOR.pu                       : CDL Density Porosity
GR.GAPI                       : Gamma Ray
NPOR.pu                       : Neutron Porosity
~Parameter Information Block
~A  Depth       DCAL        RHOB        RHOC        DPOR         GR         NPOR    
# ...
  1844.4000      7.8815      2.5426      0.0617      6.5100    140.9228     24.4434
  1844.5000      7.8681      2.5428      0.0762      6.4993    134.0903     24.5473
  1844.6000      7.8681      2.5382      0.0639      6.7773    129.9030     24.8322
  1844.7000      7.8681      2.5258      0.1016      7.5279    131.4422     24.8394
  1844.8000      7.8649      2.5062     -0.0097      8.7159    134.3344     25.2745
  1844.9000      7.8649      2.4885      0.0426      9.7885    137.9898     25.8564
  1845.0000      7.8619      2.4773      0.0251     10.4655    146.9180     25.4603
  1845.1000      7.8619      2.4779      0.0199     10.4310    156.8460     24.6744
  1845.2000      7.8619      2.4912      0.0278      9.6219    159.0296     25.1279
  1845.3000      7.8534      2.5071      0.0671      8.6628    156.5693     26.5628
  1845.4000      7.8534      2.5212      0.0368      7.8062    155.2609     27.4698
  1845.5000      7.8483      2.5427      0.0441      6.5056    155.4884     27.9032
  1845.6000      7.8483      2.5701      0.0968      4.8444    156.9044     28.1429
  1845.7000      7.8483      2.5862      0.1185      3.8681    160.5978     27.7096
  1845.8000      7.8503      2.5823      0.1116      4.1022    165.8362     27.0605
  1845.9000      7.8503      2.5647      0.1026      5.1717    168.8945     26.4572
  1846.0000      7.8528      2.5412      0.0712      6.5949    168.5143     25.7268
  1846.1000      7.8528      2.5206      0.0390      7.8398    167.2562     25.7136
  1846.2000      7.8528      2.5155      0.0247      8.1498    165.0038     26.5301
  1846.3000      7.8516      2.5296      0.0710      7.2978    160.3675     27.0582
  1846.4000      7.8516      2.5495      0.0595      6.0918    156.3584     26.9822
  1846.5000      7.8484      2.5560      0.0975      5.6991    154.9729     26.8940
  1846.6000      7.8484      2.5464      0.0315      6.2812    155.1487     26.9062
  1846.7000      7.8484      2.5450      0.0249      6.3630    154.8071     26.8658
  1846.8000      7.8419      2.5587      0.0942      5.5343    150.3680     26.4960
  1846.9000      7.8419      2.5619      0.0684      5.3396    143.6956     25.6978
  1847.0000      7.8284      2.5492      0.0597      6.1065    141.3526     25.2106
  1847.1000      7.8284      2.5383      0.0331      6.7726    144.1273     25.4437
  1847.2000      7.8284      2.5342      0.0500      7.0176    147.3753     25.8432
  1847.3000      7.8192      2.5336      0.0331      7.0522    145.6449     25.7827
  1847.4000      7.8192      2.5413      0.0385      6.5853    137.8423     25.4276
  1847.5000      7.8223      2.5589      0.0370      5.5230    129.1938     25.0173
  1847.6000      7.8223      2.5736      0.0957      4.6299    124.2412     24.3841
  1847.7000      7.8223      2.5789      0.0639      4.3063    122.7174     23.5003
  1847.8000      7.8305      2.5848      0.0903      3.9497    121.2467     22.8868
  1847.9000      7.8305      2.5958      0.0689      3.2853    119.5999     23.1241
  1848.0000      7.8337      2.6099      0.0978      2.4318    120.7382     23.9096
  1848.1000      7.8337      2.6287      0.0968      1.2929    122.8207     24.3423
  1848.2000      7.8337      2.6490      0.0974      0.0595    121.1696     24.5959
  1848.3000      7.8319      2.6575      0.0764     -0.4544    118.1306     25.4641
  1848.4000      7.8319      2.6511      0.0642     -0.0654    117.9282     26.0432
  1848.5000      7.8188      2.6458      0.0517      0.2515    116.6742     25.4438
  1848.6000      7.8188      2.6485      0.0582      0.0927    107.5517     24.9511
  1848.7000      7.8188      2.6455      0.0618      0.2744     94.1828     25.0486
  1848.8000      7.7998      2.6306      0.0369      1.1736     88.9973     24.3337
  1848.9000      7.7998      2.6184      0.0261      1.9174     94.3637     22.7048
  1849.0000      7.7847      2.6263      0.0493      1.4368    101.1984     21.4009
  1849.1000      7.7847      2.6535      0.1031     -0.2141    104.4901     21.0963
  1849.2000      7.7847      2.6826      0.1444     -1.9786    103.5876     21.6885
  1849.3000      7.7799      2.6976      0.1641     -2.8833    100.9046     22.2866
  1849.4000      7.7799      2.6877      0.1543     -2.2827     99.3130     21.8864
  1849.5000      7.7836      2.6551      0.1281     -0.3088     97.8802     20.9500
  1849.6000      7.7836      2.6215      0.0914      1.7247     98.0876     20.6722
  1849.7000      7.7836      2.6048      0.0301      2.7401    100.8288     20.8874
  1849.8000      7.7861      2.5991      0.0638      3.0854     99.6738     21.0449
  1849.9000      7.7861      2.5877      0.0325      3.7778     92.0475     21.3058
  1850.0000      7.7927      2.5709      0.0550      4.7920     85.4299     21.4532
  1850.1000      7.7927      2.5609      0.0472      5.3994     84.3742     21.0108
  1850.2000      7.7927      2.5583      0.0462      5.5559     83.9873     19.9102
  1850.3000      7.8120      2.5579      0.0330      5.5830     80.6897     18.6256
  1850.4000      7.8120      2.5536      0.0773      5.8449     75.6742     17.8496
  1850.5000      7.8324      2.5449      0.0256      6.3696     69.8369     17.7012
  1850.6000      7.8324      2.5438      0.0323      6.4384     65.1017     17.9488
  1850.7000      7.8324      2.5489      0.0421      6.1245     63.8357     18.5535
  1850.8000      7.8445      2.5435      0.0692      6.4532     65.5530     20.0076
  1850.9000      7.8445      2.5269      0.0071      7.4602     67.7421     22.2808
  1851.0000      7.8475      2.5136      0.0168      8.2640     68.8872     23.7390
  1851.1000      7.8475      2.5072      0.0295      8.6548     69.5016     23.4353
  1851.2000      7.8475      2.4995      0.0441      9.1220     69.6558     22.1617
  1851.3000      7.8391      2.4930     -0.0178      9.5129     68.5749     20.8098
  1851.4000      7.8391      2.5047      0.0202      8.8069     65.5140     20.0158
  1851.5000      7.8284      2.5351      0.0316      6.9635     62.1530     20.2320
  1851.6000      7.8284      2.5628      0.0826      5.2830     61.5082     20.6705
  1851.7000      7.8284      2.5699      0.0750      4.8518     63.7068     20.3530
  1851.8000      7.8260      2.5578      0.0796      5.5876     65.9382     19.5763
  1851.9000      7.8260      2.5467      0.0198      6.2616     66.4087     18.4904
  1852.0000      7.8298      2.5567      0.0397      5.6549     64.0345     17.0901
  1852.1000      7.8298      2.5763      0.1015      4.4672     59.1901     16.3659
  1852.2000      7.8298      2.5859      0.0541      3.8830     57.0329     16.6306
  1852.3000      7.8343      2.5877      0.0675      3.7768     61.1343     17.0502
  1852.4000      7.8343      2.5824      0.0547      4.0988     66.6077     17.3362
  1852.5000      7.8318      2.5729      0.0300      4.6715     67.6133     17.9752
  1852.6000      7.8318      2.5678      0.0558      4.9807     63.9101     18.9025
  1852.7000      7.8318      2.5638      0.0583      5.2249     57.6093     19.0615
  1852.8000      7.8266      2.5580      0.0243      5.5753     51.0579     18.1208
  1852.9000      7.8266      2.5585      0.0287      5.5483     47.8515     17.1335
  1853.0000      7.8219      2.5719      0.0101      4.7355     49.5804     16.6951
  1853.1000      7.8219      2.5945      0.0382      3.3664     53.9862     16.5331
  1853.2000      7.8219      2.6149      0.0450      2.1296     57.9687     16.2163
  1853.3000      7.8193      2.6265      0.0610      1.4232     60.8084     15.8419
  1853.4000      7.8193      2.6321      0.0540      1.0835     64.6073     16.1876
  1853.5000      7.8221      2.6335      0.0376      1.0001     68.5727     17.3034
  1853.6000      7.8221      2.6241      0.0522      1.5700     70.1325     18.0337
  1853.7000      7.8221      2.5979      0.0234      3.1567     71.1787     17.9694
  1853.8000      7.8227      2.5693     -0.0241      4.8937     74.8432     18.1297
  1853.9000      7.8227      2.5567      0.0005      5.6521     79.4972     19.1949
