~Version Information
VERS.                      2.0: CWLS Log ASCII Standard - VERSION 2.0
WRAP.                       NO: One line per depth step
~Well Information Block
STRT.FT               652.0000: 
STOP.FT              1880.0000: 
STEP.FT                 0.1000: 
NULL.                -999.2500: 
COMP.          Pioneer Natural Resources: COMPANY
WELL.          Corkscrew 33-12 Tr: WELL
FLD.           Purgatoire River: FIELD
LOC.           1870' FSL & 1706' FEL: LOCATION
PROV.                 Colorado: PROVINCE
CNTY.               Las Animas: COUNTRY
SRVC.                Patterson: SERVICE COMPANY
DATE.          Tue Mar 29 09:18:51 2005: LOG DATE
UWI.           05 071 08295 00: UNIQUE WELL ID
~Curve Information Block
DEPT.FT            0 000 00 00: Depth
DCAL.in                       : CDL Caliper
RHOB.g/cc                     : CDL Bulk Density
RHOC.g/cc                     : CDL Density Correction
DPOR.pu                       : CDL Density Porosity
GR.GAPI                       : Gamma Ray
NPOR.pu                       : Neutron Porosity
~Parameter Information Block
~A  Depth       DCAL        RHOB        RHOC        DPOR         GR         NPOR    
# ...
  1621.6000      7.8235      2.6229     -0.0181      1.6450    106.8905     24.9355
  1621.7000      7.8235      2.6134     -0.0371      2.2184    110.5124     24.5282
  1621.8000      7.8290      2.6263     -0.0218      1.4373    119.3682     24.5902
  1621.9000      7.8290      2.6330      0.0426      1.0273    125.9343     24.7277
  1622.0000      7.7833      2.6205      0.0123      1.7896    126.4049     24.3931
  1622.1000      7.7833      2.6144      0.0164      2.1570    123.5989     23.7515
  1622.2000      7.7833      2.6354      0.0755      0.8845    122.6255     23.5212
  1622.3000      7.7767      2.6550      0.0779     -0.3022    123.5712     24.1420
  1622.4000      7.7767      2.6325      0.1043      1.0587    123.2563     25.3286
  1622.5000      7.7738      2.5749      0.0022      4.5523    122.2938     26.3089
  1622.6000      7.7738      2.5321     -0.0320      7.1457    121.6333     26.4746
  1622.7000      7.7738      2.5349      0.0176      6.9784    120.1266     25.9579
  1622.8000      7.7709      2.5667      0.0440      5.0490    119.5731     25.5572
  1622.9000      7.7709      2.5931      0.0764      3.4504    125.2355     26.0551
  1623.0000      7.7756      2.5936      0.0478      3.4178    135.9546     27.3619
  1623.1000      7.7756      2.5737      0.0351      4.6229    141.6079     28.7200
  1623.2000      7.7756      2.5466      0.0580      6.2692    139.7368     29.4404
  1623.3000      7.7760      2.5205      0.0464      7.8495    138.9349     29.3862
  1623.4000      7.7760      2.5130     -0.0039      8.3045    138.7314     29.1169
  1623.5000      7.7756      2.5376      0.0071      6.8115    133.8020     28.8667
  1623.6000      7.7756      2.5725      0.0729      4.6942    129.9130     28.1575
  1623.7000      7.7756      2.5809      0.0909      4.1901    137.3703     27.0893
  1623.8000      7.7671      2.5563      0.0645      5.6764    152.1906     26.4535
  1623.9000      7.7671      2.5234      0.0016      7.6722    158.2565     26.5917
  1624.0000      7.7755      2.5013      0.0158      9.0094    152.7368     27.2177
  1624.1000      7.7755      2.4944     -0.0028      9.4315    142.8767     27.7637
  1624.2000      7.7755      2.5057     -0.0046      8.7461    131.6392     28.0893
  1624.3000      7.7963      2.5273      0.0379      7.4350    123.4587     28.3319
  1624.4000      7.7963      2.5383      0.0512      6.7684    127.5066     28.2831
  1624.5000      7.8113      2.5361     -0.0026      6.9043    144.5783     27.9460
  1624.6000      7.8113      2.5338      0.0295      7.0436    158.6254     27.7103
  1624.7000      7.8113      2.5307      0.0384      7.2305    155.9346     27.7567
  1624.8000      7.8175      2.5285      0.0022      7.3665    146.5797     27.9180
  1624.9000      7.8175      2.5345      0.0908      7.0023    145.8973     28.0912
  1625.0000      7.8293      2.5453      0.0709      6.3442    150.6895     28.0007
  1625.1000      7.8293      2.5580      0.0628      5.5738    153.6281     27.5832
  1625.2000      7.8293      2.5652      0.0947      5.1419    155.6218     27.5484
  1625.3000      7.8512      2.5604      0.0928      5.4297    156.3422     27.9710
  1625.4000      7.8512      2.5533      0.0435      5.8599    158.7426     28.4276
  1625.5000      7.8583      2.5476      0.0716      6.2067    165.9214     28.6247
  1625.6000      7.8583      2.5391      0.0557      6.7203    171.5623     28.2781
  1625.7000      7.8583      2.5360      0.0099      6.9097    171.7487     28.2004
  1625.8000      7.8650      2.5460      0.0334      6.3052    167.8729     29.0473
  1625.9000      7.8650      2.5587      0.0761      5.5307    162.2103     29.8398
  1626.0000      7.8800      2.5612      0.0544      5.3832    158.5024     29.8524
  1626.1000      7.8800      2.5559      0.0892      5.7030    157.5212     29.6252
  1626.2000      7.8800      2.5545      0.0742      5.7866    154.7342     29.3571
  1626.3000      7.8628      2.5657      0.0948      5.1068    147.9308     29.1097
  1626.4000      7.8628      2.5826      0.0990      4.0825    137.0782     28.8166
  1626.5000      7.8643      2.5883      0.0848      3.7392    124.4929     28.3449
  1626.6000      7.8643      2.5790      0.0568      4.3053    116.8436     28.2842
  1626.7000      7.8643      2.5674      0.0430      5.0059    116.2819     28.6238
  1626.8000      7.8365      2.5632      0.0400      5.2577    117.7633     28.9622
  1626.9000      7.8365      2.5642      0.0171      5.2001    116.5347     29.1351
  1627.0000      7.8323      2.5664      0.0279      5.0653    114.0597     28.5267
  1627.1000      7.8323      2.5727      0.0097      4.6821    113.6030     27.2522
  1627.2000      7.8323      2.5895      0.0281      3.6640    115.7488     26.6371
  1627.3000      7.8266      2.6107      0.0022      2.3816    118.7077     27.1987
  1627.4000      7.8266      2.6195      0.0052      1.8499    120.2890     27.6593
  1627.5000      7.8021      2.6139      0.0175      2.1861    120.7056     26.7848
  1627.6000      7.8021      2.6013      0.0059      2.9492    122.4148     25.1697
  1627.7000      7.8021      2.5841     -0.0146      3.9965    124.1260     24.2994
  1627.8000      7.8015      2.5645     -0.0050      5.1832    123.5857     24.5771
  1627.9000      7.8015      2.5428      0.0394      6.4977    122.4320     25.2605
  1628.0000      7.8065      2.5201     -0.0198      7.8746    121.4149     25.8079
  1628.1000      7.8065      2.5023     -0.0270      8.9544    117.8914     26.3356
  1628.2000      7.8065      2.4885     -0.0115      9.7883    111.6736     26.8172
  1628.3000      7.8240      2.4727     -0.0312     10.7443    106.8244     26.9270
  1628.4000      7.8240      2.4510      0.0157     12.0630    104.4599     26.7909
  1628.5000      7.8305      2.4254      0.0002     13.6150    103.6264     26.7524
  1628.6000      7.8305      2.4106     -0.0273     14.5118    105.8522     27.1544
  1628.7000      7.8305      2.4139     -0.0300     14.3101    113.9066     27.8930
  1628.8000      7.8404      2.4235     -0.0297     13.7263    125.5372     28.2629
  1628.9000      7.8404      2.4333     -0.0273     13.1339    131.4831     28.0573
  1629.0000      7.8417      2.4459      0.0065     12.3703    129.9545     28.3038
  1629.1000      7.8417      2.4531      0.0629     11.9341    129.3496     29.7286
  1629.2000      7.8417      2.4511      0.0370     12.0531    134.6096     31.1872
  1629.3000      7.8482      2.4579      0.0737     11.6414    142.0953     31.5046
  1629.4000      7.8482      2.4840      0.1632     10.0587    146.4311     31.2863
  1629.5000      7.8856      2.5165      0.1630      8.0925    148.2744     31.1629
  1629.6000      7.8856      2.5368      0.1709      6.8630    148.9010     30.7622
  1629.7000      7.8856      2.5324      0.1612      7.1277    147.5296     29.9152
  1629.8000      7.9951      2.5112      0.0571      8.4111    144.2832     29.1332
  1629.9000      7.9951      2.4939      0.1155      9.4631    141.0006     28.8151
  1630.0000      8.0530      2.4914      0.0418      9.6137    138.5618     28.7136
  1630.1000      8.0530      2.5085      0.0520      8.5764    136.7377     29.0469
  1630.2000      8.0530      2.5365      0.0469      6.8788    136.3852     29.9587
  1630.3000      7.9573      2.5500      0.0838      6.0582    138.2932     30.3484
  1630.4000      7.9573      2.5402      0.0310      6.6541    143.1389     29.7004
  1630.5000      7.9167      2.5325      0.0128      7.1229    149.0155     28.7479
  1630.6000      7.9167      2.5375      0.0413      6.8167    150.5117     28.2657
  1630.7000      7.9167      2.5358      0.0318      6.9197    148.4333     28.6554
  1630.8000      7.8608      2.5270      0.0134      7.4546    146.2597     29.5873
  1630.9000      7.8608      2.5265      0.0389      7.4822    144.4497     30.1816
  1631.0000      7.8541      2.5278      0.0364      7.4075    144.9531     30.3655
  1631.1000      7.8541      2.5197      0.0447      7.8970    145.8867     30.3642
