~Version Information
VERS.                      2.0: CWLS Log ASCII Standard - VERSION 2.0
WRAP.                       NO: One line per depth step
~Well Information Block
STRT.FT               -12.5000: 
STOP.FT              2487.7500: 
STEP.FT                 0.2500: 
NULL.                -999.2500: 
COMP.          Petrogulf Corporation: COMPANY
WELL.             Royal 8-33 V: WELL
FLD.           Purgatorie River: FIELD
LOC.           2365' FSL & 2336' FEL--: LOCATION
CNTY.               Las Animas: COUNTY
SRVC.                         : SERVICE COMPANY
DATE.          Sat Jan 17 11:43:49 2004: LOG DATE
UWI.           05 071 07934 00: UNIQUE WELL ID
STAT.                       CO: STATE
~Curve Information Block
DEPT.FT            0 000 00 00: Depth
CCL.                          : Casing Collar Locator
TT3.usec                      : CBL 3' Travel Time
AMP3.mV                       : CBL 3' Amplitude
GR.GAPI                       : Gamma Ray
~Parameter Information Block
~A  Depth       CCL         TT3         AMP3         GR     
# ...
  1294.0000      0.0000    776.3094      3.2354    133.6433
  1294.2500      0.0000    775.6105      3.1091    131.2296
  1294.5000      0.0000    777.4092      2.9243    127.4186
  1294.7500      0.0000    780.7476      2.7077    122.6133
  1295.0000      0.0000    784.1635      2.5032    116.9573
  1295.2500      0.0000    787.8421      2.3581    110.3498
  1295.5000      0.0000    792.0926      2.3130    102.8093
  1295.7500      0.0000    795.2034      2.3797     94.8589
  1296.0000      0.0000    794.2423      2.5148     87.5890
  1296.2500      0.0000    787.4125      2.6344     82.1820
  1296.5000      0.0000    775.3826      2.6801     79.3083
  1296.7500      0.0000    761.0860      2.6700     79.0258
  1297.0000      0.0000    747.9490      2.6758     80.9733
  1297.2500      0.0000    737.5142      2.7517     84.2625
  1297.5000      0.0000    729.0655      2.8947     87.4725
  1297.7500      0.0000    721.6538      3.0628     89.4418
  1298.0000      0.0000    715.5557      3.2128     90.1173
  1298.2500      0.0000    711.5970      3.3192     90.2243
  1298.5000      0.0000    710.1534      3.3736     90.3896
  1298.7500      0.0000    711.3558      3.3799     91.1557
  1299.0000      0.0000    715.7105      3.3501     93.4183
  1299.2500      0.0000    723.7418      3.2976     97.9165
  1299.5000      0.0000    734.6425      3.2341    104.3132
  1299.7500      0.0000    745.4888      3.1717    111.5026
  1300.0000      0.0000    752.9317      3.1245    118.7395
  1300.2500      0.0000    756.6360      3.0962    125.7950
  1300.5000      0.0000    760.2495      3.0640    132.2399
  1300.7500      0.0000    767.1017      2.9828    137.3811
  1301.0000      0.0000    774.9002      2.8199    140.8762
  1301.2500      0.0000    776.8196      2.5928    142.6886
  1301.5000      0.0000    768.8393      2.3704    142.3962
  1301.7500      0.0000    754.7153      2.2257    139.4031
  1302.0000      0.0000    742.8069      2.1858    134.1413
  1302.2500      0.0000    739.0222      2.2242    128.2585
  1302.5000      0.0000    743.6520      2.2937    123.2511
  1302.7500      0.0000    753.7781      2.3588    119.6652
  1303.0000      0.0000    766.8472      2.4047    117.8495
  1303.2500      0.0000    781.5151      2.4289    118.3266
  1303.5000      0.0000    796.2816      2.4367    120.7849
  1303.7500      0.0000    808.9379      2.4398    123.7857
  1304.0000      0.0000    817.8292      2.4520    126.3610
  1304.2500      0.0000    822.7946      2.4922    129.2293
  1304.5000      0.0000    824.3898      2.5987    133.5652
  1304.7500      0.0000    822.5479      2.8263    138.9317
  1305.0000      0.0000    816.2820      3.1998    143.2176
  1305.2500      0.0000    804.6505      3.6624    144.6092
  1305.5000      0.0000    788.4136      4.0756    143.1814
  1305.7500      0.0000    771.1094      4.2930    140.5083
  1306.0000      0.0000    757.8531      4.2701    138.0001
  1306.2500      0.0000    752.1970      4.1126    135.7648
  1306.5000      0.0000    754.1666      3.9895    132.8221
  1306.7500      0.0000    761.3516      3.9859    128.0680
  1307.0000      0.0000    771.0251      4.0523    121.0582
  1307.2500      0.0000    780.8112      4.0827    112.3163
  1307.5000      4.0000    788.4240      4.0213    103.4732
  1307.7500      0.0000    792.1436      3.9136     97.1026
  1308.0000      0.0000    791.7679      3.8720     95.5904
  1308.2500      0.0000    788.4240      3.9692     99.4141
  1308.5000      0.0000    783.2678      4.1495    106.5662
  1308.7500      0.0000    776.8281      4.2708    114.0437
  1309.0000      0.0000    769.7687      4.2475    119.9451
  1309.2500      0.0000    763.7572      4.1361    124.1360
  1309.5000      0.0000    760.7142      4.0680    127.4598
  1309.7500      0.0000    760.8211      4.1162    130.8207
  1310.0000      0.0000    762.2109      4.2387    134.6278
  1310.2500      0.0000    763.3494      4.3407    138.3409
  1310.5000      0.0000    764.8309      4.3682    140.5164
  1310.7500      0.0000    768.1918      4.3414    139.9119
  1311.0000      0.0000    773.9564      4.3122    136.8926
  1311.2500      0.0000    781.3643      4.3051    133.5469
  1311.5000      0.0000    789.1198      4.3020    131.9981
  1311.7500      0.0000    796.1194      4.2832    132.3510
  1312.0000      0.0000    802.0835      4.2596    132.4503
  1312.2500      0.0000    807.4780      4.2599    129.9211
  1312.5000      0.0000    812.4675      4.3181    124.3533
  1312.7500      0.0000    816.3458      4.4979    117.3039
  1313.0000      0.0000    818.5903      4.8980    110.5804
  1313.2500      0.0000    820.1139      5.5892    105.1147
  1313.5000      0.0000    822.4958      6.5515    101.2556
  1313.7500      0.0000    825.6166      7.6818     99.3563
  1314.0000      0.0000    826.3710      8.8436     99.7442
  1314.2500      0.0000    819.8403      9.8976    102.2731
  1314.5000      0.0000    802.8618     10.7205    106.0198
  1314.7500      0.0000    779.0609     11.2389    109.5780
  1315.0000      0.0000    761.3005     11.4529    111.9584
  1315.2500      0.0000    765.5557     11.4148    113.3239
  1315.5000      0.0000    798.1465     11.1830    114.7488
  1315.7500      0.0000    848.5450     10.8016    117.1821
  1316.0000      0.0000    895.6422     10.3097    120.4418
  1316.2500      0.0000    921.2078      9.7657    123.1622
  1316.5000      0.0000    919.6257      9.2645    123.9075
  1316.7500      0.0000    899.1343      8.9257    122.4298
  1317.0000      0.0000    875.2876      8.8491    119.7218
  1317.2500      0.0000    860.6832      9.0679    116.7767
  1317.5000      0.0000    857.7160      9.5200    113.4516
  1317.7500      0.0000    859.7723     10.0436    108.8414
  1318.0000      0.0000    859.2596     10.4197    102.8559
  1318.2500      0.0000    854.1595     10.4762     97.0801
  1318.5000      0.0000    847.4044     10.1812     93.6608
  1318.7500      0.0000    842.1078      9.6289     93.4124
  1319.0000      0.0000    838.9093      8.9421     95.3431
  1319.2500      0.0000    836.6380      8.2013     97.9805
  1319.5000      0.0000    833.7658      7.4460    100.7282
  1319.7500      0.0000    829.0575      6.6942    103.8343
  1320.0000      0.0000    821.7853      5.9606    107.5600
  1320.2500      0.0000    812.1505      5.2819    111.9692
  1320.5000      0.0000    801.9692      4.7253    117.3723
  1320.7500      0.0000    794.7687      4.3473    124.2444
  1321.0000      0.0000    794.0169      4.1424    132.2287
  1321.2500      0.0000    800.2308      4.0501    139.4874
  1321.5000      0.0000    810.0786      4.0172    143.5675
  1321.7500      0.0000    819.0068      4.0379    143.1263
  1322.0000      0.0000    824.6799      4.1316    138.6697
  1322.2500      0.0000    827.7084      4.2955    131.5404
  1322.5000      0.0000    829.5859      4.4872    122.5862
  1322.7500      0.0000    830.5065      4.6457    112.3584
  1323.0000      0.0000    828.8748      4.7218    102.3029
  1323.2500      0.0000    822.2327      4.6884     94.6100
  1323.5000      0.0000    809.0930      4.5303     90.3715
  1323.7500      0.0000    790.8834      4.2477     88.5673
  1324.0000      0.0000    771.8102      3.8825     87.2797
  1324.2500      0.0000    755.5621      3.5237     85.3079
  1324.5000      0.0000    742.5054      3.2614     82.3577
  1324.7500      0.0000    731.3512      3.1393     78.6499
  1325.0000      0.0000    722.8190      3.1598     75.2064
  1325.2500      0.0000    719.9521      3.3133     73.9558
  1325.5000      0.0000    724.8666      3.5740     76.5308
  1325.7500      0.0000    735.6854      3.8795     82.8068
  1326.0000      0.0000    746.4097      4.1460     91.0981
  1326.2500      0.0000    750.3217      4.3147     99.8093
  1326.5000      0.0000    745.0407      4.3793    108.4480
  1326.7500      0.0000    734.5417      4.3690    116.9189
  1327.0000      0.0000    725.1409      4.3056    124.2853
  1327.2500      0.0000    719.5524      4.1816    128.8650
