~Version Information
VERS.                      2.0: CWLS Log ASCII Standard - VERSION 2.0
WRAP.                       NO: One line per depth step
~Well Information Block
STRT.FT               460.0000: 
STOP.FT               961.2000: 
STEP.FT                 0.1000: 
NULL.                -999.2500: 
COMP.          Pioneer Natural Resources: COMPANY
WELL.                Pug 33-19: WELL
FLD.           Purgatoire River: FIELD
LOC.           1381' FSL & 2140' FEL: LOCATION
PROV.                 Colorado: PROVINCE
CNTY.               Las Animas: COUNTRY
SRVC.                Patterson: SERVICE COMPANY
DATE.          Wed Dec 15 07:19:20 2004: LOG DATE
UWI.           05 071 08193 00: UNIQUE WELL ID
~Curve Information Block
DEPT.FT            0 000 00 00: Depth
DCAL.in                       : CDL Caliper
RHOB.g/cc                     : CDL Bulk Density
RHOC.g/cc                     : CDL Density Correction
DPOR.pu                       : CDL Density Porosity
NPOR.pu                       : Neutron Porosity
GR.GAPI                       : Gamma Ray
~Parameter Information Block
~A  Depth       DCAL        RHOB        RHOC        DPOR        NPOR         GR     
# ...
   930.4000      7.8621      2.3246      0.0501     19.7219     16.0022   -999.2500
   930.5000      7.8705      2.3133      0.0422     20.4074     15.5668   -999.2500
   930.6000      7.8705      2.2988      0.0292     21.2875     15.9783   -999.2500
   930.7000      7.8705      2.2918      0.0498     21.7119     16.6909   -999.2500
   930.8000      7.8758      2.2898      0.0351     21.8295     17.3345   -999.2500
   930.9000      7.8758      2.2857      0.0605     22.0795     17.8767   -999.2500
   931.0000      7.8762      2.2860      0.0031     22.0581     18.3978   -999.2500
   931.1000      7.8762      2.3029      0.0283     21.0372     18.9732   -999.2500
   931.2000      7.8762      2.3287      0.0540     19.4714     19.3979   -999.2500
   931.3000      7.8715      2.3508      0.0563     18.1338     19.1245   -999.2500
   931.4000      7.8715      2.3744      0.0361     16.7023     18.1309   -999.2500
   931.5000      7.8663      2.4063      0.0822     14.7721     17.2233   -999.2500
   931.6000      7.8663      2.4389      0.0885     12.7913     16.8444   -999.2500
   931.7000      7.8663      2.4648      0.1015     11.2238     16.8115   -999.2500
   931.8000      7.8636      2.4856      0.1021      9.9645     17.2948   -999.2500
   931.9000      7.8636      2.5153      0.0478      8.1649     18.2004   -999.2500
   932.0000      7.8617      2.5578      0.1220      5.5901     18.7601   -999.2500
   932.1000      7.8617      2.5797      0.1253      4.2599     18.5580   -999.2500
   932.2000      7.8617      2.5525      0.0916      5.9093     17.8839   -999.2500
   932.3000      7.8574      2.4952      0.0283      9.3810     17.4640   -999.2500
   932.4000      7.8574      2.4530     -0.0151     11.9384     17.6686   -999.2500
   932.5000      7.8513      2.4505     -0.0048     12.0903     17.9953   -999.2500
   932.6000      7.8513      2.4685      0.0409     10.9992     17.7581   -999.2500
   932.7000      7.8513      2.4782     -0.0324     10.4104     16.8552   -999.2500
   932.8000      7.8463      2.4786      0.0143     10.3854     15.5738   -999.2500
   932.9000      7.8463      2.4762      0.0515     10.5329     14.5201   -999.2500
   933.0000      7.8394      2.4693      0.0245     10.9517     14.4643   -999.2500
   933.1000      7.8394      2.4631      0.0174     11.3264     15.4598   -999.2500
   933.2000      7.8394      2.4647      0.0312     11.2329     16.6785   -999.2500
   933.3000      7.8271      2.4673      0.0196     11.0742     17.3739   -999.2500
   933.4000      7.8271      2.4650      0.0119     11.2141     17.3845   -999.2500
   933.5000      7.8189      2.4637      0.0085     11.2916     16.9789   -999.2500
   933.6000      7.8189      2.4702      0.0153     10.8995     16.6076   -999.2500
   933.7000      7.8189      2.4843      0.0321     10.0441     16.6819   -999.2500
   933.8000      7.8162      2.4960      0.0427      9.3345     17.0631   -999.2500
   933.9000      7.8162      2.4978      0.0304      9.2270     17.2286   -999.2500
   934.0000      7.8095      2.4959      0.0118      9.3382     17.1995   -999.2500
   934.1000      7.8095      2.4967      0.0312      9.2904     17.0104   -999.2500
   934.2000      7.8095      2.4977      0.0473      9.2275     16.4697   -999.2500
   934.3000      7.7986      2.5001      0.0280      9.0842     16.1671   -999.2500
   934.4000      7.7986      2.5128      0.0251      8.3158     18.0704   -999.2500
   934.5000      7.7979      2.5326      0.0519      7.1134     25.8132   -999.2500
   934.6000      7.7979      2.5478      0.0496      6.1958     38.9383   -999.2500
   934.7000      7.7979      2.5582      0.0456      5.5626     48.7012   -999.2500
   934.8000      7.8078      2.5624      0.0844      5.3068     52.2181   -999.2500
   934.9000      7.8078      2.5475      0.0962      6.2144     52.9055   -999.2500
   935.0000      7.8145      2.5175      0.0104      8.0323     52.9785   -999.2500
   935.1000      7.8145      2.4996      0.0391      9.1132     52.9826   -999.2500
   935.2000      7.8145      2.5055      0.0453      8.7560   -999.2500   -999.2500
   935.3000      7.8152      2.5168      0.0562      8.0699   -999.2500   -999.2500
   935.4000      7.8152      2.5118      0.0578      8.3768   -999.2500   -999.2500
   935.5000      7.8138      2.5029     -0.0101      8.9133   -999.2500   -999.2500
   935.6000      7.8138      2.5180      0.0141      7.9985   -999.2500   -999.2500
   935.7000      7.8138      2.5470      0.0885      6.2414   -999.2500   -999.2500
   935.8000      7.8093      2.5615      0.0387      5.3648   -999.2500   -999.2500
   935.9000      7.8093      2.5512      0.0827      5.9882   -999.2500   -999.2500
   936.0000      7.8005      2.5235      0.0457      7.6686   -999.2500   -999.2500
   936.1000      7.8005      2.5094     -0.0091      8.5213   -999.2500   -999.2500
   936.2000      7.8005      2.5261      0.0816      7.5093   -999.2500   -999.2500
   936.3000      7.7911      2.5421      0.1238      6.5378   -999.2500   -999.2500
   936.4000      7.7911      2.5319      0.0784      7.1599   -999.2500   -999.2500
   936.5000      7.7864      2.5130      0.0462      8.3044   -999.2500   -999.2500
   936.6000      7.7864      2.5099      0.0612      8.4929   -999.2500   -999.2500
   936.7000      7.7864      2.5212      0.0739      7.8064   -999.2500   -999.2500
   936.8000      7.7877      2.5281      0.0661      7.3906   -999.2500   -999.2500
   936.9000      7.7877      2.5205      0.0489      7.8500   -999.2500   -999.2500
   937.0000      7.7902      2.5131      0.0224      8.2985   -999.2500   -999.2500
   937.1000      7.7902      2.5246      0.0360      7.6013   -999.2500   -999.2500
   937.2000      7.7902      2.5445      0.0844      6.3923   -999.2500   -999.2500
   937.3000      7.7909      2.5496      0.0902      6.0838   -999.2500   -999.2500
   937.4000      7.7909      2.5375      0.0842      6.8180   -999.2500   -999.2500
   937.5000      7.7926      2.5231      0.0457      7.6916   -999.2500   -999.2500
   937.6000      7.7926      2.5160      0.0410      8.1208   -999.2500   -999.2500
   937.7000      7.7926      2.5153      0.0215      8.1655   -999.2500   -999.2500
   937.8000      7.7920      2.5201      0.0376      7.8746   -999.2500   -999.2500
   937.9000      7.7920      2.5297      0.0539      7.2883   -999.2500   -999.2500
   938.0000      7.7828      2.5414      0.0612      6.5798   -999.2500   -999.2500
   938.1000      7.7828      2.5496      0.0429      6.0876   -999.2500   -999.2500
   938.2000      7.7828      2.5464      0.0705      6.2765   -999.2500   -999.2500
   938.3000      7.7657      2.5313      0.0762      7.1959   -999.2500   -999.2500
   938.4000      7.7657      2.5156      0.0177      8.1474   -999.2500   -999.2500
   938.5000      7.7442      2.5091      0.0244      8.5365   -999.2500   -999.2500
   938.6000      7.7442      2.5006      0.0548      9.0551   -999.2500   -999.2500
   938.7000      7.7442      2.4791      0.0106     10.3549   -999.2500   -999.2500
   938.8000      7.7237      2.4595      0.0289     11.5430   -999.2500   -999.2500
   938.9000      7.7237      2.4574      0.0023     11.6698   -999.2500   -999.2500
   939.0000      7.7053      2.4666      0.0332     11.1142   -999.2500   -999.2500
   939.1000      7.7053      2.4707      0.0470     10.8657   -999.2500   -999.2500
   939.2000      7.7053      2.4742     -0.0028     10.6529   -999.2500   -999.2500
   939.3000      7.6874      2.4919      0.0350      9.5839   -999.2500   -999.2500
   939.4000      7.6874      2.5163      0.0430      8.1036   -999.2500   -999.2500
   939.5000      7.6757      2.5309      0.0597      7.2186   -999.2500   -999.2500
   939.6000      7.6757      2.5308      0.0607      7.2261   -999.2500   -999.2500
   939.7000      7.6757      2.5247      0.0409      7.5934   -999.2500   -999.2500
   939.8000      7.6669      2.5222      0.0738      7.7429   -999.2500   -999.2500
   939.9000      7.6669      2.5194      0.0383      7.9145   -999.2500   -999.2500
