~Version Information
VERS.                      2.0: CWLS Log ASCII Standard - VERSION 2.0
WRAP.                       NO: One line per depth step
~Well Information Block
STRT.FT               840.0000: 
STOP.FT              2448.5000: 
STEP.FT                 0.2500: 
NULL.                -999.2500: 
COMP.          Petrogulf Corporation: COMPANY
WELL.             Leier 17-42V: WELL
FLD.           Purgatorie River: FIELD
LOC.           2309' FNL & 1062' FEL SENE 17 33S 67W: LOCATION
PROV.                 Colorado: PROVINCE
CNTY.               Las Animas: COUNTRY
SRVC.                Patterson: SERVICE COMPANY
DATE.          Thu Sep 22 09:40:29 2005: LOG DATE
UWI.                 071 08409: UNIQUE WELL ID
~Curve Information Block
DEPT.FT            0 000 00 00: Depth
SP.mV                         : DIL Spontaneous Potential
RILD.Ohm-m                    : DIL Deep Resistivity
RILM.Ohm-m                    : DIL Medium Resistivity
RLL3.Ohm-m                    : DIL Shallow Resistivity
GR.GAPI                       : Gamma Ray
~Parameter Information Block
~A  Depth        SP         RILD        RILM        RLL3         GR     
# ...
  1456.0000    181.0288     21.4433     24.8667     31.6573    117.3313
  1456.2500    180.0525     22.3317     25.5996     33.5590    103.8488
  1456.5000    179.4645     23.5055     26.3644     35.0149    107.7064
  1456.7500    179.2408     24.2239     27.2777     33.0500    101.5377
  1457.0000    179.3301     24.8891     27.5654     30.5748     96.9052
  1457.2500    179.5655     25.4544     28.8354     29.6706    106.4246
  1457.5000    179.8332     26.5466     29.7719     31.6572     91.7851
  1457.7500    180.0624     27.7669     31.0046     37.7926     93.8535
  1458.0000    180.1706     28.3448     33.7349     43.8705    107.3239
  1458.2500    180.0562     28.8005     34.9269     46.4971     93.8308
  1458.5000    179.6222     29.0487     34.5709     44.5364     91.6189
  1458.7500    178.9651     29.3524     35.6053     41.5015     91.2293
  1459.0000    178.1225     30.3897     36.6690     43.4201    104.1321
  1459.2500    177.1799     30.3624     36.2257     44.9932    101.1739
  1459.5000    176.3023     30.2721     37.0849     42.8058     97.0491
  1459.7500    175.6484     31.4828     39.0428     45.0094     75.1315
  1460.0000    175.2030     30.8037     40.9293     49.7009     72.4898
  1460.2500    174.9261     30.5456     40.2729     54.0687     83.8843
  1460.5000    174.8551     30.5138     39.9495     55.3547     99.1501
  1460.7500    174.9535     31.1145     38.7531     52.8303     74.6279
  1461.0000    175.2560     31.7018     39.8291     49.7680     75.9148
  1461.2500    175.7203     31.4140     40.7210     42.9087     76.8824
  1461.5000    176.4499     32.2515     41.4438     40.4036     85.9582
  1461.7500    177.4630     30.8658     41.3543     44.8705     80.1541
  1462.0000    178.9018     30.3763     41.9334     47.0497     94.6706
  1462.2500    180.5343     29.2935     44.3157     45.8002     80.1843
  1462.5000    182.3422     28.0914     43.9071     47.9951     80.9835
  1462.7500    184.2972     26.5681     43.3793     51.3438     76.8902
  1463.0000    186.4589     23.9351     42.3185     50.0331     82.8757
  1463.2500    189.0621     21.8779     38.9580     44.1034     76.5430
  1463.5000    192.2225     19.5673     34.5784     37.6597     63.4609
  1463.7500    195.4495     18.1326     28.9062     40.8513     67.4002
  1464.0000    198.7563     16.6984     24.1455     50.2110     82.0498
  1464.2500    202.0493     15.7018     20.1081     44.6364     74.2968
  1464.5000    205.3365     14.5057     16.3429     25.0437    104.9943
  1464.7500    207.9571     13.7620     13.8846     13.9562    100.5137
  1465.0000    209.7924     13.1156     12.2404     10.5915     98.2862
  1465.2500    211.0392     12.8011     11.0997     10.0236    114.2653
  1465.5000    212.0094     12.3303     10.3735     10.0072    130.3601
  1465.7500    212.8020     12.2157      9.8673     10.1347    119.4471
  1466.0000    213.4176     12.2006      9.6665      9.9478    131.4054
  1466.2500    213.9860     11.9361      9.4998      9.7703    130.9706
  1466.5000    214.4097     11.7039      9.6555      9.5070    139.3637
  1466.7500    214.7439     11.5611      9.9020      9.7964    156.4591
  1467.0000    214.8917     11.5428     10.3592     11.3716    158.7719
  1467.2500    214.7985     11.5765     11.0275     14.1354    141.6113
  1467.5000    214.5925     11.6063     11.8297     18.6071    160.8804
  1467.7500    214.3863     11.7466     12.7588     24.7920    138.3856
  1468.0000    214.1593     11.8889     13.4954     32.4040    115.9359
  1468.2500    213.9164     12.0202     13.9251     34.4366    122.6804
  1468.5000    213.6136     12.3393     13.9620     27.1674    124.1122
  1468.7500    213.1888     12.6648     13.9548     21.8038    125.2906
  1469.0000    212.7099     12.8570     14.0376     19.2110     92.3266
  1469.2500    211.9937     13.0964     14.0206     18.3705     72.2025
  1469.5000    211.1953     13.0390     13.9870     15.6292     81.9654
  1469.7500    210.3137     12.9771     13.7420     13.7893     99.4984
  1470.0000    209.2442     12.7254     13.2220     14.0818    131.8218
  1470.2500    207.8869     12.1928     12.9049     13.8819    126.1496
  1470.5000    206.4840     11.5853     12.2849     13.5229    131.7630
  1470.7500    205.1463     11.0344     11.6092     13.3274    139.4500
  1471.0000    204.0742     10.5300     10.8463     13.2179    118.7002
  1471.2500    203.2594     10.0196     10.1348     12.4764    136.1371
  1471.5000    202.4847      9.7267      9.4902     11.6464    134.1975
  1471.7500    201.6247      9.3861      8.8779     10.7748    135.3332
  1472.0000    200.7269      9.0993      8.4578      9.6534    142.5098
  1472.2500    199.7407      9.0173      8.2170      9.0428    142.6525
  1472.5000    198.7545      8.8319      8.0341      9.4443    135.0751
  1472.7500    197.8460      8.8157      7.9763      9.9270    144.6747
  1473.0000    196.8911      8.7667      7.9188     10.3073    152.6472
  1473.2500    195.9760      8.8122      7.9226     10.5443    146.2851
  1473.5000    195.0679      8.8851      7.9887     10.9245    144.6194
  1473.7500    194.2640      9.0745      8.0609     11.3762    176.4037
  1474.0000    193.4671      9.3081      8.2934     11.6204    182.9985
  1474.2500    192.7197      9.5946      8.5551     11.6777    173.8228
  1474.5000    192.0029     10.1071      8.8879     11.9186    160.1737
  1474.7500    191.4370     10.6090      9.3616     12.0373    149.7396
  1475.0000    191.1107     11.0497     10.0354     12.2348    170.6381
  1475.2500    191.0152     11.5110     11.0677     13.4965    168.9043
  1475.5000    191.3183     11.9754     12.4123     18.0258    140.6125
  1475.7500    192.0300     12.5488     13.7940     27.6641    138.7022
  1476.0000    192.9426     13.1789     15.2262     33.5297    127.5324
  1476.2500    193.5795     13.8318     16.3696     32.5443    129.1375
  1476.5000    193.6889     14.6925     17.0651     33.7086    106.1278
  1476.7500    193.5168     15.3909     17.7155     35.8839     92.3318
  1477.0000    193.1976     16.2773     18.2132     32.4794    103.3351
  1477.2500    192.8697     17.3138     18.5297     27.3809    111.0514
  1477.5000    192.4469     18.8379     18.8923     24.1205    109.8853
  1477.7500    192.0477     19.7760     19.6342     21.8840     93.8925
  1478.0000    191.7715     20.9239     20.0873     19.1582    102.6073
  1478.2500    191.5625     21.5964     21.4878     18.6670    108.3974
  1478.5000    191.4726     22.1300     23.3298     23.7393    112.5398
  1478.7500    191.4097     22.0944     25.0787     35.2222    137.9768
  1479.0000    191.4818     22.0697     27.2013     47.6560    151.2317
  1479.2500    191.5719     21.9320     28.3425     50.7394    147.6929
  1479.5000    191.7077     22.2894     28.1226     46.7666    145.5854
  1479.7500    191.8165     22.5346     27.2986     39.2883    109.6281
  1480.0000    191.8698     22.7761     27.1012     31.7798    114.3127
  1480.2500    191.7962     23.4013     26.8164     26.8864    133.1360
  1480.5000    191.6468     23.6697     27.0189     25.5426     99.4430
  1480.7500    191.4155     24.6133     28.1719     30.2796     88.0116
  1481.0000    191.1188     24.9110     29.9323     39.0931     98.8619
  1481.2500    190.5592     24.4980     29.9197     44.4333    108.9649
  1481.5000    189.8991     23.9045     29.8095     42.8416     97.4018
  1481.7500    189.1497     24.0295     28.9678     36.2130    105.5956
  1482.0000    188.2643     23.7921     28.1487     30.0079     89.9018
  1482.2500    187.3624     23.8774     27.0607     25.8827     90.0445
  1482.5000    186.7211     23.2886     26.5138     23.5770     96.2680
  1482.7500    186.1135     23.2789     26.2187     24.0099     99.0020
  1483.0000    185.5723     22.6184     26.0062     26.6077     87.1847
  1483.2500    185.2889     22.5297     25.5494     26.4964    109.9827
  1483.5000    185.2229     21.8416     25.4860     24.4664     98.9295
  1483.7500    185.3628     21.4803     25.1721     26.5262     91.4987
