~Version Information
VERS.                      2.0: CWLS Log ASCII Standard - VERSION 2.0
WRAP.                       NO: One line per depth step
~Well Information Block
STRT.FT               899.1000: 
STOP.FT              2501.5000: 
STEP.FT                 0.1000: 
NULL.                -999.2500: 
COMP.          Petrogulf Corporation: COMPANY
WELL.           Deremer 17-21V: WELL
FLD.           Purgatorie River: FIELD
LOC.           851' FNL & 963' FWL: LOCATION
CNTY.               Las Animas: COUNTY
SRVC.                         : SERVICE COMPANY
DATE.          Tue Nov 18 09:12:06 2003: LOG DATE
UWI.                          : UNIQUE WELL ID
STAT.                 Colorado: STATE
~Curve Information Block
DEPT.FT            0 000 00 00: Depth
DPOR.pu                       : CDL Density Porosity
NEU.NAPI                      : Neutron
NPOR.pu                       : Neutron Porosity
RHOB.g/cc                     : CDL Bulk Density
RHOC.g/cc                     : CDL Density Correction
GR.GAPI                       : Gamma Ray
DCAL.in                       : CDL Caliper
~Parameter Information Block
~A  Depth       DPOR        NEU         NPOR        RHOB        RHOC         GR         DCAL    
# ...
  2184.3000      5.0236   1159.9043     23.9054      2.5671      0.0510     70.0792      7.8062
  2184.4000      5.0485   1165.8209     23.6469      2.5667      0.0606     70.7877      7.8062
  2184.5000      4.5640   1171.0146     23.4197      2.5747      0.1413     72.7902      7.8176
  2184.6000      4.9325   1169.3003     23.4947      2.5686      0.0943     76.3381      7.8176
  2184.7000      5.7499   1157.6306     24.0046      2.5551      0.0544     80.6824      7.8176
  2184.8000      5.4411   1147.3850     24.4508      2.5602      0.0967     82.3390      7.8188
  2184.9000      3.7525   1147.7839     24.4334      2.5881      0.0902     80.0958      7.8188
  2185.0000      1.6704   1152.8295     24.2138      2.6224      0.1071     79.9833      7.8141
  2185.1000      0.7615   1152.3915     24.2329      2.6374      0.1641     84.1103      7.8141
  2185.2000      1.6873   1145.3219     24.5405      2.6222      0.1009     86.2260      7.8141
  2185.3000      2.9341   1140.1364     24.7657      2.6016      0.0852     82.0529      7.8162
  2185.4000      3.2714   1146.4210     24.4927      2.5960      0.0746     73.3778      7.8162
  2185.5000      3.2342   1163.3457     23.7551      2.5966      0.1077     67.2487      7.8216
  2185.6000      3.5994   1184.3630     22.8340      2.5906      0.0094     67.9806      7.8216
  2185.7000      4.0766   1207.1470     21.8287      2.5827      0.0563     72.5060      7.8216
  2185.8000      4.0016   1226.2562     20.9797      2.5840      0.0682     77.2428      7.8242
  2185.9000      3.7214   1233.8890     20.6391      2.5886      0.1315     78.5898      7.8242
  2186.0000      4.0513   1233.2006     20.6698      2.5832      0.0901     75.4376      7.8280
  2186.1000      4.8182   1227.2780     20.9342      2.5705      0.1033     72.9932      7.8280
  2186.2000      5.3218   1211.2596     21.6465      2.5622      0.0620     74.5204      7.8280
  2186.3000      5.2763   1188.0011     22.6740      2.5629      0.0533     77.8828      7.8298
  2186.4000      4.8575   1168.6038     23.5252      2.5699      0.1001     79.1668      7.8298
  2186.5000      4.1001   1160.2074     23.8921      2.5823      0.0270     76.3288      7.8267
  2186.6000      3.1764   1159.0696     23.9418      2.5976      0.1205     72.6819      7.8267
  2186.7000      2.7255   1158.1155     23.9834      2.6050      0.1036     72.6497      7.8267
  2186.8000      2.6005   1159.6044     23.9185      2.6071      0.0941     76.4281      7.8247
  2186.9000      2.1836   1162.9423     23.7727      2.6140      0.1310     80.3291      7.8247
  2187.0000      1.5228   1163.4471     23.7507      2.6249      0.1236     79.9233      7.8241
  2187.1000      1.3891   1161.5964     23.8315      2.6271      0.1314     75.0762      7.8241
  2187.2000      2.2502   1160.4025     23.8836      2.6129      0.1089     71.1822      7.8241
  2187.3000      2.9978   1164.6510    -91.2623      2.6005      0.0250     71.8670      7.8221
  2187.4000      2.5984   1171.0259    -93.4167      2.6071      0.0493     74.3866      7.8221
  2187.5000      2.1020   1171.2902    -93.5068      2.6153      0.1025     74.0193      7.8205
  2187.6000      2.7875   1167.3629    -92.1743      2.6040      0.1034     69.9204      7.8205
  2187.7000      4.1899   1170.9186    -93.3801      2.5809      0.0683     65.5868      7.8205
  2187.8000      5.0778   1188.3090    -99.4429      2.5662      0.0590     64.3118      7.8200
  2187.9000      5.3189   1207.5082   -106.4619      2.5622      0.1087     65.3478      7.8200
  2188.0000      5.6964   1215.4027   -109.4495      2.5560      0.0797     65.2195      7.8175
  2188.1000      5.8081   1214.7135   -109.1862      2.5542      0.0375     64.1063      7.8175
  2188.2000      4.4619   1208.6365   -106.8853      2.5764      0.0413     64.3995      7.8175
  2188.3000      2.6874   1200.1953   -103.7475      2.6057      0.1546     67.9790      7.8147
  2188.4000      3.1235   1200.3982   -103.8221      2.5985      0.1642     74.8213      7.8147
  2188.5000      5.6960   1209.7629   -107.3091      2.5560      0.0638     80.0536      7.8152
  2188.6000      7.7063   1219.1771   -110.8990      2.5228      0.0497     82.5049      7.8152
  2188.7000      8.0150   1217.2986   -110.1758      2.5178      0.0741     86.1915      7.8152
  2188.8000      7.8781   1199.1407   -103.3602      2.5200      0.0754     91.8114      7.8128
  2188.9000      8.0864   1182.0287    -97.2215      2.5166      0.0098     97.9594      7.8128
  2189.0000      7.9867   1182.1101    -97.2501      2.5182      0.0302    103.1278      7.8145
  2189.1000      7.4559   1191.7582   -100.6785      2.5270      0.0992    104.6279      7.8145
  2189.2000      7.5925   1196.0989   -102.2491      2.5247      0.1168    102.5118      7.8145
  2189.3000      8.6412   1195.4028   -101.9960      2.5074      0.0573     99.9558      7.8285
  2189.4000      9.5463   1199.2699   -103.4076      2.4925      0.0395     98.4613      7.8285
  2189.5000      9.8409   1203.2688   -104.8822      2.4876      0.0076     97.4166      7.8270
  2189.6000      9.4932   1200.7860   -103.9649      2.4934     -0.0121     95.7389      7.8270
  2189.7000      8.4480   1196.1176   -102.2559      2.5106      0.1041     94.6614      7.8270
  2189.8000      7.1418   1193.9609   -101.4733      2.5322      0.0432     97.3312      7.8070
  2189.9000      5.6545   1195.5250   -102.0404      2.5567      0.0635    105.9722      7.8070
  2190.0000      4.4171   1207.7679   -106.5593      2.5771      0.1383    112.7664      7.7991
  2190.1000      5.0681   1237.2139   -118.0182      2.5664      0.1374    106.4337      7.7991
  2190.2000      7.6069   1270.2517   -131.9047      2.5245      0.0609     94.6197      7.7991
  2190.3000      9.8683   1296.8181   -143.8946      2.4872      0.0529     87.9973      7.7905
  2190.4000     10.6010   1335.3672   -162.6566      2.4751      0.0334     82.5591      7.7905
  2190.5000     10.1748   1391.6226   -193.0885      2.4821      0.0456     77.8535      7.7819
  2190.6000      9.3678   1430.3094   -216.2354      2.4954      0.0424     79.9309      7.7819
  2190.7000      8.7933   1416.8176   -207.9511      2.5049      0.0858     85.5448      7.7819
  2190.8000      8.6102   1352.4950   -171.5296      2.5079      0.0600     86.4204      7.7810
  2190.9000      8.5731   1248.3484   -122.5743      2.5085      0.0923     82.9505      7.7810
  2191.0000      9.1515   1093.2635    -69.5275      2.4990      0.0867     78.8857      7.7836
  2191.1000     10.6981    886.0685    -27.3877      2.4735      0.0343     75.0056      7.7836
  2191.2000     12.0626    682.0758     -6.6966      2.4510     -0.0219     71.5146      7.7836
  2191.3000     11.8690    548.7704      1.5051      2.4542      0.0073     69.4307      7.7916
  2191.4000     10.0100    484.2028      5.1886      2.4848      0.0439     68.9980      7.7916
  2191.5000      7.8362    437.0872      8.0643      2.5207      0.0690     66.6769      7.8012
  2191.6000      6.9669    381.7085     11.8727      2.5350      0.1020     61.2887      7.8012
  2191.7000      7.0211    330.7251     15.9399      2.5342      0.0159     57.6366      7.8012
  2191.8000      6.4561    299.1339     18.7082      2.5435      0.0454     58.5785      7.8103
  2191.9000      5.2948    287.6472     19.7549      2.5626      0.0991     61.4622      7.8103
  2192.0000      4.2162    287.5990     19.7593      2.5804      0.0985     63.6859      7.8150
  2192.1000      3.6947    288.8596     19.6435      2.5890      0.1285     64.9963      7.8150
  2192.2000      4.2864    288.6550     19.6622      2.5793      0.0078     65.5861      7.8150
  2192.3000      6.0448    289.0898     19.6223      2.5503      0.0797     65.1881      7.8139
  2192.4000      8.6038    287.3572     19.7815      2.5080      0.0072     62.9936      7.8139
  2192.5000     10.3673    279.4474     20.5139      2.4789     -0.0327     61.5612      7.8082
  2192.6000     10.0034    271.5828     21.2506      2.4849      0.0051     65.2903      7.8082
