~Version Information
VERS.                      2.0: CWLS Log ASCII Standard - VERSION 2.0
WRAP.                       NO: One line per depth step
~Well Information Block
STRT.FT               -12.5000: 
STOP.FT              1613.0000: 
STEP.FT                 0.2500: 
NULL.                -999.2500: 
COMP.          Pioneer Natural Resources: COMPANY
WELL.          Peregrine 12-20: WELL
FLD.           Purgatorie River: FIELD
LOC.           1722' FNL & 999' FWL--: LOCATION
PROV.                       CO: PROVINCE
CNTY.               Las Animas: COUNTRY
SRVC.          Patterson Wireline: SERVICE COMPANY
DATE.          Fri Jul 22 12:50:00 2005: LOG DATE
UWI.           05 071 08428 00: UNIQUE WELL ID
~Curve Information Block
DEPT.FT            0 000 00 00: Depth
CCL.                          : Casing Collar Locator
TT3.usec                      : CBL 3' Travel Time
AMP3.mV                       : CBL 3' Amplitude
GR.GAPI                       : Gamma Ray
~Parameter Information Block
~A  Depth       CCL         TT3         AMP3         GR     
# ...
  1595.5000      0.0000    300.9142     17.0356     68.6144
  1595.7500      0.0000    300.8519     16.9462     67.3520
  1596.0000      0.0000    300.7987     16.8156     66.3512
  1596.2500      0.0000    300.7521     16.6821     65.6680
  1596.5000      0.0000    300.7110     16.5827     64.9117
  1596.7500      0.0000    300.6795     16.5350     63.7956
  1597.0000      0.0000    300.6644     16.5270     62.5392
  1597.2500      0.0000    300.6718     16.5264     61.7194
  1597.5000      0.0000    300.7020     16.4965     61.8108
  1597.7500      0.0000    300.7425     16.4026     63.0276
  1598.0000      0.0000    300.7711     16.2198     65.3873
  1598.2500      0.0000    300.7780     15.9606     68.3523
  1598.5000      0.0000    300.7822     15.6877     70.1593
  1598.7500      0.0000    300.8153     15.4793     68.0314
  1599.0000      0.0000    300.8825     15.3898     59.8620
  1599.2500      0.0000    300.9479     15.4526     46.1833
  1599.5000      0.0000    300.9721     15.6941     30.4032
  1599.7500      0.0000    300.9618     16.1092     16.7207
  1600.0000      0.0000    300.9622     16.6310      7.5560
  1600.2500      0.0000    300.9949     17.1616      2.7698
  1600.5000      0.0000    301.0204     17.6586      0.8151
  1600.7500      0.0000    300.9767     18.1793      0.1908
  1601.0000      0.0000    300.8468     18.8106      0.0348
  1601.2500      0.0000    300.6754     19.5518      0.0045
  1601.5000      0.0000    300.5202     20.2853      0.0000
  1601.7500      0.0000    300.4039     20.8647   -999.2500
  1602.0000      0.0000    300.3175     21.1992   -999.2500
  1602.2500      0.0000    300.2557     21.2479   -999.2500
  1602.5000      0.0000    300.2358     20.9903   -999.2500
  1602.7500      0.0000    300.2847     20.4432   -999.2500
  1603.0000      0.0000    300.3907     19.6831   -999.2500
  1603.2500      0.0000    300.4370     18.8246   -999.2500
  1603.5000      0.0000    299.9545     17.9617   -999.2500
  1603.7500      0.0000    297.4770     17.0966   -999.2500
  1604.0000      0.0000    289.4793     16.0722   -999.2500
  1604.2500      0.0000    270.0764     14.5909   -999.2500
  1604.5000      0.0000    233.6971     12.4000   -999.2500
  1604.7500      0.0000    180.6931      9.5677   -999.2500
  1605.0000      0.0000    120.5996      6.5764   -999.2500
  1605.2500      0.0000     67.5583      4.0577   -999.2500
  1605.5000      0.0000     31.1036      2.3832   -999.2500
  1605.7500      0.0000     11.5920      1.5082   -999.2500
  1606.0000      0.0000      3.4592      1.1500   -999.2500
  1606.2500      0.0000      0.8191      1.0352   -999.2500
  1606.5000      0.0000      0.1516      1.0064   -999.2500
  1606.7500      0.0000      0.0201      1.0008   -999.2500
  1607.0000      0.0000   -999.2500   -999.2500   -999.2500
  1607.2500      0.0000   -999.2500   -999.2500   -999.2500
  1607.5000      0.0000   -999.2500   -999.2500   -999.2500
  1607.7500      0.0000   -999.2500   -999.2500   -999.2500
  1608.0000      0.0000   -999.2500   -999.2500   -999.2500
  1608.2500      0.0000   -999.2500   -999.2500   -999.2500
  1608.5000      0.0000   -999.2500   -999.2500   -999.2500
  1608.7500      0.0000   -999.2500   -999.2500   -999.2500
  1609.0000      0.0000   -999.2500   -999.2500   -999.2500
  1609.2500      0.0000   -999.2500   -999.2500   -999.2500
  1609.5000      0.0000   -999.2500   -999.2500   -999.2500
  1609.7500      0.0000   -999.2500   -999.2500   -999.2500
  1610.0000      0.0000   -999.2500   -999.2500   -999.2500
  1610.2500      0.0000   -999.2500   -999.2500   -999.2500
  1610.5000      0.0000   -999.2500   -999.2500   -999.2500
  1610.7500      0.0000   -999.2500   -999.2500   -999.2500
  1611.0000      0.0000   -999.2500   -999.2500   -999.2500
  1611.2500      0.0000   -999.2500   -999.2500   -999.2500
  1611.5000      0.0000   -999.2500   -999.2500   -999.2500
  1611.7500      0.0000   -999.2500   -999.2500   -999.2500
  1612.0000      0.0000   -999.2500   -999.2500   -999.2500
  1612.2500      0.0000   -999.2500   -999.2500   -999.2500
  1612.5000   -999.2500   -999.2500   -999.2500   -999.2500
  1612.7500   -999.2500   -999.2500   -999.2500   -999.2500
  1613.0000   -999.2500   -999.2500   -999.2500   -999.2500
