~Version Information
VERS.                      2.0: CWLS Log ASCII Standard - VERSION 2.0
WRAP.                       NO: One line per depth step
~Well Information Block
STRT.FT               245.0000: 
STOP.FT              2464.2000: 
STEP.FT                 0.1000: 
NULL.                -999.2500: 
COMP.          Pioneer Natural Resources: COMPANY
WELL.          Oink Oink 14-36: WELL
FLD.           Purgatoire River: FIELD
LOC.           216' FSL & 263' FWL--: LOCATION
PROV.                 Colorado: PROVINCE
CNTY.               Las Animas: COUNTRY
SRVC.                Patterson: SERVICE COMPANY
DATE.          Wed Jun 08 16:53:09 2005: LOG DATE
UWI.           05 071 08394 00: UNIQUE WELL ID
~Curve Information Block
DEPT.FT            0 000 00 00: Depth
DCAL.in                       : CDL Caliper
RHOB.g/cc                     : CDL Bulk Density
RHOC.g/cc                     : CDL Density Correction
DPOR.pu                       : CDL Density Porosity
NPOR.pu                       : Neutron Porosity
GR.GAPI                       : Gamma Ray
~Parameter Information Block
~A  Depth       DCAL        RHOB        RHOC        DPOR        NPOR         GR     
# ...
   389.0000      8.1591      2.5136      0.0704      8.2695     27.3189    115.4564
   389.1000      8.1591      2.5157      0.0286      8.1365     27.9782    115.7643
   389.2000      8.1591      2.5218      0.0213      7.7699     28.5390    116.8275
   389.3000      8.1589      2.5395      0.0649      6.6993     28.7127    114.4641
   389.4000      8.1589      2.5582      0.0750      5.5655     28.6869    109.3194
   389.5000      8.1593      2.5748      0.0798      4.5590     28.7435    107.7478
   389.6000      8.1593      2.5929      0.0944      3.4634     28.7488    110.6350
   389.7000      8.1593      2.5993      0.1454      3.0699     28.4677    111.8518
   389.8000      8.1598      2.5807      0.1049      4.2020     28.0412    111.6247
   389.9000      8.1598      2.5498      0.0645      6.0755     27.8170    112.6699
   390.0000      8.1610      2.5248      0.0302      7.5862     28.0864    111.7120
   390.1000      8.1610      2.5127     -0.0022      8.3204     28.5376    107.9764
   390.2000      8.1610      2.5094      0.0120      8.5241     28.5083    104.4998
   390.3000      8.1612      2.5060      0.0301      8.7251     28.0583    101.9771
   390.4000      8.1612      2.5037      0.0494      8.8695     27.6364    100.0607
   390.5000      8.1624      2.5072      0.0481      8.6572     27.2186     98.5947
   390.6000      8.1624      2.5217      0.0505      7.7774     26.7221     99.1489
   390.7000      8.1624      2.5537      0.0671      5.8350     26.3562    101.5463
   390.8000      8.1727      2.5973      0.0999      3.1919     26.1915    102.4403
   390.9000      8.1727      2.6314      0.1184      1.1258     26.0865    102.2118
   391.0000      8.1980      2.6414      0.1174      0.5225     25.9083    101.5980
   391.1000      8.1980      2.6410      0.0413      0.5451     25.7606     99.1065
   391.2000      8.1980      2.6541      0.0141     -0.2480     25.6742     95.4283
   391.3000      8.2247      2.6729      0.0608     -1.3871     25.5195     90.5945
   391.4000      8.2247      2.6683      0.0587     -1.1082     25.4514     86.6307
   391.5000      8.2373      2.6392      0.0266      0.6538     25.3740     87.4520
   391.6000      8.2373      2.6150      0.0111      2.1238     25.1360     91.1147
   391.7000      8.2373      2.6099      0.0127      2.4296     25.0830     90.4061
   391.8000      8.2403      2.6166     -0.0106      2.0220     25.4405     83.4030
   391.9000      8.2403      2.6258      0.0040      1.4674     26.1160     75.6435
   392.0000      8.2405      2.6269     -0.0032      1.4027     27.0054     71.9930
   392.1000      8.2405      2.6161      0.0103      2.0562     27.9511     72.3788
   392.2000      8.2405      2.6059     -0.0197      2.6700     28.5887     73.7262
   392.3000      8.2404      2.6090     -0.0154      2.4833     28.8223     76.0192
   392.4000      8.2404      2.6189      0.0321      1.8855     29.0131     79.9859
   392.5000      8.2411      2.6276     -0.0269      1.3581     29.3091     83.4303
   392.6000      8.2411      2.6351      0.0179      0.9051     29.8764     86.2808
   392.7000      8.2411      2.6324      0.0123      1.0653     30.8305     88.1817
   392.8000      8.2416      2.6145      0.0251      2.1535     31.7734     88.3005
   392.9000      8.2416      2.5966     -0.0347      3.2390     32.3805     90.4333
   393.0000      8.2416      2.5966      0.0132      3.2376     32.6367     95.8992
   393.1000      8.2416      2.6090      0.0278      2.4850     32.6325    102.9664
   393.2000      8.2416      2.6187      0.0478      1.8980     32.5467    110.4032
   393.3000      8.2427      2.6176      0.0384      1.9609     32.3270    114.7676
   393.4000      8.2427      2.6025      0.0520      2.8759     31.7620    115.2093
   393.5000      8.2437      2.5809      0.0049      4.1866     31.0790    116.1804
   393.6000      8.2437      2.5742      0.0183      4.5950     30.6012    121.6394
   393.7000      8.2437      2.5867      0.0577      3.8344     30.4563    128.1599
   393.8000      8.2430      2.5952      0.0492      3.3238     30.7442    131.5498
   393.9000      8.2430      2.5895      0.0132      3.6657     30.9795    132.5388
   394.0000      8.2424      2.5812      0.0139      4.1674     30.7710    129.7118
   394.1000      8.2424      2.5755      0.0103      4.5147     30.7529    124.1992
   394.2000      8.2424      2.5705      0.0191      4.8176     31.3127    123.0135
   394.3000      8.2426      2.5687     -0.0079      4.9287     31.8979    126.3961
   394.4000      8.2426      2.5711      0.0281      4.7819     31.9202    127.8559
   394.5000      8.2429      2.5715      0.0143      4.7569     31.2580    126.3822
   394.6000      8.2429      2.5701      0.0028      4.8454     30.3150    125.4340
   394.7000      8.2429      2.5704      0.0122      4.8244     29.8058    126.7409
   394.8000      8.2448      2.5733      0.0110      4.6474     29.7579    128.7971
   394.9000      8.2448      2.5807      0.0180      4.1981     29.5018    128.3446
   395.0000      8.2510      2.5953      0.0123      3.3150     28.8014    126.6793
   395.1000      8.2510      2.6140      0.0543      2.1798     28.1174    124.9719
   395.2000      8.2510      2.6313      0.0223      1.1349     27.6339    121.8903
   395.3000      8.2603      2.6432      0.0651      0.4126     27.1195    118.9333
   395.4000      8.2603      2.6409      0.0516      0.5540     26.5323    115.9354
   395.5000      8.2659      2.6243      0.0522      1.5584     26.3384    113.0511
   395.6000      8.2659      2.6064      0.0302      2.6435     26.6444    114.2499
   395.7000      8.2659      2.5969      0.0353      3.2161     26.7326    119.1641
   395.8000      8.2665      2.5958      0.0493      3.2864     26.4681    122.1369
   395.9000      8.2665      2.5991      0.0113      3.0870     26.3344    122.4764
   396.0000      8.2655      2.6057      0.0369      2.6863     26.3464    125.4501
   396.1000      8.2655      2.6107      0.0167      2.3796     26.2692    129.7018
   396.2000      8.2655      2.6032      0.0519      2.8370     26.2056    129.2707
   396.3000      8.2663      2.5841     -0.0069      3.9940     26.4053    125.3332
   396.4000      8.2663      2.5706      0.0032      4.8131     26.6523    121.2039
   396.5000      8.2694      2.5659      0.0305      5.0981     26.6683    119.4411
   396.6000      8.2694      2.5649      0.0192      5.1560     26.6935    122.1556
   396.7000      8.2694      2.5751      0.0044      4.5420     26.7259    127.2899
   396.8000      8.2705      2.5945      0.0086      3.3615     26.3971    133.9623
   396.9000      8.2705      2.6042      0.0399      2.7784     25.9615    139.8604
   397.0000      8.2689      2.5966      0.0201      3.2335     25.7460    138.6095
   397.1000      8.2689      2.5859      0.0298      3.8872     25.5692    133.9765
   397.2000      8.2689      2.5856      0.0271      3.9052     25.4731    131.4403
   397.3000      8.2677      2.5957      0.0292      3.2894     25.7044    126.7276
   397.4000      8.2677      2.5979      0.0528      3.1584     26.1951    121.8924
   397.5000      8.2671      2.5765      0.0118      4.4540     26.3304    125.2784
   397.6000      8.2671      2.5480     -0.0090      6.1793     25.6961    132.4072
   397.7000      8.2671      2.5341      0.0078      7.0262     25.0542    132.2426
   397.8000      8.2668      2.5377      0.0060      6.8036     25.3494    124.4345
   397.9000      8.2668      2.5579      0.0055      5.5829     26.1817    116.8477
   398.0000      8.2667      2.5858      0.0377      3.8905     26.6162    114.8196
   398.1000      8.2667      2.6034      0.0423      2.8220     26.5619    119.6162
   398.2000      8.2667      2.5998      0.0442      3.0421     26.6171    126.6213
   398.3000      8.2639      2.5732      0.0178      4.6574     26.9989    128.8137
   398.4000      8.2639      2.5413     -0.0314      6.5894     27.3437    127.7804
   398.5000      8.2559      2.5376     -0.0623      6.8122     27.4516    129.4657
