~Version Information
 VERS.                                  2.0 : CWLS LAS VERSION
 WRAP.                                   NO : WRAPING MODE
 SWARE .                 MController 2.5.0J : SOFTWARE VERSION
~Well Information
 WELL.                         State 16-41R : WELL
 COMP.                Petrogulf Corporation : COMPANY
 FLD.                      Purgatoire River : FIELD
 LOC.               NE/NE Sec 16 T33S R67W  : LOCATION
 DATE.                          10/17-18/05 : DATE(S) LOGGED
 SRVC.       BLANCO Geological Services LLC : SERVICE COMPANY
 STAT.                                   CO : STATE
 CNTY.                           Las Animas : COUNTY
 CTRY.                                  USA : COUNTRY
 API.                       05-071-08410-00 : API NUMBER
 STRT.FT                              11.00 : START DEPTH
 STOP.FT                            1635.00 : STOP DEPTH
 STEP.FT                               1.00 : DEPTH INCREMENT
 NULL.                                -9999 : NULL VALUE
~Curve information
 DEPTH.FT                                   :
 ROP.MIN/FT                                 :
 GAS.UNITS                                  :
~ASCII Log data
# ...
      1011.0         0.10         55.8 
      1012.0         0.13         54.8 
      1013.0         0.10         55.7 
      1014.0         0.10         58.2 
      1015.0         0.13         64.6 
      1016.0         6.43        219.2 
      1017.0         0.10         79.7 
      1018.0         0.17         76.9 
      1019.0         0.17         72.0 
      1020.0         0.13         69.6 
      1021.0         0.13         70.0 
      1022.0         0.10         71.1 
      1023.0         0.50         76.1 
      1024.0         0.20         77.1 
      1025.0         0.17         77.2 
      1026.0         0.13         76.5 
      1027.0         0.23         75.3 
      1028.0         0.32         72.7 
      1029.0         0.17         68.8 
      1030.0         0.17         66.8 
      1031.0         0.13         65.2 
      1032.0         0.13         63.9 
      1033.0         0.10         63.4 
      1034.0         0.17         62.9 
      1035.0         0.13         61.8 
      1036.0         0.13         60.6 
      1037.0         0.17         59.4 
      1038.0         0.13         58.6 
      1039.0         0.17         58.0 
      1040.0         0.13         57.5 
      1041.0         0.13         56.4 
      1042.0         0.13         54.8 
      1043.0         0.13         52.6 
      1044.0         0.17         50.4 
      1045.0         0.13         49.0 
      1046.0         2.68        192.8 
      1047.0         0.27        142.4 
      1048.0         0.27        131.0 
      1049.0         0.27        121.3 
      1050.0         0.35        111.0 
      1051.0         0.23         99.4 
      1052.0         0.37         91.8 
      1053.0         0.60         81.0 
      1054.0         0.60         69.0 
      1055.0         0.33         57.2 
      1056.0         0.50         51.4 
      1057.0         0.43         46.2 
      1058.0         0.38         44.4 
      1059.0         0.33         43.5 
      1060.0         0.23         43.3 
      1061.0         0.27         42.9 
      1062.0         0.40         42.7 
      1063.0         0.37         42.1 
      1064.0         0.23         39.6 
      1065.0         0.20         37.8 
      1066.0         0.17         37.3 
      1067.0         0.17         38.1 
      1068.0         0.17         39.0 
      1069.0         0.17         41.0 
      1070.0         0.48         45.7 
      1071.0         0.33         47.3 
      1072.0         0.30         47.5 
      1073.0         0.30         47.0 
      1074.0         0.30         46.7 
      1075.0         0.33         45.3 
      1076.0         2.85        173.7 
      1077.0         0.13        147.5 
      1078.0         0.13        141.1 
      1079.0         0.13        134.9 
      1080.0         0.20        129.8 
      1081.0         0.17        122.7 
      1082.0         0.37        117.9 
      1083.0         0.40        107.5 
      1084.0         0.37         97.7 
      1085.0         0.32         88.8 
      1086.0         0.33         80.3 
      1087.0         0.30         72.9 
      1088.0         0.33         66.9 
      1089.0         0.27         62.3 
      1090.0         0.23         58.7 
      1091.0         0.17         55.5 
      1092.0         0.20         53.4 
      1093.0         0.20         51.6 
      1094.0         0.13         51.5 
      1095.0         0.13         52.6 
      1096.0         0.10         53.5 
      1097.0         0.20         55.6 
      1098.0         0.17         57.4 
      1099.0         0.27         59.3 
      1100.0         0.32         61.2 
      1101.0         0.30         61.9 
      1102.0         0.33         62.0 
      1103.0         0.17         60.2 
      1104.0         0.13         57.7 
      1105.0         0.07         55.6 
      1106.0         3.38        238.6 
      1107.0         0.53        192.6 
      1108.0         0.30        163.2 
      1109.0         0.40        146.4 
      1110.0         0.42        129.0 
      1111.0         0.33        111.7 
      1112.0         0.33        102.1 
      1113.0         0.37         92.1 
      1114.0         0.33         83.6 
      1115.0         0.27         76.8 
      1116.0         0.27         72.6 
      1117.0         0.27         69.6 
      1118.0         0.23         66.7 
      1119.0         0.23         64.1 
      1120.0         0.32         62.2 
      1121.0         0.40         60.1 
      1122.0         0.23         58.0 
      1123.0         0.33         56.8 
      1124.0         0.43         55.1 
      1125.0         0.23         53.9 
      1126.0         0.20         52.8 
      1127.0         0.20         51.8 
      1128.0         0.23         51.0 
      1129.0         0.23         50.3 
      1130.0         0.28         49.5 
      1131.0         0.23         49.0 
      1132.0         0.20         48.2 
      1133.0         0.17         47.7 
      1134.0         0.13         46.3 
      1135.0         0.17         44.0 
      1136.0         1.90         84.7 
      1137.0         0.35         94.6 
      1138.0         0.60         97.5 
      1139.0         0.50         97.4 
      1140.0         0.33         89.9 
      1141.0         0.27         85.7 
      1142.0         0.30         81.4 
      1143.0         0.33         73.0 
      1144.0         0.53         64.8 
      1145.0         0.55         72.2 
      1146.0         0.37         80.6 
      1147.0         0.27         91.3 
      1148.0         0.27         97.1 
      1149.0         0.30         97.3 
      1150.0         0.30         95.2 
      1151.0         0.33         90.0 
      1152.0         0.33         84.0 
      1153.0         0.43         81.6 
      1154.0         0.25         68.5 
      1155.0         0.37         72.8 
      1156.0         0.47         80.9 
      1157.0         0.33         81.9 
      1158.0         0.17         74.3 
      1159.0         0.17         60.1 
      1160.0         0.13         48.7 
      1161.0         0.20         60.7 
      1162.0         0.20         93.4 
      1163.0         0.23        156.2 
      1164.0         0.20        231.7 
      1165.0         0.23        328.6 
      1166.0         2.52        347.4 
      1167.0         0.70        102.8 
      1168.0         0.20         92.6 
      1169.0         0.33         88.3 
      1170.0         0.18         79.8 
      1171.0         0.27         74.9 
      1172.0         0.20         69.8 
      1173.0         0.17         69.3 
      1174.0         0.23         71.6 
      1175.0         0.27         75.6 
      1176.0         0.23         77.1 
      1177.0         0.23         76.8 
      1178.0         0.23         75.2 
      1179.0         0.47         77.1 
      1180.0         0.33         77.3 
      1181.0         0.17         78.1 
      1182.0         0.33         78.3 
      1183.0         0.35         75.9 
      1184.0         0.33         71.5 
      1185.0         0.37         72.3 
      1186.0         0.20         72.2 
      1187.0         0.17         69.6 
      1188.0         0.20         58.4 
      1189.0         0.20         45.9 
      1190.0         0.13         51.5 
      1191.0         0.20         80.2 
      1192.0         0.17        118.1 
      1193.0         0.17        167.0 
      1194.0         0.27        270.5 
      1195.0         0.23        327.2 
      1196.0         2.22        323.6 
      1197.0         0.30         85.8 
      1198.0         0.33         85.0 
      1199.0         0.37         89.1 
      1200.0         0.38         91.4 
      1201.0         0.37         89.5 
      1202.0         0.40         82.2 
      1203.0         0.47         69.4 
      1204.0         0.47         72.1 
      1205.0         0.40         77.0 
      1206.0         0.17         77.4 
      1207.0         0.23         77.3 
      1208.0         0.20         74.4 
      1209.0         0.17         72.4 
      1210.0         0.27         78.0 
