~Version Information
VERS.                      2.0: CWLS Log ASCII Standard - VERSION 2.0
WRAP.                       NO: One line per depth step
~Well Information Block
STRT.FT               400.0000: 
STOP.FT              2201.0000: 
STEP.FT                 0.2500: 
NULL.                -999.2500: 
COMP.          Evergreen Operating Corporation: COMPANY
WELL.            Triumph 13-10: WELL
FLD.           Purgatorie River: FIELD
LOC.           1551' FSL & 522' FWL: LOCATION
PROV.                 Colorado: PROVINCE
CNTY.               Las Animas: COUNTRY
SRVC.                Patterson: SERVICE COMPANY
DATE.          Fri Jul 23 20:28:37 2004: LOG DATE
UWI.           05 071 08108 00: UNIQUE WELL ID
~Curve Information Block
DEPT.FT            0 000 00 00: Depth
SN.Ohm-m                      : IEL Short Normal
SP.mV                         : IEL Spontaneous Potential
DIR.Ohm-m                     : IEL Induction Resistivity
GR.GAPI                       : Gamma Ray
~Parameter Information Block
~A  Depth        SN          SP         DIR          GR     
# ...
  2041.5000     27.1170    147.5537     20.6100    113.3164
  2041.7500     27.3324    147.5401     20.8327    113.5182
  2042.0000     27.4701    147.5403     21.0932    114.3802
  2042.2500     27.6031    147.5682     21.3958    114.2721
  2042.5000     27.8047    147.6325     21.7383    112.3027
  2042.7500     28.1313    147.7265     22.1112    110.3830
  2043.0000     28.6286    147.8322     22.5048    108.0507
  2043.2500     29.3348    147.9321     22.9188    106.9536
  2043.5000     30.2245    148.0175     23.3666    104.9002
  2043.7500     31.1748    148.0874     23.8691    102.7729
  2044.0000     32.0963    148.1410     24.4443     99.0039
  2044.2500     33.0469    148.1714     25.0994     96.9227
  2044.5000     34.1136    148.1671     25.8280     95.1608
  2044.7500     35.3051    148.1206     26.6103     94.4713
  2045.0000     36.5952    148.0368     27.4162     92.8700
  2045.2500     37.9318    147.9331     28.2126     91.1382
  2045.5000     39.2194    147.8323     28.9728     88.1260
  2045.7500     40.3773    147.7535     29.6824     86.2718
  2046.0000     41.3775    147.7045     30.3425     83.9465
  2046.2500     42.2063    147.6786     30.9670     82.6409
  2046.5000     42.8442    147.6582     31.5774     80.8472
  2046.7500     43.2847    147.6200     32.1900     79.5521
  2047.0000     43.5324    147.5404     32.7946     77.1394
  2047.2500     43.5955    147.4025     33.3387     75.3387
  2047.5000     43.5047    147.2065     33.7369     73.1790
  2047.7500     43.3124    146.9722     33.9157     72.5991
  2048.0000     43.0581    146.7270     33.8685     73.2183
  2048.2500     42.7509    146.4902     33.6730     74.4078
  2048.5000     42.4008    146.2649     33.4574     76.8466
  2048.7500     42.0476    146.0381     33.3415     78.5411
  2049.0000     41.7460    145.7834     33.3889     80.3395
  2049.2500     41.5291    145.4685     33.5940     80.6167
  2049.5000     41.3873    145.0706     33.9019     79.4955
  2049.7500     41.2769    144.5922     34.2466     77.9996
  2050.0000     41.1420    144.0654     34.5745     75.5506
  2050.2500     40.9553    143.5366     34.8416     74.4078
  2050.5000     40.7600    143.0405     34.9995     74.1254
  2050.7500     40.6282    142.5860     35.0023     74.8030
  2051.0000     40.5720    142.1720     34.8401     76.1600
  2051.2500     40.5428    141.8224     34.5748     76.6886
  2051.5000     40.5005    141.5969     34.3465     76.6670
  2051.7500     40.4363    141.5512     34.3339     76.4520
  2052.0000     40.3652    141.6741     34.6803     76.5998
  2052.2500     40.3474    141.8610     35.4271     77.3165
  2052.5000     40.4484    141.9593     36.4883     79.4891
  2052.7500     40.6315    141.8557     37.6915     81.3741
  2053.0000     40.7695    141.5380     38.8647     83.3155
  2053.2500     40.8031    141.0872     39.9150     82.8470
  2053.5000     40.8212    140.6157     40.8424     78.6079
  2053.7500     40.9567    140.2090     41.7068     74.1289
  2054.0000     41.2584    139.9031     42.5915     67.5028
  2054.2500     41.6819    139.6921     43.5821     64.3494
  2054.5000     42.1704    139.5458     44.7481     61.6282
  2054.7500     42.7144    139.4245     46.1195     60.3349
  2055.0000     43.3212    139.2931     47.6608     57.9662
  2055.2500     43.9260    139.1376     49.2568     56.1600
  2055.5000     44.3722    138.9807     50.7012     54.0993
  2055.7500     44.5285    138.8815     51.7061     53.4791
  2056.0000     44.4065    138.9101     51.9482     53.0278
  2056.2500     44.0613    139.1086     51.1711     52.3630
  2056.5000     43.4294    139.4637     49.3106     50.4132
  2056.7500     42.3884    139.9151     46.5523     48.8418
  2057.0000     40.8781    140.3973     43.2600     47.0716
  2057.2500     38.9178    140.8784     39.8208     46.8605
  2057.5000     36.6287    141.3640     36.5251     49.0195
  2057.7500     34.2393    141.8677     33.5321     52.5132
  2058.0000     31.9929    142.3834     30.9006     60.4727
  2058.2500     30.0426    142.8835     28.6347     66.7677
  2058.5000     28.4306    143.3386     26.7168     76.2830
  2058.7500     27.1116    143.7350     25.1190     82.3945
  2059.0000     25.9869    144.0793     23.8011     91.5321
  2059.2500     24.9739    144.3897     22.7061     97.6654
  2059.5000     24.0657    144.6849     21.7628    105.8548
  2059.7500     23.2847    144.9735     20.8987    109.5166
  2060.0000     22.5886    145.2499     20.0578    111.2584
  2060.2500     21.8813    145.4983     19.2128    110.5584
  2060.5000     21.1008    145.7039     18.3649    109.0891
  2060.7500     20.2426    145.8642     17.5321    108.7351
  2061.0000     19.3461    145.9935     16.7353    109.0544
  2061.2500     18.5042    146.1182     15.9909    109.4869
  2061.5000     17.8372    146.2660     15.3116    110.3947
  2061.7500     17.4292    146.4552     14.7103    111.3279
  2062.0000     17.3070    146.6852     14.1995    113.4530
  2062.2500     17.4521    146.9369     13.7877    115.3535
  2062.5000     17.7827    147.1836     13.4734    118.1982
  2062.7500     18.1543    147.4035     13.2422    119.3054
  2063.0000     18.4548    147.5858     13.0698    119.1924
  2063.2500     18.6702    147.7317     12.9281    118.5415
  2063.5000     18.8029    147.8518     12.7950    118.3362
  2063.7500     18.8086    147.9610     12.6598    119.1381
  2064.0000     18.6707    148.0702     12.5222    121.3652
  2064.2500     18.4650    148.1821     12.3874    123.1092
  2064.5000     18.2989    148.2956     12.2624    125.5035
  2064.7500     18.2231    148.4101     12.1562    126.7402
  2065.0000     18.2133    148.5248     12.0830    128.2567
  2065.2500     18.1969    148.6333     12.0622    129.4927
  2065.5000     18.1037    148.7245     12.1141    132.1733
  2065.7500     17.9389    148.7902     12.2532    134.1166
  2066.0000     17.8141    148.8310     12.4850    135.5658
  2066.2500     17.8841    148.8559     12.8071    134.6601
  2066.5000     18.2765    148.8784     13.2157    130.2908
  2066.7500     19.0803    148.9112     13.7100    126.0000
  2067.0000     20.3027    148.9628     14.2906    118.7780
  2067.2500     21.8036    149.0356     14.9501    113.8204
  2067.5000     23.3306    149.1262     15.6636    106.3631
  2067.7500     24.6333    149.2285     16.3844    101.5511
  2068.0000     25.5780    149.3379     17.0516     94.9292
  2068.2500     26.2081    149.4526     17.6092     90.9305
  2068.5000     26.6959    149.5733     18.0274     85.5899
  2068.7500     27.1880    149.7013     18.3148     82.9508
  2069.0000     27.6660    149.8379     18.5100     81.9542
  2069.2500     27.9823    149.9848     18.6599     83.9641
  2069.5000     28.0271    150.1451     18.7987     90.6886
  2069.7500     27.8393    150.3231     18.9425     96.5691
  2070.0000     27.5885    150.5195     19.0965    105.2122
  2070.2500     27.4368    150.7263     19.2646    110.0341
  2070.5000     27.4088    150.9251     19.4480    115.6079
  2070.7500     27.4109    151.0929     19.6326    118.2121
  2071.0000     27.3214    151.2135     19.7794    120.0474
  2071.2500     27.0469    151.2865     19.8326    119.7165
  2071.5000     26.5619    151.3267     19.7506    117.1659
  2071.7500     25.9354    151.3526     19.5352    114.3509
  2072.0000     25.2920    151.3732     19.2359    108.6105
  2072.2500     24.7183    151.3862     18.9252    103.8544
  2072.5000     24.2354    151.3897     18.6692     95.9528
  2072.7500     23.8849    151.3927     18.5086     90.9108
  2073.0000     23.7711    151.4127     18.4560     85.4663
  2073.2500     23.9357    151.4627     18.5012     84.4059
  2073.5000     24.2501    151.5395     18.6208     87.8850
  2073.7500     24.5246    151.6227     18.7874     93.1187
  2074.0000     24.6615    151.6868     18.9746    102.2377
  2074.2500     24.6472    151.7187     19.1583    106.9106
  2074.5000     24.4930    151.7292     19.3168    109.5832
  2074.7500     24.2488    151.7497     19.4328    108.7324
