~Version Information
 VERS.                                  2.0 : CWLS LAS VERSION
 WRAP.                                   NO : WRAPING MODE
 SWARE .                 MController 2.5.0H : SOFTWARE VERSION
~Well Information
 WELL.                Scott Canyon 11-18 TR : WELL
 COMP.    Pioneer Natural Resources USA Inc : COMPANY
 FLD.                      Purgatoire River : FIELD
 LOC.                NW/NW Sec 18 T32S R65W : LOCATION
 DATE.                              2/16/05 : DATE(S) LOGGED
 SRVC.       Blanco Geological Services LLC : SERVICE COMPANY
 STAT.                                   CO : STATE
 CNTY.                           Las Animas : COUNTY
 CTRY.                                  USA : COUNTRY
 API.                       05-071-08286-00 : API NUMBER
 STRT.FT                             569.00 : START DEPTH
 STOP.FT                            1700.00 : STOP DEPTH
 STEP.FT                               1.00 : DEPTH INCREMENT
 NULL.                                -9999 : NULL VALUE
~Curve information
 DEPTH.FT                                   :
 ROP.MIN/FT                                 :
 GAS.UNITS                                  :
~ASCII Log data
      569.00    -9999.000          2.6 
      570.00        0.700          3.2 
      571.00        0.100          2.5 
      572.00        0.767          2.4 
      573.00        0.467          2.6 
      574.00        0.367          2.3 
      575.00        0.167          2.9 
      576.00        0.133          2.8 
      577.00        0.100          2.3 
      578.00        0.183          2.3 
      579.00        0.200          2.7 
      580.00        1.833          3.2 
      581.00        0.300          2.3 
      582.00        0.367          2.5 
      583.00        0.517          2.6 
      584.00        0.433          2.8 
      585.00        0.133          2.9 
      586.00        0.100          2.9 
      587.00        0.533          3.2 
      588.00        0.833          3.2 
      589.00        0.133          3.1 
      590.00        0.867          3.1 
      591.00        1.250          3.0 
      592.00        0.233          2.3 
      593.00        0.367          2.7 
      594.00        2.050          3.3 
      595.00        1.067          3.0 
      596.00        0.200          2.6 
      597.00        0.233          3.1 
      598.00        0.267          2.4 
      599.00        0.133          3.1 
      600.00        0.133          3.1 
      601.00        0.133          2.3 
      602.00        0.133          2.4 
      603.00        0.100          2.2 
      604.00        0.133          2.2 
      605.00        0.200          2.1 
      606.00        0.100          2.1 
      607.00        0.133          2.2 
      608.00        0.183          2.6 
      609.00        0.133          2.6 
      610.00        0.067          2.6 
      611.00        1.100          2.6 
      612.00        0.400          2.7 
      613.00        0.133          2.8 
      614.00        0.633          2.5 
      615.00        0.100          3.1 
      616.00        0.467          3.4 
      617.00        0.167          3.4 
      618.00        0.150          2.8 
      619.00        0.133          2.8 
      620.00        0.233          3.4 
      621.00        0.667          2.9 
      622.00        0.133          2.5 
      623.00        0.100          2.5 
      624.00        0.100          2.8 
      625.00        0.100          2.8 
      626.00       21.833          4.4 
      627.00        0.183          3.6 
      628.00        0.267          3.7 
      629.00        0.200          4.1 
      630.00        0.133          4.1 
      631.00        0.167          3.9 
      632.00        0.200          3.5 
      633.00        0.167          3.5 
      634.00        0.200          4.4 
      635.00        0.267          3.4 
      636.00        0.233          3.6 
      637.00        0.200          3.5 
      638.00        0.200          4.1 
      639.00        0.133          3.5 
      640.00        0.200          3.6 
      641.00        0.267          3.6 
      642.00        0.200          3.5 
      643.00        0.183          3.5 
      644.00        0.200          3.5 
      645.00        0.233          3.4 
      646.00        0.167          3.2 
      647.00        0.167          3.1 
      648.00        0.200          3.1 
      649.00        0.133          3.2 
      650.00        0.167          3.2 
      651.00        0.200          3.1 
      652.00        0.200          3.1 
      653.00        0.233          3.4 
      654.00        0.167          3.4 
      655.00        0.200          2.9 
      656.00        6.533          4.0 
      657.00        0.767          4.1 
      658.00        0.200          4.1 
      659.00        0.167          3.4 
      660.00        0.183          4.0 
      661.00        0.200          4.2 
      662.00        0.200          4.2 
      663.00        0.200          3.4 
      664.00        0.200          3.3 
      665.00        0.200          4.0 
      666.00        0.200          3.6 
      667.00        0.267          4.5 
      668.00        0.267          3.9 
      669.00        0.300          4.5 
      670.00        0.267          4.0 
      671.00        0.267          3.7 
      672.00        0.200          3.7 
      673.00        0.233          3.2 
      674.00        0.250          4.4 
      675.00        0.233          3.7 
      676.00        0.233          4.5 
      677.00        0.200          3.9 
      678.00        0.233          4.0 
      679.00        0.200          4.4 
      680.00        0.200          4.0 
      681.00        0.200          3.5 
      682.00        0.233          3.6 
      683.00        0.200          4.3 
      684.00        0.200          3.5 
      685.00        0.233          4.4 
      686.00        0.767          4.4 
      687.00        0.550          4.6 
      688.00        0.133          4.8 
      689.00        0.167          5.1 
      690.00        0.267          5.9 
      691.00        0.233          5.2 
      692.00        0.200          5.0 
      693.00        0.167          5.1 
      694.00        0.100          5.1 
      695.00        0.167          5.2 
      696.00        0.100          5.2 
      697.00        0.133          4.9 
      698.00        0.133          4.9 
      699.00        0.200          4.6 
      700.00        0.167          5.2 
      701.00        0.267          5.0 
      702.00        0.167          5.5 
      703.00        0.200          4.5 
      704.00        0.167          4.5 
      705.00        0.150          5.4 
      706.00        0.200          5.4 
      707.00        0.200          5.4 
      708.00        0.200          5.1 
      709.00        0.267          4.3 
      710.00        0.167          4.3 
      711.00        0.167          4.2 
      712.00        0.200          4.3 
      713.00        0.167          4.2 
      714.00        0.167          4.3 
      715.00        0.467          4.8 
      716.00        0.700          5.1 
      717.00        0.233          5.4 
      718.00        0.317          9.3 
      719.00        0.267         43.3 
      720.00        0.167         58.9 
      721.00        0.200         65.3 
      722.00        0.167         64.7 
      723.00        0.200         58.7 
      724.00        0.167         45.3 
      725.00        0.300         38.0 
      726.00        0.200         28.0 
      727.00        0.200         24.8 
      728.00        0.233         18.2 
      729.00        0.200         12.8 
      730.00        0.200         11.9 
      731.00        0.233          9.4 
      732.00        0.267          6.9 
      733.00        0.150          5.3 
      734.00        0.133          5.1 
      735.00        0.133          4.4 
      736.00        0.167          4.4 
      737.00        0.433          3.3 
      738.00        0.267          2.4 
      739.00        0.267          2.2 
      740.00        0.267          2.0 
      741.00        0.233          2.5 
      742.00        0.233          2.6 
      743.00        0.200          2.1 
      744.00        0.167          2.1 
      745.00        0.200          2.1 
      746.00        1.317          3.7 
      747.00        0.567          3.4 
      748.00        0.400          3.7 
      749.00        0.267          3.4 
      750.00        0.267          3.3 
      751.00        0.267          3.2 
      752.00        0.267          3.3 
      753.00        0.200          4.1 
      754.00        0.267          3.2 
      755.00        0.283          3.7 
      756.00        0.233          3.9 
      757.00        0.300          3.7 
      758.00        0.200          3.7 
      759.00        0.267          3.9 
      760.00        0.267          3.3 
      761.00        0.333          3.5 
      762.00        0.300          3.6 
      763.00        0.267          3.4 
      764.00        0.267          3.2 
      765.00        0.233          3.3 
      766.00        0.233          3.5 
      767.00        0.200          3.5 
      768.00        0.217          3.5 
