~Version Information
VERS.                      2.0: CWLS Log ASCII Standard - VERSION 2.0
WRAP.                       NO: One line per depth step
~Well Information Block
STRT.FT               575.0000: 
STOP.FT              2016.2500: 
STEP.FT                 0.2500: 
NULL.                -999.2500: 
COMP.          Pioneer Natural Resources: COMPANY
WELL.          Bucksnort 41-35: WELL
FLD.           Purgatoire River: FIELD
LOC.           117' FNL & 463' FEL--: LOCATION
PROV.                 Colorado: PROVINCE
CNTY.               Las Animas: COUNTRY
SRVC.                Patterson: SERVICE COMPANY
DATE.          Thu Jul 21 10:13:55 2005: LOG DATE
UWI.           05 071 08401 00: UNIQUE WELL ID
~Curve Information Block
DEPT.FT            0 000 00 00: Depth
SN.Ohm-m                      : IEL Short Normal
SP.mV                         : IEL Spontaneous Potential
DIR.Ohm-m                     : IEL Induction Resistivity
GR.GAPI                       : Gamma Ray
~Parameter Information Block
~A  Depth        SN          SP         DIR          GR     
# ...
  1881.5000     20.8642    180.6151     17.5233    103.3548
  1881.7500     20.2442    181.6795     17.0109    102.5045
  1882.0000     19.7202    182.2911     16.6367    101.7895
  1882.2500     19.2728    182.5190     16.3646    101.8863
  1882.5000     18.8849    182.4489     16.1574    104.1088
  1882.7500     18.5442    182.1658     15.9829    107.5612
  1883.0000     18.2439    181.7410     15.8191    115.2611
  1883.2500     17.9820    181.2242     15.6544    121.0401
  1883.5000     17.7569    180.6421     15.4856    128.9022
  1883.7500     17.5651    180.0027     15.3150    133.0356
  1884.0000     17.3995    179.3009     15.1486    137.0209
  1884.2500     17.2542    178.5259     14.9973    137.8762
  1884.5000     17.1279    177.6662     14.8745    136.5979
  1884.7500     17.0252    176.7139     14.7911    135.0835
  1885.0000     16.9515    175.6674     14.7494    134.8340
  1885.2500     16.9090    174.5320     14.7425    137.4506
  1885.5000     16.8947    173.3185     14.7622    146.1266
  1885.7500     16.9024    172.0404     14.8060    154.6078
  1886.0000     16.9264    170.7090     14.8786    170.4842
  1886.2500     16.9636    169.3287     14.9843    182.7397
  1886.5000     17.0134    167.8929     15.1195    202.0646
  1886.7500     17.0774    166.3812     15.2721    213.8063
  1887.0000     17.1583    164.7593     15.4282    226.1092
  1887.2500     17.2569    162.9810     15.5790    229.4703
  1887.5000     17.3689    160.9937     15.7244    227.8901
  1887.7500     17.4845    158.7459     15.8694    224.3420
  1888.0000     17.5930    156.1967     16.0184    219.7043
  1888.2500     17.6896    153.3248     16.1721    219.6076
  1888.5000     17.7790    150.1349     16.3258    227.7865
  1888.7500     17.8696    146.6598     16.4716    240.3679
  1889.0000     17.9644    142.9565     16.6026    269.6746
  1889.2500     18.0563    139.0979     16.7172    293.6633
  1889.5000     18.1362    135.1638     16.8205    330.3605
  1889.7500     18.2028    131.2349     16.9220    353.3969
  1890.0000     18.2655    127.3912     17.0297    386.5155
  1890.2500     18.3380    123.7137     17.1454    407.6088
  1890.5000     18.4299    120.2828     17.2651    431.1728
  1890.7500     18.5449    117.1704     17.3841    434.8058
  1891.0000     18.6838    114.4238     17.5041    415.1568
  1891.2500     18.8495    112.0456     17.6362    387.7536
  1891.5000     19.0454    109.9809     17.8000    337.6483
  1891.7500     19.2707    108.1199     18.0177    305.2062
  1892.0000     19.5155    106.3205     18.3061    262.8889
  1892.2500     19.7638    104.4450     18.6711    238.1678
  1892.5000     20.0020    102.3998     19.1010    203.5698
  1892.7500     20.2263    100.1615     19.5631    181.4477
  1893.0000     20.4450     97.7814     20.0078    150.3413
  1893.2500     20.6696     95.3670     20.3833    131.9033
  1893.5000     20.9030     93.0497     20.6561    109.1854
  1893.7500     21.1322     90.9502     20.8212     97.8828
  1894.0000     21.3309     89.1531     20.8968     86.9358
  1894.2500     21.4709     87.6964     20.9106     83.3621
  1894.5000     21.5330     86.5748     20.8879     82.2930
  1894.7500     21.5142     85.7516     20.8437     83.2186
  1895.0000     21.4277     85.1734     20.7813     84.7701
  1895.2500     21.2980     84.7829     20.6971     85.0422
  1895.5000     21.1528     84.5267     20.5906     84.1562
  1895.7500     21.0167     84.3591     20.4729     83.1501
  1896.0000     20.9063     84.2424     20.3634     81.9155
  1896.2500     20.8298     84.1446     20.2799     81.6486
  1896.5000     20.7888     84.0370     20.2289     82.3498
  1896.7500     20.7817     83.8923     20.2048     83.5162
  1897.0000     20.8080     83.6824     20.1993     86.0680
  1897.2500     20.8729     83.3786     20.2099     88.0435
  1897.5000     20.9876     82.9537     20.2449     90.7090
  1897.7500     21.1657     82.3832     20.3204     91.8972
  1898.0000     21.4190     81.6497     20.4539     92.6806
  1898.2500     21.7549     80.7454     20.6591     92.7527
  1898.5000     22.1739     79.6759     20.9450     92.4067
  1898.7500     22.6674     78.4614     21.3169     91.7679
  1899.0000     23.2188     77.1374     21.7783     90.0746
  1899.2500     23.8073     75.7535     22.3305     88.6662
  1899.5000     24.4131     74.3697     22.9704     86.6311
  1899.7500     25.0261     73.0519     23.6881     85.3110
  1900.0000     25.6522     71.8652     24.4661     83.0732
  1900.2500     26.3094     70.8668     25.2804     81.5710
  1900.5000     27.0130     70.0995     26.1022     80.0870
  1900.7500     27.7593     69.5862     26.8978     79.7238
  1901.0000     28.5189     69.3273     27.6284     79.4402
  1901.2500     29.2473     69.3009     28.2534     79.1152
  1901.5000     29.9023     69.4673     28.7425     78.6002
  1901.7500     30.4601     69.7751     29.0902     78.3626
  1902.0000     30.9195     70.1692     29.3208     77.8338
  1902.2500     31.2945     70.5989     29.4779     77.1097
  1902.5000     31.6021     71.0238     29.6034     75.5360
  1902.7500     31.8546     71.4182     29.7223     74.4354
  1903.0000     32.0609     71.7722     29.8430     73.1748
  1903.2500     32.2337     72.0909     29.9699     72.8023
  1903.5000     32.3954     72.3913     30.1141     73.2270
  1903.7500     32.5742     72.6981     30.2932     74.2063
  1904.0000     32.7915     73.0396     30.5244     76.4784
  1904.2500     33.0500     73.4427     30.8181     78.2214
  1904.5000     33.3320     73.9296     31.1756     80.4433
  1904.7500     33.6068     74.5139     31.5829     81.2642
  1905.0000     33.8438     75.1991     32.0022     81.2837
  1905.2500     34.0241     75.9781     32.3744     80.6707
  1905.5000     34.1498     76.8343     32.6423     79.4167
  1905.7500     34.2445     77.7455     32.7825     78.8115
  1906.0000     34.3427     78.6874     32.8173     79.0836
  1906.2500     34.4710     79.6387     32.7929     80.3070
  1906.5000     34.6358     80.5848     32.7443     83.3362
  1906.7500     34.8240     81.5205     32.6810     85.5453
  1907.0000     35.0125     82.4513     32.6024     87.8988
  1907.2500     35.1782     83.3929     32.5233     88.2119
  1907.5000     35.3065     84.3697     32.4812     86.4193
  1907.7500     35.3961     85.4112     32.5178     84.0827
  1908.0000     35.4596     86.5489     32.6527     80.2343
  1908.2500     35.5168     87.8119     32.8723     78.2104
  1908.5000     35.5836     89.2232     33.1400     76.5088
  1908.7500     35.6608     90.7964     33.4164     76.0806
  1909.0000     35.7307     92.5351     33.6704     75.9613
  1909.2500     35.7652     94.4321     33.8763     76.1148
  1909.5000     35.7366     96.4723     34.0074     76.7527
  1909.7500     35.6245     98.6344     34.0427     77.3707
  1910.0000     35.4151    100.8944     33.9800     78.1802
  1910.2500     35.0998    103.2276     33.8391     78.4668
  1910.5000     34.6762    105.6098     33.6405     78.5470
  1910.7500     34.1544    108.0178     33.3783     78.4158
  1911.0000     33.5618    110.4291     33.0120     77.8864
  1911.2500     32.9445    112.8212     32.4923     77.4144
  1911.5000     32.3580    115.1699     31.8034     77.3762
  1911.7500     31.8483    117.4489     30.9885     78.4595
  1912.0000     31.4340    119.6286     30.1369     82.0337
  1912.2500     31.1013    121.6772     29.3426     85.1009
  1912.5000     30.8146    123.5623     28.6690     89.2665
  1912.7500     30.5369    125.2545     28.1356     91.4480
  1913.0000     30.2480    126.7332     27.7274     94.5173
  1913.2500     29.9522    127.9926     27.4107     96.8977
  1913.5000     29.6702    129.0473     27.1495    100.8070
  1913.7500     29.4244    129.9363     26.9188    103.0783
  1914.0000     29.2285    130.7216     26.7143    105.2736
  1914.2500     29.0840    131.4839     26.5545    106.0499
  1914.5000     28.9827    132.3122     26.4710    107.0872
  1914.7500     28.9113    133.2916     26.4873    108.2693
