~Version Information
 VERS.                                  2.0 : CWLS LAS VERSION
 WRAP.                                   NO : WRAPING MODE
 SWARE .                 MController 2.5.0E : SOFTWARE VERSION
~Well Information
 WELL.                                  N/A : WELL
 COMP.                                  N/A : COMPANY
 FLD.                                   N/A : FIELD
 LOC.                                   N/A : LOCATION
 DATE.                                  N/A : DATE(S) LOGGED
 SRVC.                                  N/A : SERVICE COMPANY
 STAT.                                  N/A : STATE
 CNTY.                                  N/A : COUNTY
 CTRY.                                  N/A : COUNTRY
 API.                                   N/A : API NUMBER
 STRT.FT                              94.00 : START DEPTH
 STOP.FT                            1931.00 : STOP DEPTH
 STEP.FT                               1.00 : DEPTH INCREMENT
 NULL.                                -9999 : NULL VALUE
~Curve information
 DEPTH.FT                                   :
 ROP.MIN/FT                                 :
 GAS.UNITS                                  :
~ASCII Log data
# ...
     1094.00        0.200        228.2 
     1095.00        0.267        223.6 
     1096.00        0.350        213.8 
     1097.00        0.200        213.1 
     1098.00        0.167        202.7 
     1099.00        0.200        202.7 
     1100.00        0.167        198.2 
     1101.00        0.167        195.1 
     1102.00        0.167        195.1 
     1103.00        0.200        191.3 
     1104.00        0.167        180.1 
     1105.00        0.200        180.1 
     1106.00        2.083        881.1 
     1107.00        0.600        843.9 
     1108.00        0.400        691.1 
     1109.00        0.400        577.5 
     1110.00        0.333        509.6 
     1111.00        0.300        460.8 
     1112.00        0.267        444.6 
     1113.00        0.300        217.5 
     1114.00        0.233        198.1 
     1115.00        0.217        195.2 
     1116.00        0.200        190.5 
     1117.00        0.167        185.7 
     1118.00        0.167        183.6 
     1119.00        0.200        180.9 
     1120.00        0.167        176.9 
     1121.00        0.200        175.0 
     1122.00        0.200        170.6 
     1123.00        0.200        169.0 
     1124.00        0.200        173.3 
     1125.00        0.167        173.3 
     1126.00        0.133        184.0 
     1127.00        0.100        184.0 
     1128.00        0.100        193.9 
     1129.00        0.100        193.9 
     1130.00        0.100        210.0 
     1131.00        0.067        210.0 
     1132.00        0.100        210.0 
     1133.00        0.100        204.7 
     1134.00        0.133        204.7 
     1135.00        0.133        193.9 
     1136.00        2.117       1105.2 
     1137.00        0.300        981.2 
     1138.00        0.267        969.5 
     1139.00        0.267        836.3 
     1140.00        0.267        768.5 
     1141.00        0.233        651.8 
     1142.00        0.217        607.4 
     1143.00        0.233        544.4 
     1144.00        0.200        506.9 
     1145.00        0.167        487.6 
     1146.00        0.167        449.4 
     1147.00        0.200        442.5 
     1148.00        0.167        440.0 
     1149.00        0.133        440.0 
     1150.00        0.100        440.0 
     1151.00        0.067        440.0 
     1152.00        0.100        440.4 
     1153.00        0.100        440.0 
     1154.00        0.200        213.7 
     1155.00        0.133        209.8 
     1156.00        0.167        209.8 
     1157.00        0.133        205.0 
     1158.00        0.133        205.0 
     1159.00        0.167        199.5 
     1160.00        0.200        195.3 
     1161.00        0.167        195.3 
     1162.00        0.200        192.2 
     1163.00        0.183        182.6 
     1164.00        0.167        172.5 
     1165.00        0.200        159.1 
     1166.00        2.600        990.5 
     1167.00        0.650        713.1 
     1168.00        0.400        604.3 
     1169.00        0.333        517.6 
     1170.00        0.233        495.5 
     1171.00        0.233        463.9 
     1172.00        0.200        456.6 
     1173.00        0.200        440.0 
     1174.00        0.267        203.9 
     1175.00        0.200        197.2 
     1176.00        0.200        195.3 
     1177.00        0.167        188.9 
     1178.00        0.167        186.8 
     1179.00        0.200        181.5 
     1180.00        0.167        178.0 
     1181.00        0.183        174.2 
     1182.00        0.200        171.3 
     1183.00        0.167        168.8 
     1184.00        0.233        167.1 
     1185.00        0.333        165.9 
     1186.00        0.367        164.8 
     1187.00        0.267        163.4 
     1188.00        0.233        162.9 
     1189.00        0.233        162.1 
     1190.00        0.200        161.4 
     1191.00        0.200        157.0 
     1192.00        0.200        157.0 
     1193.00        0.200        146.8 
     1194.00        0.267        137.3 
     1195.00        0.417        146.2 
     1196.00        1.767        403.9 
     1197.00        0.300        334.9 
     1198.00        0.200        285.5 
     1199.00        0.233        269.4 
     1200.00        0.133        269.4 
     1201.00        0.133        261.3 
     1202.00        0.167        248.5 
     1203.00        0.183        247.5 
     1204.00        0.133        246.0 
     1205.00        0.167        243.2 
     1206.00        0.133        241.8 
     1207.00        0.200        239.5 
     1208.00        0.167        224.2 
     1209.00        0.233        217.5 
     1210.00        0.200        216.1 
     1211.00        0.300        205.8 
     1212.00        0.333        196.7 
     1213.00        0.233        187.0 
     1214.00        0.200        181.0 
     1215.00        0.167        176.0 
     1216.00        0.200        175.4 
     1217.00        0.200        164.3 
     1218.00        0.200        164.3 
     1219.00        0.133        161.1 
     1220.00        0.150        161.1 
     1221.00        0.167        158.6 
     1222.00        0.100        158.6 
     1223.00        0.100        157.6 
     1224.00        0.133        146.6 
     1225.00        0.100        146.6 
     1226.00        2.567        472.2 
     1227.00        0.217        396.3 
     1228.00        0.200        393.0 
     1229.00        0.200        352.3 
     1230.00        0.200        326.9 
     1231.00        0.167        289.3 
     1232.00        0.100        289.3 
     1233.00        0.133        278.2 
     1234.00        0.133        254.0 
     1235.00        0.133        254.0 
     1236.00        0.133        248.5 
     1237.00        0.167        230.4 
     1238.00        0.200        222.3 
     1239.00        0.200        200.0 
     1240.00        0.167        196.0 
     1241.00        0.133        190.4 
     1242.00        0.100        185.7 
     1243.00        0.167        182.4 
     1244.00        0.300        179.5 
     1245.00        0.167        174.2 
     1246.00        0.217        169.5 
     1247.00        0.133        166.1 
     1248.00        0.167        166.1 
     1249.00        0.167        162.9 
     1250.00        0.167        161.2 
     1251.00        0.233        153.1 
     1252.00        0.167        143.4 
     1253.00        0.167        143.4 
     1254.00        0.133        130.8 
     1255.00        0.167        129.0 
     1256.00        2.250        451.9 
     1257.00        0.200        404.4 
     1258.00        0.267        373.2 
     1259.00        0.267        323.7 
     1260.00        0.467        292.0 
     1261.00        0.467        258.0 
     1262.00        0.367        207.0 
     1263.00        0.333        202.3 
     1264.00        0.333        185.5 
     1265.00        0.250        166.9 
     1266.00        0.300        166.1 
     1267.00        0.267        156.1 
     1268.00        0.367        150.5 
     1269.00        0.267        146.1 
     1270.00        0.233        140.6 
     1271.00        0.267        140.3 
     1272.00        0.233        140.4 
     1273.00        0.233        139.7 
     1274.00        0.267        138.8 
     1275.00        0.233        137.7 
     1276.00        0.233        137.1 
     1277.00        0.233        137.5 
     1278.00        0.250        137.8 
     1279.00        0.200        137.0 
     1280.00        0.233        135.1 
     1281.00        0.233        134.6 
     1282.00        0.233        142.1 
     1283.00        0.200        149.5 
     1284.00        0.233        160.4 
     1285.00        0.200        160.4 
     1286.00        2.683        463.8 
     1287.00        0.433        412.9 
     1288.00        0.367        361.8 
     1289.00        0.467        321.2 
     1290.00        0.367        266.7 
     1291.00        0.400        232.1 
     1292.00        0.333        208.8 
     1293.00        0.383        188.3 
