~Version Information
VERS.                      2.0: CWLS Log ASCII Standard - VERSION 2.0
WRAP.                       NO: One line per depth step
~Well Information Block
STRT.FT                -9.7500: 
STOP.FT              2374.2500: 
STEP.FT                 0.2500: 
NULL.                -999.2500: 
COMP.          Pioneer Natural Resources: COMPANY
WELL.            Chevron 13-13: WELL
FLD.           Purgatorie River: FIELD
LOC.           1560' FSL & 711' FWL--: LOCATION
CNTY.               Las Animas: COUNTY
SRVC.          Superior Well Services: SERVICE COMPANY
DATE.          Wed Apr 11 08:47:55 2007: LOG DATE
UWI.           05 071 08319 00: UNIQUE WELL ID
STAT.                       CO: STATE
~Curve Information Block
DEPT.FT            0 000 00 00: Depth
CCL.                          : Casing Collar Locator
TT3.usec                      : CBL 3' Travel Time
AMP3.mV                       : CBL 3' Amplitude
GR.GAPI                       : Gamma Ray
~Parameter Information Block
~A  Depth       CCL         TT3         AMP3         GR     
# ...
  2335.2500      0.0000    492.0806      3.9997     92.9078
  2335.5000      0.0000    506.1497      4.0503     93.1178
  2335.7500      0.0000    512.5424      4.1188     91.0215
  2336.0000      0.0000    516.1463      4.2090     87.2914
  2336.2500      0.0000    517.1907      4.3327     83.5464
  2336.5000      0.0000    512.5193      4.4980     80.9419
  2336.7500      0.0000    502.5411      4.6912     79.7726
  2337.0000      0.0000    495.1402      4.8681     80.0719
  2337.2500      0.0000    502.2075      4.9723     81.7755
  2337.5000      0.0000    530.4529      4.9682     84.1734
  2337.7500      0.0000    574.1041      4.8585     85.9395
  2338.0000      0.0000    617.4424      4.6722     86.2108
  2338.2500      0.0000    644.5367      4.4436     85.3520
  2338.5000      0.0000    645.9183      4.2037     84.3886
  2338.7500      0.0000    619.4177      3.9858     84.0083
  2339.0000      0.0000    570.3878      3.8265     84.3087
  2339.2500      0.0000    511.7997      3.7491     85.0898
  2339.5000      0.0000    459.3994      3.7433     86.0042
  2339.7500      0.0000    423.2996      3.7666     86.6706
  2340.0000      0.0000    404.0593      3.7726     87.0366
  2340.2500      0.0000    396.1992      3.7407     87.5873
  2340.5000      0.0000    393.8322      3.6810     88.9045
  2340.7500      0.0000    393.3794      3.6158     90.9576
  2341.0000      0.0000    393.3258      3.5606     92.9493
  2341.2500      0.0000    393.1905      3.5217     93.8193
  2341.5000      0.0000    392.8788      3.5037     92.8361
  2341.7500      0.0000    392.4465      3.5112     90.0548
  2342.0000      0.0000    392.0569      3.5407     86.6356
  2342.2500      0.0000    391.9255      3.5787     84.4352
  2342.5000      0.0000    392.2559      3.6093     84.6625
  2342.7500      0.0000    393.4066      3.6249     86.9119
  2343.0000      0.0000    396.5349      3.6261     89.7020
  2343.2500      0.0000    404.6850      3.6172     91.8303
  2343.5000      0.0000    423.1330      3.6035     93.1001
  2343.7500      0.0000    456.8125      3.5904     93.9343
  2344.0000      0.0000    504.9420      3.5807     94.5814
  2344.2500      0.0000    557.8873      3.5716     95.0037
  2344.5000      0.0000    601.7122      3.5577     95.4990
  2344.7500      0.0000    627.8942      3.5343     96.9310
  2345.0000      0.0000    638.8889      3.5009     99.8457
  2345.2500      0.0000    644.0132      3.4636    103.3807
  2345.5000      0.0000    650.1302      3.4342    105.5807
  2345.7500      0.0000    656.9094      3.4255    105.2283
  2346.0000      0.0000    660.7382      3.4497    103.0963
  2346.2500      0.0000    660.9463      3.5184    100.9289
  2346.5000      0.0000    660.5764      3.6330     99.4550
  2346.7500      0.0000    662.3468      3.7756     98.0225
  2347.0000      0.0000    665.5527      3.9204     95.8817
  2347.2500      0.0000    666.0361      4.0540     93.0389
  2347.5000      0.0000    657.6176      4.1713     89.9841
  2347.7500      0.0000    635.8379      4.2596     87.3465
  2348.0000      2.0000    603.7940      4.3046     85.8008
  2348.2500      0.0000    573.4261      4.3109     85.7554
  2348.5000      0.0000    557.6763      4.3088     87.0271
  2348.7500      0.0000    561.3049      4.3373     89.0432
  2349.0000      0.0000    580.2249      4.4069     91.2576
  2349.2500      0.0000    606.8345      4.4689     93.3631
  2349.5000      0.0000    633.8826      4.4446     95.3851
  2349.7500      0.0000    656.1623      4.3098     97.6149
  2350.0000      0.0000    671.6501      4.1348    100.3181
  2350.2500      0.0000    681.0765      4.0172    103.6231
  2350.5000      0.0000    685.9894      3.9924    107.5972
  2350.7500      0.0000    687.2652      4.0280    112.0471
  2351.0000      0.0000    685.1703      4.0814    116.2620
  2351.2500      0.0000    680.5280      4.1408    119.3084
  2351.5000      0.0000    675.6979      4.2180    120.7483
  2351.7500      0.0000    673.7740      4.3221    121.0035
  2352.0000      0.0000    675.9350      4.4421    120.7937
  2352.2500      0.0000    680.0911      4.5488    120.2175
  2352.5000      0.0000    682.8660      4.6135    118.9187
  2352.7500      0.0000    682.5229      4.6268    117.4497
  2353.0000      0.0000    679.3303      4.6005    117.7633
  2353.2500      0.0000    674.0507      4.5501    121.4143
  2353.5000      0.0000    667.7379      4.4800    127.2708
  2353.7500      0.0000    662.9031      4.3890    131.7856
  2354.0000      0.0000    662.7867      4.2853    131.8921
  2354.2500      0.0000    668.2530      4.1878    127.2629
  2354.5000      0.0000    676.4091      4.1144    119.6569
  2354.7500      0.0000    683.0062      4.0728    110.8563
  2355.0000      0.0000    685.6070      4.0618    101.7927
  2355.2500      0.0000    684.5031      4.0770     93.1455
  2355.5000      0.0000    681.8080      4.1122     85.9435
  2355.7500      0.0000    679.9647      4.1532     81.3491
  2356.0000      0.0000    680.1301      4.1744     80.0305
  2356.2500      0.0000    681.5031      4.1520     81.8474
  2356.5000      0.0000    682.4296      4.0860     86.0998
  2356.7500      0.0000    682.1598      4.0072     91.8545
  2357.0000      0.0000    681.3845      3.9602     98.0170
  2357.2500      0.0000    681.3326      3.9753    103.5345
  2357.5000      0.0000    682.6138      4.0520    107.8973
  2357.7500      0.0000    684.7642      4.1631    111.1931
  2358.0000      0.0000    686.6418      4.2758    113.4517
  2358.2500      0.0000    687.2928      4.3752    114.3649
  2358.5000      0.0000    686.5425      4.4688    114.0240
  2358.7500      0.0000    684.6902      4.5653    113.4537
  2359.0000      0.0000    681.8314      4.6516    113.8038
  2359.2500      0.0000    678.0684      4.6990    115.1497
  2359.5000      0.0000    674.4844      4.6926    116.3454
  2359.7500      0.0000    673.0364      4.6542    115.4861
  2360.0000      0.0000    674.6655      4.6299    109.9967
  2360.2500      0.0000    677.8822      4.6530     97.2363
  2360.5000      0.0000    679.9840      4.7160     76.7401
  2360.7500      0.0000    679.7647      4.7746     52.1421
  2361.0000      0.0000    678.7252      4.7781     29.6337
  2361.2500      0.0000    679.6423      4.7009     13.7946
  2361.5000      0.0000    684.0352      4.5586      5.1833
  2361.7500      0.0000    690.7219      4.4016      1.5562
  2362.0000      0.0000    696.6630      4.2873      0.3702
  2362.2500      0.0000    699.3917      4.2490      0.0689
  2362.5000      0.0000    698.7567      4.2786      0.0092
  2362.7500      0.0000    696.6052      4.3315   -999.2500
  2363.0000      0.0000    695.2981      4.3545   -999.2500
  2363.2500      0.0000    696.2798      4.3179   -999.2500
  2363.5000      0.0000    699.1883      4.2284   -999.2500
  2363.7500      0.0000    702.3663      4.1134   -999.2500
  2364.0000      0.0000    704.9828      4.0025   -999.2500
  2364.2500      0.0000    708.7269      3.9196   -999.2500
  2364.5000      0.0000    716.6138      3.8797   -999.2500
  2364.7500      0.0000    728.8647      3.8854   -999.2500
  2365.0000      0.0000    738.5323      3.9226   -999.2500
  2365.2500      0.0000    730.2235      3.9461   -999.2500
  2365.5000      0.0000    684.5947      3.8620   -999.2500
  2365.7500      0.0000    589.0656      3.5558   -999.2500
  2366.0000      0.0000    450.1797      2.9887   -999.2500
  2366.2500      0.0000    296.4820      2.2688   -999.2500
  2366.5000      0.0000    164.0375      1.5957   -999.2500
  2366.7500      0.0000     74.7345      1.1185   -999.2500
  2367.0000      0.0000     27.6182      0.8587   -999.2500
  2367.2500      0.0000      8.1863      0.7493   -999.2500
  2367.5000      0.0000      1.9270      0.7136   -999.2500
  2367.7500      0.0000      0.3547      0.7045   -999.2500
  2368.0000      0.0000   -999.2500   -999.2500   -999.2500
  2368.2500      0.0000   -999.2500   -999.2500   -999.2500
  2368.5000      0.0000   -999.2500   -999.2500   -999.2500
