~Version Information
 VERS.                                  2.0 : CWLS LAS VERSION
 WRAP.                                   NO : WRAPING MODE
 SWARE .                 MController 2.5.0J : SOFTWARE VERSION
~Well Information
 WELL.              Cock-A-Doodle-Doo 44-27 : WELL
 COMP.      Pioneer Natural Resources, Inc. : COMPANY
 FLD.                      Purgatoire River : FIELD
 LOC.                SE/SE Sec.27 T32S R67W : LOCATION
 DATE.                              6/30/05 : DATE(S) LOGGED
 SRVC.       BLANCO Geological Services LLC : SERVICE COMPANY
 STAT.                                   CO : STATE
 CNTY.                           Las Animas : COUNTY
 CTRY.                                  USA : COUNTRY
 API.                             071 08429 : API NUMBER
 STRT.FT                             394.00 : START DEPTH
 STOP.FT                            2540.00 : STOP DEPTH
 STEP.FT                               1.00 : DEPTH INCREMENT
 NULL.                                -9999 : NULL VALUE
~Curve information
 DEPTH.FT                                   :
 ROP.MIN/FT                                 :
 GAS.UNITS                                  :
~ASCII Log data
# ...
      1994.0         0.57        189.8 
      1995.0         0.50        187.6 
      1996.0         0.47        189.4 
      1997.0         0.50        191.8 
      1998.0         0.53        191.4 
      1999.0         0.43        186.8 
      2000.0         0.48        184.8 
      2001.0         0.50        188.3 
      2002.0         0.23        187.9 
      2003.0         0.23        184.8 
      2004.0         0.27        179.6 
      2005.0         0.47        194.7 
      2006.0         2.52        303.9 
      2007.0         0.47        451.8 
      2008.0         0.30       1039.9 
      2009.0         0.33       1065.1 
      2010.0         0.27       1039.5 
      2011.0         0.23        949.9 
      2012.0         0.27        858.6 
      2013.0         0.27        763.6 
      2014.0         0.32        683.4 
      2015.0         0.27        610.3 
      2016.0         0.27        556.1 
      2017.0         0.23        511.3 
      2018.0         0.30        475.9 
      2019.0         0.23        447.2 
      2020.0         0.17        448.3 
      2021.0         0.20        459.4 
      2022.0         0.20        466.1 
      2023.0         0.20        465.1 
      2024.0         0.27        454.3 
      2025.0         0.23        440.0 
      2026.0         0.30        206.7 
      2027.0         0.30        209.0 
      2028.0         0.25        211.9 
      2029.0         0.23        212.2 
      2030.0         0.33        211.9 
      2031.0         0.27        209.1 
      2032.0         0.23        206.0 
      2033.0         0.27        203.2 
      2034.0         0.30        199.9 
      2035.0         0.27        197.3 
      2036.0         2.22        229.7 
      2037.0         0.37        349.0 
      2038.0         0.13        402.2 
      2039.0         0.27        987.3 
      2040.0         0.30       1027.7 
      2041.0         0.27       1011.2 
      2042.0         0.33        884.2 
      2043.0         0.30        760.9 
      2044.0         0.30        699.6 
      2045.0         0.42        644.3 
      2046.0         0.40        573.9 
      2047.0         0.47        521.4 
      2048.0         0.30        524.1 
      2049.0         0.30        546.0 
      2050.0         0.30        589.4 
      2051.0         0.30        590.8 
      2052.0         0.30        572.2 
      2053.0         0.33        519.0 
      2054.0         0.20        454.7 
      2055.0         0.22        440.0 
      2056.0         0.20        209.0 
      2057.0         0.27        197.8 
      2058.0         0.23        187.3 
      2059.0         0.27        180.5 
      2060.0         0.27        175.1 
      2061.0         0.23        172.2 
      2062.0         0.20        172.0 
      2063.0         0.23        172.3 
      2064.0         0.30        172.1 
      2065.0         0.37        170.4 
      2066.0         1.78        186.7 
      2067.0         0.27        252.2 
      2068.0         0.33        354.5 
      2069.0         0.30        476.6 
      2070.0         0.23       1073.9 
      2071.0         0.33       1119.7 
      2072.0         0.30       1106.9 
      2073.0         0.30       1014.6 
      2074.0         0.32        896.0 
      2075.0         0.30        789.2 
      2076.0         0.33        697.9 
      2077.0         0.30        613.3 
      2078.0         0.33        558.8 
      2079.0         0.43        524.7 
      2080.0         0.37        504.9 
      2081.0         0.33        485.3 
      2082.0         0.27        440.0 
      2083.0         0.27        193.4 
      2084.0         0.25        184.6 
      2085.0         0.23        197.7 
      2086.0         0.23        208.9 
      2087.0         0.23        213.6 
      2088.0         0.23        214.0 
      2089.0         0.23        212.9 
      2090.0         0.23        208.7 
      2091.0         0.23        202.8 
      2092.0         0.23        196.1 
      2093.0         0.20        190.1 
      2094.0         0.23        186.4 
      2095.0         0.23        184.2 
      2096.0         2.35        183.4 
      2097.0         0.43        278.2 
      2098.0         0.40        381.0 
      2099.0         0.40        461.2 
      2100.0         0.37        993.7 
      2101.0         0.38        998.1 
      2102.0         0.37        949.9 
      2103.0         0.30        834.0 
      2104.0         0.30        740.4 
      2105.0         0.27        656.8 
      2106.0         0.27        591.4 
      2107.0         0.20        538.9 
      2108.0         0.40        515.6 
      2109.0         0.30        486.0 
      2110.0         0.23        468.5 
      2111.0         0.27        455.3 
      2112.0         0.23        442.2 
      2113.0         0.25        440.0 
      2114.0         0.23        216.1 
      2115.0         0.27        209.9 
      2116.0         0.30        203.9 
      2117.0         0.20        198.2 
      2118.0         0.23        195.4 
      2119.0         0.23        193.3 
      2120.0         0.27        192.6 
      2121.0         0.27        188.5 
      2122.0         0.30        181.8 
      2123.0         0.30        181.2 
      2124.0         0.27        182.7 
      2125.0         0.28        184.3 
      2126.0         2.20        188.4 
      2127.0         0.47        275.0 
      2128.0         0.63        473.3 
      2129.0         0.52       1189.8 
      2130.0         0.23       1248.4 
      2131.0         0.23       1250.4 
      2132.0         0.20       1212.7 
      2133.0         0.23       1127.5 
      2134.0         0.27       1006.2 
      2135.0         0.30        873.4 
      2136.0         0.27        759.9 
      2137.0         0.33        677.7 
      2138.0         0.37        596.8 
      2139.0         0.27        528.8 
      2140.0         0.18        490.0 
      2141.0         0.27        474.9 
      2142.0         0.10        461.7 
      2143.0         0.17        460.7 
      2144.0         0.20        457.7 
      2145.0         0.20        455.0 
      2146.0         0.23        447.2 
      2147.0         0.23        440.0 
      2148.0         0.23        223.9 
      2149.0         0.23        220.0 
      2150.0         0.23        217.2 
      2151.0         0.20        213.9 
      2152.0         0.23        210.9 
      2153.0         0.20        207.4 
      2154.0         0.20        204.7 
      2155.0         0.27        202.4 
      2156.0         6.95       1029.1 
      2157.0         0.53        195.6 
      2158.0         0.53        192.2 
      2159.0         0.60        191.7 
      2160.0         0.40        189.3 
      2161.0         0.40        188.7 
      2162.0         0.40        187.2 
      2163.0         0.27        193.4 
      2164.0         0.18        198.7 
      2165.0         0.17        200.2 
      2166.0         0.20        198.2 
      2167.0         0.27        184.7 
      2168.0         0.20        159.3 
      2169.0         0.10        146.3 
      2170.0         0.27        148.3 
      2171.0         0.17        163.6 
      2172.0         0.10        173.9 
      2173.0         0.27        183.2 
      2174.0         0.30        180.8 
      2175.0         0.33        164.8 
      2176.0         0.27        173.1 
      2177.0         0.27        206.1 
      2178.0         0.33        239.5 
      2179.0         0.35        249.1 
      2180.0         0.30        249.2 
      2181.0         0.30        242.4 
      2182.0         0.23        232.5 
      2183.0         0.23        223.9 
      2184.0         0.27        215.6 
      2185.0         0.23        208.4 
      2186.0         3.48        302.5 
      2187.0         0.37        404.4 
      2188.0         0.70        471.3 
      2189.0         0.65        934.8 
      2190.0         0.30        921.3 
      2191.0         0.30        849.5 
      2192.0         0.30        745.1 
      2193.0         0.27        614.0 
