~Version Information
 VERS.                                  2.0 : CWLS LAS VERSION
 WRAP.                                   NO : WRAPING MODE
 SWARE .                 MController 2.5.0E : SOFTWARE VERSION
~Well Information
 WELL.                          SUNSET 24-3 : WELL
 COMP.                            EVERGREEN : COMPANY
 FLD.                      PURGATOIRE RIVER : FIELD
 LOC.                  SE/SW SEC3 T33S R65W : LOCATION
 DATE.                             09/22/04 : DATE(S) LOGGED
 SRVC.       BLANCO GEOLOGICAL SERVICES LLC : SERVICE COMPANY
 STAT.                             COLORADO : STATE
 CNTY.                           LAS ANIMAS : COUNTY
 CTRY.                                  USA : COUNTRY
 API.                       05-071-08158-00 : API NUMBER
 STRT.FT                             506.00 : START DEPTH
 STOP.FT                            1050.00 : STOP DEPTH
 STEP.FT                               1.00 : DEPTH INCREMENT
 NULL.                                -9999 : NULL VALUE
~Curve information
 DEPTH.FT                                   :
 ROP.MIN/FT                                 :
 GAS.UNITS                                  :
~ASCII Log data
      506.00    -9999.000          2.5 
      507.00        0.200          2.5 
      508.00        0.100          2.6 
      509.00        0.100          2.3 
      510.00        2.883          3.0 
      511.00        0.067          2.6 
      512.00        0.133          2.9 
      513.00        0.100          2.7 
      514.00        0.100          2.9 
      515.00        0.133          2.9 
      516.00        0.100          2.6 
      517.00        0.133          2.9 
      518.00        0.100          2.9 
      519.00        0.100          2.7 
      520.00        0.100          2.9 
      521.00        0.117          2.7 
      522.00        0.100          2.5 
      523.00        0.100          2.7 
      524.00        0.233          2.6 
      525.00        0.200          2.5 
      526.00        0.200          2.4 
      527.00        0.200          2.4 
      528.00        0.167          2.3 
      529.00        0.200          2.3 
      530.00        0.133          2.2 
      531.00        0.167          2.2 
      532.00        0.133          2.5 
      533.00        0.100          2.8 
      534.00        0.133          3.0 
      535.00        0.100          3.4 
      536.00        1.750          7.2 
      537.00        0.100          6.4 
      538.00        0.233          6.2 
      539.00        0.167          4.5 
      540.00        0.167          4.2 
      541.00        0.300          3.4 
      542.00        0.233          2.6 
      543.00        0.200          2.1 
      544.00        0.133          1.6 
      545.00        0.133          2.0 
      546.00        0.133          1.9 
      547.00        0.133          1.7 
      548.00        0.133          1.4 
      549.00        0.100          1.7 
      550.00        0.100          1.4 
      551.00        0.133          1.3 
      552.00        0.100          1.6 
      553.00        0.133          1.3 
      554.00        0.183          1.2 
      555.00        0.133          1.2 
      556.00        0.133          1.2 
      557.00        0.100          1.1 
      558.00        0.133          1.0 
      559.00        0.167          1.0 
      560.00        0.100          0.7 
      561.00        0.100          0.7 
      562.00        0.133          1.0 
      563.00        0.100          0.7 
      564.00        0.133          0.7 
      565.00        0.133          0.6 
      566.00        2.250          2.4 
      567.00        0.133          2.1 
      568.00        0.233          1.6 
      569.00        0.133          1.2 
      570.00        0.133          1.4 
      571.00        0.267          1.4 
      572.00        0.133          1.2 
      573.00        0.133          1.2 
      574.00        0.133          1.2 
      575.00        0.133          1.1 
      576.00        0.133          1.1 
      577.00        0.133          1.2 
      578.00        0.100          1.1 
      579.00        0.100          1.2 
      580.00        0.100          1.3 
      581.00        0.100          1.2 
      582.00        0.100          1.7 
      583.00        0.100          1.9 
      584.00        0.133          2.4 
      585.00        0.100          2.3 
      586.00        0.100          2.3 
      587.00        0.167          2.4 
      588.00        0.217          3.8 
      589.00        0.133          5.4 
      590.00        0.133          6.6 
      591.00        0.133          6.7 
      592.00        0.100          7.1 
      593.00        0.100          6.9 
      594.00        0.100          6.6 
      595.00        0.167          6.0 
      596.00        1.833          7.9 
      597.00        0.233          7.6 
      598.00        0.267          6.7 
      599.00        0.250          6.6 
      600.00        0.200          7.6 
      601.00        0.100          8.2 
      602.00        0.067          8.4 
      603.00        0.100          8.3 
      604.00        0.100          8.2 
      605.00        0.100          7.7 
      606.00        0.167          7.0 
      607.00        0.100          5.6 
      608.00        0.133          5.0 
      609.00        0.100          4.2 
      610.00        0.100          3.6 
      611.00        0.133          3.4 
      612.00        0.100          3.2 
      613.00        0.133          3.0 
      614.00        0.133          2.8 
      615.00        0.167          2.8 
      616.00        0.167          2.6 
      617.00        0.167          4.3 
      618.00        0.100          4.6 
      619.00        0.133          6.2 
      620.00        0.067          6.2 
      621.00        0.100          7.0 
      622.00        0.133          8.5 
      623.00        0.167         10.2 
      624.00        0.133         11.2 
      625.00        0.150         11.5 
      626.00        1.400         22.1 
      627.00        0.300         23.6 
      628.00        0.267         23.8 
      629.00        0.200         22.1 
      630.00        0.200         20.7 
      631.00        0.167         18.7 
      632.00        0.167         17.0 
      633.00        0.133         15.5 
      634.00        0.133         14.8 
      635.00        0.133         14.4 
      636.00        0.100         14.3 
      637.00        0.150         14.4 
      638.00        0.133         14.2 
      639.00        0.100         13.5 
      640.00        0.167         13.3 
      641.00        0.133         13.2 
      642.00        0.133         14.6 
      643.00        0.100         16.6 
      644.00        0.100         18.8 
      645.00        0.100         20.7 
      646.00        0.067         22.2 
      647.00        0.100         25.0 
      648.00        0.167         26.6 
      649.00        0.133         26.9 
      650.00        0.100         26.1 
      651.00        0.133         26.1 
      652.00        0.100         25.6 
      653.00        0.133         25.0 
      654.00        0.133         23.2 
      655.00        0.133         23.4 
      656.00        1.817         89.6 
      657.00        0.167         89.9 
      658.00        0.300         87.8 
      659.00        0.133         75.2 
      660.00        0.133         67.9 
      661.00        0.133         62.7 
      662.00        0.100         56.3 
      663.00        0.133         51.8 
      664.00        0.200         46.7 
      665.00        0.133         41.0 
      666.00        0.167         37.1 
      667.00        0.133         33.5 
      668.00        0.133         30.8 
      669.00        0.200         28.6 
      670.00        0.167         25.8 
      671.00        0.167         25.1 
      672.00        0.200         23.6 
      673.00        0.183         23.0 
      674.00        0.167         22.3 
      675.00        0.133         22.2 
      676.00        0.200         22.1 
      677.00        0.167         21.9 
      678.00        0.133         21.9 
      679.00        0.167         23.0 
      680.00        0.167         25.3 
      681.00        0.167         25.8 
      682.00        0.167         25.8 
      683.00        0.167         25.8 
      684.00        0.167         25.2 
      685.00        0.167         24.7 
      686.00        1.717        100.0 
      687.00        0.200        107.0 
      688.00        0.333        107.3 
      689.00        0.267         98.5 
      690.00        0.167         84.6 
      691.00        0.133         77.0 
      692.00        0.167         70.0 
      693.00        0.133         61.8 
      694.00        0.167         56.1 
      695.00        0.167         50.5 
      696.00        0.167         45.9 
      697.00        0.100         42.9 
      698.00        0.100         41.2 
      699.00        0.067         41.7 
      700.00        0.133         42.1 
      701.00        0.133         44.0 
      702.00        0.167         46.3 
      703.00        0.167         49.3 
      704.00        0.183         52.7 
      705.00        0.167         55.1 
