~Version Information
VERS.                      2.0: CWLS Log ASCII Standard - VERSION 2.0
WRAP.                       NO: One line per depth step
~Well Information Block
STRT.FT               260.0000: 
STOP.FT              1200.5000: 
STEP.FT                 0.2500: 
NULL.                -999.2500: 
COMP.          Evergreen Operating Corporation: COMPANY
WELL.             Justin 32-10: WELL
FLD.           Purgatorie River: FIELD
LOC.           2994' FNL & 1449' FEL: LOCATION
PROV.                 Colorado: PROVINCE
CNTY.               Las Animas: COUNTRY
SRVC.                         : SERVICE COMPANY
DATE.          Sun Aug 29 20:47:20 2004: LOG DATE
UWI.           05 071 08053 00: UNIQUE WELL ID
~Curve Information Block
DEPT.FT            0 000 00 00: Depth
LTEN.lb                       : Surface Line Tension
SN.Ohm-m                      : IEL Short Normal
SP.mV                         : IEL Spontaneous Potential
DIR.Ohm-m                     : IEL Induction Resistivity
GR.GAPI                       : Gamma Ray
~Parameter Information Block
~A  Depth       LTEN         SN          SP         DIR          GR     
# ...
   764.0000    588.3309     10.5732      2.3308      9.1425    161.8205
   764.2500    588.9443     10.2836      2.3942      8.7901    162.8519
   764.5000    589.6365     10.1019      2.4485      8.4890    164.6654
   764.7500    590.2493      9.9851      2.4972      8.2277    166.4408
   765.0000    590.6248      9.8948      2.5468      7.9967    169.2735
   765.2500    590.7991      9.7988      2.6037      7.7905    170.5484
   765.5000    590.9537      9.6728      2.6729      7.6085    170.6023
   765.7500    591.1532      9.5009      2.7563      7.4523    169.1665
   766.0000    591.2156      9.2773      2.8532      7.3230    165.0298
   766.2500    590.9662      9.0089      2.9615      7.2202    161.5070
   766.5000    590.6154      8.7186      3.0761      7.1427    156.4618
   766.7500    590.6682      8.4433      3.1932      7.0881    154.0156
   767.0000    591.3516      8.2262      3.3089      7.0530    152.4543
   767.2500    592.3129      8.1014      3.4195      7.0312    152.6963
   767.5000    593.0057      8.0791      3.5222      7.0137    153.7575
   767.7500    593.2324      8.1344      3.6148      6.9893    154.0315
   768.0000    593.2075      8.2093      3.6957      6.9490    153.0446
   768.2500    593.1981      8.2291      3.7640      6.8892    151.6340
   768.5000    593.2323      8.1326      3.8197      6.8137    149.0122
   768.7500    593.1842      7.9053      3.8641      6.7313    147.0903
   769.0000    592.9962      7.5945      3.8987      6.6510    144.0157
   769.2500    592.6793      7.2962      3.9258      6.5791    142.0558
   769.5000    592.2353      7.1147      3.9471      6.5184    139.9087
   769.7500    591.7589      7.1135      3.9638      6.4695    139.2141
   770.0000    591.4379      7.2838      3.9762      6.4326    139.0193
   770.2500    591.3017      7.5454      3.9839      6.4073    139.1554
   770.5000    591.2133      7.7829      3.9865      6.3924    139.4384
   770.7500    591.2144      7.8976      3.9840      6.3845    139.5930
   771.0000    591.5281      7.8485      3.9770      6.3782    139.8106
   771.2500    592.0919      7.6612      3.9673      6.3676    140.1679
   771.5000    592.4425      7.4069      3.9566      6.3487    141.4761
   771.7500    592.2324      7.1670      3.9468      6.3205    142.7191
   772.0000    591.6111      7.0035      3.9389      6.2856    143.8570
   772.2500    590.9772      6.9461      3.9327      6.2495    143.2274
   772.5000    590.5523      6.9939      3.9273      6.2192    139.7970
   772.7500    590.3331      7.1269      3.9215      6.2014    136.6989
   773.0000    590.3298      7.3172      3.9143      6.2019    133.4185
   773.2500    590.6559      7.5360      3.9065      6.2250    133.2672
   773.5000    591.3427      7.7558      3.9002      6.2731    136.0153
   773.7500    592.2067      7.9515      3.8995      6.3477    138.8875
   774.0000    593.0001      8.1034      3.9093      6.4488    143.0152
   774.2500    593.5814      8.2039      3.9350      6.5764    144.9137
   774.5000    593.8683      8.2611      3.9805      6.7298    145.7905
   774.7500    593.8134      8.2983      4.0481      6.9078    145.1454
   775.0000    593.5601      8.3487      4.1375      7.1080    143.3994
   775.2500    593.4303      8.4469      4.2454      7.3281    142.4510
   775.5000    593.6069      8.6220      4.3662      7.5678    141.6980
   775.7500    593.9524      8.8931      4.4918      7.8302    141.0965
   776.0000    594.1724      9.2678      4.6132      8.1211    138.5262
   776.2500    594.0234      9.7440      4.7205      8.4475    135.2304
   776.5000    593.4324     10.3132      4.8047      8.8173    128.6893
   776.7500    592.5837     10.9645      4.8585      9.2395    124.3094
   777.0000    591.8385     11.6866      4.8771      9.7256    118.9432
   777.2500    591.5153     12.4705      4.8594     10.2891    116.1122
   777.5000    591.7974     13.3127      4.8077     10.9442    112.3366
   777.7500    592.6967     14.2187      4.7276     11.7035    110.0569
   778.0000    593.9106     15.2042      4.6275     12.5744    107.3188
   778.2500    594.8862     16.2926      4.5168     13.5576    105.9152
   778.5000    595.3021     17.5088      4.4050     14.6463    103.7068
   778.7500    595.4074     18.8705      4.2999     15.8261    101.6249
   779.0000    595.6785     20.3817      4.2073     17.0764     96.8791
   779.2500    596.1966     22.0310      4.1301     18.3736     92.3649
   779.5000    596.5531     23.7963      4.0690     19.6959     83.4982
   779.7500    596.3620     25.6502      4.0226     21.0259     76.5384
   780.0000    595.6671     27.5630      3.9887     22.3512     65.8097
   780.2500    594.7992     29.5002      3.9649     23.6628     59.4043
   780.5000    594.0674     31.4189      3.9486     24.9542     52.2462
   780.7500    593.6802     33.2692      3.9383     26.2203     49.3573
   781.0000    593.7294     35.0024      3.9326     27.4574     47.0914
   781.2500    594.1240     36.5810      3.9308     28.6642     46.2090
   781.5000    594.6738     37.9869      3.9324     29.8396     45.2215
   781.7500    595.2164     39.2215      3.9371     30.9766     44.9654
   782.0000    595.5783     40.3011      3.9448     32.0539     45.4880
   782.2500    595.5876     41.2499      3.9555     33.0360     46.2376
   782.5000    595.2399     42.0934      3.9693     33.8804     47.2174
   782.7500    594.6839     42.8534      3.9865     34.5476     47.3965
   783.0000    594.0430     43.5441      4.0074     35.0104     46.7036
   783.2500    593.4518     44.1696      4.0327     35.2654     45.7703
   783.5000    593.1792     44.7257      4.0631     35.3448     44.3781
   783.7500    593.4574     45.2059      4.0995     35.3184     43.8265
   784.0000    594.2447     45.6094      4.1430     35.2804     43.6405
   784.2500    595.2820     45.9471      4.1947     35.3262     43.7385
   784.5000    596.3148     46.2404      4.2550     35.5263     43.9766
   784.7500    597.2255     46.5141      4.3232     35.9035     44.2745
   785.0000    597.9964     46.7891      4.3972     36.4211     45.3018
   785.2500    598.5023     47.0789      4.4728     36.9917     46.5484
   785.5000    598.4301     47.3911      4.5440     37.5113     49.1412
   785.7500    597.6215     47.7311      4.6034     37.9031     50.9553
   786.0000    596.4196     48.1029      4.6433     38.1409     52.7524
   786.2500    595.3907     48.5060      4.6571     38.2350     52.7342
   786.5000    594.7902     48.9286      4.6402     38.1958     50.4198
   786.7500    594.5466     49.3383      4.5914     38.0140     47.6549
   787.0000    594.5864     49.6766      4.5132     37.6731     43.0577
   787.2500    594.8625     49.8622      4.4116     37.1717     40.5034
   787.5000    595.2357     49.8032      4.2955     36.5269     37.8635
   787.7500    595.5992     49.4163      4.1750     35.7605     36.6123
   788.0000    595.9623     48.6458      4.0606     34.8871     35.1359
   788.2500    596.2449     47.4745      3.9616     33.9172     34.7149
   788.5000    596.2378     45.9240      3.8850     32.8639     36.0332
   788.7500    595.9137     44.0451      3.8354     31.7436     38.7230
   789.0000    595.5434     41.9063      3.8141     30.5724     45.5184
   789.2500    595.3854     39.5854      3.8195     29.3639     51.4350
   789.5000    595.4435     37.1650      3.8477     28.1307     61.3900
   789.7500    595.5558     34.7283      3.8928     26.8840     68.3935
   790.0000    595.6053     32.3514      3.9483     25.6332     79.2441
   790.2500    595.6969     30.0941      4.0082     24.3856     86.4608
   790.5000    596.1676     27.9967      4.0677     23.1495     96.1191
   790.7500    597.2546     26.0843      4.1244     21.9389    100.9506
   791.0000    598.7386     24.3724      4.1790     20.7740    105.2412
   791.2500    600.1006     22.8670      4.2346     19.6779    106.6427
   791.5000    600.9544     21.5604      4.2966     18.6696    107.9404
   791.7500    601.1296     20.4308      4.3715     17.7601    108.6701
