~Version Information
VERS.                      2.0: CWLS Log ASCII Standard - VERSION 2.0
WRAP.                       NO: One line per depth step
~Well Information Block
STRT.FT               745.2500: 
STOP.FT              2003.5000: 
STEP.FT                 0.2500: 
NULL.                -999.2500: 
COMP.          Petrogulf Corporation: COMPANY
WELL.            Montoya 6-14V: WELL
FLD.           Purgatorie River: FIELD
LOC.           318' FSL & 882' FWL: LOCATION
CNTY.               Las Animas: COUNTY
SRVC.                         : SERVICE COMPANY
DATE.          Fri Aug 13 04:55:06 2004: LOG DATE
UWI.           05 071 08020 00: UNIQUE WELL ID
STAT.                 Colorado: STATE
~Curve Information Block
DEPT.FT            0 000 00 00: Depth
SP.mV                         : DIL Spontaneous Potential
RILD.Ohm-m                    : DIL Deep Resistivity
RILM.Ohm-m                    : DIL Medium Resistivity
RLL3.Ohm-m                    : DIL Shallow Resistivity
GR.GAPI                       : Gamma Ray
~Parameter Information Block
~A  Depth        SP         RILD        RILM        RLL3         GR     
# ...
  1585.2500     22.9456      9.5031     10.3370     14.4091    133.2381
  1585.5000     22.9542      9.3251     10.0319     13.5195    130.6544
  1585.7500     22.9645      9.1514      9.7366     12.5804    128.6172
  1586.0000     22.9829      8.9816      9.4607     11.7322    124.2852
  1586.2500     23.0157      8.8162      9.2107     11.0554    120.6153
  1586.5000     23.0678      8.6556      8.9899     10.5672    115.0715
  1586.7500     23.1420      8.5002      8.7995     10.2424    112.1133
  1587.0000     23.2392      8.3505      8.6387     10.0393    109.2287
  1587.2500     23.3582      8.2084      8.5059      9.9190    108.0230
  1587.5000     23.4959      8.0769      8.3987      9.8555    106.3985
  1587.7500     23.6475      7.9601      8.3140      9.8376    104.9578
  1588.0000     23.8065      7.8624      8.2488      9.8629    101.6294
  1588.2500     23.9647      7.7880      8.2003      9.9274     98.5561
  1588.5000     24.1124      7.7399      8.1661     10.0181     93.3286
  1588.7500     24.2395      7.7197      8.1449     10.1118     89.9481
  1589.0000     24.3362      7.7270      8.1365     10.1828     85.1712
  1589.2500     24.3940      7.7593      8.1418     10.2119     81.8073
  1589.5000     24.4074      7.8122      8.1624     10.1948     75.8799
  1589.7500     24.3746      7.8800      8.2007     10.1427     71.3404
  1590.0000     24.2981      7.9564      8.2587     10.0794     64.4394
  1590.2500     24.1850      8.0361      8.3381     10.0340     60.6098
  1590.5000     24.0461      8.1166      8.4400     10.0353     57.5164
  1590.7500     23.8941      8.1991      8.5649     10.1073     57.7724
  1591.0000     23.7419      8.2887      8.7130     10.2653     61.9202
  1591.2500     23.6007      8.3937      8.8846     10.5116     67.1477
  1591.5000     23.4779      8.5242      9.0805     10.8307     78.3410
  1591.7500     23.3765      8.6894      9.3023     11.1888     87.5887
  1592.0000     23.2951      8.8961      9.5532     11.5419    102.9332
  1592.2500     23.2291      9.1467      9.8371     11.8563    113.3623
  1592.5000     23.1722      9.4379     10.1591     12.1320    127.9213
  1592.7500     23.1183      9.7600     10.5236     12.4184    135.9258
  1593.0000     23.0630     10.0975     10.9338     12.8088    143.6394
  1593.2500     23.0047     10.4312     11.3892     13.4131    145.5521
  1593.5000     22.9448     10.7421     11.8837     14.3157    144.9442
  1593.7500     22.8877     11.0163     12.4043     15.5366    143.5968
  1594.0000     22.8396     11.2468     12.9291     17.0139    141.4607
  1594.2500     22.8079     11.4331     13.4279     18.6199    139.8084
  1594.5000     22.7996     11.5792     13.8650     20.2041    136.4893
  1594.7500     22.8201     11.6912     14.2043     21.6340    133.9546
  1595.0000     22.8720     11.7767     14.4170     22.8051    130.7354
  1595.2500     22.9545     11.8443     14.4889     23.6129    129.4693
  1595.5000     23.0632     11.9027     14.4245     23.9220    129.1484
  1595.7500     23.1908     11.9571     14.2462     23.5830    129.9392
  1596.0000     23.3279     12.0066     13.9884     22.5118    132.3229
  1596.2500     23.4641     12.0436     13.6893     20.7838    134.3146
  1596.5000     23.5898     12.0550     13.3832     18.6611    136.9853
  1596.7500     23.6968     12.0273     13.0956     16.5203    138.1750
  1597.0000     23.7794     11.9516     12.8417     14.7228    139.1434
  1597.2500     23.8344     11.8277     12.6261     13.5099    139.6317
  1597.5000     23.8607     11.6651     12.4455     12.9675    140.6837
  1597.7500     23.8594     11.4815     12.2913     13.0465    141.5071
  1598.0000     23.8328     11.2997     12.1530     13.5992    142.2173
  1598.2500     23.7841     11.1429     12.0212     14.4088    142.0490
  1598.5000     23.7173     11.0318     11.8907     15.2193    141.2023
  1598.7500     23.6371     10.9818     11.7615     15.7834    140.9134
  1599.0000     23.5487     11.0013     11.6391     15.9264    142.0922
  1599.2500     23.4573     11.0908     11.5334     15.6035    144.2330
  1599.5000     23.3682     11.2425     11.4564     14.9136    148.9841
  1599.7500     23.2858     11.4417     11.4207     14.0539    152.5682
  1600.0000     23.2132     11.6688     11.4378     13.2416    157.6074
  1600.2500     23.1524     11.9022     11.5169     12.6476    160.3191
  1600.5000     23.1038     12.1223     11.6650     12.3738    162.7256
  1600.7500     23.0670     12.3145     11.8867     12.4657    162.8487
  1601.0000     23.0413     12.4722     12.1842     12.9310    160.5664
  1601.2500     23.0259     12.5987     12.5572     13.7552    157.4533
  1601.5000     23.0204     12.7073     13.0026     14.9229    150.2563
  1601.7500     23.0240     12.8181     13.5142     16.4503    143.5251
  1602.0000     23.0353     12.9540     14.0820     18.4023    130.7649
  1602.2500     23.0522     13.1363     14.6926     20.8521    121.4477
  1602.5000     23.0720     13.3815     15.3306     23.7745    108.7828
  1602.7500     23.0919     13.7004     15.9807     26.9261    102.4859
  1603.0000     23.1095     14.0989     16.6318     29.8100     97.2982
  1603.2500     23.1239     14.5784     17.2804     31.8034     96.5992
  1603.5000     23.1352     15.1345     17.9322     32.4300     98.7491
  1603.7500     23.1449     15.7558     18.6024     31.6422    101.5965
  1604.0000     23.1554     16.4207     19.3117     29.9260    106.7432
  1604.2500     23.1693     17.0966     20.0822     28.1257    109.9431
  1604.5000     23.1894     17.7426     20.9315     27.0732    112.9365
  1604.7500     23.2179     18.3157     21.8677     27.2424    113.2556
  1605.0000     23.2558     18.7792     22.8846     28.6411    111.4733
  1605.2500     23.3030     19.1112     23.9582     30.9820    109.2401
  1605.5000     23.3573     19.3083     25.0447     33.9811    104.9452
  1605.7500     23.4147     19.3852     26.0795     37.5536    101.6988
  1606.0000     23.4698     19.3694     26.9822     41.7655     96.6140
  1606.2500     23.5167     19.2934     27.6653     46.6004     93.2093
  1606.5000     23.5502     19.1871     28.0509     51.7595     88.2593
  1606.7500     23.5675     19.0726     28.0895     56.6797     85.2889
  1607.0000     23.5687     18.9635     27.7777     60.7446     81.9490
  1607.2500     23.5572     18.8680     27.1631     63.4646     80.8644
  1607.5000     23.5381     18.7930     26.3352     64.4568     81.5903
  1607.7500     23.5173     18.7465     25.4045     63.3249     83.9657
  1608.0000     23.4994     18.7360     24.4794     59.7174     90.5829
  1608.2500     23.4873     18.7648     23.6504     53.6590     96.6898
  1608.5000     23.4814     18.8307     22.9829     45.8857    106.7500
  1608.7500     23.4809     18.9276     22.5183     37.7968    112.7115
  1609.0000     23.4839     19.0509     22.2792     30.9393    118.4485
  1609.2500     23.4887     19.2032     22.2760     26.3591    119.4175
  1609.5000     23.4941     19.3985     22.5124     24.2650    116.5952
  1609.7500     23.4993     19.6617     22.9902     24.1938    112.7204
  1610.0000     23.5036     20.0262     23.7124     25.5110    106.4898
  1610.2500     23.5065     20.5304     24.6847     27.8937    103.3757
  1610.5000     23.5075     21.2155     25.9150     31.5035    100.4277
  1610.7500     23.5069     22.1220     27.4119     36.7711     98.4061
  1611.0000     23.5063     23.2870     29.1795     43.9602     92.9356
  1611.2500     23.5091     24.7382     31.2123     52.8104     87.2306
  1611.5000     23.5199     26.4811     33.4864     62.5012     76.6934
  1611.7500     23.5446     28.4794     35.9516     71.9635     69.4610
  1612.0000     23.5883     30.6305     38.5219     80.3190     60.0399
  1612.2500     23.6549     32.7498     41.0670     87.1421     55.3594
  1612.5000     23.7460     34.5837     43.4089     92.3922     50.9399
  1612.7500     23.8610     35.8671     45.3275     96.1340     49.3671
  1613.0000     23.9969     36.4121     46.5842     98.3120     48.2148
