~Version Information
 VERS.                                  2.0 : CWLS LAS VERSION
 WRAP.                                   NO : WRAPING MODE
 SWARE .                 MController 2.5.0E : SOFTWARE VERSION
~Well Information
 WELL.                                  N/A : WELL
 COMP.                                  N/A : COMPANY
 FLD.                                   N/A : FIELD
 LOC.                                   N/A : LOCATION
 DATE.                                  N/A : DATE(S) LOGGED
 SRVC.                                  N/A : SERVICE COMPANY
 STAT.                                  N/A : STATE
 CNTY.                                  N/A : COUNTY
 CTRY.                                  N/A : COUNTRY
 API.                                   N/A : API NUMBER
 STRT.FT                            1016.00 : START DEPTH
 STOP.FT                            2595.00 : STOP DEPTH
 STEP.FT                               1.00 : DEPTH INCREMENT
 NULL.                                -9999 : NULL VALUE
~Curve information
 DEPTH.FT                                   :
 ROP.MIN/FT                                 :
 GAS.UNITS                                  :
~ASCII Log data
# ...
     2216.00        0.433         14.2 
     2217.00        0.433         11.3 
     2218.00        0.400          5.7 
     2219.00        0.483          5.1 
     2220.00        0.467          4.4 
     2221.00        0.500          3.9 
     2222.00        0.533          4.5 
     2223.00        0.533         11.0 
     2224.00        0.533         19.7 
     2225.00        0.533         19.8 
     2226.00        0.133         18.8 
     2227.00        0.183         18.1 
     2228.00        0.167         17.1 
     2229.00        0.267         16.6 
     2230.00        0.267         16.2 
     2231.00        0.300         15.8 
     2232.00        0.300         15.5 
     2233.00        0.533         16.2 
     2234.00        0.533         15.2 
     2235.00        0.533         19.0 
     2236.00        5.300         18.7 
     2237.00        0.367         15.0 
     2238.00        0.400         14.8 
     2239.00        0.400         16.5 
     2240.00        0.483         18.0 
     2241.00        0.467         17.6 
     2242.00        0.367         17.1 
     2243.00        0.433         16.8 
     2244.00        0.433         15.1 
     2245.00        0.433         14.6 
     2246.00        0.533         14.1 
     2247.00        0.533         14.7 
     2248.00        0.450         14.3 
     2249.00        0.467         13.0 
     2250.00        0.400         12.5 
     2251.00        0.467         11.5 
     2252.00        0.467         11.6 
     2253.00        0.467         11.2 
     2254.00        0.400         11.2 
     2255.00        0.450         12.1 
     2256.00        0.500         11.9 
     2257.00        0.333         13.1 
     2258.00        0.333         13.4 
     2259.00        0.333         14.2 
     2260.00        0.333         15.1 
     2261.00        0.367         15.9 
     2262.00        0.400         15.9 
     2263.00        0.533         17.8 
     2264.00        0.283         19.1 
     2265.00        0.267         18.8 
     2266.00      501.633       2524.3 
     2267.00        0.367        790.6 
     2268.00        0.400        793.6 
     2269.00        0.333        796.3 
     2270.00        0.333        799.3 
     2271.00        0.367        817.2 
     2272.00        0.450        670.6 
     2273.00        0.567         25.7 
     2274.00        0.467          0.3 
     2275.00        0.467          0.9 
     2276.00        0.550         11.0 
     2277.00        0.633         12.9 
     2278.00        0.700         13.8 
     2279.00        0.567         17.1 
     2280.00        0.200         17.1 
     2281.00        0.333         33.3 
     2282.00        0.433         61.7 
     2283.00        0.450         61.8 
     2284.00        0.367         47.8 
     2285.00        0.367         41.4 
     2286.00        0.300         29.1 
     2287.00        0.300         27.7 
     2288.00        0.333         21.2 
     2289.00        0.400         15.6 
     2290.00        0.367         14.4 
     2291.00        0.400         14.3 
     2292.00        0.200         14.5 
     2293.00        0.183         13.9 
     2294.00        0.267         14.3 
     2295.00        0.200         15.0 
     2296.00        7.800         18.4 
     2297.00        0.167         17.8 
     2298.00        0.317         18.4 
     2299.00        0.433         20.5 
     2300.00        0.433         19.0 
     2301.00        0.333         17.8 
     2302.00        0.400         12.9 
     2303.00        0.400         12.6 
     2304.00        0.367          8.2 
     2305.00        0.367         17.5 
     2306.00        0.267         16.7 
     2307.00        0.217         16.4 
     2308.00        0.300         16.6 
     2309.00        0.367         16.8 
     2310.00        0.367         17.4 
     2311.00        0.367         18.6 
     2312.00        0.400         19.6 
     2313.00        0.567         34.9 
     2314.00        0.400         63.5 
     2315.00        0.433         81.7 
     2316.00        0.483         78.4 
     2317.00        0.433         70.4 
     2318.00        0.467         48.1 
     2319.00        0.133         42.1 
     2320.00        0.200         37.3 
     2321.00        0.300         38.9 
     2322.00        0.300         35.0 
     2323.00        0.300         34.3 
     2324.00        0.267         34.8 
     2325.00        0.300         36.2 
     2326.00        8.517         36.4 
     2327.00        0.167         24.0 
     2328.00        0.383         22.4 
     2329.00        0.333         20.9 
     2330.00        0.433         20.7 
     2331.00        0.533         21.4 
     2332.00        0.467         23.5 
     2333.00        0.367         25.0 
     2334.00        0.267         25.3 
     2335.00        0.333         24.3 
     2336.00        0.367         23.0 
     2337.00        0.350         21.3 
     2338.00        0.333         18.4 
     2339.00        0.333         16.5 
     2340.00        0.333         15.4 
     2341.00        0.333         15.2 
     2342.00        0.300         15.4 
     2343.00        0.267         15.7 
     2344.00        0.400         15.6 
     2345.00        0.767         18.3 
     2346.00        1.217         69.4 
     2347.00        0.733         76.7 
     2348.00        0.267         66.8 
     2349.00        0.283         55.7 
     2350.00        0.367         44.5 
     2351.00        0.367         34.7 
     2352.00        0.367         34.4 
     2353.00        0.333         30.4 
     2354.00        0.300         27.8 
     2355.00        0.300         23.8 
     2356.00        0.267         16.7 
     2357.00        8.417         28.3 
     2358.00        0.133          2.2 
     2359.00        0.300          2.8 
     2360.00        0.333          1.9 
     2361.00        0.433          2.7 
     2362.00        0.433          2.4 
     2363.00        0.517          1.7 
     2364.00        0.433         -1.0 
     2365.00        0.333         -2.0 
     2366.00        0.333         -2.4 
     2367.00        0.167         -3.3 
     2368.00        0.167         -3.2 
     2369.00        0.233         -3.2 
     2370.00        0.300         -2.7 
     2371.00        0.367         -2.7 
     2372.00        0.333         -2.0 
     2373.00        0.333         -1.8 
     2374.00        0.317          0.0 
     2375.00        0.333         24.0 
     2376.00        0.300         29.8 
     2377.00        0.267         42.9 
     2378.00        0.300         42.9 
     2379.00        0.467         38.3 
     2380.00        0.433         28.4 
     2381.00        0.400         21.5 
     2382.00        0.433         15.4 
     2383.00        0.450          6.0 
     2384.00        0.367          2.4 
     2385.00        0.367          1.7 
     2386.00        8.517         20.7 
     2387.00        0.067          4.0 
     2388.00        0.233          2.3 
     2389.00        0.300          1.7 
     2390.00        0.333          2.0 
     2391.00        0.333          2.4 
     2392.00        0.300          3.0 
     2393.00        0.333          3.1 
     2394.00        0.333          4.7 
     2395.00        0.383          7.0 
     2396.00        0.333         15.6 
     2397.00        0.233         32.3 
     2398.00        0.133         32.3 
     2399.00        0.100         38.7 
     2400.00        0.167         48.5 
     2401.00        0.167         54.2 
     2402.00        0.133         54.2 
     2403.00        0.167         49.2 
     2404.00        0.300         47.6 
     2405.00        0.300         39.6 
     2406.00        0.300         31.6 
     2407.00        0.267         21.8 
     2408.00        0.167         21.7 
     2409.00        0.250         12.6 
     2410.00        0.333          9.9 
     2411.00        0.300          7.3 
     2412.00        0.267          7.7 
     2413.00        0.200          7.1 
     2414.00        0.267          9.3 
     2415.00        0.200          9.3 
