~Version Information
VERS.                      2.0: CWLS Log ASCII Standard - VERSION 2.0
WRAP.                       NO: One line per depth step
~Well Information Block
STRT.FT               741.2000: 
STOP.FT              2461.0000: 
STEP.FT                 0.1000: 
NULL.                -999.2500: 
COMP.          Petrogulf Corporation: COMPANY
WELL.           Montoya 12-44V: WELL
FLD.           Purgatorie River: FIELD
LOC.           698' FSL & 599' FEL: LOCATION
CNTY.               Las Animas: COUNTY
SRVC.                         : SERVICE COMPANY
DATE.          Mon Aug 09 06:09:04 2004: LOG DATE
UWI.           05 071 08094 00: UNIQUE WELL ID
STAT.                 Colorado: STATE
~Curve Information Block
DEPT.FT            0 000 00 00: Depth
DCAL.in                       : CDL Caliper
RHOB.g/cc                     : CDL Bulk Density
RHOC.g/cc                     : CDL Density Correction
DPOR.pu                       : CDL Density Porosity
GR.GAPI                       : Gamma Ray
NPOR.pu                       : Neutron Porosity
~Parameter Information Block
~A  Depth       DCAL        RHOB        RHOC        DPOR         GR         NPOR    
# ...
   760.4000   -999.2500   -999.2500   -999.2500   -999.2500     76.6689     39.5036
   760.5000   -999.2500   -999.2500   -999.2500   -999.2500     73.9054     38.8419
   760.6000   -999.2500   -999.2500   -999.2500   -999.2500     72.2169     38.3754
   760.7000   -999.2500   -999.2500   -999.2500   -999.2500     72.2976     38.3509
   760.8000   -999.2500   -999.2500   -999.2500   -999.2500     73.2656     38.6351
   760.9000   -999.2500   -999.2500   -999.2500   -999.2500     74.2396     38.8786
   761.0000   -999.2500   -999.2500   -999.2500   -999.2500     76.2017     38.9060
   761.1000   -999.2500   -999.2500   -999.2500   -999.2500     77.2074     38.7724
   761.2000   -999.2500   -999.2500   -999.2500   -999.2500     74.7926     38.7061
   761.3000   -999.2500   -999.2500   -999.2500   -999.2500     73.0947     38.8133
   761.4000   -999.2500   -999.2500   -999.2500   -999.2500     76.3407     38.8620
   761.5000   -999.2500   -999.2500   -999.2500   -999.2500     81.0754     38.6895
   761.6000   -999.2500   -999.2500   -999.2500   -999.2500     82.2087     38.5028
   761.7000   -999.2500   -999.2500   -999.2500   -999.2500     82.1310     38.5399
   761.8000   -999.2500   -999.2500   -999.2500   -999.2500     85.2327     38.7940
   761.9000   -999.2500   -999.2500   -999.2500   -999.2500     89.1283     39.2264
   762.0000   -999.2500   -999.2500   -999.2500   -999.2500     89.1216     39.9000
   762.1000   -999.2500   -999.2500   -999.2500   -999.2500     84.7331     40.6725
   762.2000   -999.2500   -999.2500   -999.2500   -999.2500     79.9151     41.1995
   762.3000   -999.2500   -999.2500   -999.2500   -999.2500     80.6006     41.4248
   762.4000   -999.2500   -999.2500   -999.2500   -999.2500     87.0451     41.6169
   762.5000   -999.2500   -999.2500   -999.2500   -999.2500     92.7412     41.8443
   762.6000   -999.2500   -999.2500   -999.2500   -999.2500     93.0914     41.8084
   762.7000   -999.2500   -999.2500   -999.2500   -999.2500     88.0742     41.4884
   762.8000   -999.2500   -999.2500   -999.2500   -999.2500     81.4949     41.3493
   762.9000   -999.2500   -999.2500   -999.2500   -999.2500     79.0661     41.6208
   763.0000   -999.2500   -999.2500   -999.2500   -999.2500     83.2280     42.0335
   763.1000   -999.2500   -999.2500   -999.2500   -999.2500     87.9026     42.2673
   763.2000   -999.2500   -999.2500   -999.2500   -999.2500     86.7538     42.3041
   763.3000   -999.2500   -999.2500   -999.2500   -999.2500     83.4076     42.1633
   763.4000   -999.2500   -999.2500   -999.2500   -999.2500     83.3259     41.9436
   763.5000      2.5251   -999.2500   -999.2500   -999.2500     85.7266     41.9720
   763.6000      2.5251   -999.2500      0.1707   -999.2500     88.0864     42.3148
   763.7000      2.5251   -999.2500      0.1607   -999.2500     90.2597     42.5432
   763.8000      2.5251   -999.2500      0.1927   -999.2500     92.4848     42.3191
   763.9000      2.5251   -999.2500      0.2138   -999.2500     91.9947     41.8533
   764.0000      2.5227   -999.2500      0.1829   -999.2500     87.6526     41.5925
   764.1000      2.5227      2.2883      0.1817     21.9216     84.5344     41.5771
   764.2000      2.5227      2.2811      0.1364     22.3581     85.3038     41.5594
   764.3000      2.5213      2.2813      0.2017     22.3428     87.1164     41.4585
   764.4000      2.5213      2.2820      0.1532     22.3051     88.5707     41.3455
   764.5000      2.5205      2.2841      0.1459     22.1787     88.9038     41.2675
   764.6000      2.5205      2.2890      0.1618     21.8793     85.7521     41.0975
   764.7000      2.5205      2.2878      0.1871     21.9497     80.3934     40.8036
   764.8000      2.5190      2.2737      0.1687     22.8056     77.3104     40.6399
   764.9000      2.5190      2.2506      0.1849     24.2080     77.4311     40.6960
   765.0000      2.5220      2.2268      0.1588     25.6491     78.1400     40.7345
   765.1000      2.5220      2.2090      0.1773     26.7297     78.9536     40.6537
   765.2000      2.5220      2.1989      0.1309     27.3367     81.6801     40.6541
   765.3000      2.5246      2.1974      0.1569     27.4280     86.5362     40.7663
   765.4000      2.5246      2.2018      0.1840     27.1652     94.5506     40.8378
   765.5000      2.5247      2.2081      0.1980     26.7805    101.6071     40.8575
   765.6000      2.5247      2.2140      0.2021     26.4223     99.5218     41.0004
   765.7000      2.5247      2.2237      0.1983     25.8340     91.1649     41.2451
   765.8000      2.5267      2.2449      0.2479     24.5532     83.4358     41.3138
   765.9000      2.5267      2.2716      0.2514     22.9342     80.1908     41.2610
   766.0000      2.5326      2.2954      0.2371     21.4886     82.4303     41.3803
   766.1000      2.5326      2.3164      0.2320     20.2179     85.6108     41.5968
   766.2000      2.5326      2.3333      0.2750     19.1949     85.8792     41.6554
   766.3000      2.5252      2.3467      0.2733     18.3826     84.3376     41.6465
   766.4000      2.5252      2.3630      0.2791     17.3925     83.0832     41.7026
   766.5000      2.5271      2.3796      0.3119     16.3860     80.8089     41.6705
   766.6000      2.5271      2.3837      0.3062     16.1382     76.0788     41.4616
   766.7000      2.5271      2.3741      0.3134     16.7211     71.0748     41.1594
   766.8000      2.5261      2.3636      0.2824     17.3554     67.1942     40.7703
   766.9000      2.5261      2.3568      0.3403     17.7720     62.3323     40.3993
   767.0000      2.5265      2.3448      0.3357     18.4944     57.2647     40.0515
   767.1000      2.5265      2.3301      0.2924     19.3884     57.2819     39.6259
   767.2000      2.5265      2.3213      0.3344     19.9229     61.7421     39.1560
   767.3000      2.5283      2.3122      0.3472     20.4749     65.1337     38.8413
   767.4000      2.5283      2.2968      0.3225     21.4031     68.4870     38.7964
   767.5000      2.5305      2.2821      0.3223     22.2987     75.1890     38.8372
   767.6000      2.5305      2.2750      0.3206     22.7257     80.8056     38.7890
   767.7000      2.5305      2.2754      0.3512     22.7038     78.4518     38.4539
   767.8000      2.5325      2.2767      0.3616     22.6264     69.2656     37.6044
   767.9000      2.5325      2.2796      0.3711     22.4489     60.3501     36.6384
   768.0000      2.5347      2.2916      0.3762     21.7230     56.0924     36.1374
   768.1000      2.5347      2.3085      0.4205     20.6958     55.5108     35.9834
   768.2000      2.5347      2.3179      0.4470     20.1273     53.3312     36.0133
   768.3000      2.5365      2.3213      0.4184     19.9188     46.5663     36.1487
   768.4000      2.5365      2.3317      0.4237     19.2921     39.9768     36.0908
   768.5000      2.5372      2.3468      0.4631     18.3776     37.5538     35.7147
   768.6000      2.5372      2.3503      0.4620     18.1651     37.4697     35.2643
   768.7000      2.5372      2.3381      0.4338     18.9048     39.1633     35.0326
   768.8000      2.5377      2.3204      0.4533     19.9762     42.8902     35.2662
   768.9000      2.5377      2.3077      0.4253     20.7480     45.3857     35.8446
   769.0000      2.5364      2.3051      0.4180     20.9038     44.5898     36.2072
   769.1000      2.5364      2.3061      0.4698     20.8432     42.8507     36.2209
   769.2000      2.5364      2.3028      0.4390     21.0396     42.8339     36.2279
   769.3000      2.5389      2.3022      0.4316     21.0802     44.2344     36.3719
   769.4000      2.5389      2.3096      0.4506     20.6290     45.6861     36.4423
   769.5000      2.5381      2.3167      0.4550     20.2026     46.6026     36.2666
   769.6000      2.5381      2.3168      0.4573     20.1934     46.7170     36.0647
   769.7000      2.5381      2.3144      0.4684     20.3408     45.0454     36.2354
   769.8000      2.5376      2.3179      0.4497     20.1257     40.0936     36.7095
   769.9000      2.5376      2.3337      0.4596     19.1669     34.2581     36.9290
