~Version Information
VERS.                      2.0: CWLS Log ASCII Standard - VERSION 2.0
WRAP.                       NO: One line per depth step
~Well Information Block
STRT.FT               757.3000: 
STOP.FT              2418.0000: 
STEP.FT                 0.1000: 
NULL.                -999.2500: 
COMP.          Petrogulf Corporation: COMPANY
WELL.            Montoya 7-21V: WELL
FLD.           Purgatorie River: FIELD
LOC.           738' FSL & 2070' FWL: LOCATION
CNTY.               Las Animas: COUNTY
SRVC.                         : SERVICE COMPANY
DATE.          Fri Aug 20 14:08:15 2004: LOG DATE
UWI.           05 071 08018 00: UNIQUE WELL ID
STAT.                 Colorado: STATE
~Curve Information Block
DEPT.FT            0 000 00 00: Depth
DCAL.in                       : CDL Caliper
RHOB.g/cc                     : CDL Bulk Density
RHOC.g/cc                     : CDL Density Correction
DPOR.pu                       : CDL Density Porosity
GR.GAPI                       : Gamma Ray
NPOR.pu                       : Neutron Porosity
~Parameter Information Block
~A  Depth       DCAL        RHOB        RHOC        DPOR         GR         NPOR    
# ...
  1755.7000      8.0646      2.3252     -0.0417     19.6866    148.0950     20.8865
  1755.8000      8.0715      2.2673     -0.0160     23.1943    144.0423     21.7005
  1755.9000      8.0715      2.2294     -0.0054     25.4882    138.2843     22.8572
  1756.0000      8.1021      2.2191     -0.0640     26.1132    131.7375     23.9967
  1756.1000      8.1021      2.2540      0.0122     24.0025    130.5469     24.9197
  1756.2000      8.1021      2.3275      0.1389     19.5465    141.5840     25.5956
  1756.3000      8.1630      2.4094      0.2483     14.5840    158.7455     26.1947
  1756.4000      8.1630      2.4653      0.3681     11.1919    167.4719     26.8268
  1756.5000      8.2689      2.4689      0.4116     10.9740    166.6034     27.2292
  1756.6000      8.2689      2.4171      0.3720     14.1164    164.0677     27.4344
  1756.7000      8.2689      2.3309      0.2580     19.3385    160.6405     27.8658
  1756.8000      8.3431      2.2345      0.1300     25.1825    152.7070     28.7523
  1756.9000      8.3431      2.1459      0.0014     30.5525    144.6923     29.9159
  1757.0000      8.3396      2.0880     -0.0202     34.0596    143.3918     30.5049
  1757.1000      8.3396      2.0840      0.0508     34.3009    145.0995     29.9801
  1757.2000      8.3396      2.1394      0.1874     30.9447    144.1722     28.9932
  1757.3000      8.4066      2.2311      0.3374     25.3853    143.7154     28.4924
  1757.4000      8.4066      2.3217      0.4170     19.8992    148.1255     28.7508
  1757.5000      8.6256      2.3907      0.4050     15.7157    156.5094     29.2578
  1757.6000      8.6256      2.4416      0.4204     12.6308    162.1931     29.3148
  1757.7000      8.6256      2.4852      0.4221      9.9862    159.3279     28.7408
  1757.8000      8.8195      2.5324      0.4238      7.1293    155.1147     27.9697
  1757.9000      8.8195      2.5813      0.4094      4.1611    156.0842     27.7279
  1758.0000      8.7079      2.6136      0.3496      2.2071    154.9916     27.9848
  1758.1000      8.7079      2.6213      0.2351      1.7391    150.9347     27.7175
  1758.2000      8.7079      2.6150      0.2231      2.1212    152.0450     26.9014
  1758.3000      8.3888      2.5957      0.1785      3.2936    156.4795     26.4439
  1758.4000      8.3888      2.5615      0.1129      5.3617    158.8355     25.7538
  1758.5000      8.2025      2.5265      0.0339      7.4848    160.6583     23.9278
  1758.6000      8.2025      2.5101      0.0156      8.4794    163.8416     21.9936
  1758.7000      8.2025      2.5198      0.0414      7.8922    164.6952     21.4300
  1758.8000      8.1510      2.5387      0.0611      6.7448    160.0297     22.0319
  1758.9000      8.1510      2.5433      0.0489      6.4694    155.2305     22.5657
  1759.0000      8.1410      2.5337      0.0122      7.0487    152.0186     22.6102
  1759.1000      8.1410      2.5228      0.0371      7.7078    148.9603     22.6467
  1759.2000      8.1410      2.5167     -0.0336      8.0814    154.4282     22.9981
  1759.3000      8.1427      2.5211     -0.0086      7.8130    167.6198     23.3885
  1759.4000      8.1427      2.5374     -0.0020      6.8270    172.7078     23.2235
  1759.5000      8.1387      2.5603      0.0296      5.4393    163.1162     22.4253
  1759.6000      8.1387      2.5780      0.0445      4.3656    147.7387     21.6544
  1759.7000      8.1387      2.5774      0.0250      4.3982    138.8360     21.3738
  1759.8000      8.1254      2.5641     -0.0100      5.2047    140.5657     21.4756
  1759.9000      8.1254      2.5565      0.0196      5.6648    148.7138     21.6319
  1760.0000      8.1179      2.5616      0.0005      5.3550    156.0113     21.6893
  1760.1000      8.1179      2.5721      0.0222      4.7224    159.6664     21.9238
  1760.2000      8.1179      2.5728      0.0607      4.6804    163.7320     22.2513
  1760.3000      8.1185      2.5587     -0.0084      5.5336    166.7508     22.0174
  1760.4000      8.1185      2.5423      0.0137      6.5299    164.7865     21.0144
  1760.5000      8.1109      2.5305      0.0008      7.2420    162.1282     19.5057
  1760.6000      8.1109      2.5283     -0.0514      7.3758    161.6900     18.0367
  1760.7000      8.1109      2.5417     -0.0137      6.5610    159.2550     17.5005
  1760.8000      8.1028      2.5571      0.0238      5.6320    152.6404     18.1545
  1760.9000      8.1028      2.5498      0.0358      6.0713    144.8643     19.1022
  1761.0000      8.1002      2.5198     -0.0115      7.8904    134.1508     19.5928
  1761.1000      8.1002      2.4987     -0.0255      9.1697    121.8758     20.0617
  1761.2000      8.1002      2.5068     -0.0110      8.6776    118.6165     20.9321
  1761.3000      8.0979      2.5273      0.0185      7.4347    129.7991     21.6519
  1761.4000      8.0979      2.5372      0.0604      6.8370    146.7398     21.8868
  1761.5000      8.0964      2.5350      0.0848      6.9695    157.9996     21.9636
  1761.6000      8.0964      2.5359      0.0659      6.9141    162.8713     22.2828
  1761.7000      8.0964      2.5458      0.1287      6.3159    164.8547     22.8630
  1761.8000      8.0921      2.5504      0.1421      6.0383    162.9787     23.3979
  1761.9000      8.0921      2.5320      0.1543      7.1541    158.1069     23.9926
  1762.0000      8.1045      2.4861      0.0880      9.9358    151.8598     25.0581
  1762.1000      8.1045      2.4260      0.0330     13.5763    145.7075     26.3356
  1762.2000      8.1045      2.3727      0.0002     16.8045    148.8745     27.2162
  1762.3000      8.1407      2.3376      0.0417     18.9336    164.3421     27.5010
  1762.4000      8.1407      2.3227      0.0068     19.8349    180.8233     27.3277
  1762.5000      8.1700      2.3437     -0.0269     18.5620    186.8933     27.0180
  1762.6000      8.1700      2.4102      0.0526     14.5303    186.1419     26.9654
  1762.7000      8.1700      2.4871      0.1989      9.8704    185.6731     27.1223
  1762.8000      8.1861      2.5342      0.2220      7.0154    185.1923     26.9727
  1762.9000      8.1861      2.5631      0.2406      5.2662    183.3991     26.3254
  1763.0000      8.2223      2.5979      0.2913      3.1556    177.7044     25.5180
  1763.1000      8.2223      2.6267      0.3690      1.4150    165.4011     24.6521
  1763.2000      8.2223      2.6258      0.2904      1.4679    154.0090     23.9798
  1763.3000      8.2215      2.5973      0.1571      3.1948    153.1202     24.0105
  1763.4000      8.2215      2.5624      0.0544      5.3114    160.3677     24.4212
  1763.5000      8.1438      2.5395     -0.0197      6.6963    168.1726     24.3473
  1763.6000      8.1438      2.5296      0.0255      7.2944    171.1866     23.5045
  1763.7000      8.1438      2.5247     -0.0377      7.5963    167.6197     22.9857
  1763.8000      8.0851      2.5228      0.0018      7.7080    161.9447     24.0298
  1763.9000      8.0851      2.5167      0.0118      8.0798    160.8604     25.5130
  1764.0000      8.0796      2.4970     -0.0106      9.2718    164.4435     25.5487
  1764.1000      8.0796      2.4689     -0.0370     10.9769    164.5495     24.7706
  1764.2000      8.0796      2.4456     -0.0256     12.3867    158.9835     24.5395
  1764.3000      8.0928      2.4362     -0.0345     12.9546    156.3438     24.8389
  1764.4000      8.0928      2.4405     -0.0091     12.6972    160.8047     25.5296
  1764.5000      8.1041      2.4447      0.0189     12.4454    170.9956     26.7722
  1764.6000      8.1041      2.4390      0.0244     12.7859    180.9965     28.0978
  1764.7000      8.1041      2.4332      0.0247     13.1420    182.0934     28.7455
  1764.8000      8.1042      2.4391      0.0265     12.7802    175.8627     28.4036
  1764.9000      8.1042      2.4583      0.0733     11.6190    169.6173     27.2214
  1765.0000      8.0951      2.4817      0.1042     10.1981    167.4942     26.2033
  1765.1000      8.0951      2.4973      0.0982      9.2526    169.4418     26.0717
  1765.2000      8.0951      2.5010      0.1019      9.0302    167.6162     26.4030
