~Version Information
VERS.                      2.0: CWLS Log ASCII Standard - VERSION 2.0
WRAP.                       NO: One line per depth step
~Well Information Block
STRT.FT               780.0000: 
STOP.FT              1557.5000: 
STEP.FT                 0.1000: 
NULL.                -999.2500: 
COMP.          Pioneer Natural Resources: COMPANY
WELL.          Bunner's 13-26 Tr: WELL
FLD.           Purgatoire River: FIELD
LOC.           1843' FSL & 456' FWL----: LOCATION
PROV.                 Colorado: PROVINCE
CNTY.               Las Animas: COUNTRY
SRVC.                Patterson: SERVICE COMPANY
DATE.          Tue Mar 29 07:41:16 2005: LOG DATE
UWI.           05 071 08331 00: UNIQUE WELL ID
~Curve Information Block
DEPT.FT            0 000 00 00: Depth
DCAL.in                       : CDL Caliper
RHOB.g/cc                     : CDL Bulk Density
RHOC.g/cc                     : CDL Density Correction
DPOR.pu                       : CDL Density Porosity
NPOR.pu                       : Neutron Porosity
GR.GAPI                       : Gamma Ray
~Parameter Information Block
~A  Depth       DCAL        RHOB        RHOC        DPOR        NPOR         GR     
# ...
   828.0000      7.9605      2.5406      0.0428      6.6305     24.2268     85.5867
   828.1000      7.9605      2.5318      0.0765      7.1648     24.2003     80.5321
   828.2000      7.9605      2.5288      0.0619      7.3433     23.7736     82.1791
   828.3000      7.9611      2.5356      0.0621      6.9351     23.4387     87.7065
   828.4000      7.9611      2.5535      0.0794      5.8479     23.1932     91.5939
   828.5000      7.9617      2.5736      0.0906      4.6310     22.7952     92.9631
   828.6000      7.9617      2.5846      0.0900      3.9657     22.3584     94.1018
   828.7000      7.9617      2.5877      0.0687      3.7761     22.1607     93.5144
   828.8000      7.9616      2.5935      0.0911      3.4248     22.2291     90.2115
   828.9000      7.9616      2.5994      0.0959      3.0673     22.5129     87.1311
   829.0000      7.9626      2.5890      0.1052      3.6997     22.8691     88.5878
   829.1000      7.9626      2.5598      0.0676      5.4695     22.9156     94.9606
   829.2000      7.9626      2.5401      0.0157      6.6583     22.6423    100.0320
   829.3000      7.9691      2.5547      0.0600      5.7754     22.7648     98.8294
   829.4000      7.9691      2.5914      0.0865      3.5511     23.5837     95.1321
   829.5000      7.9796      2.6275      0.0765      1.3615     24.5656     93.3537
   829.6000      7.9796      2.6520      0.0930     -0.1227     25.3757     94.5130
   829.7000      7.9796      2.6606      0.0640     -0.6440     25.7694     97.4032
   829.8000      7.9864      2.6486      0.1160      0.0866     25.6413     98.1059
   829.9000      7.9864      2.6160      0.0713      2.0605     25.3204     98.9779
   830.0000      7.9876      2.5814      0.0441      4.1570     25.1466    104.1283
   830.1000      7.9876      2.5629      0.0348      5.2764     25.2394    108.9486
   830.2000      7.9876      2.5588      0.0819      5.5259     25.6552    110.6431
   830.3000      7.9863      2.5537      0.0572      5.8388     26.1560    112.3815
   830.4000      7.9863      2.5356      0.0485      6.9317     26.2173    113.1942
   830.5000      7.9869      2.5072      0.0296      8.6546     25.9626    110.4169
   830.6000      7.9869      2.4785      0.0148     10.3911     25.7650    110.9186
   830.7000      7.9869      2.4524      0.0186     11.9753     25.3978    122.5114
   830.8000      7.9881      2.4264      0.0032     13.5491     24.7173    137.5178
   830.9000      7.9881      2.4052      0.0290     14.8383     24.0897    144.6776
   831.0000      7.9878      2.3960      0.0396     15.3925     23.6978    143.1065
   831.1000      7.9878      2.4033      0.0089     14.9508     23.3735    137.4270
   831.2000      7.9878      2.4213      0.0972     13.8602     22.8075    133.5166
   831.3000      7.9878      2.4365      0.0590     12.9380     21.7877    135.5380
   831.4000      7.9878      2.4477      0.1077     12.2584     20.6730    140.5639
   831.5000      7.9892      2.4603      0.1045     11.4951     20.1306    142.7268
   831.6000      7.9892      2.4715      0.1290     10.8176     20.5261    141.4410
   831.7000      7.9892      2.4780      0.1107     10.4266     21.6313    138.5543
   831.8000      7.9895      2.4857      0.0915      9.9592     22.9094    134.7245
   831.9000      7.9895      2.4995      0.1080      9.1229     24.1586    131.8491
   832.0000      7.9874      2.5181      0.1038      7.9915     25.4077    132.6606
   832.1000      7.9874      2.5359      0.1207      6.9129     26.2485    133.4050
   832.2000      7.9874      2.5430      0.1122      6.4839     26.3740    130.2416
   832.3000      7.9862      2.5375      0.0777      6.8198     26.2735    127.2557
   832.4000      7.9862      2.5198      0.0978      7.8934     26.5798    128.2416
   832.5000      7.9869      2.4834      0.0887     10.0990     27.0146    132.0171
   832.6000      7.9869      2.4395      0.0229     12.7599     26.7724    134.3675
   832.7000      7.9869      2.4144      0.0137     14.2787     26.1353    132.5822
   832.8000      7.9869      2.4065      0.0498     14.7548     25.8132    129.4210
   832.9000      7.9869      2.3937      0.0335     15.5313     25.3833    127.8950
   833.0000      7.9876      2.3725      0.0047     16.8212     24.3277    128.0007
   833.1000      7.9876      2.3490     -0.0017     18.2424     23.0629    129.9062
   833.2000      7.9876      2.3100      0.0659     20.6087     22.0094    131.6523
   833.3000      7.9913      2.2370      0.0013     25.0275     21.0923    129.0642
   833.4000      7.9913      2.1358      0.0252     31.1650     20.2313    125.2112
   833.5000      8.0026      2.0254     -0.0085     37.8537     19.3659    124.0373
   833.6000      8.0026      1.9332     -0.0405     43.4453     18.2442    120.8587
   833.7000      8.0026      1.8870     -0.0552     46.2408     16.9781    113.9567
   833.8000      8.0196      1.8962     -0.0417     45.6829     16.0968    111.4134
   833.9000      8.0196      1.9437      0.0100     42.8053     15.5418    117.7814
   834.0000      8.0289      2.0047      0.0549     39.1072     14.9904    125.4872
   834.1000      8.0289      2.0695      0.1312     35.1837     14.6528    126.1488
   834.2000      8.0289      2.1395      0.1970     30.9411     14.7309    121.9771
   834.3000      8.0307      2.2188      0.2507     26.1333     15.4567    119.7989
   834.4000      8.0307      2.3082      0.3018     20.7165     17.0962    122.4111
   834.5000      8.0273      2.3901      0.3429     15.7532     19.4578    128.2833
   834.6000      8.0273      2.4435      0.2540     12.5167     22.0032    133.6958
   834.7000      8.0273      2.4709      0.1189     10.8572     23.9724    134.5745
   834.8000      8.0173      2.4744      0.0901     10.6428     24.7934    131.4612
   834.9000      8.0173      2.4340      0.0484     13.0900     24.6337    129.3156
   835.0000      8.0090      2.3468     -0.0092     18.3754     24.1690    129.1510
   835.1000      8.0090      2.2519     -0.0608     24.1296     23.5358    129.4209
   835.2000      8.0090      2.1913     -0.0574     27.8008     22.3929    130.2579
   835.3000      8.0058      2.1729     -0.0453     28.9122     21.1585    131.3456
   835.4000      8.0058      2.1841     -0.0298     28.2365     20.3014    133.8902
   835.5000      8.0045      2.2126      0.0305     26.5089     19.6101    136.3042
   835.6000      8.0045      2.2460      0.1137     24.4865     19.1937    132.9556
   835.7000      8.0045      2.2785      0.1341     22.5174     19.3967    128.6291
   835.8000      8.0014      2.3152      0.2020     20.2880     20.0887    130.2047
   835.9000      8.0014      2.3583      0.2267     17.6770     20.9582    132.8519
   836.0000      7.9859      2.4049      0.2156     14.8521     21.9581    131.1946
   836.1000      7.9859      2.4552      0.1392     11.8034     23.2332    127.7783
   836.2000      7.9859      2.5028      0.1060      8.9216     24.5731    126.8087
   836.3000      7.9573      2.5236      0.1057      7.6602     25.3265    129.6544
   836.4000      7.9573      2.5058      0.0645      8.7396     25.4514    134.4944
   836.5000      7.9350      2.4634      0.0627     11.3063     25.5260    136.1261
   836.6000      7.9350      2.4091      0.0236     14.6006     25.9122    133.9421
   836.7000      7.9350      2.3593      0.0153     17.6165     26.6487    130.1506
   836.8000      7.9215      2.3468     -0.0055     18.3779     27.4255    124.2803
   836.9000      7.9215      2.3948      0.0767     15.4691     27.9859    118.7951
   837.0000      7.9141      2.5038      0.0999      8.8633     28.2598    118.7019
   837.1000      7.9141      2.6545      0.2072     -0.2729     28.2467    122.7163
   837.2000      7.9141      2.7956      0.3111     -8.8255     28.3306    124.6387
   837.3000      7.9177      2.8744      0.3417    -13.6013     28.7022    123.4559
   837.4000      7.9177      2.8913      0.3015    -14.6225     29.0573    120.0834
   837.5000      7.9435      2.8834      0.2581    -14.1457     29.3933    114.6239
