~Version Information
 VERS.                                  2.0 : CWLS LAS VERSION
 WRAP.                                   NO : WRAPING MODE
 SWARE .                 MController 2.5.0N : SOFTWARE VERSION
~Well Information
 WELL.                          Border 21-3 : WELL
 COMP.              Pioneer Natural Resouce : COMPANY
 FLD.                 NE/NW Sec 3 T35S R65W : FIELD
 LOC.                      Purgatiore River : LOCATION
 DATE.                             12/09/04 : DATE(S) LOGGED
 SRVC.       Blanco Geological Services LLC : SERVICE COMPANY
 STAT.                                   CO : STATE
 CNTY.                           Las Animas : COUNTY
 CTRY.                                  USA : COUNTRY
 API.                          05-071-08169 : API NUMBER
 STRT.FT                             250.00 : START DEPTH
 STOP.FT                            1525.00 : STOP DEPTH
 STEP.FT                               1.00 : DEPTH INCREMENT
 NULL.                                -9999 : NULL VALUE
~Curve information
 DEPTH.FT                                   :
 ROP.MIN/FT                                 :
 GAS.UNITS                                  :
~ASCII Log data
       250.0     -9999.00          2.9 
       251.0        15.77          6.8 
       252.0         0.20          5.7 
       253.0         0.10          5.7 
       254.0         0.13          6.0 
       255.0         0.17          5.9 
       256.0         0.10          5.9 
       257.0         0.13          5.5 
       258.0         0.17          5.5 
       259.0         0.13          5.3 
       260.0         0.13          5.6 
       261.0         0.10          5.6 
       262.0         0.10          6.2 
       263.0         1.35          6.0 
       264.0         0.20          5.6 
       265.0         0.10          5.4 
       266.0         0.10          5.5 
       267.0         0.10          5.5 
       268.0         0.23          5.9 
       269.0         0.23          5.7 
       270.0         0.23          5.8 
       271.0         0.25          5.5 
       272.0         0.17          5.7 
       273.0         0.17          5.9 
       274.0         0.10          5.9 
       275.0         0.13          5.5 
       276.0         0.10          5.9 
       277.0         0.20          5.9 
       278.0         0.17          5.7 
       279.0         0.20          5.5 
       280.0         0.17          5.5 
       281.0         0.17          5.7 
       282.0         0.20          6.0 
       283.0         0.17          5.8 
       284.0         0.20          5.8 
       285.0         0.17          6.0 
       286.0         0.23          5.7 
       287.0         0.22          5.8 
       288.0         0.10          5.9 
       289.0         0.10          5.9 
       290.0         0.13          5.9 
       291.0         0.17          5.9 
       292.0         0.13          5.8 
       293.0         0.13          6.0 
       294.0         0.13          6.0 
       295.0         0.17          6.1 
       296.0         1.83          6.2 
       297.0         0.35          6.0 
       298.0         0.23          6.0 
       299.0         0.23          6.3 
       300.0         0.20          5.9 
       301.0         0.20          5.8 
       302.0         0.10          5.9 
       303.0         0.10          5.9 
       304.0         0.10          5.8 
       305.0         0.17          5.4 
       306.0         0.23          5.4 
       307.0         0.20          5.1 
       308.0         0.20          4.8 
       309.0         0.20          4.8 
       310.0         0.20          5.1 
       311.0         0.20          5.1 
       312.0         0.17          4.9 
       313.0         0.20          5.1 
       314.0         0.23         11.5 
       315.0         0.22         69.6 
       316.0         0.13        175.9 
       317.0         0.20        215.1 
       318.0         0.20        144.7 
       319.0         0.20         34.9 
       320.0         0.20         17.3 
       321.0         0.20         12.0 
       322.0         0.17          5.8 
       323.0         0.23          5.5 
       324.0         0.20          3.5 
       325.0         0.43          3.6 
       326.0         0.97          3.7 
       327.0         0.45          3.9 
       328.0         0.30          3.8 
       329.0         0.27          4.0 
       330.0         0.20          4.1 
       331.0         0.20          3.7 
       332.0         0.20          4.1 
       333.0         0.20         38.6 
       334.0         0.17         42.1 
       335.0         0.20         40.8 
       336.0         0.17         40.9 
       337.0         0.23         40.3 
       338.0         0.30         41.0 
       339.0         0.27         40.8 
       340.0         0.20         41.0 
       341.0         0.22         40.5 
       342.0         0.20         40.7 
       343.0         0.20         40.9 
       344.0         0.20         40.0 
       345.0         0.17         40.0 
       346.0         0.17         40.8 
       347.0         0.20         40.7 
       348.0         0.17         40.7 
       349.0         0.20         40.6 
       350.0         0.17         40.0 
       351.0         0.20         40.0 
       352.0         0.17         40.7 
       353.0         0.20         40.8 
       354.0         0.23         40.3 
       355.0         0.20         40.2 
       356.0         1.92         41.1 
       357.0         0.27         40.2 
       358.0         0.27         41.0 
       359.0         0.20         41.4 
       360.0         0.23         41.1 
       361.0         0.17         27.7 
       362.0         0.20         28.7 
       363.0         0.23         14.0 
       364.0         0.17          4.5 
       365.0         0.20          4.3 
       366.0         0.22          4.3 
       367.0         0.23          4.3 
       368.0         0.17          3.7 
       369.0         0.20          3.8 
       370.0         0.20          3.8 
       371.0         0.17          3.7 
       372.0         0.20          3.0 
       373.0         0.20          3.3 
       374.0         0.17          3.1 
       375.0         0.20          3.1 
       376.0         0.20          2.6 
       377.0         0.20          2.9 
       378.0         0.10          2.8 
       379.0         0.10          2.8 
       380.0         0.10          2.6 
       381.0         0.17          3.0 
       382.0         0.10          3.0 
       383.0         0.13          3.0 
       384.0         0.10          3.0 
       385.0         0.82          3.1 
       386.0         0.83          2.9 
       387.0         0.17          2.7 
       388.0         0.23          2.5 
       389.0         0.30          2.7 
       390.0         0.27          2.7 
       391.0         0.23          3.1 
       392.0         0.20          2.9 
       393.0         0.17          3.1 
       394.0         0.10          3.1 
       395.0         0.23          3.1 
       396.0         0.22          3.0 
       397.0         0.27          2.7 
       398.0         0.20          3.1 
       399.0         0.20          2.8 
       400.0         0.20          3.2 
       401.0         0.23          3.0 
       402.0         0.20          3.0 
       403.0         0.10          2.8 
       404.0         0.10          3.0 
       405.0         0.17          2.7 
       406.0         0.10          2.7 
       407.0         0.17          3.2 
       408.0         0.13          3.2 
       409.0         0.10          3.5 
       410.0         0.10          3.5 
       411.0         0.10          3.1 
       412.0         0.20          3.1 
       413.0         0.13          5.8 
       414.0         0.20        113.4 
       415.0         0.17        208.3 
       416.0         1.48        242.2 
       417.0         0.20          2.0 
       418.0         0.33          2.0 
       419.0         0.43          2.5 
       420.0         0.27          2.3 
       421.0         0.20          2.4 
       422.0         0.17          2.4 
       423.0         0.17          2.4 
       424.0         0.13          2.8 
       425.0         0.15          2.7 
       426.0         0.13          2.6 
       427.0         0.17          2.8 
       428.0         0.17          2.8 
       429.0         0.17          2.3 
       430.0         0.17          2.3 
       431.0         0.13          2.5 
       432.0         0.17          2.6 
       433.0         0.17          2.6 
       434.0         0.17          2.6 
       435.0         0.17          2.7 
       436.0         0.20          2.5 
       437.0         0.20          2.5 
       438.0         0.17          3.0 
       439.0         0.23          2.6 
       440.0         0.17          2.2 
       441.0         0.17          2.7 
       442.0         0.20          2.7 
       443.0         0.13          2.9 
       444.0         0.18          2.8 
       445.0         0.23          2.8 
       446.0         1.83          3.2 
       447.0         0.13          2.7 
       448.0         0.10          2.7 
       449.0         0.30          2.8 
