~Version Information
VERS.                      2.0: CWLS Log ASCII Standard - VERSION 2.0
WRAP.                       NO: One line per depth step
~Well Information Block
STRT.FT               460.5000: 
STOP.FT              2197.0000: 
STEP.FT                 0.2500: 
NULL.                -999.2500: 
COMP.          Petrogulf Corporation: COMPANY
WELL.              Silva 1-43R: WELL
FLD.           Purgatorie River: FIELD
LOC.           1971' FSL & 526' FEL: LOCATION
CNTY.               Las Animas: COUNTY
SRVC.                Patterson: SERVICE COMPANY
DATE.          Sun Jun 18 03:37:26 2006: LOG DATE
UWI.           05 071 08372 00: UNIQUE WELL ID
STAT.                 Colorado: STATE
~Curve Information Block
DEPT.FT            0 000 00 00: Depth
SN.Ohm-m                      : IEL Short Normal
SP.mV                         : IEL Spontaneous Potential
DIR.Ohm-m                     : IEL Induction Resistivity
GR.GAPI                       : Gamma Ray
~Parameter Information Block
~A  Depth        SN          SP         DIR          GR     
# ...
  1599.5000     18.1397     32.6024     15.0241    151.6529
  1599.7500     16.6378     32.5537     14.3130    152.8507
  1600.0000     15.4702     32.4892     13.6958    153.2574
  1600.2500     14.6106     32.4131     13.1710    152.7808
  1600.5000     14.0035     32.3231     12.7357    151.1850
  1600.7500     13.5740     32.2110     12.3896    149.5926
  1601.0000     13.2500     32.0692     12.1364    146.4524
  1601.2500     12.9850     31.8999     11.9805    144.1311
  1601.5000     12.7732     31.7209     11.9206    141.4440
  1601.7500     12.6496     31.5624     11.9427    140.7541
  1602.0000     12.6573     31.4546     12.0198    141.0692
  1602.2500     12.7827     31.4143     12.1219    141.3741
  1602.5000     12.9229     31.4373     12.2329    140.9272
  1602.7500     12.9810     31.5025     12.3603    140.1971
  1603.0000     12.9814     31.5817     12.5277    139.7541
  1603.2500     13.0315     31.6517     12.7574    140.4723
  1603.5000     13.2394     31.7000     13.0592    142.6104
  1603.7500     13.6899     31.7275     13.4338    143.8338
  1604.0000     14.3862     31.7476     13.8813    144.2018
  1604.2500     15.1947     31.7814     14.4048    143.4625
  1604.5000     15.9334     31.8476     15.0055    141.3225
  1604.7500     16.5228     31.9506     15.6740    139.2411
  1605.0000     17.0095     32.0782     16.3838    134.8606
  1605.2500     17.4868     32.2096     17.0955    131.0196
  1605.5000     18.0344     32.3255     17.7698    123.9854
  1605.7500     18.7023     32.4123     18.3881    118.6034
  1606.0000     19.5098     32.4634     18.9643    109.8838
  1606.2500     20.4444     32.4817     19.5357    103.8541
  1606.5000     21.4752     32.4783     20.1411     94.7626
  1606.7500     22.5765     32.4683     20.8030     88.9468
  1607.0000     23.7147     32.4648     21.5275     81.4884
  1607.2500     24.8282     32.4768     22.3111     77.8946
  1607.5000     25.8877     32.5092     23.1414     74.8322
  1607.7500     26.9396     32.5630     23.9903     74.0070
  1608.0000     28.0073     32.6340     24.8104     73.7320
  1608.2500     29.0278     32.7128     25.5482     73.8861
  1608.5000     29.9238     32.7870     26.1707     74.4917
  1608.7500     30.6602     32.8441     26.6836     75.0219
  1609.0000     31.2333     32.8735     27.1209     75.5075
  1609.2500     31.6613     32.8659     27.5136     75.3500
  1609.5000     31.9834     32.8159     27.8674     74.3961
  1609.7500     32.2332     32.7239     28.1685     73.6408
  1610.0000     32.4149     32.5989     28.4073     73.1320
  1610.2500     32.5266     32.4580     28.5891     73.3497
  1610.5000     32.5970     32.3216     28.7189     73.8735
  1610.7500     32.6611     32.2065     28.7798     73.7742
  1611.0000     32.7175     32.1199     28.7396     72.3970
  1611.2500     32.7641     32.0571     28.5877     70.8160
  1611.5000     32.8366     32.0025     28.3671     68.4307
  1611.7500     32.9563     31.9362     28.1647     67.4679
  1612.0000     33.0980     31.8405     28.0660     67.4264
  1612.2500     33.2366     31.7055     28.1144     68.1373
  1612.5000     33.3862     31.5350     28.3003     69.5892
  1612.7500     33.5791     31.3503     28.5785     70.4208
  1613.0000     33.8180     31.1854     28.8946     71.0524
  1613.2500     34.0583     31.0713     29.2019     70.9971
  1613.5000     34.2421     31.0212     29.4653     70.3865
  1613.7500     34.3526     31.0264     29.6621     69.9197
  1614.0000     34.4285     31.0638     29.7891     69.8118
  1614.2500     34.5202     31.1064     29.8659     70.3441
  1614.5000     34.6483     31.1339     29.9263     71.5280
  1614.7500     34.7978     31.1391     30.0005     71.9186
  1615.0000     34.9389     31.1304     30.1059     71.2823
  1615.2500     35.0599     31.1261     30.2516     70.3334
  1615.5000     35.1743     31.1443     30.4478     69.0632
  1615.7500     35.2966     31.1918     30.7063     68.5179
  1616.0000     35.4237     31.2622     31.0276     67.7655
  1616.2500     35.5409     31.3422     31.3926     67.0777
  1616.5000     35.6418     31.4198     31.7672     65.8385
  1616.7500     35.7485     31.4879     32.1146     65.0965
  1617.0000     35.8981     31.5422     32.4023     64.5400
  1617.2500     36.1032     31.5793     32.6063     64.7069
  1617.5000     36.3468     31.5947     32.7259     65.5556
  1617.7500     36.6194     31.5818     32.8034     66.0966
  1618.0000     36.9409     31.5345     32.9214     66.2399
  1618.2500     37.3440     31.4516     33.1648     65.8561
  1618.5000     37.8374     31.3427     33.5746     64.7662
  1618.7500     38.3901     31.2294     34.1297     63.6357
  1619.0000     38.9561     31.1405     34.7626     61.0767
  1619.2500     39.5155     31.1005     35.3954     58.9774
  1619.5000     40.0824     31.1193     35.9765     56.3117
  1619.7500     40.6751     31.1876     36.4995     55.4674
  1620.0000     41.2879     31.2802     36.9880     55.6946
  1620.2500     41.8931     31.3665     37.4534     56.3499
  1620.5000     42.4611     31.4252     37.8631     57.0699
  1620.7500     42.9644     31.4563     38.1598     57.0744
  1621.0000     43.3700     31.4810     38.3162     56.5679
  1621.2500     43.6518     31.5278     38.3640     56.2833
  1621.5000     43.8106     31.6149     38.3570     56.5818
  1621.7500     43.8759     31.7425     38.3179     57.3660
  1622.0000     43.8903     31.8973     38.2315     58.9564
  1622.2500     43.8923     32.0608     38.0867     59.7766
  1622.5000     43.9018     32.2143     37.9074     59.8925
  1622.7500     43.9083     32.3397     37.7366     59.2431
  1623.0000     43.8756     32.4226     37.5991     58.2125
  1623.2500     43.7607     32.4578     37.4874     58.2952
  1623.5000     43.5323     32.4530     37.3804     60.1695
  1623.7500     43.2033     32.4244     37.2663     62.2264
  1624.0000     42.8532     32.3879     37.1490     65.3386
  1624.2500     42.5662     32.3531     37.0197     66.9504
  1624.5000     42.3497     32.3235     36.8307     68.6359
  1624.7500     42.1496     32.3006     36.4771     69.5160
  1625.0000     41.9193     32.2847     35.8113     70.8158
  1625.2500     41.6575     32.2737     34.7216     71.6874
  1625.5000     41.3895     32.2609     33.2659     72.7593
  1625.7500     41.1332     32.2370     31.7398     73.1374
  1626.0000     40.8950     32.1936     30.5659     73.1527
  1626.2500     40.6844     32.1257     30.0864     72.9407
  1626.5000     40.5236     32.0327     30.4199     72.4966
  1626.7500     40.4433     31.9184     31.4163     72.0354
  1627.0000     40.4597     31.7920     32.6892     70.6491
  1627.2500     40.5560     31.6678     33.7589     69.0126
  1627.5000     40.6901     31.5624     34.2925     65.5855
  1627.7500     40.8185     31.4885     34.2646     63.1921
  1628.0000     40.9104     31.4491     33.9044     60.9067
  1628.2500     40.9457     31.4383     33.5188     60.9583
  1628.5000     40.9204     31.4456     33.3412     63.5407
  1628.7500     40.8584     31.4597     33.4593     66.3108
  1629.0000     40.8051     31.4697     33.8129     70.3501
  1629.2500     40.8047     31.4685     34.2501     72.1333
  1629.5000     40.8882     31.4565     34.6239     72.9009
  1629.7500     41.0771     31.4431     34.8627     72.2738
  1630.0000     41.3767     31.4435     34.9783     70.0881
  1630.2500     41.7525     31.4721     35.0214     68.1090
  1630.5000     42.1350     31.5384     35.0418     65.2462
  1630.7500     42.4626     31.6457     35.0768     64.1807
  1631.0000     42.7289     31.7924     35.1524     64.8329
  1631.2500     42.9642     31.9660     35.2820     66.5894
  1631.5000     43.0491     32.1298     35.4660     69.6627
  1631.7500     42.4397     32.2183     35.7002     71.1085
  1632.0000     40.3795     32.1733     35.9813     71.9557
  1632.2500     37.3514     32.0023     36.3015     71.8940
  1632.5000     35.9368     31.7891     36.6345     71.1835
  1632.7500     37.9094     31.6284     36.9323     70.2543
