~Version Information
VERS.                      2.0: CWLS Log ASCII Standard - VERSION 2.0
WRAP.                       NO: One line per depth step
~Well Information Block
STRT.FT                -7.0000: 
STOP.FT              1329.7500: 
STEP.FT                 0.2500: 
NULL.                -999.2500: 
COMP.          Pioneer Natural Resources: COMPANY
WELL.             Raptor 44-26: WELL
FLD.           Purgatorie River: FIELD
LOC.           180' FSL & 812' FEL--: LOCATION
PROV.                       CO: PROVINCE
CNTY.               Las Animas: COUNTRY
SRVC.          Patterson Wireline: SERVICE COMPANY
DATE.          Wed Mar 30 12:38:23 2005: LOG DATE
UWI.           05 071 08187 00: UNIQUE WELL ID
~Curve Information Block
DEPT.FT            0 000 00 00: Depth
CCL.                          : Casing Collar Locator
TT3.usec                      : CBL 3' Travel Time
AMP3.mV                       : CBL 3' Amplitude
GR.GAPI                       : Gamma Ray
~Parameter Information Block
MINATTN.db/ft           0.8000: Minimum Attenuation
~A  Depth       CCL         TT3         AMP3         GR     
# ...
   328.0000      0.0000    762.7729      7.3043     46.8591
   328.2500      0.0000    760.1094      7.1878     46.4553
   328.5000      0.0000    758.4149      7.0789     47.7292
   328.7500      0.0000    757.5791      6.9795     50.4079
   329.0000      0.0000    757.1509      6.8732     53.3954
   329.2500      0.0000    756.7896      6.7533     55.3226
   329.5000      0.0000    756.3902      6.6385     55.3563
   329.7500      0.0000    755.9905      6.5576     53.8170
   330.0000      0.0000    755.6581      6.5211     51.8967
   330.2500      0.0000    755.4263      6.5111     50.5878
   330.5000      0.0000    755.3013      6.5014     49.9632
   330.7500      0.0000    755.2924      6.4860     49.4839
   331.0000      0.0000    755.4247      6.4853     48.7047
   331.2500      0.0000    755.7100      6.5239     47.5801
   331.5000      0.0000    756.1002      6.6048     46.3758
   331.7500      0.0000    756.4926      6.7082     45.5557
   332.0000      0.0000    756.8577      6.8140     45.6523
   332.2500      0.0000    757.4413      6.9227     46.9846
   332.5000      0.0000    758.8891      7.0496     49.3294
   332.7500      0.0000    762.0950      7.1979     51.7256
   333.0000      0.0000    767.6836      7.3432     52.7121
   333.2500      0.0000    775.3038      7.4502     51.3744
   333.5000      0.0000    783.4783      7.5046     48.4933
   333.7500      0.0000    790.6125      7.5239     46.1746
   334.0000      0.0000    796.3350      7.5401     45.9406
   334.2500      0.0000    801.5660      7.5754     47.4801
   334.5000      0.0000    807.3226      7.6339     49.4420
   334.7500      0.0000    813.9220      7.7054     50.9443
   335.0000      0.0000    821.1736      7.7698     51.9762
   335.2500      0.0000    828.6815      7.8071     52.7496
   335.5000      0.0000    835.8875      7.8129     53.1322
   335.7500      0.0000    842.1423      7.8075     52.7417
   336.0000      0.0000    846.8277      7.8226     51.4238
   336.2500      0.0000    849.6851      7.8780     49.6415
   336.5000      0.0000    851.4485      7.9688     48.3351
   336.7500      0.0000    853.8096      8.0731     48.1761
   337.0000      0.0000    857.9893      8.1688     48.8862
   337.2500      0.0000    863.2210      8.2466     49.4449
   337.5000      0.0000    867.0931      8.3079     49.0294
   337.7500      0.0000    867.5887      8.3544     47.6602
   338.0000      0.0000    864.7852      8.3796     46.0613
   338.2500      0.0000    860.6558      8.3715     45.2543
   338.5000      0.0000    857.4183      8.3220     46.4466
   338.7500      0.0000    856.2719      8.2368     50.9388
   339.0000      0.0000    857.4459      8.1374     59.6510
   339.2500      0.0000    860.4471      8.0497     72.5446
   339.5000      0.0000    863.7094      7.9902     88.4098
   339.7500      0.0000    864.9603      7.9603    105.0410
   340.0000      0.0000    863.0851      7.9496    119.7971
   340.2500      0.0000    859.5635      7.9420    130.7584
   340.5000      0.0000    857.3526      7.9205    137.8743
   340.7500      0.0000    858.1994      7.8735    142.7147
   341.0000      0.0000    861.4238      7.8048    146.6240
   341.2500      0.0000    865.3415      7.7389    149.2867
   341.5000      0.0000    869.1437      7.7065    149.4193
   341.7500      0.0000    872.9136      7.7184    146.7498
   342.0000      0.0000    876.4857      7.7550    142.9545
   342.2500      0.0000    879.0754      7.7836    140.5235
   342.5000      0.0000    879.6743      7.7845    140.8616
   342.7500      0.0000    876.9586      7.7602    143.5775
   343.0000      0.0000    868.9788      7.7250    147.3884
   343.2500      0.0000    854.1479      7.6914    151.2386
   343.5000      0.0000    833.8269      7.6697    154.3777
   343.7500      0.0000    813.7488      7.6721    156.0260
   344.0000      0.0000    801.2576      7.7070    155.8266
   344.2500      0.0000    800.1238      7.7678    154.5468
   344.5000      0.0000    808.3276      7.8311    153.6427
   344.7500      0.0000    820.8512      7.8704    153.8890
   345.0000      0.0000    833.9743      7.8778    154.5516
   345.2500      0.0000    847.3036      7.8777    153.8012
   345.5000      0.0000    862.4667      7.9145    149.7681
   345.7500      0.0000    879.7176      8.0184    141.4498
   346.0000      0.0000    896.0397      8.1784    129.2997
   346.2500      0.0000    907.2265      8.3512    115.6264
   346.5000      0.0000    911.4970      8.4935    104.2491
   346.7500      0.0000    910.6030      8.5822     98.8192
   347.0000      0.0000    907.9122      8.6119    100.6449
   347.2500      0.0000    905.3993      8.5843    107.9914
   347.5000      0.0000    902.2070      8.5040    117.6572
   347.7500      0.0000    896.6059      8.3825    127.1500
   348.0000      0.0000    889.5367      8.2454    135.3091
   348.2500      0.0000    884.7593      8.1257    141.5181
   348.5000      0.0000    884.5958      8.0415    145.1885
   348.7500      0.0000    887.1204      7.9864    146.2573
   349.0000      0.0000    888.7047      7.9438    145.7630
   349.2500      0.0000    887.8917      7.9027    145.3473
   349.5000      0.0000    885.5967      7.8571    146.0798
   349.7500      0.0000    882.6680      7.8027    147.8650
   350.0000      0.0000    878.2277      7.7450    149.6569
   350.2500      0.0000    869.9905      7.7055    150.0398
   350.5000      0.0000    856.2817      7.7094    148.1039
   350.7500      0.0000    838.7462      7.7573    144.1757
   351.0000      0.0000    822.8286      7.8092    139.6373
   351.2500      0.0000    813.7130      7.8056    136.0611
   351.5000      0.0000    811.2389      7.7156    134.5782
   351.7500      0.0000    810.3929      7.5648    135.4917
   352.0000      0.0000    807.5206      7.4139    137.8262
   352.2500      0.0000    804.5289      7.3125    139.5595
   352.5000      0.0000    805.7930      7.2736    138.9731
   352.7500      0.0000    811.6604      7.2825    135.9530
   353.0000      0.0000    816.3723      7.3192    131.9056
   353.2500      0.0000    813.0326      7.3728    128.5276
   353.5000      0.0000    800.2305      7.4446    126.6099
   353.7500      0.0000    783.2836      7.5363    125.6506
   354.0000      0.0000    769.7198      7.6318    124.4057
   354.2500      0.0000    764.6666      7.6971    122.1362
   354.5000      0.0000    769.6214      7.7038    119.6041
   354.7500      0.0000    782.7488      7.6534    118.6492
   355.0000      0.0000    798.7817      7.5790    120.5974
   355.2500      0.0000    810.5491      7.5236    125.2695
   355.5000      0.0000    813.4595      7.5108    131.5646
   355.7500      0.0000    808.7220      7.5268    138.4811
   356.0000      0.0000    800.8372      7.5345    145.2017
   356.2500      0.0000    792.6410      7.5132    150.5143
   356.5000      0.0000    784.3102      7.4828    152.7436
   356.7500      0.0000    775.7968      7.4813    150.7182
   357.0000      0.0000    768.0058      7.5206    145.1054
   357.2500      0.0000    762.1824      7.5671    138.6905
   357.5000      0.0000    759.7741      7.5650    134.7279
   357.7500      0.0000    762.4161      7.4752    134.3779
   358.0000      0.0000    770.9336      7.3013    135.7059
   358.2500      0.0000    784.2565      7.0862    135.5637
   358.5000      0.0000    800.3715      6.8793    132.5969
   358.7500      0.0000    818.8812      6.6994    128.2632
   359.0000      0.0000    841.3741      6.5363    124.9835
   359.2500      0.0000    867.6046      6.3926    123.7684
   359.5000      0.0000    892.1744      6.2969    123.8127
   359.7500      0.0000    907.5991      6.2641    123.9916
   360.0000      0.0000    911.0959      6.2651    124.2675
   360.2500     -2.0000    906.7863      6.2527    125.4064
   360.5000     -2.0000    901.0755      6.2048    127.5311
   360.7500     -2.0000    896.5984      6.1422    129.4959
   361.0000      0.0000    890.3645      6.1203    129.7138
   361.2500      0.0000    877.6736      6.1907    127.0243
