~Version Information
VERS.                      2.0: CWLS Log ASCII Standard - VERSION 2.0
WRAP.                       NO: One line per depth step
~Well Information Block
STRT.FT                 0.0000: 
STOP.FT              2006.5000: 
STEP.FT                 0.2500: 
NULL.                -999.2500: 
COMP.          Petrogulf Corporation: COMPANY
WELL.           Lavedure 7-44R: WELL
FLD.           Purgatorie River: FIELD
LOC.           946' FSL & 521' FEL: LOCATION
STAT.                 Colorado: State
CNTY.               Las Animas: COUNTY
CTRY. USA : Country
SECT. 7 : Section
TOWN. 33S : Township
RANG. 67W : Range
SRVC.                Patterson: SERVICE COMPANY
DATE.          Thu Nov 10 15:49:38 2005: LOG DATE
API. 05-071-08090       : UNIQUE WELL ID
~Curve Information Block
DEPT.FT            0 000 00 00: Depth
CCL.                          : Casing Collar Locator
TT3.usec                      : CBL 3' Travel Time
AMP3.mV                       : CBL 3' Amplitude
GR.GAPI                       : Gamma Ray
~Parameter Information Block
~A  Depth       CCL         TT3         AMP3         GR     
# ...
   402.0000      0.0000    394.1242      2.5740    103.0370
   402.2500      0.0000    411.0224      2.7454    106.8375
   402.5000      0.0000    419.3237      2.9551    110.7478
   402.7500      0.0000    414.1794      3.0992    114.0466
   403.0000      0.0000    406.0567      3.1751    115.8895
   403.2500      0.0000    413.3498      3.2735    116.0180
   403.5000      0.0000    440.0327      3.4482    115.3328
   403.7500      0.0000    465.9297      3.6814    115.0154
   404.0000      0.0000    474.2771      3.9496    114.8842
   404.2500      0.0000    472.7341      4.2667    113.3150
   404.5000      0.0000    470.7047      4.6595    109.0230
   404.7500      0.0000    468.2282      5.1069    102.4018
   405.0000      0.0000    467.3810      5.5392     95.0510
   405.2500      0.0000    465.9469      5.9201     88.5110
   405.5000      0.0000    460.9853      6.2664     83.7180
   405.7500      0.0000    465.9408      6.5572     81.3056
   406.0000      0.0000    495.8295      6.7131     81.6597
   406.2500      0.0000    540.9070      6.6986     84.2406
   406.5000      0.0000    577.1573      6.5683     87.2253
   406.7500      0.0000    596.1160      6.3910     88.4691
   407.0000      0.0000    607.0377      6.1721     86.8323
   407.2500      0.0000    618.3826      5.8900     82.3246
   407.5000      0.0000    630.5967      5.5930     75.4833
   407.7500      0.0000    640.7395      5.3951     67.3601
   408.0000      0.0000    647.6545      5.3565     59.8055
   408.2500      0.0000    652.0646      5.4339     54.7749
   408.5000      0.0000    653.8102      5.5624     52.9124
   408.7500      0.0000    653.1759      5.6990     53.1322
   409.0000      0.0000    653.3460      5.7993     53.8679
   409.2500      0.0000    657.2868      5.8407     54.5871
   409.5000      0.0000    663.7425      5.8579     56.0694
   409.7500      0.0000    669.0362      5.9219     59.4851
   410.0000      0.0000    671.2794      6.0646     65.3466
   410.2500      0.0000    670.7814      6.2032     73.1405
   410.5000      0.0000    668.3482      6.2014     81.4829
   410.7500      0.0000    666.3757      6.0427     88.3849
   411.0000      0.0000    669.1136      5.8402     91.9056
   411.2500      0.0000    676.2791      5.6630     91.4372
   411.5000      0.0000    680.3076      5.4661     88.4305
   411.7500      0.0000    675.8440      5.1855     85.3860
   412.0000      0.0000    666.6908      4.8340     83.9984
   412.2500      0.0000    660.7302      4.4907     84.2893
   412.5000      0.0000    660.6983      4.2067     85.2084
   412.7500      0.0000    660.0204      3.9474     85.7239
   413.0000      0.0000    647.2395      3.6444     85.4009
   413.2500      0.0000    615.5514      3.2595     84.4098
   413.5000      0.0000    571.5766      2.8239     83.3549
   413.7500      0.0000    531.4785      2.4418     83.0529
   414.0000      0.0000    504.6295      2.1987     84.1964
   414.2500      0.0000    488.5249      2.0839     86.8693
   414.5000      0.0000    479.4583      2.0399     90.0907
   414.7500      0.0000    477.1798      2.0433     92.0151
   415.0000      0.0000    478.8430      2.1112     91.2094
   415.2500      0.0000    478.8798      2.2609     88.0596
   415.5000      0.0000    476.9787      2.4671     84.6570
   415.7500      0.0000    478.2133      2.6530     83.0525
   416.0000      0.0000    484.2251      2.7330     83.5945
   416.2500      0.0000    491.1260      2.6799     84.9237
   416.5000      0.0000    495.6920      2.5582     85.4005
   416.7500      0.0000    498.1076      2.4728     84.3950
   417.0000      0.0000    500.1279      2.4851     82.3456
   417.2500      0.0000    504.7260      2.5802     79.9550
   417.5000      0.0000    515.9368      2.6839     77.5057
   417.7500      0.0000    533.1493      2.7227     74.8355
   418.0000      0.0000    546.5888      2.6919     71.9662
   418.2500      0.0000    547.1302      2.6423     69.7101
   418.5000      0.0000    536.5419      2.5956     69.1543
   418.7500      0.0000    522.4610      2.5352     70.3481
   419.0000      0.0000    511.8449      2.4684     72.1304
   419.2500      0.0000    508.7613      2.4178     73.5159
   419.5000      0.0000    512.8823      2.3785     74.6715
   419.7500      0.0000    519.9379      2.3501     76.3698
   420.0000      0.0000    524.5278      2.3718     78.9805
   420.2500      0.0000    524.5518      2.4638     81.9865
   420.5000      0.0000    522.8970      2.5785     84.0654
   420.7500      0.0000    524.4490      2.6611     83.8597
   421.0000      0.0000    532.1590      2.7047     81.3481
   421.2500      0.0000    541.3010      2.7244     78.4631
   421.5000      0.0000    535.8318      2.7301     77.7103
   421.7500      0.0000    502.5152      2.7336     79.9342
   422.0000      0.0000    450.7149      2.7508     83.7157
   422.2500      0.0000    404.5925      2.7912     86.9530
   422.5000      0.0000    377.9458      2.8641     88.6570
   422.7500      0.0000    367.5390      2.9937     89.1404
   423.0000      0.0000    364.7607      3.1881     89.0122
   423.2500      0.0000    364.2319      3.4164     88.5869
   423.5000      0.0000    364.1129      3.6619     88.0705
   423.7500      0.0000    364.0751      3.9322     87.6107
   424.0000      0.0000    364.1194      4.1920     87.0528
   424.2500      0.0000    364.2795      4.3720     86.0708
   424.5000      0.0000    364.6616      4.4341     84.7107
   424.7500      0.0000    365.4069      4.3931     83.6448
   425.0000      0.0000    366.7045      4.3237     83.6673
   425.2500      0.0000    369.2614      4.3251     84.8170
   425.5000      0.0000    374.6596      4.4311     86.2039
   425.7500      0.0000    383.6820      4.6087     86.9171
   426.0000      0.0000    393.3430      4.8409     86.8083
   426.2500      0.0000    397.8745      5.1373     86.1552
   426.5000      0.0000    394.3765      5.4890     85.0977
   426.7500      0.0000    385.9209      5.8480     83.8181
   427.0000      0.0000    378.0856      6.1543     82.7516
   427.2500      0.0000    373.6593      6.3889     82.2325
   427.5000      0.0000    371.8204      6.5858     82.2815
   427.7500      0.0000    370.7176      6.7801     82.9235
   428.0000      0.0000    368.8987      6.9732     84.3950
   428.2500      0.0000    365.3987      7.1614     86.8950
   428.5000      0.0000    360.8323      7.3584     90.3462
   428.7500      0.0000    358.1766      7.5477     94.3919
   429.0000      0.0000    359.5753      7.6438     98.3592
   429.2500      0.0000    363.2667      7.5638    101.2239
   429.5000      0.0000    366.3926      7.3335    102.0905
   429.7500      0.0000    368.3668      7.0691    101.1547
   430.0000      0.0000    370.7794      6.8648     99.9988
   430.2500      0.0000    377.8853      6.7393    100.4549
   430.5000      0.0000    397.6082      6.6703    102.9334
   430.7500      0.0000    435.2688      6.6427    105.9013
   431.0000      0.0000    482.4744      6.6538    107.1676
   431.2500      0.0000    522.1517      6.6826    105.8451
   431.5000      0.0000    548.0859      6.6862    102.9635
   431.7500      0.0000    567.7762      6.6553    100.1297
   432.0000      0.0000    587.3864      6.6357     97.9589
   432.2500      0.0000    604.6081      6.6642     96.1007
   432.5000      0.0000    615.1207      6.7234     94.3221
   432.7500      0.0000    618.6395      6.7713     92.8161
   433.0000      0.0000    616.7258      6.7984     91.4901
   433.2500      0.0000    607.9059      6.8363     89.6587
   433.5000      0.0000    588.2344      6.9049     86.7427
   433.7500      0.0000    559.7485      6.9837     82.8569
   434.0000      0.0000    537.0523      7.0608     78.4961
   434.2500      0.0000    535.6227      7.1539     74.2348
   434.5000      0.0000    549.1427      7.2578     71.0037
   434.7500      0.0000    550.3926      7.3286     70.0178
   435.0000      0.0000    524.9007      7.2946     71.8922
   435.2500      0.0000    490.1826      7.0627     76.0270
