~Version Information
VERS.                      2.0: CWLS Log ASCII Standard - VERSION 2.0
WRAP.                       NO: One line per depth step
~Well Information Block
STRT.FT                 6.5000: 
STOP.FT              1054.0000: 
STEP.FT                 0.2500: 
NULL.                -999.2500: 
COMP.          Pioneer Natural Resources: COMPANY
WELL.            Galileo 21-11: WELL
FLD.           Purgatoire River: FIELD
LOC.           407' FNL & 2394' FWL: LOCATION
PROV.                 Colorado: PROVINCE
CNTY.               Las Animas: COUNTRY
SRVC.                Patterson: SERVICE COMPANY
DATE.          Sat Apr 16 10:31:00 2005: LOG DATE
UWI.           05 071 08353 00: UNIQUE WELL ID
~Curve Information Block
DEPT.FT            0 000 00 00: Depth
GR.GAPI                       : Gamma Ray
CCL.                          : Casing Collar Locator
TT3.usec                      : CBL 3' Travel Time
AMP3.mV                       : CBL 3' Amplitude
~Parameter Information Block
~A  Depth        GR         CCL         TT3         AMP3    
# ...
   877.5000    116.0055      0.0000    803.1009      9.3872
   877.7500    112.8309      0.0000    804.2338      9.3421
   878.0000    109.4394      0.0000    803.0030      9.3072
   878.2500    106.0219      0.0000    800.1841      9.2788
   878.5000    102.5331      0.0000    797.1224      9.2604
   878.7500     99.6063      0.0000    794.3963      9.2598
   879.0000     97.9778      0.0000    791.5642      9.2915
   879.2500     97.1125      0.0000    788.0125      9.3708
   879.5000     95.3165      0.0000    783.9052      9.5001
   879.7500     91.5458      0.0000    780.3345      9.6622
   880.0000     86.6536      0.0000    778.5423      9.8315
   880.2500     82.5638      0.0000    778.8885      9.9919
   880.5000     80.4231      0.0000    780.5009     10.1442
   880.7500     79.7732      0.0000    782.0441     10.2981
   881.0000     79.4655      0.0000    782.9880     10.4589
   881.2500     79.0990      0.0000    783.9843     10.6164
   881.5000     79.2523      0.0000    785.8348     10.7487
   881.7500     80.4408      0.0000    788.4180     10.8364
   882.0000     82.2670      0.0000    790.9005     10.8745
   882.2500     83.6958      0.0000    792.6466     10.8662
   882.5000     83.9394      0.0000    793.5833     10.8114
   882.7500     83.1323      0.0000    793.9031     10.7067
   883.0000     82.3874      0.0000    793.6773     10.5613
   883.2500     83.0985      0.0000    792.5227     10.4067
   883.5000     85.8531      0.0000    789.2547     10.2870
   883.7500     90.0158      0.0000    781.9271     10.2324
   884.0000     94.4852      0.0000    769.1343     10.2388
   884.2500     98.5802      0.0000    752.1915     10.2698
   884.5000    101.9844      0.0000    735.6342     10.2838
   884.7500    104.1997      0.0000    724.6168     10.2600
   885.0000    104.5750      0.0000    722.0906     10.2037
   885.2500    103.0912      0.0000    728.6552     10.1333
   885.5000    100.9698      0.0000    743.0310     10.0642
   885.7500    100.0230      0.0000    761.2862     10.0004
   886.0000    100.9857      0.0000    777.6793      9.9354
   886.2500    102.7077      0.0000    788.1873      9.8616
   886.5000    103.3618      0.0000    792.5791      9.7778
   886.7500    102.1400      0.0000    792.7726      9.6920
   887.0000     99.4383      0.0000    790.3386      9.6179
   887.2500     95.9496      0.0000    786.0662      9.5701
   887.5000     92.1644      0.0000    781.1275      9.5585
   887.7500     88.3431      0.0000    777.6514      9.5857
   888.0000     84.5703      0.0000    777.5593      9.6446
   888.2500     81.1884      0.0000    780.8745      9.7194
   888.5000     79.1641      0.0000    785.6748      9.7918
   888.7500     79.2619      0.0000    789.8122      9.8518
   889.0000     80.6893      0.0000    792.3589      9.9055
   889.2500     81.3112      0.0000    793.5751      9.9679
   889.5000     79.5645      0.0000    794.1034     10.0483
   889.7500     75.8818      0.0000    794.4207     10.1441
   890.0000     72.0894      0.0000    794.7506     10.2487
   890.2500     69.6341      0.0000    795.1696     10.3558
   890.5000     68.5604      0.0000    795.7112     10.4559
   890.7500     68.0552      0.0000    796.4373     10.5338
   891.0000     67.7140      0.0000    797.5256     10.5781
   891.2500     68.0450      0.0000    799.4164     10.5928
   891.5000     69.6187      0.0000    802.8514     10.5954
   891.7500     72.0063      0.0000    808.4961     10.6014
   892.0000     74.1140      0.0000    816.1500     10.6080
   892.2500     75.5427      0.0000    824.2467     10.5935
   892.5000     77.0472      0.0000    830.3557     10.5367
   892.7500     79.4849      0.0000    832.3788     10.4380
   893.0000     82.6944      0.0000    829.4788     10.3222
   893.2500     85.5061      0.0000    822.3434     10.2219
   893.5000     86.6529      0.0000    812.8441     10.1604
   893.7500     85.8407      0.0000    803.1341     10.1409
   894.0000     84.2362      0.0000    794.6575     10.1408
   894.2500     83.7668      0.0000    787.8409     10.1000
   894.5000     85.5360      0.0000    782.4019      9.9147
   894.7500     88.6943      0.0000    777.9899      9.4682
   895.0000     90.9281      0.0000    775.4252      8.7135
   895.2500     90.2145      0.0000    777.8782      7.7569
   895.5000     86.2941      0.0000    790.1484      6.8247
   895.7500     80.7032      0.0000    816.0864      6.1025
   896.0000     75.6155      0.0000    856.0645      5.6211
   896.2500     72.5179      0.0000    905.3721      5.3281
   896.5000     71.6224      0.0000    954.3411      5.2055
   896.7500     72.3174      0.0000    992.0516      5.2502
   897.0000     74.0590      2.8430   1011.7825      5.4017
   897.2500     76.8349      0.0000   1012.8467      5.5756
   897.5000     81.0465      0.0000    999.0964      5.7517
   897.7500     87.1377      0.0000    978.7008      6.0028
   898.0000     95.0508      0.0000    964.5273      6.4484
   898.2500    103.7637      0.0000    969.8160      7.1524
   898.5000    111.5706      0.0000   1000.3298      8.0207
   898.7500    117.0555      0.0000   1049.3146      8.8228
   899.0000    119.7731      0.0000   1099.1855      9.3720
   899.2500    120.1327      0.0000   1129.9365      9.6613
   899.5000    118.9249      0.0000   1130.1216      9.8021
   899.7500    116.9190      0.0000   1102.4440      9.8949
   900.0000    114.7231      0.0000   1060.4604      9.9879
   900.2500    112.8087      0.0000   1020.2000     10.0952
   900.5000    111.3828      0.0000    990.6039     10.2021
   900.7500    110.2061      0.0000    967.9381     10.2723
   901.0000    108.8917      0.0000    941.5089     10.2739
   901.2500    107.5918      0.0000    906.7366     10.2031
   901.5000    107.1733      0.0000    870.2831     10.0872
   901.7500    108.5016      0.0000    842.2474      9.9706
   902.0000    111.6666      0.0000    827.1685      9.8898
   902.2500    116.1303      0.0000    823.5042      9.8559
   902.5000    121.3541      0.0000    829.6597      9.8587
   902.7500    126.8319      0.0000    848.3140      9.8806
   903.0000    131.6809      0.0000    883.2902      9.9007
   903.2500    134.8291      0.0000    931.3373      9.8965
   903.5000    135.7551      0.0000    978.9527      9.8546
   903.7500    134.7241      0.0000   1010.1290      9.7820
   904.0000    132.2527      0.0000   1017.2924      9.7020
   904.2500    128.6227      0.0000   1004.3599      9.6421
   904.5000    124.0886      0.0000    981.9531      9.6237
   904.7500    119.4103      0.0000    961.6782      9.6533
   905.0000    115.9559      0.0000    951.8614      9.7134
   905.2500    115.1778      0.0000    954.2305      9.7689
   905.5000    117.7683      0.0000    963.5624      9.7860
   905.7500    123.1208      0.0000    972.6873      9.7510
   906.0000    129.5541      0.0000    979.8854      9.6772
   906.2500    135.0634      0.0000    990.0610      9.5949
   906.5000    138.1208      0.0000   1006.9727      9.5342
   906.7500    138.3021      0.0000   1026.5525      9.5142
   907.0000    136.4053      0.0000   1041.0780      9.5458
   907.2500    133.7903      0.0000   1048.6373      9.6398
   907.5000    131.4771      0.0000   1055.0443      9.8020
   907.7500    129.8360      0.0000   1066.4446     10.0159
   908.0000    128.8722      0.0000   1081.5363     10.2359
   908.2500    128.5108      0.0000   1091.2251     10.4050
   908.5000    128.5430      0.0000   1086.2448     10.4857
   908.7500    128.3310      0.0000   1067.2151     10.4781
   909.0000    126.7147      0.0000   1047.7129     10.4135
   909.2500    122.4411      0.0000   1044.3584     10.3340
   909.5000    114.8655      0.0000   1060.3820     10.2735
   909.7500    104.5645      0.0000   1079.8334     10.2483
   910.0000     93.6039      0.0000   1081.3301     10.2494
   910.2500     85.0198      0.0000   1058.2495     10.2405
   910.5000     81.3206      0.0000   1025.4729     10.1816
   910.7500     82.9635      0.0000   1008.2231     10.0658
