~Version Information
VERS.                      2.0: CWLS Log ASCII Standard - VERSION 2.0
WRAP.                       NO: One line per depth step
~Well Information Block
STRT.FT               954.4000: 
STOP.FT              2380.0000: 
STEP.FT                 0.1000: 
NULL.                -999.2500: 
COMP.          Petrogulf Corporation: COMPANY
WELL.             State 16-24V: WELL
FLD.           Purgatorie River: FIELD
LOC.           481' FSL & 2419' FWL: LOCATION
CNTY.               Las Animas: COUNTY
SRVC.                         : SERVICE COMPANY
DATE.          Tue May 04 07:31:25 2004: LOG DATE
UWI.           05 071 08014 00: UNIQUE WELL ID
STAT.                 Colorado: STATE
~Curve Information Block
DEPT.FT            0 000 00 00: Depth
DCAL.in                       : CDL Caliper
RHOB.g/cc                     : CDL Bulk Density
RHOC.g/cc                     : CDL Density Correction
DPOR.pu                       : CDL Density Porosity
GR.GAPI                       : Gamma Ray
~Parameter Information Block
~A  Depth       DCAL        RHOB        RHOC        DPOR         GR     
# ...
  1055.2000      7.7400      2.5916      0.1890      3.5414     88.1208
  1055.3000      7.7323      2.6242      0.2684      1.5631     84.5870
  1055.4000      7.7323      2.6150      0.2612      2.1238     76.4385
  1055.5000      7.7519      2.5739      0.1332      4.6151     68.7265
  1055.6000      7.7519      2.5434      0.1646      6.4608     64.7875
  1055.7000      7.7519      2.5401      0.1231      6.6631     68.0077
  1055.8000      7.7645      2.5496      0.1792      6.0844     76.2942
  1055.9000      7.7645      2.5517      0.1542      5.9550     81.1844
  1056.0000      7.7573      2.5436      0.1495      6.4471     83.2699
  1056.1000      7.7573      2.5345      0.1408      6.9970     85.8384
  1056.2000      7.7573      2.5320      0.0718      7.1530     83.5855
  1056.3000      7.7403      2.5369      0.0607      6.8561     80.2092
  1056.4000      7.7403      2.5444      0.0967      6.3987     86.4819
  1056.5000      7.7725      2.5549      0.1342      5.7644     95.1236
  1056.6000      7.7725      2.5713      0.1801      4.7690     93.8951
  1056.7000      7.7725      2.5849      0.1298      3.9435     86.1031
  1056.8000      7.7900      2.5784      0.0919      4.3410     80.0830
  1056.9000      7.7900      2.5565      0.0530      5.6665     76.2611
  1057.0000      7.8102      2.5507      0.0103      6.0183     73.6259
  1057.1000      7.8102      2.5648      0.1638      5.1623     73.6420
  1057.2000      7.8102      2.5755      0.0461      4.5140     76.6383
  1057.3000      7.8365      2.5886      0.0987      3.7216     82.9881
  1057.4000      7.8365      2.5948      0.1808      3.3428     90.3912
  1057.5000      7.8538      2.5687      0.0824      4.9270     91.1667
  1057.6000      7.8538      2.5436      0.0697      6.4485     81.4269
  1057.7000      7.8538      2.5580      0.1638      5.5757     71.5241
  1057.8000      7.8293      2.5929      0.0541      3.4586     69.7478
  1057.9000      7.8293      2.6202      0.1381      1.8079     75.6523
  1058.0000      7.8064      2.6297      0.1288      1.2299     86.8510
  1058.1000      7.8064      2.6352      0.0356      0.8996     92.2201
  1058.2000      7.8064      2.6423      0.1499      0.4651     85.8826
  1058.3000      7.7795      2.6244      0.1647      1.5485     79.7570
  1058.4000      7.7795      2.5807      0.0562      4.1981     77.8174
  1058.5000      7.7479      2.5342      0.0883      7.0172     75.5382
  1058.6000      7.7479      2.5035      0.0287      8.8766     75.8046
  1058.7000      7.7479      2.5136      0.0588      8.2678     79.4592
  1058.8000      7.7445      2.5531      0.1522      5.8754     84.7581
  1058.9000      7.7445      2.5778      0.1686      4.3773     87.9376
  1059.0000      7.7617      2.5665      0.2054      5.0620     87.7978
  1059.1000      7.7617      2.5277      0.1169      7.4146     88.1621
  1059.2000      7.7617      2.4886      0.0227      9.7832     88.2866
  1059.3000      7.7557      2.4651      0.1328     11.2072     81.9793
  1059.4000      7.7557      2.4479      0.1360     12.2503     71.1479
  1059.5000      7.7631      2.4312      0.1225     13.2588     67.3382
  1059.6000      7.7631      2.4241      0.0913     13.6909     73.5759
  1059.7000      7.7631      2.4317      0.1130     13.2286     83.1255
  1059.8000      7.7572      2.4403      0.1161     12.7111     87.7058
  1059.9000      7.7572      2.4457      0.0360     12.3843     85.5994
  1060.0000      7.7592      2.4613      0.0869     11.4373     87.6570
  1060.1000      7.7592      2.4778      0.0872     10.4367     96.9769
  1060.2000      7.7592      2.4787      0.0977     10.3799     97.3989
  1060.3000      7.7480      2.4667      0.1164     11.1085     85.7525
  1060.4000      7.7480      2.4478      0.1253     12.2569     80.7466
  1060.5000      7.7615      2.4287     -0.0285     13.4123     86.1304
  1060.6000      7.7615      2.4277      0.0075     13.4700     87.5135
  1060.7000      7.7615      2.4529     -0.0211     11.9462     79.0703
  1060.8000      7.7788      2.4866      0.1095      9.9016     69.0257
  1060.9000      7.7788      2.5017      0.0916      8.9872     66.5106
  1061.0000      7.8068      2.4906      0.0242      9.6623     70.0371
  1061.1000      7.8068      2.4645      0.0763     11.2433     71.9299
  1061.2000      7.8068      2.4470     -0.0008     12.3036     68.4660
  1061.3000      7.8099      2.4654      0.0050     11.1880     64.4152
  1061.4000      7.8099      2.5122      0.1166      8.3511     66.7259
  1061.5000      7.8180      2.5512      0.1299      5.9863     71.7386
  1061.6000      7.8180      2.5626      0.1140      5.2965     71.7709
  1061.7000      7.8180      2.5624      0.0287      5.3067     72.3466
  1061.8000      7.8030      2.5910      0.0909      3.5773     82.2528
  1061.9000      7.8030      2.6781      0.0430     -1.7024     93.5336
  1062.0000      7.8157      2.8063      0.1544     -9.4744     96.3699
  1062.1000      7.8157      2.9037      0.2286    -15.3784    102.8298
  1062.2000      7.8157      2.9117      0.2973    -15.8628    118.5680
  1062.3000      7.8010      2.8498      0.1748    -12.1078    126.0356
  1062.4000      7.8010      2.7832      0.1251     -8.0747    119.7621
  1062.5000      7.7528      2.7520      0.0505     -6.1827    111.1785
  1062.6000      7.7528      2.7554      0.0639     -6.3875    109.4412
  1062.7000      7.7528      2.7600      0.1556     -6.6667    109.7663
  1062.8000      7.7347      2.7347      0.0650     -5.1330    103.7874
  1062.9000      7.7347      2.6836      0.1468     -2.0380    100.7760
  1063.0000      7.7191      2.6270      0.0399      1.3939    108.8048
  1063.1000      7.7191      2.5930      0.0132      3.4537    118.5380
  1063.2000      7.7191      2.5822      0.0193      4.1087    124.3799
  1063.3000      7.7341      2.5758     -0.0322      4.4943    134.1845
  1063.4000      7.7341      2.5814      0.0235      4.1579    145.1589
  1063.5000      7.7801      2.5903      0.1184      3.6175    146.0148
  1063.6000      7.7801      2.5659      0.1307      5.0985    139.3760
  1063.7000      7.7801      2.5249     -0.0144      7.5826    136.6215
  1063.8000      7.8221      2.5196      0.1058      7.9002    139.4962
  1063.9000      7.8221      2.5442      0.1405      6.4114    141.3006
  1064.0000      7.7642      2.5690      0.2288      4.9099    136.6862
  1064.1000      7.7642      2.5862      0.0716      3.8695    131.1882
  1064.2000      7.7642      2.5795      0.1689      4.2728    132.8795
  1064.3000      7.7028      2.5324      0.1131      7.1255    141.7961
  1064.4000      7.7028      2.4831      0.0320     10.1172    154.1423
  1064.5000      7.7245      2.4806      0.0630     10.2667    158.7703
  1064.6000      7.7245      2.5200      0.0609      7.8785    144.7139
  1064.7000      7.7245      2.5604      0.1645      5.4286    125.6277
  1064.8000      7.7570      2.5786      0.1099      4.3263    126.7420
  1064.9000      7.7570      2.5858      0.1145      3.8905    147.1448
  1065.0000      7.7717      2.5969      0.1002      3.2177    166.5636
  1065.1000      7.7717      2.6110      0.1767      2.3650    172.8787
  1065.2000      7.7717      2.6142      0.1370      2.1699    164.2410
  1065.3000      7.7758      2.6100      0.0632      2.4270    151.0566
  1065.4000      7.7758      2.6183      0.1335      1.9212    145.4139
  1065.5000      7.7902      2.6294      0.1349      1.2492    145.4378
  1065.6000      7.7902      2.6215      0.0797      1.7245    144.4903
  1065.7000      7.7902      2.6034      0.0813      2.8232    141.7644
  1065.8000      7.8066      2.5883      0.1135      3.7395    137.7163
  1065.9000      7.8066      2.5752      0.0639      4.5315    128.5606
  1066.0000      7.7893      2.5715      0.0724      4.7559    116.5927
  1066.1000      7.7893      2.5812      0.1442      4.1668    113.1571
  1066.2000      7.7893      2.5962      0.1313      3.2605    119.6205
  1066.3000      7.8055      2.6101      0.1959      2.4169    129.9953
