~Version Information
VERS.                      2.0: CWLS Log ASCII Standard - VERSION 2.0
WRAP.                       NO: One line per depth step
~Well Information Block
STRT.FT               651.5000: 
STOP.FT              2190.5000: 
STEP.FT                 0.2500: 
NULL.                -999.2500: 
COMP.          Pioneer Natural Resources: COMPANY
WELL.               King 22-13: WELL
FLD.           Purgatoire River: FIELD
LOC.           2419' FNL & 1806' FWL----: LOCATION
PROV.                 Colorado: PROVINCE
CNTY.               Las Animas: COUNTRY
SRVC.                Patterson: SERVICE COMPANY
DATE.          Thu Mar 31 14:33:28 2005: LOG DATE
UWI.           05 071 08318 00: UNIQUE WELL ID
~Curve Information Block
DEPT.FT            0 000 00 00: Depth
SN.Ohm-m                      : IEL Short Normal
SP.mV                         : IEL Spontaneous Potential
DIR.Ohm-m                     : IEL Induction Resistivity
GR.GAPI                       : Gamma Ray
~Parameter Information Block
~A  Depth        SN          SP         DIR          GR     
# ...
  1254.5000      9.7143    -85.3446      8.7486    145.5121
  1254.7500      9.7515    -85.2312      8.4934    145.6792
  1255.0000      9.8143    -85.0808      8.2670    142.4376
  1255.2500      9.8270    -84.9509      8.0594    139.6164
  1255.5000      9.6714    -84.8721      7.8629    136.4932
  1255.7500      9.3322    -84.8617      7.6727    134.6860
  1256.0000      8.9365    -84.9334      7.4869    130.0478
  1256.2500      8.6199    -85.1027      7.3052    124.9744
  1256.5000      8.4031    -85.3947      7.1288    115.6603
  1256.7500      8.2325    -85.8454      6.9599    110.2382
  1257.0000      8.0902    -86.4839      6.8008    107.2673
  1257.2500      7.9927    -87.3142      6.6533    110.2790
  1257.5000      7.9003    -88.3094      6.5177    121.2473
  1257.7500      7.7049    -89.4130      6.3932    130.0921
  1258.0000      7.3619    -90.5494      6.2794    140.7538
  1258.2500      6.9728    -91.6542      6.1779    145.1609
  1258.5000      6.6561    -92.7057      6.0918    148.8683
  1258.7500      6.4181    -93.7195      6.0254    150.0004
  1259.0000      6.2153    -94.7109      5.9824    149.6477
  1259.2500      6.0459    -95.6644      5.9666    148.3995
  1259.5000      5.9366    -96.5422      5.9809    146.8673
  1259.7500      5.8979    -97.3075      6.0281    146.8473
  1260.0000      5.8953    -97.9354      6.1089    147.7608
  1260.2500      5.8640    -98.4094      6.2208    148.3361
  1260.5000      5.8174    -98.7192      6.3570    149.3692
  1260.7500      5.8594    -98.8512      6.5067    150.7628
  1261.0000      6.0311    -98.7773      6.6574    153.5463
  1261.2500      6.2632    -98.4630      6.7989    154.5459
  1261.5000      6.4528    -97.8932      6.9254    152.6086
  1261.7500      6.5053    -97.0771      7.0356    148.8301
  1262.0000      6.4066    -96.0301      7.1308    140.5635
  1262.2500      6.2746    -94.7684      7.2130    134.0395
  1262.5000      6.2779    -93.3330      7.2830    123.8032
  1262.7500      6.5913    -91.8156      7.3398    117.6822
  1263.0000      7.3181    -90.3426      7.3792    112.1421
  1263.2500      8.2765    -89.0113      7.3940    112.1872
  1263.5000      9.0512    -87.8326      7.3752    118.1492
  1263.7500      9.3392    -86.7345      7.3156    124.7304
  1264.0000      9.1218    -85.6225      7.2134    134.5143
  1264.2500      8.5634    -84.4488      7.0744    138.6595
  1264.5000      7.8499    -83.2459      6.9104    139.4387
  1264.7500      7.0935    -82.1059      6.7357    136.9611
  1265.0000      6.3933    -81.1244      6.5637    131.8542
  1265.2500      5.9054    -80.3587      6.4040    129.4680
  1265.5000      5.7299    -79.8226      6.2628    129.4852
  1265.7500      5.8268    -79.5082      6.1423    132.0835
  1266.0000      6.0568    -79.4035      6.0427    138.3597
  1266.2500      6.2272    -79.4926      5.9623    142.3892
  1266.5000      6.2020    -79.7447      5.8992    145.3230
  1266.7500      6.0236    -80.1128      5.8520    144.6893
  1267.0000      5.8664    -80.5529      5.8205    141.3893
  1267.2500      5.8483    -81.0467      5.8060    138.9711
  1267.5000      5.9327    -81.6042      5.8109    136.1104
  1267.7500      6.0206    -82.2424      5.8379    134.4391
  1268.0000      6.0462    -82.9618      5.8893    131.5928
  1268.2500      6.0066    -83.7451      5.9672    129.8160
  1268.5000      5.9552    -84.5715      6.0731    129.3580
  1268.7500      5.9298    -85.4257      6.2078    131.4597
  1269.0000      5.9145    -86.2957      6.3705    137.2020
  1269.2500      5.8859    -87.1698      6.5591    140.8132
  1269.5000      5.8735    -88.0337      6.7705    143.0710
  1269.7500      6.0211    -88.8640      7.0003    142.2166
  1270.0000      6.5077    -89.6299      7.2424    139.0471
  1270.2500      7.2789    -90.3059      7.4877    137.2279
  1270.5000      8.0242    -90.8858      7.7239    137.2272
  1270.7500      8.5542    -91.3829      7.9373    139.1097
  1271.0000      8.9603    -91.8115      8.1155    141.8515
  1271.2500      9.2936    -92.1626      8.2506    141.2124
  1271.5000      9.3954    -92.3987      8.3398    134.3606
  1271.7500      9.1700    -92.4772      8.3843    126.4899
  1272.0000      8.7551    -92.3795      8.3877    112.8744
  1272.2500      8.3556    -92.1263      8.3549    104.5207
  1272.5000      8.0952    -91.7755      8.2901     95.6173
  1272.7500      7.9768    -91.4052      8.1964     93.2490
  1273.0000      7.8850    -91.0879      8.0755     96.0372
  1273.2500      7.6866    -90.8662      7.9280    101.5379
  1273.5000      7.3344    -90.7462      7.7552    112.3366
  1273.7500      6.8920    -90.7128      7.5614    119.3971
  1274.0000      6.4871    -90.7553      7.3541    128.0058
  1274.2500      6.2033    -90.8837      7.1430    132.3075
  1274.5000      6.0238    -91.1177      6.9380    137.5217
  1274.7500      5.8828    -91.4595      6.7464    140.9677
  1275.0000      5.7414    -91.8775      6.5728    146.5625
  1275.2500      5.6199    -92.3108      6.4193    149.6682
  1275.5000      5.5492    -92.6864      6.2855    150.7068
  1275.7500      5.4976    -92.9479      6.1704    148.3637
  1276.0000      5.4006    -93.0968      6.0725    142.7199
  1276.2500      5.2561    -93.2113      5.9908    139.8535
  1276.5000      5.1234    -93.4123      5.9249    138.4509
  1276.7500      5.0428    -93.7948      5.8739    138.3936
  1277.0000      5.0094    -94.3767      5.8366    137.7365
  1277.2500      5.0074    -95.0990      5.8116    137.3768
  1277.5000      5.0197    -95.8706      5.7966    139.2434
  1277.7500      5.0175    -96.6252      5.7889    142.3898
  1278.0000      4.9738    -97.3559      5.7852    147.2153
  1278.2500      4.8690    -98.1082      5.7823    148.1319
  1278.5000      4.7073    -98.9380      5.7779    144.2193
  1278.7500      4.5523    -99.8615      5.7717    139.2705
  1279.0000      4.4958   -100.8375      5.7653    132.3925
  1279.2500      4.5630   -101.7944      5.7624    129.8680
  1279.5000      4.6821   -102.6668      5.7673    129.3235
  1279.7500      4.7580   -103.4012      5.7844    130.1528
  1280.0000      4.7839   -103.9416      5.8170    131.3036
  1280.2500      4.8293   -104.2395      5.8664    131.2542
  1280.5000      4.9062   -104.2899      5.9320    129.3143
  1280.7500      4.9565   -104.1487      6.0104    126.6751
  1281.0000      4.9712   -103.9135      6.0955    121.1213
  1281.2500      5.0101   -103.6878      6.1786    117.2698
  1281.5000      5.1138   -103.5559      6.2506    113.6895
  1281.7500      5.2447   -103.5679      6.3045    113.7658
  1282.0000      5.3256   -103.7255      6.3382    116.8914
  1282.2500      5.3355   -103.9730      6.3552    119.1861
  1282.5000      5.3323   -104.2088      6.3628    119.4846
  1282.7500      5.3832   -104.3323      6.3689    116.8219
  1283.0000      5.5048   -104.2982      6.3795    110.7174
  1283.2500      5.6675   -104.1355      6.3973    107.7764
  1283.5000      5.8116   -103.9173      6.4221    108.2485
  1283.7500      5.8468   -103.7127      6.4518    111.5639
  1284.0000      5.6996   -103.5537      6.4834    117.4600
  1284.2500      5.4224   -103.4212      6.5138    119.8889
  1284.5000      5.2186   -103.2476      6.5404    120.2821
  1284.7500      5.2587   -102.9536      6.5618    119.1244
  1285.0000      5.4996   -102.5146      6.5788    117.0124
  1285.2500      5.7764   -101.9938      6.5933    116.0032
  1285.5000      5.9924   -101.4956      6.6079    114.9477
  1285.7500      6.1231   -101.0812      6.6244    113.8879
  1286.0000      6.1432   -100.7318      6.6441    111.2979
  1286.2500      6.0579   -100.3936      6.6686    109.7084
  1286.5000      5.9429   -100.0544      6.6997    109.5532
  1286.7500      5.8853    -99.7755      6.7394    111.1774
  1287.0000      5.9079    -99.6458      6.7887    114.3432
  1287.2500      5.9682    -99.7063      6.8466    115.5972
  1287.5000      6.0161    -99.9166      6.9103    115.6855
  1287.7500      6.0423   -100.1885      6.9750    115.1887
