~Version Information
 VERS.                                  2.0 : CWLS LAS VERSION
 WRAP.                                   NO : WRAPING MODE
 SWARE .                 MController 2.5.0J : SOFTWARE VERSION
~Well Information
 WELL.                        MOO MOO 31-36 : WELL
 COMP.    PIONEER NATURAL RESOURCES USA INC : COMPANY
 FLD.                      PURGATOIRE RIVER : FIELD
 LOC.                NW/NE SEC 36 T32S R67W : LOCATION
 DATE.                             06/16/05 : DATE(S) LOGGED
 SRVC.       BLANCO GEOLOGICAL SERVICES LLC : SERVICE COMPANY
 STAT.                             COLORADO : STATE
 CNTY.                           LAS ANIMAS : COUNTY
 CTRY.                                  USA : COUNTRY
 API.                       05-071-08395-00 : API NUMBER
 STRT.FT                             303.00 : START DEPTH
 STOP.FT                            2275.00 : STOP DEPTH
 STEP.FT                               1.00 : DEPTH INCREMENT
 NULL.                                -9999 : NULL VALUE
~Curve information
 DEPTH.FT                                   :
 ROP.MIN/FT                                 :
 GAS.UNITS                                  :
~ASCII Log data
# ...
      1303.0         0.27       1344.7 
      1304.0         0.20       1303.5 
      1305.0         0.27       1327.1 
      1306.0         0.40       1279.0 
      1307.0         0.28       1240.0 
      1308.0         0.27       1206.0 
      1309.0         0.20       1177.9 
      1310.0         0.27       1138.6 
      1311.0         0.30       1128.8 
      1312.0         0.27       1137.7 
      1313.0         0.27       1135.7 
      1314.0         0.23       1145.2 
      1315.0         0.30       1135.7 
      1316.0         1.25       1016.6 
      1317.0         0.20       1119.3 
      1318.0         0.23       1317.6 
      1319.0         0.33       1711.8 
      1320.0         0.33       2058.6 
      1321.0         0.30       2274.8 
      1322.0         0.27       2297.4 
      1323.0         0.23       2177.3 
      1324.0         0.47       1809.9 
      1325.0         0.37       1562.9 
      1326.0         0.23       1433.4 
      1327.0         0.17       1372.9 
      1328.0         0.18       1315.6 
      1329.0         0.10       1302.2 
      1330.0         0.17       1273.1 
      1331.0         0.23       1270.1 
      1332.0         0.23       1250.8 
      1333.0         0.23       1211.3 
      1334.0         0.30       1186.1 
      1335.0         0.27       1168.1 
      1336.0         0.27       1161.2 
      1337.0         0.30       1161.5 
      1338.0         0.27       1158.3 
      1339.0         0.27       1148.4 
      1340.0         0.27       1139.0 
      1341.0         0.23       1124.9 
      1342.0         0.28       1108.9 
      1343.0         0.23       1101.7 
      1344.0         0.17       1088.3 
      1345.0         0.47       1081.1 
      1346.0         0.77       1014.3 
      1347.0         0.23        944.3 
      1348.0         0.37        964.6 
      1349.0         0.43       1399.0 
      1350.0         0.33       1757.6 
      1351.0         0.35       2003.0 
      1352.0         0.27       2075.3 
      1353.0         0.27       2009.5 
      1354.0         0.23       1880.0 
      1355.0         0.27       1699.7 
      1356.0         0.23       1561.3 
      1357.0         0.23       1445.8 
      1358.0         0.30       1316.9 
      1359.0         0.30       1245.6 
      1360.0         0.30       1203.7 
      1361.0         0.40       1182.1 
      1362.0         0.20       1175.3 
      1363.0         0.25       1168.7 
      1364.0         0.23       1140.3 
      1365.0         0.30       1110.8 
      1366.0         0.30       1070.9 
      1367.0         0.30       1079.1 
      1368.0         0.30       1069.9 
      1369.0         0.23       1071.2 
      1370.0         0.27       1055.9 
      1371.0         0.23       1039.5 
      1372.0         0.23       1036.9 
      1373.0         0.23       1029.4 
      1374.0         0.20       1030.0 
      1375.0         0.20       1027.4 
      1376.0         1.08        888.0 
      1377.0         0.20        877.9 
      1378.0         0.13        845.2 
      1379.0         0.43       1111.2 
      1380.0         0.37       1501.4 
      1381.0         0.27       1823.0 
      1382.0         0.27       2082.1 
      1383.0         0.30       2199.2 
      1384.0         0.23       2134.1 
      1385.0         0.23       2000.0 
      1386.0         0.15       1901.2 
      1387.0         0.13       1793.6 
      1388.0         0.10       1707.5 
      1389.0         0.13       1610.4 
      1390.0         0.43       1348.7 
      1391.0         0.33       1195.2 
      1392.0         0.27       1145.5 
      1393.0         0.27       1168.4 
      1394.0         0.27       1201.4 
      1395.0         0.23       1204.1 
      1396.0         0.27       1191.3 
      1397.0         0.20       1181.8 
      1398.0         0.17       1173.6 
      1399.0         0.17       1147.8 
      1400.0         0.35       1110.2 
      1401.0         0.23       1099.4 
      1402.0         0.27       1073.9 
      1403.0         0.23       1043.1 
      1404.0         0.23       1039.8 
      1405.0         0.23       1031.0 
      1406.0         2.75       1990.5 
      1407.0         0.50       1993.1 
      1408.0         0.50       1559.0 
      1409.0         0.27       1446.5 
      1410.0         0.27       1401.0 
      1411.0         0.23       1367.3 
      1412.0         0.20       1317.3 
      1413.0         0.27       1262.3 
      1414.0         0.52       1210.3 
      1415.0         0.20       1201.1 
      1416.0         0.23       1183.5 
      1417.0         0.30       1135.7 
      1418.0         0.23       1093.5 
      1419.0         0.23       1064.7 
      1420.0         0.27       1053.2 
      1421.0         0.20       1024.8 
      1422.0         0.17        992.1 
      1423.0         0.17        980.9 
      1424.0         0.20       1011.4 
      1425.0         0.17       1044.4 
      1426.0         0.17       1053.6 
      1427.0         0.13       1057.5 
      1428.0         0.20       1052.9 
      1429.0         0.17       1053.6 
      1430.0         0.13       1044.7 
      1431.0         0.15       1041.8 
      1432.0         0.33       1030.0 
      1433.0         0.13       1023.5 
      1434.0         0.27       1007.8 
      1435.0         0.23        997.0 
      1436.0         1.37        954.1 
      1437.0         0.20       1135.4 
      1438.0         0.27       1495.2 
      1439.0         0.20       1833.5 
      1440.0         0.17       2065.1 
      1441.0         0.22       2254.2 
      1442.0         0.23       2323.9 
      1443.0         0.23       2215.6 
      1444.0         0.20       2066.1 
      1445.0         0.23       1866.9 
      1446.0         0.27       1650.0 
      1447.0         0.27       1493.3 
      1448.0         0.27       1394.5 
      1449.0         0.30       1291.4 
      1450.0         0.30       1218.8 
      1451.0         0.43       1130.1 
      1452.0         0.33       1084.3 
      1453.0         0.28       1057.2 
      1454.0         0.30       1022.8 
      1455.0         0.30        994.7 
      1456.0         0.33        965.6 
      1457.0         0.30        995.0 
      1458.0         0.27        998.9 
      1459.0         0.27        990.8 
      1460.0         0.27        987.2 
      1461.0         0.30        967.9 
      1462.0         0.43        901.5 
      1463.0         0.35        948.2 
      1464.0         0.40        948.6 
      1465.0         0.23        920.1 
      1466.0         1.90       2167.2 
      1467.0         0.40       2186.5 
      1468.0         0.48       1823.0 
      1469.0         0.30       1691.2 
      1470.0         0.27       1619.9 
      1471.0         0.33       1519.1 
      1472.0         0.33       1400.4 
      1473.0         0.23       1332.6 
      1474.0         0.20       1277.3 
      1475.0         0.23       1194.6 
      1476.0         0.23       1134.4 
      1477.0         0.20       1076.5 
      1478.0         0.20       1061.1 
      1479.0         0.17       1051.3 
      1480.0         0.23       1042.1 
      1481.0         0.17       1034.9 
      1482.0         0.22       1020.2 
      1483.0         0.17       1007.4 
      1484.0         0.27        971.1 
      1485.0         0.37        896.5 
      1486.0         0.27        893.9 
      1487.0         0.23        916.5 
      1488.0         0.23        918.5 
      1489.0         0.30        938.7 
      1490.0         0.27        947.3 
      1491.0         0.27        948.6 
      1492.0         0.30        950.2 
      1493.0         0.37        980.0 
      1494.0         0.32        970.2 
      1495.0         0.33        872.3 
      1496.0         6.15        927.6 
      1497.0         0.52       1071.9 
      1498.0         0.60       1881.9 
      1499.0         0.47       2736.1 
      1500.0         0.43       2779.0 
      1501.0         0.33       2346.5 
      1502.0         0.30       2063.8 
