~Version Information
VERS.                      2.0: CWLS Log ASCII Standard - VERSION 2.0
WRAP.                       NO: One line per depth step
~Well Information Block
STRT.FT                 0.0000: 
STOP.FT              2234.2500: 
STEP.FT                 0.2500: 
NULL.                -999.2500: 
COMP.          Pioner Natural Resources: COMPANY
WELL.          Casablanca 11-28 Tr: WELL
FLD.           Purgatoire River: FIELD
LOC.           422' FNL & 215' FWL--: LOCATION
PROV.                 Colorado: PROVINCE
CNTY.               Las Animas: COUNTRY
SRVC.                         : SERVICE COMPANY
DATE.          Fri Mar 11 13:02:46 2005: LOG DATE
UWI.           005 071 08314  : UNIQUE WELL ID
~Curve Information Block
DEPT.FT            0 000 00 00: Depth
CCL.                          : Casing Collar Locator
TT3.usec                      : CBL 3' Travel Time
AMP3.mV                       : CBL 3' Amplitude
AMP5.mV                       : CBL 5' Amplitude
GR.GAPI                       : Gamma Ray
~Parameter Information Block
~A  Depth       CCL         TT3         AMP3        AMP5         GR     
# ...
  2212.0000      0.0000    608.1261      4.8072     -0.8316    137.8069
  2212.2500      0.0000    611.1108      4.8682     -1.0927    138.1895
  2212.5000      0.0000    620.1650      4.9273     -0.9187    135.2131
  2212.7500      0.0000    631.7163      4.9739     -1.5280    128.5644
  2213.0000      0.0000    638.7963      4.9999     -1.0057    118.7089
  2213.2500      0.0000    636.2542      5.0006     -0.6575    107.1030
  2213.5000      0.0000    625.1528      4.9765     -1.0057     96.2351
  2213.7500      0.0000    612.3013      4.9314     -0.6575     88.8294
  2214.0000      0.0000    605.4140      4.8723     -0.4834     86.4561
  2214.2500      0.0000    608.4340      4.8130     -1.0927     88.6554
  2214.5000      0.0000    619.9947      4.7731     -0.7446     93.3263
  2214.7500      0.0000    634.6652      4.7640     -0.9187     97.9671
  2215.0000      0.0000    646.0066      4.7783     -1.2668    100.8901
  2215.2500      0.0000    650.0092      4.7957     -1.0927    101.7943
  2215.5000      0.0000    646.6898      4.8004     -1.1798    101.4659
  2215.7500      0.0000    639.2108      4.7910     -0.6575    101.0498
  2216.0000      0.0000    631.9940      4.7766     -0.2223    101.5287
  2216.2500      0.0000    628.8726      4.7646     -0.6575    103.2968
  2216.5000      0.0000    631.2689      4.7538     -1.2668    105.5702
  2216.7500      0.0000    637.2035      4.7351     -0.6575    106.4769
  2217.0000      0.0000    642.4280      4.7025     -0.7446    104.4102
  2217.2500      0.0000    643.2480      4.6632     -0.9187     99.3753
  2217.5000      0.0000    638.7647      4.6364     -0.9187     92.6713
  2217.7500      0.0000    630.7917      4.6377     -0.7446     85.2981
  2218.0000      0.0000    622.0936      4.6633     -0.8316     77.1927
  2218.2500      0.0000    614.7900      4.6946     -0.9187     68.2469
  2218.5000      0.0000    609.8065      4.7151     -0.3964     59.4512
  2218.7500      0.0000    607.0799      4.7210     -0.2223     52.2669
  2219.0000      0.0000    606.0272      4.7186     -0.6575     47.1557
  2219.2500      0.0000    605.9689      4.7183     -0.1352     43.5498
  2219.5000      0.0000    606.3568      4.7296     -0.3093     41.0891
  2219.7500      0.0000    606.9169      4.7563     -0.0482     40.1297
  2220.0000      0.0000    607.8132      4.7939     -0.6575     41.1472
  2220.2500      0.0000    609.8147      4.8303     -0.2223     44.1343
  2220.5000      0.0000    614.1478      4.8532     -0.3093     48.4255
  2220.7500      0.0000    621.7277      4.8567     -0.3093     52.9147
  2221.0000      0.0000    632.1486      4.8444     -0.6575     56.6654
  2221.2500      0.0000    643.7205      4.8259      0.6482     59.4214
  2221.5000      0.0000    654.9409      4.8108     -0.3964     61.3192
  2221.7500      0.0000    665.6706      4.8043      0.1259     62.2100
  2222.0000      0.0000    676.5566      4.8072      0.3870     61.6045
  2222.2500      0.0000    687.7690      4.8206      0.0389     59.2762
  2222.5000      0.0000    698.6196      4.8482      0.6482     55.4771
  2222.7500      0.0000    708.0257      4.8946      0.8223     50.2747
  2223.0000      0.0000    715.2715      4.9631      0.2129     43.0877
  2223.2500      0.0000    720.8110      5.0521      0.9093     33.5412
  2223.5000      0.0000    726.4645      5.1516      0.7352     22.7262
  2223.7500      0.0000    734.3472      5.2450     -0.1352     12.9514
  2224.0000      0.0000    744.8765      5.3160     -0.0482      6.0604
  2224.2500      0.0000    755.5499      5.3569     -0.7446      2.2912
  2224.5000      0.0000    762.2517      5.3709     -0.0482      0.6919
  2224.7500      0.0000    762.6868      5.3656      0.2129      0.1658
  2225.0000      0.0000    758.6904      5.3458     -0.2223      0.0309
  2225.2500      0.0000    754.6841      5.3137      0.6482      0.0042
  2225.5000      0.0000    753.8093      5.2733     -0.6575      0.0000
  2225.7500      0.0000    755.6253      5.2300     -0.5705   -999.2500
  2226.0000      0.0000    757.2026      5.1855     -0.5705   -999.2500
  2226.2500      0.0000    756.3880      5.1381     -0.3964   -999.2500
  2226.5000      0.0000    754.5889      5.0880      0.0389   -999.2500
  2226.7500      0.0000    756.0789      5.0414     -0.7446   -999.2500
  2227.0000      0.0000    763.5380      5.0032     -0.9187   -999.2500
  2227.2500      0.0000    774.7055      4.9651     -0.2223   -999.2500
  2227.5000      0.0000    783.7546      4.8995     -0.8316   -999.2500
  2227.7500      0.0000    783.8361      4.7551     -0.5705   -999.2500
  2228.0000      0.0000    765.6750      4.4373   -999.2500   -999.2500
  2228.2500      0.0000    715.2068      3.7958   -999.2500   -999.2500
  2228.5000      0.0000    618.9866      2.6890   -999.2500   -999.2500
  2228.7500      0.0000    478.5781      1.1363   -999.2500   -999.2500
  2229.0000      0.0000    319.4096     -0.5910   -999.2500   -999.2500
  2229.2500      0.0000    178.9331     -2.0991   -999.2500   -999.2500
  2229.5000      0.0000     82.3851     -3.1282   -999.2500   -999.2500
  2229.7500      0.0000     30.7066     -3.6761   -999.2500   -999.2500
  2230.0000      0.0000      9.1639     -3.9036   -999.2500   -999.2500
  2230.2500      0.0000      2.1699     -3.9772   -999.2500   -999.2500
  2230.5000      0.0000      0.4016     -3.9958   -999.2500   -999.2500
  2230.7500      0.0000      0.0534     -3.9994   -999.2500   -999.2500
  2231.0000      0.0000   -999.2500   -999.2500   -999.2500   -999.2500
  2231.2500      0.0000   -999.2500   -999.2500   -999.2500   -999.2500
  2231.5000      0.0000   -999.2500   -999.2500   -999.2500   -999.2500
  2231.7500      0.0000   -999.2500   -999.2500   -999.2500   -999.2500
  2232.0000      0.0000   -999.2500   -999.2500   -999.2500   -999.2500
  2232.2500      0.0000   -999.2500   -999.2500   -999.2500   -999.2500
  2232.5000      0.0000   -999.2500   -999.2500   -999.2500   -999.2500
  2232.7500      0.0000   -999.2500   -999.2500   -999.2500   -999.2500
  2233.0000      0.0000   -999.2500   -999.2500   -999.2500   -999.2500
  2233.2500      0.0000   -999.2500   -999.2500   -999.2500   -999.2500
  2233.5000      0.0000   -999.2500   -999.2500   -999.2500   -999.2500
  2233.7500   -999.2500   -999.2500   -999.2500   -999.2500   -999.2500
  2234.0000   -999.2500   -999.2500   -999.2500   -999.2500   -999.2500
  2234.2500   -999.2500   -999.2500   -999.2500   -999.2500   -999.2500
