~Version Information
VERS.                      2.0: CWLS Log ASCII Standard - VERSION 2.0
WRAP.                       NO: One line per depth step
~Well Information Block
STRT.FT               520.0000: 
STOP.FT              2183.5000: 
STEP.FT                 0.1000: 
NULL.                -999.2500: 
COMP.          Pioneer Natural Resources: COMPANY
WELL.             Enzo 43-8 Tr: WELL
FLD.           Purgatoire River: FIELD
LOC.           2303' FSL & 604' FEL: LOCATION
PROV.                 Colorado: PROVINCE
CNTY.               Las Animas: COUNTRY
SRVC.                Patterson: SERVICE COMPANY
DATE.          Sun Oct 31 15:10:54 2004: LOG DATE
UWI.           05 071 08213 00: UNIQUE WELL ID
~Curve Information Block
DEPT.FT            0 000 00 00: Depth
DCAL.in                       : CDL Caliper
RHOB.g/cc                     : CDL Bulk Density
RHOC.g/cc                     : CDL Density Correction
DPOR.pu                       : CDL Density Porosity
NPOR.pu                       : Neutron Porosity
GR.GAPI                       : Gamma Ray
~Parameter Information Block
~A  Depth       DCAL        RHOB        RHOC        DPOR        NPOR         GR     
# ...
  1067.2000      8.1078      2.6008      0.0070      2.9802     26.1842     93.2851
  1067.3000      8.1101      2.6137      0.0068      2.1991     26.2495     98.6170
  1067.4000      8.1101      2.6342      0.0702      0.9555     26.2426    103.9556
  1067.5000      8.1131      2.6298      0.0647      1.2246     26.1928    105.6505
  1067.6000      8.1131      2.5962     -0.0053      3.2584     25.9619    105.6870
  1067.7000      8.1131      2.5736     -0.0423      4.6320     25.8864    107.6499
  1067.8000      8.1151      2.5854      0.0205      3.9175     26.2821    110.4311
  1067.9000      8.1151      2.6110      0.0142      2.3608     26.8537    110.4693
  1068.0000      8.1146      2.6272      0.0576      1.3801     27.1029    110.3830
  1068.1000      8.1146      2.6348      0.0108      0.9187     26.9109    113.4907
  1068.2000      8.1146      2.6470      0.0254      0.1794     26.6018    115.9744
  1068.3000      8.1100      2.6621      0.0590     -0.7328     26.4713    115.1653
  1068.4000      8.1100      2.6696      0.0594     -1.1890     26.4818    113.9428
  1068.5000      8.1030      2.6722      0.0368     -1.3469     26.6387    115.8808
  1068.6000      8.1030      2.6727      0.0117     -1.3757     26.8449    118.1391
  1068.7000      8.1030      2.6621      0.0176     -0.7362     26.7390    114.8548
  1068.8000      8.0920      2.6349      0.0184      0.9177     26.3554    109.8318
  1068.9000      8.0920      2.5997     -0.0205      3.0455     26.1073    110.4138
  1069.0000      8.0737      2.5720     -0.0284      4.7288     26.0709    114.1369
  1069.1000      8.0737      2.5549     -0.0282      5.7666     26.0847    114.8458
  1069.2000      8.0737      2.5462     -0.0760      6.2928     26.1377    111.8366
  1069.3000      8.0618      2.5494      0.0024      6.0944     26.0856    107.4645
  1069.4000      8.0618      2.5593      0.0519      5.4953     25.7444    103.8399
  1069.5000      8.0585      2.5597      0.0818      5.4715     25.1921    101.8803
  1069.6000      8.0585      2.5455      0.0210      6.3342     24.5750    103.0004
  1069.7000      8.0585      2.5322      0.0347      7.1368     24.0594    106.5483
  1069.8000      8.0559      2.5333      0.0486      7.0709     23.8466    107.9272
  1069.9000      8.0559      2.5408      0.0740      6.6189     24.0239    105.7489
  1070.0000      8.0551      2.5379      0.0702      6.7967     24.2625    103.1205
  1070.1000      8.0551      2.5255      0.0579      7.5465     24.2120    103.5413
  1070.2000      8.0551      2.5249      0.0424      7.5824     24.1623    105.6967
  1070.3000      8.0562      2.5461      0.0912      6.2957     24.1327    104.2321
  1070.4000      8.0562      2.5721      0.0852      4.7215     23.7414    100.8343
  1070.5000      8.0563      2.5867      0.0634      3.8383     23.3072    101.1524
  1070.6000      8.0563      2.5946      0.0580      3.3567     23.3417    102.8851
  1070.7000      8.0563      2.6023      0.1137      2.8925     23.6431    100.8491
  1070.8000      8.0543      2.6084      0.0931      2.5201     23.7801     95.6021
  1070.9000      8.0543      2.6181      0.0582      1.9334     23.8522     91.6177
  1071.0000      8.0525      2.6304      0.1137      1.1888     24.2071     92.2921
  1071.1000      8.0525      2.6293      0.0979      1.2526     24.6872     96.4114
  1071.2000      8.0525      2.6163      0.0932      2.0399     24.9021     97.7188
  1071.3000      8.0529      2.6138      0.0672      2.1939     24.9630     93.9211
  1071.4000      8.0529      2.6303      0.0661      1.1932     25.1956     88.9754
  1071.5000      8.0551      2.6485      0.1499      0.0894     25.6361     86.4381
  1071.6000      8.0551      2.6439      0.1526      0.3718     26.0723     86.8137
  1071.7000      8.0551      2.6150      0.0827      2.1217     26.2111     87.2674
  1071.8000      8.0553      2.5829      0.0524      4.0667     25.8811     85.0221
  1071.9000      8.0553      2.5566      0.0454      5.6597     25.1878     81.1775
  1072.0000      8.0532      2.5348      0.0050      6.9844     24.3060     79.2592
  1072.1000      8.0532      2.5264      0.0276      7.4939     23.4087     81.1956
  1072.2000      8.0532      2.5397      0.0357      6.6870     23.0238     84.8117
  1072.3000      8.0526      2.5697      0.0953      4.8668     23.1643     86.8795
  1072.4000      8.0526      2.5915      0.1326      3.5454     23.1494     88.9240
  1072.5000      8.0533      2.5816      0.0979      4.1483     22.9193     95.0094
  1072.6000      8.0533      2.5542      0.0721      5.8089     22.7732    101.1419
  1072.7000      8.0533      2.5354      0.0601      6.9434     22.6994    100.3495
  1072.8000      8.0497      2.5305      0.0426      7.2416     22.6251     94.4512
  1072.9000      8.0497      2.5375      0.0276      6.8186     22.4476     88.3660
  1073.0000      8.0396      2.5516      0.0363      5.9619     22.4072     85.5259
  1073.1000      8.0396      2.5615      0.0519      5.3664     22.8056     87.9854
  1073.2000      8.0396      2.5600      0.0454      5.4559     23.2059     92.1018
  1073.3000      8.0304      2.5569      0.0193      5.6449     23.0923     91.9391
  1073.4000      8.0304      2.5641      0.0588      5.2069     22.7657     89.3080
  1073.5000      8.0271      2.5723      0.0656      4.7080     22.7609     88.6103
  1073.6000      8.0271      2.5663      0.0821      5.0708     23.1321     89.2107
  1073.7000      8.0271      2.5432      0.0540      6.4755     23.4700     90.6911
  1073.8000      8.0292      2.5174      0.0076      8.0338     23.3345     93.7596
  1073.9000      8.0292      2.5120      0.0329      8.3627     22.6717     95.3655
  1074.0000      8.0417      2.5254      0.0464      7.5520     21.8345     93.3411
  1074.1000      8.0417      2.5398      0.0753      6.6811     21.3551     90.4975
  1074.2000      8.0417      2.5546      0.0438      5.7840     21.6980     88.5276
  1074.3000      8.0549      2.5722      0.0931      4.7161     22.6352     85.2538
  1074.4000      8.0549      2.5787      0.1050      4.3203     23.2171     79.7302
  1074.5000      8.0525      2.5717      0.0927      4.7469     23.1686     75.9404
  1074.6000      8.0525      2.5696      0.0594      4.8748     23.1774     76.0092
  1074.7000      8.0525      2.5832      0.0594      4.0477     23.4446     77.9781
  1074.8000      8.0521      2.6020      0.0911      2.9086     23.4946     80.6086
  1074.9000      8.0521      2.6120      0.0610      2.3022     23.2573     83.0194
  1075.0000      8.0563      2.6106      0.0387      2.3867     23.2192     84.5713
  1075.1000      8.0563      2.5962      0.0358      3.2577     23.5979     83.3066
  1075.2000      8.0563      2.5722      0.0281      4.7178     24.0751     79.8568
  1075.3000      8.0583      2.5572      0.0214      5.6265     24.3553     78.2073
  1075.4000      8.0583      2.5660      0.0457      5.0937     24.4936     79.0621
  1075.5000      8.0588      2.5890      0.0737      3.6953     24.5322     80.7675
  1075.6000      8.0588      2.6032      0.0781      2.8383     24.4904     82.9557
  1075.7000      8.0588      2.6008      0.0868      2.9799     24.5065     83.9618
  1075.8000      8.0626      2.5934      0.0645      3.4314     24.7301     82.7970
  1075.9000      8.0626      2.5854      0.0204      3.9122     25.1124     83.5002
  1076.0000      8.0751      2.5765      0.0505      4.4554     25.3552     88.4791
  1076.1000      8.0751      2.5792      0.0433      4.2931     25.4755     95.8943
  1076.2000      8.0751      2.6008      0.0408      2.9815     25.6756    105.1292
  1076.3000      8.0846      2.6167      0.0829      2.0160     25.5791    112.5659
  1076.4000      8.0846      2.6004      0.0465      3.0054     25.2170    111.6469
  1076.5000      8.0850      2.5654      0.0139      5.1262     25.2165    103.8145
  1076.6000      8.0850      2.5405     -0.0055      6.6346     25.5552     98.0494
  1076.7000      8.0850      2.5360     -0.0411      6.9068     25.6197     95.2633
