~Version Information
VERS.                      2.0: CWLS Log ASCII Standard - VERSION 2.0
WRAP.                       NO: One line per depth step
~Well Information Block
STRT.FT               846.6000: 
STOP.FT              2609.1000: 
STEP.FT                 0.1000: 
NULL.                -999.2500: 
COMP.          Petrogulf Corporation: COMPANY
WELL.            Lavedure 7-44: WELL
FLD.           Purgatoire River: FIELD
LOC.           969' FSL & 501' FEL: LOCATION
PROV.                 Colorado: PROVINCE
CNTY.               Las Animas: COUNTRY
SRVC.                Patterson: SERVICE COMPANY
DATE.          Sun Dec 07 14:55:17 2003: LOG DATE
UWI.                          : UNIQUE WELL ID
~Curve Information Block
DEPT.FT            0 000 00 00: Depth
DCAL.in                       : CDL Caliper
RHOB.g/cc                     : CDL Bulk Density
RHOC.g/cc                     : CDL Density Correction
DPOR.pu                       : CDL Density Porosity
GR.GAPI                       : Gamma Ray
NPOR.pu                       : Neutron Porosity
~Parameter Information Block
~A  Depth       DCAL        RHOB        RHOC        DPOR         GR         NPOR    
# ...
  1096.2000      8.0985      2.5811      0.0670      4.1761     98.6954     22.0514
  1096.3000      8.1096      2.5819      0.0793      4.1257     98.2663     21.9821
  1096.4000      8.1096      2.5836      0.0922      4.0236     97.6607     21.8927
  1096.5000      8.1127      2.5861      0.1048      3.8754     96.9107     21.7718
  1096.6000      8.1127      2.5891      0.1164      3.6895     96.0599     21.6109
  1096.7000      8.1127      2.5927      0.1264      3.4756     95.1648     21.4056
  1096.8000      8.0939      2.5965      0.1340      3.2441     94.2942     21.1576
  1096.9000      8.0939      2.6004      0.1390      3.0045     93.5240     20.8749
  1097.0000      8.0648      2.6044      0.1412      2.7649     92.9260     20.5722
  1097.1000      8.0648      2.6082      0.1407      2.5315     92.5614     20.2697
  1097.2000      8.0648      2.6119      0.1378      2.3074     92.4686     19.9916
  1097.3000      8.0469      2.6155      0.1332      2.0936     92.6562     19.7634
  1097.4000      8.0469      2.6188      0.1274      1.8884     93.1014     19.6095
  1097.5000      8.0471      2.6221      0.1213      1.6888     93.7487     19.5508
  1097.6000      8.0471      2.6254      0.1158      1.4904     94.5155     19.6031
  1097.7000      8.0471      2.6287      0.1115      1.2891     95.2988     19.7757
  1097.8000      8.0567      2.6322      0.1090      1.0814     95.9927     20.0704
  1097.9000      8.0567      2.6357      0.1085      0.8657     96.4976     20.4819
  1098.0000      8.0622      2.6394      0.1101      0.6422     96.7414     20.9977
  1098.1000      8.0622      2.6432      0.1133      0.4139     96.6913     21.5987
  1098.2000      8.0622      2.6469      0.1176      0.1858     96.3633     22.2611
  1098.3000      8.0646      2.6506      0.1224     -0.0347     95.8262     22.9572
  1098.4000      8.0646      2.6539      0.1268     -0.2391     95.1920     23.6581
  1098.5000      8.0655      2.6569      0.1303     -0.4183     94.6031     24.3356
  1098.6000      8.0655      2.6593      0.1321     -0.5635     94.2053     24.9645
  1098.7000      8.0655      2.6610      0.1320     -0.6672     94.1310     25.5237
  1098.8000      8.0547      2.6620      0.1297     -0.7243     94.4712     25.9976
  1098.9000      8.0547      2.6621      0.1254     -0.7320     95.2631     26.3754
  1099.0000      8.0443      2.6614      0.1191     -0.6908     96.4874     26.6516
  1099.1000      8.0443      2.6600      0.1115     -0.6042     98.0703     26.8241
  1099.2000      8.0443      2.6579      0.1030     -0.4782     99.9009     26.8936
  1099.3000      8.0581      2.6553      0.0943     -0.3213    101.8490     26.8617
  1099.4000      8.0581      2.6524      0.0858     -0.1433    103.7847     26.7310
  1099.5000      8.0887      2.6493      0.0782      0.0455    105.5969     26.5036
  1099.6000      8.0887      2.6461      0.0717      0.2347    107.1996     26.1825
  1099.7000      8.0887      2.6431      0.0666      0.4155    108.5397     25.7710
  1099.8000      8.1163      2.6404      0.0628      0.5805    109.5910     25.2750
  1099.9000      8.1163      2.6380      0.0604      0.7246    110.3495     24.7028
  1100.0000      8.1271      2.6361      0.0590      0.8448    110.8263     24.0668
  1100.1000      8.1271      2.6345      0.0585      0.9408    111.0434     23.3835
  1100.2000      8.1271      2.6333      0.0587      1.0140    111.0270     22.6737
  1100.3000      8.1196      2.6324      0.0591      1.0675    110.8074     21.9619
  1100.4000      8.1196      2.6318      0.0598      1.1054    110.4152     21.2745
  1100.5000      8.1068      2.6313      0.0604      1.1321    109.8775     20.6390
  1100.6000      8.1068      2.6310      0.0610      1.1520    109.2127     20.0815
  1100.7000      8.1068      2.6307      0.0615      1.1687    108.4306     19.6258
  1100.8000      8.1002      2.6304      0.0620      1.1849    107.5282     19.2914
  1100.9000      8.1002      2.6302      0.0624      1.2023    106.4907     19.0931
  1101.0000      8.1004      2.6298      0.0629      1.2213    105.2953     19.0400
  1101.1000      8.1004      2.6295      0.0635      1.2416    103.9260     19.1345
  1101.2000      8.1004      2.6292      0.0641      1.2620    102.3780     19.3728
  1101.3000      8.1013      2.6289      0.0648      1.2812    100.6699     19.7443
  1101.4000      8.1013      2.6286      0.0654      1.2978     98.8520     20.2319
  1101.5000      8.1019      2.6284      0.0658      1.3108     97.0044     20.8126
  1101.6000      8.1019      2.6282      0.0659      1.3197     95.2319     21.4595
  1101.7000      8.1019      2.6281      0.0655      1.3248     93.6510     22.1430
  1101.8000      8.1048      2.6281      0.0647      1.3272     92.3784     22.8335
  1101.9000      8.1048      2.6281      0.0633      1.3286     91.5124     23.5041
  1102.0000      8.1123      2.6280      0.0614      1.3315     91.1225     24.1320
  1102.1000      8.1123      2.6279      0.0591      1.3388     91.2388     24.7000
  1102.2000      8.1123      2.6277      0.0566      1.3536     91.8491     25.1974
  1102.3000      8.1230      2.6272      0.0541      1.3792     92.8991     25.6191
  1102.4000      8.1230      2.6266      0.0518      1.4189     94.2997     25.9652
  1102.5000      8.1360      2.6257      0.0498      1.4755     95.9381     26.2397
  1102.6000      8.1360      2.6244      0.0483      1.5521     97.6912     26.4493
  1102.7000      8.1360      2.6228      0.0472      1.6510     99.4384     26.6028
  1102.8000      8.1548      2.6207      0.0464      1.7749    101.0741     26.7101
  1102.9000      8.1548      2.6182      0.0458      1.9262    102.5179     26.7817
  1103.0000      8.1766      2.6152      0.0450      2.1078    103.7206     26.8286
  1103.1000      8.1766      2.6117      0.0439      2.3237    104.6592     26.8614
  1103.2000      8.1766      2.6074      0.0423      2.5789    105.3354     26.8899
  1103.3000      8.1917      2.6025      0.0401      2.8810    105.7644     26.9230
  1103.4000      8.1917      2.5965      0.0373      3.2403    105.9668     26.9682
  1103.5000      8.1980      2.5894      0.0340      3.6710    105.9618     27.0317
  1103.6000      8.1980      2.5808      0.0304      4.1917    105.7625     27.1184
  1103.7000      8.1980      2.5704      0.0267      4.8260    105.3812     27.2317
  1103.8000      8.2007      2.5576      0.0230      5.6022    104.8340     27.3746
  1103.9000      8.2007      2.5419      0.0194      6.5533    104.1492     27.5489
  1104.0000      8.1937      2.5227      0.0159      7.7151    103.3706     27.7564
  1104.1000      8.1937      2.4994      0.0122      9.1248    102.5584     27.9984
  1104.2000      8.1937      2.4715      0.0080     10.8182    101.7819     28.2763
  1104.3000      8.1841      2.4384      0.0027     12.8265    101.1054     28.5909
  1104.4000      8.1841      2.3996     -0.0041     15.1730    100.5763     28.9428
  1104.5000      8.1744      2.3551     -0.0128     17.8700    100.2070     29.3311
  1104.6000      8.1744      2.3049     -0.0234     20.9158     99.9684     29.7535
  1104.7000      8.1744      2.2492     -0.0359     24.2930     99.7890     30.2050
  1104.8000      8.1637      2.1885     -0.0496     27.9680     99.5585     30.6779
  1104.9000      8.1637      2.1238     -0.0635     31.8914     99.1469     31.1622
  1105.0000      8.1640      2.0560     -0.0766     36.0005     98.4187     31.6453
  1105.1000      8.1640      1.9863     -0.0878     40.2220     97.2550     32.1144
  1105.2000      8.1640      1.9161     -0.0961     44.4770     95.5644     32.5574
  1105.3000      8.1831      1.8467     -0.1007     48.6849     93.2956     32.9640
  1105.4000      8.1831      1.7793     -0.1016     52.7685     90.4403     33.3275
  1105.5000      8.2279      1.7151     -0.0986     56.6583     87.0244     33.6448
  1105.6000      8.2279      1.6551     -0.0923     60.2956     83.1080     33.9162
  1105.7000      8.2279      1.6000     -0.0833     63.6350     78.7717     34.1453
