~Version Information
VERS.                      2.0: CWLS Log ASCII Standard - VERSION 2.0
WRAP.                       NO: One line per depth step
~Well Information Block
STRT.FT               294.0000: 
STOP.FT              1958.0000: 
STEP.FT                 0.1000: 
NULL.                -999.2500: 
COMP.          Pioneer Natural Resources: COMPANY
WELL.          Commander 43-26 Tr: WELL
FLD.           Purgatoire River: FIELD
LOC.           2439' FSL & 446' FEL: LOCATION
PROV.                 Colorado: PROVINCE
CNTY.               Las Animas: COUNTRY
SRVC.                Patterson: SERVICE COMPANY
DATE.          Fri Apr 15 07:31:08 2005: LOG DATE
UWI.           05 071 08341 00: UNIQUE WELL ID
~Curve Information Block
DEPT.FT            0 000 00 00: Depth
DCAL.in                       : CDL Caliper
RHOB.g/cc                     : CDL Bulk Density
RHOC.g/cc                     : CDL Density Correction
DPOR.pu                       : CDL Density Porosity
GR.GAPI                       : Gamma Ray
NPOR.pu                       : Neutron Porosity
~Parameter Information Block
~A  Depth       DCAL        RHOB        RHOC        DPOR         GR         NPOR    
   294.0000      5.0702      2.2310      0.0734     25.3934     50.9300     17.5595
   294.1000      5.0702      2.2405      0.1071     24.8184     50.9973     17.0867
   294.2000      5.0702      2.2571      0.1075     23.8098     52.8973     16.8272
   294.3000      5.0843      2.2785      0.1653     22.5172     53.8539     16.0449
   294.4000      5.0843      2.2935      0.1496     21.6066     52.3809     14.5496
   294.5000      5.0749      2.2918      0.1742     21.7064     49.4661     13.4788
   294.6000      5.0749      2.2689      0.1301     23.0972     47.5559     13.8589
   294.7000      5.0749      2.2441      0.0986     24.5980     47.8876     14.9602
   294.8000      5.0696      2.2382      0.1010     24.9565     48.5842     15.8205
   294.9000      5.0696      2.2347      0.1667     25.1687     48.6779     16.3450
   295.0000      5.0701      2.2099      0.0948     26.6719     48.7365     16.2989
   295.1000      5.0701      2.1674      0.1360     29.2480     48.6706     15.8402
   295.2000      5.0701      2.1344     -0.0018     31.2466     47.9203     15.3433
   295.3000      5.0808      2.1378      0.0767     31.0412     46.4273     15.0011
   295.4000      5.0808      2.1609      0.1245     29.6397     46.4008     15.3027
   295.5000      5.0783      2.1669      0.1275     29.2766     48.1471     16.4446
   295.6000      5.0783      2.1558      0.1004     29.9520     48.6825     17.6781
   295.7000      5.0783      2.1491      0.1407     30.3568     47.6948     17.7822
   295.8000      5.0753      2.1542      0.1118     30.0484     47.3763     16.7644
   295.9000      5.0753      2.1691      0.0813     29.1442     46.9235     15.6618
   296.0000      5.0691      2.1823      0.1637     28.3426     44.0174     15.2821
   296.1000      5.0691      2.1855      0.1394     28.1535     40.8727     15.7131
   296.2000      5.0691      2.1970      0.0665     27.4552     40.5026     16.4947
   296.3000      5.0579      2.2223      0.1890     25.9237     40.4155     16.8136
   296.4000      5.0579      2.2366      0.1494     25.0547     38.1553     16.3415
   296.5000      5.0736      2.2301      0.1521     25.4475     36.8480     15.5990
   296.6000      5.0736      2.2044      0.1481     27.0047     39.3995     15.3469
   296.7000      5.0736      2.1747      0.0567     28.8062     44.4848     15.6820
   296.8000      5.0699      2.1728      0.0724     28.9241     48.7896     16.1462
   296.9000      5.0699      2.1930      0.1684     27.6966     49.9544     16.4462
   297.0000      5.0696      2.2021      0.1074     27.1470     47.6611     16.5766
   297.1000      5.0696      2.1978      0.1253     27.4050     43.7182     16.7526
   297.2000      5.0696      2.1919      0.1086     27.7624     41.6671     17.2243
   297.3000      5.0738      2.1888      0.1165     27.9505     42.3150     17.9036
   297.4000      5.0738      2.1954      0.0565     27.5514     42.8254     18.0710
   297.5000      5.0770      2.2120      0.1131     26.5479     42.9102     17.6583
   297.6000      5.0770      2.2289      0.1003     25.5185     44.1469     17.6433
   297.7000      5.0770      2.2362      0.1747     25.0771     46.3673     18.1726
   297.8000      5.0724      2.2228      0.1362     25.8935     48.7883     18.2790
   297.9000      5.0724      2.1957      0.1012     27.5359     51.4677     17.4804
   298.0000      5.0694      2.1821      0.0834     28.3584     53.7075     16.1204
   298.1000      5.0694      2.1964      0.1343     27.4915     54.1414     14.7461
   298.2000      5.0694      2.2243      0.1715     25.7987     52.3698     14.0814
   298.3000      5.0697      2.2455      0.1511     24.5144     48.7943     14.4577
   298.4000      5.0697      2.2534      0.1217     24.0380     45.3634     15.2628
   298.5000      5.0749      2.2463      0.1645     24.4682     42.8342     15.5977
   298.6000      5.0749      2.2225      0.1773     25.9095     40.9768     15.6889
   298.7000      5.0749      2.1910      0.1009     27.8203     42.3585     15.7315
   298.8000      5.0820      2.1690      0.0715     29.1535     47.2382     15.1858
   298.9000      5.0820      2.1635      0.0606     29.4839     51.8304     15.1583
   299.0000      5.0761      2.1654      0.1031     29.3667     52.5658     16.4127
   299.1000      5.0761      2.1614      0.0730     29.6097     48.9856     17.4003
   299.2000      5.0761      2.1575     -0.0207     29.8467     46.2249     17.3755
   299.3000      5.0801      2.1716      0.0363     28.9929     47.9179     16.8604
   299.4000      5.0801      2.1935      0.0805     27.6638     51.3059     15.8463
   299.5000      5.0817      2.1946      0.1052     27.6018     53.4174     14.8621
   299.6000      5.0817      2.1703      0.0642     29.0757     53.1787     14.6968
   299.7000      5.0817      2.1403     -0.0039     30.8929     49.8813     15.2143
   299.8000      5.0726      2.1223     -0.0249     31.9794     46.3370     15.9741
   299.9000      5.0726      2.1203     -0.0038     32.1027     45.1175     16.6433
   300.0000      5.0767      2.1258      0.0326     31.7667     45.8966     16.8417
   300.1000      5.0767      2.1304      0.0449     31.4907     47.2102     16.3400
   300.2000      5.0767      2.1349     -0.0220     31.2190     48.6865     15.6876
   300.3000      5.0704      2.1409      0.0595     30.8543     51.6866     15.3325
   300.4000      5.0704      2.1478     -0.0116     30.4343     56.4258     14.4127
   300.5000      5.0768      2.1640      0.0158     29.4540     58.8922     13.1601
   300.6000      5.0768      2.1913      0.0458     27.7989     55.9873     13.2064
   300.7000      5.0768      2.2168      0.0783     26.2548     50.3650     14.3952
   300.8000      5.0865      2.2276      0.1108     25.6029     46.4150     15.5324
   300.9000      5.0865      2.2254      0.0595     25.7331     44.9369     16.1444
   301.0000      5.0787      2.2230      0.0352     25.8759     45.2510     16.0718
   301.1000      5.0787      2.2238      0.0363     25.8309     48.6917     15.5372
   301.2000      5.0787      2.2180      0.0397     26.1829     53.9187     15.3444
   301.3000      5.0876      2.1928      0.0796     27.7090     54.6255     15.8222
   301.4000      5.0876      2.1530      0.0143     30.1208     49.5896     16.7538
   301.5000      5.0844      2.1391     -0.0729     30.9609     45.9083     17.6298
   301.6000      5.0844      2.1761      0.0075     28.7227     47.5126     17.8829
   301.7000      5.0844      2.2197      0.0847     26.0772     50.1492     17.5062
   301.8000      5.0939      2.2253      0.0762     25.7407     50.7255     16.7443
   301.9000      5.0939      2.2157      0.0045     26.3215     51.4854     16.0765
   302.0000      5.0723      2.2310      0.0154     25.3922     53.2170     16.1251
   302.1000      5.0723      2.2623      0.1495     23.4978     53.6863     16.7864
   302.2000      5.0723      2.2792      0.0719     22.4729     52.4972     17.4888
   302.3000      5.0706      2.2785      0.0889     22.5134     52.0886     17.8949
   302.4000      5.0706      2.2629      0.0787     23.4633     52.1591     17.9838
   302.5000      5.0802      2.2358      0.0441     25.1058     50.8799     17.6513
   302.6000      5.0802      2.2139      0.0243     26.4293     48.4102     16.6517
   302.7000      5.0802      2.2138      0.0481     26.4364     46.8812     15.5624
   302.8000      5.0733      2.2316      0.0464     25.3605     46.9449     14.9827
   302.9000      5.0733      2.2461      0.1179     24.4760     45.7216     14.8990
   303.0000      5.0767      2.2509      0.0656     24.1876     42.4053     15.2800
   303.1000      5.0767      2.2623      0.0681     23.4943     40.4208     15.7479
   303.2000      5.0767      2.2844      0.0361     22.1582     41.6560     15.6242
   303.3000      5.0804      2.3043      0.1045     20.9527     44.5912     15.2547
   303.4000      5.0804      2.3151      0.1078     20.2961     46.6211     15.1593
   303.5000      5.0828      2.3109      0.1333     20.5536     45.1503     14.9728
