~Version Information
VERS.                      2.0: CWLS Log ASCII Standard - VERSION 2.0
WRAP.                       NO: One line per depth step
~Well Information Block
STRT.FT               482.2000: 
STOP.FT              2349.0000: 
STEP.FT                 0.1000: 
NULL.                -999.2500: 
COMP.          Pioneer Natural Resources: COMPANY
WELL.          Hill Climb 22-2: WELL
FLD.           Purgatoire River: FIELD
LOC.           1820' FNL & 2193' FWL: LOCATION
PROV.                 Colorado: PROVINCE
CNTY.               Las Animas: COUNTRY
SRVC.                Patterson: SERVICE COMPANY
DATE.          Wed Oct 20 09:25:25 2004: LOG DATE
UWI.           05 071 08175 00: UNIQUE WELL ID
~Curve Information Block
DEPT.FT            0 000 00 00: Depth
DCAL.in                       : CDL Caliper
DPOR.pu                       : CDL Density Porosity
NPOR.pu                       : Neutron Porosity
RHOB.g/cc                     : CDL Bulk Density
RHOC.g/cc                     : CDL Density Correction
GR.GAPI                       : Gamma Ray
~Parameter Information Block
~A  Depth       DCAL        DPOR        NPOR        RHOB        RHOC         GR     
# ...
  1192.6000      7.9607      5.9054     17.2593      2.5526      0.0156     71.8521
  1192.7000      7.9607      6.2542     17.0705      2.5468     -0.0115     83.1314
  1192.8000      7.9615      5.9222     16.3373      2.5523      0.0074     77.2917
  1192.9000      7.9615      5.2687     15.4402      2.5631     -0.0069     63.6528
  1193.0000      7.9622      5.1650     14.7375      2.5648      0.0027     56.9695
  1193.1000      7.9622      5.6852     14.1183      2.5562      0.0015     56.1012
  1193.2000      7.9622      5.9636     13.6767      2.5516     -0.0215     57.3412
  1193.3000      7.9634      5.3230     13.4813      2.5622     -0.0111     59.4163
  1193.4000      7.9634      4.6026     13.4339      2.5741      0.0569     59.2759
  1193.5000      7.9649      4.8400     13.5166      2.5701      0.0225     56.8287
  1193.6000      7.9649      4.8512     13.4722      2.5700     -0.0252     52.2092
  1193.7000      7.9649      3.5682     13.1667      2.5911      0.0482     45.6874
  1193.8000      7.9668      2.5053     12.9362      2.6087      0.0497     41.5645
  1193.9000      7.9668      3.2607     12.9829      2.5962      0.0519     42.1490
  1194.0000      7.9659      5.2618     13.2168      2.5632      0.0098     44.6238
  1194.1000      7.9659      6.7231     13.2883      2.5391     -0.0075     44.8496
  1194.2000      7.9659      6.9351     12.8322      2.5356      0.0001     40.7669
  1194.3000      7.9621      6.5338     12.0878      2.5422     -0.0056     33.1398
  1194.4000      7.9621      6.0935     11.5390      2.5495      0.0024     26.6742
  1194.5000      7.9577      5.7814     11.3580      2.5546      0.0284     25.3518
  1194.6000      7.9577      5.5255     11.6201      2.5588      0.0074     28.3417
  1194.7000      7.9577      5.7541     12.1437      2.5551      0.0482     32.1192
  1194.8000      7.9548      6.9556     12.5531      2.5352      0.0042     34.7373
  1194.9000      7.9548      8.3241     12.7480      2.5127      0.0081     34.6774
  1195.0000      7.9527      8.8051     12.5667      2.5047     -0.0134     32.5873
  1195.1000      7.9527      8.0626     12.0372      2.5170     -0.0123     32.4645
  1195.2000      7.9527      6.5914     11.8438      2.5412     -0.0006     33.9230
  1195.3000      7.9513      5.4159     12.2792      2.5606      0.0283     32.1564
  1195.4000      7.9513      5.2342     12.7284      2.5636      0.0388     27.7265
  1195.5000      7.9498      6.0347     12.6250      2.5504      0.0282     25.9121
  1195.6000      7.9498      7.2799     12.2213      2.5299     -0.0061     28.8104
  1195.7000      7.9498      8.2634     11.7986      2.5137     -0.0083     33.5051
  1195.8000      7.9506      8.6588     11.5304      2.5071      0.0049     34.8750
  1195.9000      7.9506      8.6695     11.5278      2.5070     -0.0118     30.2134
  1196.0000      7.9531      8.6684     11.6808      2.5070      0.0348     26.4125
  1196.1000      7.9531      8.7170     11.8627      2.5062     -0.0104     30.7071
  1196.2000      7.9531      8.5990     11.9287      2.5081      0.0171     39.8261
  1196.3000      7.9538      8.5391     12.0436      2.5091     -0.0018     45.6920
  1196.4000      7.9538      8.5106     12.2283      2.5096      0.0053     43.8195
  1196.5000      7.9542      8.0176     12.2582      2.5177     -0.0052     36.1028
  1196.6000      7.9542      7.2658     12.2317      2.5301      0.0435     27.6104
  1196.7000      7.9542      6.8728     12.1378      2.5366      0.0297     22.3223
  1196.8000      7.9553      6.8294     12.0136      2.5373      0.0103     20.6265
  1196.9000      7.9553      6.9176     11.9455      2.5359      0.0200     21.2690
  1197.0000      7.9557      6.9291     11.7748      2.5357      0.0254     23.9460
  1197.1000      7.9557      6.5594     11.6069      2.5418      0.0075     27.2451
  1197.2000      7.9557      5.8059     11.7863      2.5542      0.0112     28.0534
  1197.3000      7.9562      5.0059     12.4174      2.5674      0.0485     27.4017
  1197.4000      7.9562      4.8261     12.9058      2.5704      0.0516     28.1523
  1197.5000      7.9566      5.6420     12.9281      2.5569      0.0252     26.8538
  1197.6000      7.9566      6.8671     13.0398      2.5367      0.0216     21.7685
  1197.7000      7.9566      7.5686     13.3628      2.5251     -0.0157     17.6130
  1197.8000      7.9554      7.3274     13.3532      2.5291     -0.0141     17.6326
  1197.9000      7.9554      6.6269     13.1144      2.5407      0.0214     22.4187
  1198.0000      7.9544      6.0814     13.1545      2.5497      0.0277     31.1032
  1198.1000      7.9544      5.1847     13.1267      2.5645      0.0020     40.9749
  1198.2000      7.9544      3.5027     12.6555      2.5922      0.0374     47.1358
  1198.3000      7.9542      2.1340     12.5174      2.6148      0.0689     46.3013
  1198.4000      7.9542      2.4709     13.1287      2.6092      0.0605     43.0896
  1198.5000      7.9543      4.0231     13.6883      2.5836      0.0298     41.3796
  1198.6000      7.9543      4.4705     13.7388      2.5762     -0.0260     37.4740
  1198.7000      7.9543      2.8284     13.6644      2.6033      0.0327     33.9817
  1198.8000      7.9554      0.8045     13.8000      2.6367      0.0695     38.6353
  1198.9000      7.9554     -0.2939     14.2456      2.6548      0.0481     47.0104
  1199.0000      7.9575     -1.4731     14.8839      2.6743      0.0365     50.6018
  1199.1000      7.9575     -3.7245     15.5310      2.7115      0.0506     54.5069
  1199.2000      7.9575     -6.5671     16.1286      2.7584      0.0596     64.3577
  1199.3000      7.9593     -8.8579     16.7581      2.7962      0.0966     75.6199
  1199.4000      7.9593     -9.1770     17.6498      2.8014      0.1423     82.9776
  1199.5000      7.9616     -6.9919     18.7247      2.7654      0.0650     82.8082
  1199.6000      7.9616     -3.6686     19.8171      2.7105     -0.0118     75.4762
  1199.7000      7.9616     -1.3327     20.8102      2.6720     -0.1167     68.3820
  1199.8000      7.9794     -0.9002     21.6148      2.6649     -0.0765     70.1904
  1199.9000      7.9794     -1.2408     22.4381      2.6705     -0.1034     86.5041
  1200.0000      8.0170     -0.7882     23.3679      2.6630     -0.1184    111.1241
  1200.1000      8.0170      0.5707     24.0136      2.6406     -0.1450    127.5184
  1200.2000      8.0170      1.6936     23.8206      2.6221     -0.0987    126.5122
  1200.3000      8.0487      2.0049     23.0574      2.6169      0.0200    115.7891
  1200.4000      8.0487      2.2250     22.8621      2.6133      0.0465    106.6216
  1200.5000      8.0630      2.7979     23.6831      2.6038      0.0054    100.5759
  1200.6000      8.0630      2.9569     24.7612      2.6012     -0.0218     96.7912
  1200.7000      8.0630      2.3664     25.1207      2.6110      0.0237     97.9702
  1200.8000      8.0665      1.8841     24.5332      2.6189      0.0312    102.3372
  1200.9000      8.0665      2.0065     23.6971      2.6169      0.0291    104.6343
  1201.0000      8.0658      2.2861     23.1307      2.6123      0.0056    103.4051
  1201.1000      8.0658      2.3047     22.6981      2.6120      0.0498     99.9245
  1201.2000      8.0658      2.0064     22.3511      2.6169      0.0197     92.4905
  1201.3000      8.0649      1.4128     22.3406      2.6267      0.0298     85.2231
  1201.4000      8.0649      0.9773     22.6426      2.6339      0.0386     86.4077
  1201.5000      8.0650      0.9599     22.8507      2.6342     -0.0026     93.0922
  1201.6000      8.0650      0.5195     22.7557      2.6414     -0.0287     97.7718
  1201.7000      8.0650     -0.5105     22.5787      2.6584      0.0233     99.9692
  1201.8000      8.0657     -0.7401     22.5406      2.6622      0.0374    100.1414
  1201.9000      8.0657     -0.0706     22.7622      2.6512     -0.0619    102.4487
  1202.0000      8.0663      0.0268     23.3355      2.6496      0.0086    110.5765
  1202.1000      8.0663     -0.2978     24.0004      2.6549      0.0413    117.9147
