~Version Information
VERS.                      2.0: CWLS Log ASCII Standard - VERSION 2.0
WRAP.                       NO: One line per depth step
~Well Information Block
STRT.FT                15.0000: 
STOP.FT              2556.5000: 
STEP.FT                 0.2500: 
NULL.                -999.2500: 
COMP.          Pioneer Natural Resources: COMPANY
WELL.              Quack 22-24: WELL
FLD.           Purgatoire River: FIELD
LOC.           2492' FNL & 2459' FWL: LOCATION
PROV.                 Colorado: PROVINCE
CNTY.               Las Animas: COUNTRY
SRVC.                Patterson: SERVICE COMPANY
DATE.          Tue Jul 26 07:02:30 2005: LOG DATE
UWI.           05 071 08402 00: UNIQUE WELL ID
~Curve Information Block
DEPT.FT            0 000 00 00: Depth
GR.GAPI                       : Gamma Ray
CCL.                          : Casing Collar Locator
TT3.usec                      : CBL 3' Travel Time
AMP3.mV                       : CBL 3' Amplitude
~Parameter Information Block
~A  Depth        GR         CCL         TT3         AMP3    
# ...
   852.5000    138.0087      0.0000    693.0463     14.3550
   852.7500    143.2729      0.0000    708.0878     13.8596
   853.0000    148.6475      0.0000    730.2670     13.4557
   853.2500    153.8669      0.0000    756.1215     13.2515
   853.5000    157.8284      0.0000    780.1375     13.3223
   853.7500    159.8677      0.0000    798.0903     13.7157
   854.0000    160.6899      0.0000    808.7531     14.4708
   854.2500    161.5498      0.0000    812.0719     15.6175
   854.5000    162.6906      0.0000    804.8677     17.1536
   854.7500    163.1216      0.0000    778.1338     19.0260
   855.0000    161.8793      0.0000    721.3571     21.1354
   855.2500    159.0304      0.0000    633.6324     23.3707
   855.5000    155.3222      0.0000    530.6720     25.6602
   855.7500    151.2458      0.0000    437.1776     28.0030
   856.0000    146.8504      0.0000    370.5647     30.4436
   856.2500    142.3472      0.0000    332.5331     33.0090
   856.5000    138.3847      0.0000    313.8875     35.6843
   856.7500    135.5570      0.0000    303.7211     38.4404
   857.0000    134.0198      0.0000    294.8577     41.2281
   857.2500    133.7935      0.0000    284.9746     43.8861
   857.5000    135.1598      0.0000    275.4224     46.0711
   857.7500    138.4189      0.0000    268.9434     47.3324
   858.0000    143.1974      0.0000    267.2439     47.3728
   858.2500    148.0665      0.0000    269.6899     46.3407
   858.5000    151.1035      0.0000    273.7678     44.8371
   858.7500    151.2074      0.0000    276.9188     43.4908
   859.0000    148.8623      0.0000    278.1924     42.5276
   859.2500    145.3863      0.0000    278.4561     41.8333
   859.5000    141.6793      0.0000    279.3751     41.2620
   859.7500    138.0002      0.0000    282.1117     40.7117
   860.0000    134.5283      0.0000    286.5081     40.0895
   860.2500    131.5453      0.5342    291.3325     39.4091
   860.5000    129.1532      2.5548    295.4509     38.8297
   860.7500    127.1282      0.7233    298.6606     38.5657
   861.0000    125.1502      0.0000    301.3639     38.8564
   861.2500    123.2653      0.0000    303.6877     39.9252
   861.5000    122.2115      0.0000    304.9858     41.7411
   861.7500    123.1249      0.0000    303.8730     43.8740
   862.0000    126.7543      0.0000    298.8191     45.8596
   862.2500    132.8064      0.0000    289.5177     47.6427
   862.5000    139.8961      0.0000    277.9449     49.4633
   862.7500    146.1592      0.0000    267.3866     51.4326
   863.0000    150.1875      0.0000    260.1147     53.3931
   863.2500    151.5445      0.0000    256.2670     55.0517
   863.5000    150.4975      0.0000    254.6826     56.1073
   863.7500    147.5028      0.0000    254.1809     56.3434
   864.0000    142.9292      0.0000    254.0905     55.7484
   864.2500    136.9704      0.0000    254.1325     54.6081
   864.5000    129.8425      0.0000    254.1978     53.4530
   864.7500    122.2669      0.0000    254.2208     52.8491
   865.0000    115.4381      0.0000    254.1691     53.1340
   865.2500    110.0682      0.0000    254.0549     54.2635
   865.5000    105.7542      0.0000    253.9257     55.8524
   865.7500    101.8131      0.0000    253.8340     57.3731
   866.0000     98.5325      0.0000    253.8080     58.4013
   866.2500     97.2226      0.0000    253.8420     58.7813
   866.5000     99.2061      0.0000    253.9090     58.6274
   866.7500    104.7941      0.0000    253.9811     58.2004
   867.0000    112.7155      0.0000    254.0446     57.7626
   867.2500    120.2516      0.0000    254.1006     57.4806
   867.5000    124.4996      0.0000    254.1572     57.3805
   867.7500    124.3393      0.0000    254.2236     57.3519
   868.0000    121.3955      0.0000    254.3082     57.2102
   868.2500    118.7063      0.0000    254.4146     56.8033
   868.5000    118.1464      0.0000    254.5414     56.0989
   868.7500    119.1767      0.0000    254.6889     55.1794
   869.0000    120.0879      0.0000    254.8688     54.1599
   869.2500    120.1308      0.0000    255.1009     53.1210
   869.5000    120.2004      0.0000    255.3940     52.1054
   869.7500    121.5844      0.0000    255.7358     51.1411
   870.0000    124.3409      0.0000    256.1089     50.2439
   870.2500    127.1010      0.0000    256.5449     49.4058
   870.5000    128.4073      0.0000    257.2149     48.6060
   870.7500    127.8869      0.0000    258.5490     47.8358
   871.0000    126.0406      0.0000    261.2623     47.0972
   871.2500    123.6221      0.0000    266.0276     46.3761
   871.5000    121.5730      0.0000    272.7906     45.6368
   871.7500    120.6521      0.0000    280.3708     44.8670
   872.0000    120.3590      0.0000    287.0276     44.1275
   872.2500    118.9581      0.0000    291.5968     43.5310
   872.5000    115.3904      0.0000    294.0514     43.1420
   872.7500    110.7180      0.0000    295.0963     42.9033
   873.0000    107.1585      0.0000    295.4700     42.6934
   873.2500    106.1566      0.0000    295.5988     42.4706
   873.5000    107.7210      0.0000    295.5954     42.3367
   873.7500    111.0214      0.0000    295.3088     42.4466
   874.0000    115.0167      0.0000    294.2764     42.8787
   874.2500    118.6752      0.0000    291.7179     43.5993
   874.5000    121.2001      0.0000    286.8865     44.5278
   874.7500    122.4258      0.0000    279.8010     45.6089
   875.0000    122.9433      0.0000    271.6889     46.8154
   875.2500    123.5723      0.0000    264.4223     48.0979
   875.5000    124.6164      0.0000    259.3188     49.3648
   875.7500    125.6755      0.0000    256.4969     50.5394
   876.0000    126.1889      0.0000    255.2511     51.6252
   876.2500    126.1996      0.0000    254.7879     52.6793
   876.5000    126.3906      0.0000    254.6213     53.7038
   876.7500    127.0075      0.0000    254.5736     54.5709
   877.0000    126.9370      0.0000    254.6718     55.0432
   877.2500    124.6589      0.0000    255.1319     54.8640
   877.5000    120.3122      0.0000    256.4361     53.8842
   877.7500    116.1045      0.0000    259.3224     52.1684
   878.0000    114.2500      0.0000    264.4131     49.9903
   878.2500    114.9929      0.0000    271.5370     47.6962
   878.5000    116.9264      0.0000    279.4149     45.5240
   878.7500    118.6979      0.0000    286.3178     43.5082
   879.0000    119.8947      0.0000    291.1923     41.5454
   879.2500    120.5002      0.0000    294.0995     39.5710
   879.5000    120.1674      0.0000    295.6956     37.7001
   879.7500    118.5001      0.0000    296.5465     36.2159
   880.0000    115.8929      0.0000    296.9162     35.4182
   880.2500    113.5504      0.0000    296.9214     35.4508
   880.5000    112.6504      0.0000    296.6869     36.2287
   880.7500    113.8059      0.0000    296.3173     37.5060
   881.0000    117.0534      0.0000    295.7372     39.0161
   881.2500    121.7726      0.0000    294.5622     40.5631
   881.5000    126.6688      0.0000    292.2186     42.0172
   881.7500    130.2825      0.0000    288.4817     43.2735
   882.0000    131.6767      0.0000    284.1939     44.2376
   882.2500    130.7217      0.0000    281.2704     44.8387
   882.5000    127.9786      0.0000    281.4040     45.0428
   882.7500    124.5439      0.0000    284.5650     44.8528
   883.0000    121.8855      0.0000    289.1127     44.2784
   883.2500    121.2420      0.0000    293.7138     43.2850
   883.5000    122.6452      0.0000    299.4721     41.7813
   883.7500    124.6208      0.0000    311.1752     39.7023
   884.0000    125.2098      0.0000    336.8544     37.1339
   884.2500    123.4573      0.0000    383.8857     34.3488
   884.5000    120.0920      0.0000    451.8669     31.7107
   884.7500    116.9051      0.0000    528.6021     29.5336
   885.0000    115.3278      0.0000    595.6559     27.9958
   885.2500    115.3662      0.0000    639.1459     27.1470
   885.5000    115.8913      0.0000    654.1190     26.9773
   885.7500    116.0283      0.0000    640.0423     27.4644
