~Version Information
VERS.                      2.0: CWLS Log ASCII Standard - VERSION 2.0
WRAP.                       NO: One line per depth step
~Well Information Block
STRT.FT                -7.0000: 
STOP.FT              2736.0000: 
STEP.FT                 0.2500: 
NULL.                -999.2500: 
COMP.          Pioneer Natural Resources: COMPANY
WELL.              Getem 21-23: WELL
FLD.           Purgatorie River: FIELD
LOC.           2623' FWL & 790' FNL----: LOCATION
PROV.                       CO: PROVINCE
CNTY.               Las Animas: COUNTRY
SRVC.          Patterson Wireline: SERVICE COMPANY
DATE.          Mon Jun 27 09:57:55 2005: LOG DATE
UWI.           05 071 08411 00: UNIQUE WELL ID
~Curve Information Block
DEPT.FT            0 000 00 00: Depth
CCL.                          : Casing Collar Locator
TT3.usec                      : CBL 3' Travel Time
AMP3.mV                       : CBL 3' Amplitude
GR.GAPI                       : Gamma Ray
~Parameter Information Block
~A  Depth       CCL         TT3         AMP3         GR     
# ...
  2338.0000      0.0000    831.0277      5.7276     65.3781
  2338.2500      0.0000    835.3619      5.9400     64.0424
  2338.5000      0.0000    835.3065      6.1708     62.4770
  2338.7500      0.0000    832.4897      6.3654     62.7371
  2339.0000      0.0000    830.1060      6.5064     65.1848
  2339.2500      0.0000    831.7517      6.6420     68.4845
  2339.5000      0.0000    838.5679      6.8473     70.8291
  2339.7500      0.0000    847.6601      7.1841     70.9729
  2340.0000      0.0000    854.2216      7.6842     68.5775
  2340.2500      0.0000    855.2632      8.3284     64.4055
  2340.5000      0.0000    850.6849      9.0271     60.3701
  2340.7500     -2.0000    841.0648      9.6565     58.6975
  2341.0000      0.0000    825.0434     10.1672     60.3539
  2341.2500      0.0000    799.7861     10.6552     64.2729
  2341.5000      0.0000    765.7583     11.2535     68.3872
  2341.7500      0.0000    732.1014     11.9128     71.2525
  2342.0000      0.0000    714.3102     12.3636     72.6033
  2342.2500      0.0000    722.2020     12.3738     72.9302
  2342.5000      0.0000    750.5878     11.9711     73.0578
  2342.7500      0.0000    784.2200     11.3396     73.9006
  2343.0000      0.0000    810.5043     10.6124     76.1732
  2343.2500      0.0000    825.9489      9.8631     80.0948
  2343.5000      0.0000    833.5291      9.1858     84.9848
  2343.7500      0.0000    837.6626      8.6597     89.1338
  2344.0000      0.0000    841.5548      8.2789     90.8159
  2344.2500      0.0000    846.5714      7.9800     89.9635
  2344.5000      0.0000    852.0864      7.7075     88.6317
  2344.7500      0.0000    856.0460      7.4146     89.5122
  2345.0000      0.0000    856.7798      7.0512     93.7413
  2345.2500      0.0000    854.8220      6.6097     99.8289
  2345.5000      0.0000    852.3221      6.1697    104.6904
  2345.7500      0.0000    850.5819      5.8421    106.1014
  2346.0000      0.0000    848.8399      5.6546    104.4681
  2346.2500      0.0000    845.5641      5.5235    102.1459
  2346.5000      0.0000    839.9690      5.3479    101.0170
  2346.7500      0.0000    832.0051      5.1029    100.9998
  2347.0000      0.0000    822.0242      4.8189    100.9320
  2347.2500      0.0000    811.0693      4.5083    100.2699
  2347.5000      0.0000    800.3182      4.1633     99.4308
  2347.7500      0.0000    789.5731      3.8186     98.8513
  2348.0000      0.0000    777.5958      3.5584     98.4406
  2348.2500      0.0000    764.4166      3.4270     98.1378
  2348.5000      0.0000    751.6376      3.3643     98.5292
  2348.7500      0.0000    740.1938      3.2698    100.3141
  2349.0000      0.0000    729.7506      3.1271    103.1236
  2349.2500      0.0000    720.4109      3.0307    105.5174
  2349.5000      0.0000    713.2548      3.0725    106.5676
  2349.7500      0.0000    708.9995      3.2264    107.0170
  2350.0000      0.0000    707.1866      3.3693    108.3530
  2350.2500      0.0000    706.7464      3.4127    110.9723
  2350.5000      0.0000    706.7866      3.3831    113.7661
  2350.7500      0.0000    706.8930      3.3660    115.3062
  2351.0000      0.0000    707.0198      3.3906    114.7657
  2351.2500      0.0000    707.2192      3.4030    111.7491
  2351.5000      0.0000    707.4487      3.3545    106.2756
  2351.7500      0.0000    707.6179      3.2824     99.5921
  2352.0000      0.0000    707.7151      3.2684     94.3343
  2352.2500      0.0000    707.8018      3.3274     92.8638
  2352.5000      0.0000    707.8795      3.3839     95.2785
  2352.7500      0.0000    707.8438      3.3736     99.3185
  2353.0000      0.0000    707.5968      3.3261    102.1484
  2353.2500      0.0000    707.1575      3.3120    102.1991
  2353.5000      0.0000    706.6299      3.3358     99.7132
  2353.7500      0.0000    706.1097      3.3335     95.8997
  2354.0000      0.0000    705.6605      3.2749     91.5210
  2354.2500      0.0000    705.3336      3.2159     86.3743
  2354.5000      0.0000    705.1308      3.2184     80.2843
  2354.7500      0.0000    704.9346      3.2530     74.2389
  2355.0000      0.0000    704.5206      3.2319     70.0350
  2355.2500      0.0000    703.6782      3.1373     68.7917
  2355.5000      0.0000    702.2861      3.0622     69.9466
  2355.7500      0.0000    700.3051      3.0970     71.6318
  2356.0000      0.0000    697.9024      3.2128     72.0057
  2356.2500      0.0000    695.7152      3.3047     70.4001
  2356.5000      0.0000    694.7153      3.3349     67.3491
  2356.7500      0.0000    695.4363      3.3811     63.5986
  2357.0000      0.0000    697.4126      3.5236     59.2870
  2357.2500      0.0000    699.5863      3.7256     54.3197
  2357.5000      0.0000    701.0947      3.8701     49.3943
  2357.7500      0.0000    701.4578      3.8973     46.1169
  2358.0000      0.0000    700.3488      3.8548     45.6971
  2358.2500      0.0000    697.6985      3.8070     47.6931
  2358.5000      0.0000    694.1497      3.7591     50.4490
  2358.7500      0.0000    691.1144      3.7057     52.8244
  2359.0000      0.0000    690.0740      3.6957     55.0824
  2359.2500      0.0000    691.6648      3.7790     57.8978
  2359.5000      0.0000    695.2769      3.9097     60.8613
  2359.7500      0.0000    699.4702      3.9789     62.4910
  2360.0000      0.0000    702.8961      3.9507     61.7951
  2360.2500      0.0000    704.9816      3.9080     59.4214
  2360.5000      0.0000    705.8608      3.9314     56.9349
  2360.7500      0.0000    705.8090      3.9784     55.1915
  2361.0000      0.0000    704.7460      3.9361     53.8251
  2361.2500      0.0000    702.1275      3.7802     52.2793
  2361.5000      0.0000    697.3342      3.6213     50.9135
  2361.7500      0.0000    690.3984      3.5696     50.6700
  2362.0000      0.0000    682.4386      3.5954     51.6385
  2362.2500      0.0000    675.1497      3.5726     52.4679
  2362.5000      0.0000    669.7302      3.4449     51.6795
  2362.7500      0.0000    666.3207      3.2946     49.4002
  2363.0000      0.0000    664.3473      3.2267     47.3607
  2363.2500      0.0000    663.1614      3.2355     47.1344
  2363.5000      0.0000    662.3790      3.2379     48.5443
  2363.7500      0.0000    661.9247      3.2125     49.8525
  2364.0000      0.0000    662.0040      3.2340     49.5459
  2364.2500      0.0000    663.1030      3.3503     47.9669
  2364.5000      0.0000    665.9315      3.4851     47.0330
  2364.7500      0.0000    671.0916      3.5140     48.2272
  2365.0000      0.0000    678.4332      3.4171     50.9779
  2365.2500      0.0000    686.6688      3.3080     53.1600
  2365.5000      0.0000    693.9345      3.2996     53.1267
  2365.7500      0.0000    698.9604      3.3734     51.1458
  2366.0000      0.0000    701.6699      3.4115     48.8323
  2366.2500      0.0000    702.7281      3.3477     47.3654
  2366.5000      0.0000    702.7220      3.2475     46.5568
  2366.7500      0.0000    701.7082      3.2185     45.5776
  2367.0000      0.0000    699.2945      3.2708     44.0689
  2367.2500      0.0000    695.1866      3.3108     42.2980
  2367.5000      0.0000    689.9916      3.2751     40.6526
  2367.7500      0.0000    685.5693      3.2234     39.3461
  2368.0000      0.0000    684.1465      3.2664     38.4684
  2368.2500      0.0000    686.6373      3.4198     38.0095
  2368.5000      0.0000    691.8528      3.5641     37.8745
  2368.7500      0.0000    697.5251      3.5626     38.0955
  2369.0000      0.0000    701.9872      3.4091     38.9746
  2369.2500      0.0000    704.8095      3.2438     40.8382
  2369.5000      0.0000    706.2702      3.2179     43.7470
  2369.7500      0.0000    706.7639      3.3493     47.7295
  2370.0000      0.0000    706.6888      3.5260     53.2406
  2370.2500      0.0000    706.4473      3.6406     60.9063
  2370.5000      0.0000    706.3200      3.6959     70.4775
  2370.7500      0.0000    706.3940      3.7662     80.3955
  2371.0000      0.0000    706.6455      3.8817     88.8824
  2371.2500      0.0000    707.0174      3.9890     95.2984
