~Version Information
VERS.                      2.0: CWLS Log ASCII Standard - VERSION 2.0
WRAP.                       NO: One line per depth step
~Well Information Block
STRT.FT               647.0000: 
STOP.FT              1166.0000: 
STEP.FT                 0.1000: 
NULL.                -999.2500: 
COMP.          Pioneer Natural Resources: COMPANY
WELL.             Linda T 32-3: WELL
FLD.           Purgatoire River: FIELD
LOC.           1350' FNL & 2290' FEL: LOCATION
PROV.                 Colorado: PROVINCE
CNTY.               Las Animas: COUNTRY
SRVC.                Patterson: SERVICE COMPANY
DATE.          Sat Feb 05 08:06:50 2005: LOG DATE
UWI.           05 071 08215 00: UNIQUE WELL ID
~Curve Information Block
DEPT.FT            0 000 00 00: Depth
DCAL.in                       : CDL Caliper
RHOB.g/cc                     : CDL Bulk Density
RHOC.g/cc                     : CDL Density Correction
DPOR.pu                       : CDL Density Porosity
GR.GAPI                       : Gamma Ray
NPOR.pu                       : Neutron Porosity
~Parameter Information Block
~A  Depth       DCAL        RHOB        RHOC        DPOR         GR         NPOR    
# ...
   954.2000      8.0329      2.4766      0.0943     10.5065     65.5528     14.1932
   954.3000      8.0320      2.4713      0.0757     10.8274     69.4461     14.6839
   954.4000      8.0320      2.4600      0.0641     11.5182     71.6185     15.7650
   954.5000      8.0183      2.4558      0.0441     11.7698     71.7278     16.7850
   954.6000      8.0183      2.4636      0.0458     11.2981     72.5032     16.8681
   954.7000      8.0183      2.4721      0.0615     10.7824     74.1441     16.1432
   954.8000      8.0291      2.4772      0.0181     10.4743     73.3297     15.4702
   954.9000      8.0291      2.4954      0.0262      9.3712     71.4067     15.4692
   955.0000      8.0724      2.5339      0.0537      7.0372     73.0808     15.9848
   955.1000      8.0724      2.5735      0.1147      4.6366     76.7475     16.3951
   955.2000      8.0724      2.5925      0.1213      3.4878     79.2213     16.6941
   955.3000      8.0477      2.5918      0.0843      3.5269     82.3353     16.8227
   955.4000      8.0477      2.5883      0.0669      3.7382     84.7968     16.3927
   955.5000      8.0031      2.5909      0.0880      3.5804     82.3158     15.8706
   955.6000      8.0031      2.5945      0.0868      3.3617     76.7508     16.0188
   955.7000      8.0031      2.5937      0.0920      3.4091     72.8705     16.7324
   955.8000      7.9922      2.5861      0.0807      3.8728     73.8168     17.2718
   955.9000      7.9922      2.5654      0.0808      5.1293     80.1727     17.3284
   956.0000      8.0060      2.5353      0.0379      6.9544     85.4773     17.2672
   956.1000      8.0060      2.5149      0.0360      8.1900     84.1842     17.4920
   956.2000      8.0060      2.5144      0.0357      8.2180     81.6906     18.0276
   956.3000      8.0148      2.5216      0.0533      7.7844     82.0662     18.3011
   956.4000      8.0148      2.5218      0.0586      7.7709     81.7711     17.9760
   956.5000      8.0154      2.5141      0.0450      8.2380     78.8903     17.5983
   956.6000      8.0154      2.5025      0.0509      8.9400     75.3235     17.4409
   956.7000      8.0154      2.4931      0.0197      9.5105     73.6378     17.2450
   956.8000      8.0155      2.4890      0.0468      9.7557     74.4767     16.8815
   956.9000      8.0155      2.4830      0.0600     10.1232     75.1020     16.4227
   957.0000      8.0144      2.4686      0.0931     10.9916     74.7976     16.1927
   957.1000      8.0144      2.4481      0.0681     12.2372     76.1124     16.4013
   957.2000      8.0144      2.4281      0.0329     13.4513     78.8904     16.9168
   957.3000      7.9968      2.4215      0.0097     13.8487     78.7661     17.8288
   957.4000      7.9968      2.4344      0.0804     13.0644     75.3109     18.7963
   957.5000      7.9963      2.4527      0.0859     11.9550     74.5576     19.1708
   957.6000      7.9963      2.4617      0.0716     11.4109     80.4096     19.2647
   957.7000      7.9963      2.4601      0.0741     11.5118     87.1031     19.3422
   957.8000      8.0160      2.4541      0.0838     11.8702     87.3074     18.8007
   957.9000      8.0160      2.4499      0.0396     12.1253     83.2034     17.7386
   958.0000      8.0397      2.4439      0.0864     12.4927     81.2511     17.3696
   958.1000      8.0397      2.4296      0.0420     13.3592     81.4304     18.0002
   958.2000      8.0397      2.4126      0.0384     14.3857     81.5981     18.8436
   958.3000      8.0397      2.3996      0.0269     15.1748     83.0272     19.4063
   958.4000      8.0397      2.3933      0.0103     15.5578     84.7445     19.2702
   958.5000      8.0396      2.3963      0.0215     15.3738     82.9195     18.6017
   958.6000      8.0396      2.4070      0.0341     14.7273     78.4398     18.0925
   958.7000      8.0396      2.4212      0.0403     13.8687     76.7945     17.3953
   958.8000      8.0401      2.4355      0.0487     13.0025     78.1629     16.0868
   958.9000      8.0401      2.4445      0.0827     12.4517     79.6728     15.3185
   959.0000      8.0245      2.4417      0.0914     12.6254     82.9408     15.9286
   959.1000      8.0245      2.4295      0.0773     13.3638     86.3280     16.9455
   959.2000      8.0245      2.4216      0.0619     13.8448     84.7797     17.2825
   959.3000      8.0236      2.4286      0.0449     13.4179     79.7074     17.3110
   959.4000      8.0236      2.4514      0.0590     12.0339     77.4566     17.5223
   959.5000      8.0247      2.4834      0.0965     10.0997     78.6384     17.7073
   959.6000      8.0247      2.5155      0.1081      8.1543     78.6012     17.8148
   959.7000      8.0247      2.5437      0.1045      6.4438     75.9743     18.0951
   959.8000      8.0303      2.5591      0.1588      5.5105     74.0084     18.7621
   959.9000      8.0303      2.5505      0.1105      6.0331     75.2831     19.6132
   960.0000      8.0262      2.5325      0.0551      7.1227     77.5472     19.9792
   960.1000      8.0262      2.5258      0.1108      7.5255     78.0963     19.4953
   960.2000      8.0262      2.5250      0.1085      7.5781     77.4860     18.5453
   960.3000      8.0421      2.5240      0.0706      7.6366     75.8467     17.5104
   960.4000      8.0421      2.5307      0.0788      7.2297     76.0450     16.7455
   960.5000      8.0451      2.5388      0.0952      6.7368     81.3777     16.4891
   960.6000      8.0451      2.5364      0.0465      6.8841     88.6379     16.2973
   960.7000      8.0451      2.5333      0.0593      7.0721     93.2432     16.0380
   960.8000      8.0448      2.5397      0.0664      6.6839     94.1030     16.2418
   960.9000      8.0448      2.5472      0.0784      6.2320     92.2087     16.6750
   961.0000      8.0414      2.5440      0.0877      6.4230     89.1497     16.7469
   961.1000      8.0414      2.5317      0.0636      7.1720     85.6962     16.7423
   961.2000      8.0414      2.5227      0.0334      7.7166     81.5673     17.0929
   961.3000      8.0387      2.5195      0.0516      7.9076     79.7364     17.5412
   961.4000      8.0387      2.5170      0.0455      8.0624     84.2500     17.5479
   961.5000      8.0406      2.5245      0.0497      7.6046     91.8404     17.2053
   961.6000      8.0406      2.5455      0.1008      6.3351     94.8724     17.1488
   961.7000      8.0406      2.5622      0.0915      5.3191     92.1948     17.3948
   961.8000      8.0392      2.5673      0.0909      5.0113     89.8326     17.4248
   961.9000      8.0392      2.5675      0.0945      5.0006     90.8939     17.0679
   962.0000      8.0299      2.5684      0.0488      4.9471     90.1758     16.4040
   962.1000      8.0299      2.5754      0.0598      4.5191     82.7118     15.4250
   962.2000      8.0299      2.5879      0.0929      3.7622     73.4304     14.1245
   962.3000      8.0359      2.5980      0.0624      3.1520     70.4212     12.9361
   962.4000      8.0359      2.6045      0.0579      2.7597     73.2632     12.4455
   962.5000      8.0376      2.6115      0.0693      2.3310     74.5790     12.6628
   962.6000      8.0376      2.6203      0.0718      1.8005     70.7657     12.9370
   962.7000      8.0376      2.6320      0.0761      1.0899     67.9665     12.5719
   962.8000      8.0166      2.6411      0.0967      0.5404     70.1730     11.6649
   962.9000      8.0166      2.6332      0.0830      1.0180     72.2482     10.8773
   963.0000      8.0141      2.6142      0.0286      2.1704     71.9957     10.3144
   963.1000      8.0141      2.6059      0.0522      2.6751     71.6800      9.7711
   963.2000      8.0141      2.6116      0.0743      2.3267     71.6256      9.5310
   963.3000      8.0168      2.6180      0.0363      1.9387     71.1862      9.8143
   963.4000      8.0168      2.6140      0.0670      2.1841     70.8008     10.3718
   963.5000      8.0339      2.5982      0.0303      3.1399     71.9732     10.7869
   963.6000      8.0339      2.5747      0.0522      4.5626     74.9987     10.8673
   963.7000      8.0339      2.5450     -0.0078      6.3628     78.6000     10.9080
