~Version Information
VERS.                      2.0: CWLS Log ASCII Standard - VERSION 2.0
WRAP.                       NO: One line per depth step
~Well Information Block
STRT.FT               250.0000: 
STOP.FT              1017.5000: 
STEP.FT                 0.1000: 
NULL.                -999.2500: 
COMP.          Pioneer Natural Resources: COMPANY
WELL.              Oscar 41-31: WELL
FLD.           Purgatoire River: FIELD
LOC.           412' FNL & 1216' FEL: LOCATION
PROV.                 Colorado: PROVINCE
CNTY.               Las Animas: COUNTRY
SRVC.                Patterson: SERVICE COMPANY
DATE.          Thu Feb 24 15:11:09 2005: LOG DATE
UWI.           05 071 08290 00: UNIQUE WELL ID
~Curve Information Block
DEPT.FT            0 000 00 00: Depth
DCAL.in                       : CDL Caliper
RHOB.g/cc                     : CDL Bulk Density
RHOC.g/cc                     : CDL Density Correction
DPOR.pu                       : CDL Density Porosity
GR.GAPI                       : Gamma Ray
NPOR.pu                       : Neutron Porosity
~Parameter Information Block
~A  Depth       DCAL        RHOB        RHOC        DPOR         GR         NPOR    
# ...
   355.6000      7.9015      2.5218      0.0842      7.7705    100.7476     23.9684
   355.7000      7.9015      2.5674      0.0966      5.0040     99.8544     24.5815
   355.8000      7.9011      2.6245      0.1626      1.5467    104.8571     24.4679
   355.9000      7.9011      2.6756      0.1883     -1.5528    111.7350     23.9550
   356.0000      7.9006      2.7034      0.1911     -3.2383    115.6429     23.9262
   356.1000      7.9006      2.7027      0.1627     -3.1952    113.8630     24.6504
   356.2000      7.9006      2.6755      0.1507     -1.5478    109.4426     25.3011
   356.3000      7.9015      2.6330      0.0852      1.0319    105.9347     24.7913
   356.4000      7.9015      2.5984      0.0035      3.1300    101.7954     23.5187
   356.5000      7.9023      2.5852      0.0501      3.9286     96.6009     22.9031
   356.6000      7.9023      2.5773      0.0330      4.4044     95.4930     22.8452
   356.7000      7.9023      2.5618     -0.0137      5.3434     99.8935     22.1343
   356.8000      7.9019      2.5499     -0.0273      6.0684    102.6255     21.3260
   356.9000      7.9019      2.5482      0.0368      6.1669     98.7866     21.6991
   357.0000      7.9015      2.5478      0.0274      6.1962     92.5787     22.5113
   357.1000      7.9015      2.5463      0.0182      6.2848     90.3258     22.2808
   357.2000      7.9015      2.5484      0.0591      6.1602     92.0457     21.3244
   357.3000      7.9021      2.5553      0.0504      5.7391     93.6584     20.9359
   357.4000      7.9021      2.5630      0.0964      5.2736     92.6777     21.3122
   357.5000      7.9027      2.5621      0.0707      5.3263     88.5012     21.8137
   357.6000      7.9027      2.5553      0.0292      5.7392     83.3614     22.1347
   357.7000      7.9027      2.5517      0.0330      5.9581     80.2858     22.3654
   357.8000      7.9023      2.5517      0.0579      5.9592     79.7855     22.3587
   357.9000      7.9023      2.5474      0.0850      6.2167     81.3579     21.8946
   358.0000      7.9014      2.5293      0.0354      7.3132     83.9165     21.4138
   358.1000      7.9014      2.5028     -0.0118      8.9217     83.8902     21.4759
   358.2000      7.9014      2.4832      0.0097     10.1115     79.2437     21.7515
   358.3000      7.8988      2.4803     -0.0209     10.2877     75.5443     21.6228
   358.4000      7.8988      2.4997      0.0264      9.1079     77.9580     21.0169
   358.5000      7.8924      2.5327      0.0824      7.1073     85.0569     20.3615
   358.6000      7.8924      2.5576      0.1033      5.6010     93.5278     20.2330
   358.7000      7.8924      2.5665      0.1343      5.0597    100.1183     20.5196
   358.8000      7.8824      2.5665      0.1249      5.0634    102.4248     20.6584
   358.9000      7.8824      2.5686      0.0765      4.9338    103.0437     20.5965
   359.0000      7.8807      2.5755      0.1632      4.5124    106.7223     20.2510
   359.1000      7.8807      2.5733      0.1238      4.6468    115.7993     20.0833
   359.2000      7.8807      2.5618      0.0845      5.3478    127.3844     20.7728
   359.3000      7.8954      2.5577      0.0829      5.5927    134.5708     21.5772
   359.4000      7.8954      2.5620      0.0986      5.3339    135.5406     21.7296
   359.5000      7.9109      2.5626      0.0647      5.2969    135.3464     21.9967
   359.6000      7.9109      2.5577      0.0912      5.5936    137.8770     23.1515
   359.7000      7.9109      2.5554      0.0850      5.7308    140.5766     24.7536
   359.8000      7.9174      2.5700      0.0419      4.8498    140.1942     25.6319
   359.9000      7.9174      2.6008      0.1115      2.9796    141.0858     25.4955
   360.0000      7.9183      2.6217      0.1120      1.7150    145.7721     25.4060
   360.1000      7.9183      2.6155      0.0715      2.0903    149.8071     25.8671
   360.2000      7.9183      2.5918      0.0666      3.5290    149.9000     26.3281
   360.3000      7.9175      2.5644      0.0785      5.1909    148.3795     26.3846
   360.4000      7.9175      2.5419      0.0518      6.5543    150.5598     26.4471
   360.5000      7.9168      2.5279      0.0469      7.4018    155.5738     26.8166
   360.6000      7.9168      2.5174      0.0582      8.0364    156.4818     26.9812
   360.7000      7.9168      2.5071      0.0053      8.6606    151.7574     26.6829
   360.8000      7.9170      2.4969      0.0029      9.2778    147.4186     26.0827
   360.9000      7.9170      2.4845     -0.0058     10.0325    146.7951     25.4308
   361.0000      7.9178      2.4772      0.0024     10.4740    144.4681     24.9151
   361.1000      7.9178      2.4904      0.0108      9.6732    135.7626     24.2386
   361.2000      7.9178      2.5243      0.0671      7.6179    124.2532     23.0869
   361.3000      7.9204      2.5546      0.1128      5.7837    115.4459     21.8570
   361.4000      7.9204      2.5543      0.1156      5.7976    110.6858     21.1548
   361.5000      7.9231      2.5228      0.0897      7.7117    108.1350     20.9214
   361.6000      7.9231      2.4890      0.0072      9.7564    104.1668     20.5587
   361.7000      7.9231      2.4842      0.0415     10.0514     96.4914     19.7066
   361.8000      7.9223      2.5051      0.0820      8.7846     86.9102     18.7990
   361.9000      7.9223      2.5268      0.0849      7.4683     77.7444     18.1190
   362.0000      7.9199      2.5336      0.1240      7.0540     70.1668     17.3731
   362.1000      7.9199      2.5243      0.1295      7.6183     65.7219     16.6540
   362.2000      7.9199      2.5078      0.0910      8.6164     65.0969     16.1139
   362.3000      7.9187      2.4910      0.0911      9.6357     66.9511     15.7161
   362.4000      7.9187      2.4717      0.0877     10.8052     69.8270     15.6160
   362.5000      7.9183      2.4525      0.0539     11.9671     72.5319     16.0440
   362.6000      7.9183      2.4375      0.0662     12.8797     73.9777     16.8341
   362.7000      7.9183      2.4261      0.0172     13.5701     74.6985     17.4189
   362.8000      7.9186      2.4250      0.0438     13.6377     75.4597     17.5965
   362.9000      7.9186      2.4390      0.0425     12.7853     76.2937     17.6030
   363.0000      7.9208      2.4520      0.0928     12.0026     77.2749     17.2783
   363.1000      7.9208      2.4406      0.0910     12.6937     78.1413     16.7258
   363.2000      7.9208      2.4205     -0.0070     13.9115     78.8361     16.7379
   363.3000      7.9227      2.4240      0.0321     13.6946     79.7665     17.4005
   363.4000      7.9227      2.4431      0.0438     12.5389     80.1049     18.0493
   363.5000      7.9195      2.4537      0.0354     11.8971     80.1501     18.1839
   363.6000      7.9195      2.4555      0.0532     11.7902     82.1715     17.7573
   363.7000      7.9195      2.4633      0.0206     11.3125     84.9694     17.2005
   363.8000      7.9155      2.4779      0.0621     10.4280     85.0249     17.0152
   363.9000      7.9155      2.4840      0.0608     10.0592     82.7875     17.5066
   364.0000      7.9145      2.4808      0.0492     10.2532     83.3396     18.4075
   364.1000      7.9145      2.4790      0.0378     10.3644     88.9312     19.3093
   364.2000      7.9145      2.4777      0.0642     10.4428     95.4756     20.4101
   364.3000      7.9156      2.4729      0.0423     10.7307    100.2727     21.7144
   364.4000      7.9156      2.4747      0.0026     10.6265    103.2255     22.6126
   364.5000      7.9163      2.4911      0.0565      9.6310    106.1690     22.9498
   364.6000      7.9163      2.5174      0.0651      8.0366    113.6773     23.1490
   364.7000      7.9163      2.5493      0.0716      6.1060    123.5436     23.7205
   364.8000      7.9163      2.5728      0.1006      4.6789    129.3582     24.7253
   364.9000      7.9163      2.5645      0.1007      5.1831    130.7116     25.8015
   365.0000      7.9171      2.5276      0.0457      7.4204    131.1932     26.7193
   365.1000      7.9171      2.4980     -0.0444      9.2131    132.5358     27.1604
