~Version Information
VERS.                      2.0: CWLS Log ASCII Standard - VERSION 2.0
WRAP.                       NO: One line per depth step
~Well Information Block
STRT.FT                -9.0000: 
STOP.FT              2130.0000: 
STEP.FT                 0.2500: 
NULL.                -999.2500: 
COMP.          Pioneer Natural Resources: COMPANY
WELL.               King 22-13: WELL
FLD.           Purgatorie River: FIELD
LOC.           2419' FNL & 1806' FWL: LOCATION
PROV.                 Colorado: PROVINCE
CNTY.               Las Animas: COUNTRY
SRVC.                Patterson: SERVICE COMPANY
DATE.          Wed Apr 20 09:20:28 2005: LOG DATE
UWI.           05-071-08318-00: UNIQUE WELL ID
~Curve Information Block
DEPT.FT            0 000 00 00: Depth
CCL.                          : Casing Collar Locator
TT3.usec                      : CBL 3' Travel Time
AMP3.mV                       : CBL 3' Amplitude
GR.GAPI                       : Gamma Ray
~Parameter Information Block
~A  Depth       CCL         TT3         AMP3         GR     
# ...
   426.5000      0.0000   1024.2142      4.4590     78.6217
   426.7500      0.0000    993.0141      4.4576     82.5839
   427.0000      0.0000    942.6086      4.4917     86.1436
   427.2500      0.0000    885.1328      4.5482     89.1270
   427.5000      0.0000    838.0531      4.5929     91.2761
   427.7500      0.0000    812.4256      4.5856     91.8261
   428.0000      0.0000    809.4291      4.4985     90.1548
   428.2500      0.0000    825.4633      4.3269     86.7036
   428.5000      0.0000    858.0839      4.0871     82.9064
   428.7500      0.0000    907.6183      3.8063     80.2765
   429.0000      0.0000    972.9482      3.5107     79.5963
   429.2500      0.0000   1045.8745      3.2179     80.5620
   429.5000      0.0000   1112.4460      2.9340     81.9597
   429.7500      0.0000   1161.6378      2.6593     82.5324
   430.0000      0.0000   1191.6075      2.3995     82.0224
   430.2500      0.0000   1208.0950      2.1728     81.3182
   430.5000      0.0000   1219.1581      2.0049     81.4375
   430.7500      0.0000   1230.9104      1.9147     82.3640
   431.0000      0.0000   1245.7383      1.9067     83.0346
   431.2500      0.0000   1263.5654      1.9711     82.4398
   431.5000      0.0000   1285.1012      2.0893     80.5203
   431.7500      0.0000   1311.7703      2.2405     77.9219
   432.0000      0.0000   1339.9788      2.4086     75.1548
   432.2500      0.0000   1357.5847      2.5867     72.2584
   432.5000      0.0000   1349.4966      2.7738     69.1607
   432.7500      0.0000   1306.2555      2.9693     66.0404
   433.0000      0.0000   1228.1188      3.1709     63.2629
   433.2500      0.0000   1126.5856      3.3736     61.1099
   433.5000      0.0000   1022.9141      3.5697     59.5561
   433.7500      0.0000    938.5588      3.7490     58.2284
   434.0000      0.0000    883.2019      3.9024     56.7420
   434.2500      0.0000    852.6288      4.0251     55.2342
   434.5000      0.0000    836.2036      4.1178     54.3405
   434.7500      0.0000    824.0964      4.1843     54.3939
   435.0000      0.0000    810.8585      4.2262     54.9630
   435.2500      0.0000    796.5485      4.2401     55.6140
   435.5000      0.0000    785.0024      4.2214     56.7877
   435.7500      0.0000    780.0828      4.1696     59.1600
   436.0000      0.0000    783.0705      4.0879     62.2590
   436.2500      0.0000    792.4305      3.9793     64.6720
   436.5000      0.0000    805.2527      3.8446     65.8394
   436.7500      0.0000    820.1063      3.6863     66.8758
   437.0000      0.0000    838.6955      3.5129     69.2751
   437.2500      0.0000    862.1566      3.3390     73.2880
   437.5000      0.0000    884.7565      3.1800     77.8956
   437.7500      0.0000    895.2678      3.0469     81.9450
   438.0000      0.0000    888.0925      2.9428     84.8435
   438.2500      0.0000    870.6533      2.8640     86.4177
   438.5000      0.0000    856.7299      2.8042     86.6632
   438.7500      0.0000    853.9845      2.7564     85.7006
   439.0000      0.0000    859.3660      2.7093     83.8416
   439.2500      0.0000    864.3530      2.6464     81.7447
   439.5000      0.0000    862.9656      2.5549     80.3014
   439.7500      0.0000    856.0417      2.4371     79.9175
   440.0000      0.0000    849.5135      2.3091     79.9007
   440.2500      0.0000    849.1742      2.1906     78.9332
   440.5000      0.0000    856.4072      2.1002     76.2524
   440.7500      0.0000    867.5925      2.0630     72.3750
   441.0000      0.0000    877.1921      2.1176     68.8290
   441.2500      0.0000    882.6526      2.3006     67.2017
   441.5000      0.0000    886.9927      2.6137     68.0743
   441.7500      0.0000    896.2405      3.0048     70.5963
   442.0000      0.0000    915.0619      3.3936     73.2072
   442.2500      0.0000    945.8599      3.7195     74.8082
   442.5000      0.0000    990.4362      3.9659     75.1318
   442.7500      0.0000   1048.1790      4.1461     74.1395
   443.0000      0.0000   1110.8633      4.2750     71.6549
   443.2500      0.0000   1163.1272      4.3501     67.9864
   443.5000      0.0000   1191.9084      4.3484     64.5389
   443.7500      0.0000   1193.6044      4.2404     63.1314
   444.0000      0.0000   1171.5692      4.0069     64.6078
   444.2500      0.0000   1131.5237      3.6480     68.2918
   444.5000      0.0000   1081.1820      3.1898     72.5806
   444.7500      0.0000   1030.9144      2.6926     75.7690
   445.0000      0.0000    991.9219      2.2465     76.6865
   445.2500      0.0000    971.1130      1.9424     75.2829
   445.5000      0.0000    965.3778      1.8407     72.7539
   445.7500      0.0000    963.4176      1.9628     70.8248
   446.0000      0.0000    957.6749      2.2953     70.7255
   446.2500      0.0000    953.4415      2.7797     72.7242
   446.5000      0.0000    960.9699      3.3047     76.4404
   446.7500      0.0000    978.1755      3.7480     81.3803
   447.0000      0.0000    987.9059      4.0492     86.9663
   447.2500      0.0000    975.6248      4.2356     92.0361
   447.5000      0.0000    944.2459      4.3735     94.7290
   447.7500     -5.0000    907.5158      4.5097     93.5322
   448.0000      0.0000    874.4094      4.6572     88.7321
   448.2500      0.0000    845.4286      4.8132     82.5658
   448.5000      0.0000    819.6750      4.9737     77.7141
   448.7500      0.0000    798.6277      5.1385     75.5663
   449.0000      0.0000    783.7784      5.3078     75.6524
   449.2500      0.0000    774.7087      5.4686     76.3067
   449.5000      0.0000    769.8743      5.5875     75.8419
   449.7500      0.0000    767.8756      5.6313     73.5597
   450.0000      0.0000    767.9907      5.5989     70.1150
   450.2500      0.0000    770.2614      5.5240     67.0182
   450.5000      0.0000    774.9607      5.4473     65.5848
   450.7500      0.0000    781.4583      5.3895     66.0657
   451.0000      0.0000    787.6179      5.3493     67.6149
   451.2500      0.0000    791.0270      5.3172     69.0854
   451.5000      0.0000    791.7496      5.2869     69.8839
   451.7500      0.0000    794.3765      5.2556     70.1301
   452.0000      0.0000    807.0665      5.2204     70.1252
   452.2500      0.0000    837.2048      5.1777     69.7680
   452.5000      0.0000    885.5029      5.1274     68.6008
   452.7500      0.0000    942.6154      5.0724     66.4240
   453.0000      0.0000    992.1937      5.0157     63.7318
   453.2500      0.0000   1019.0251      4.9610     61.4577
   453.5000      0.0000   1015.5453      4.9162     60.3617
   453.7500      0.0000    983.0344      4.8904     60.6571
   454.0000      0.0000    930.4274      4.8865     62.0425
   454.2500      0.0000    872.2413      4.9011     63.8595
   454.5000      0.0000    823.1001      4.9318     65.3345
   454.7500      0.0000    790.7551      4.9819     66.1736
   455.0000      0.0000    774.1201      5.0540     67.0716
   455.2500      0.0000    767.4894      5.1418     69.1305
   455.5000      0.0000    765.5546      5.2291     72.5727
   455.7500      0.0000    765.3178      5.3000     76.4410
   456.0000      0.0000    765.5894      5.3478     79.6768
   456.2500      0.0000    766.1302      5.3727     81.9664
   456.5000      0.0000    767.4100      5.3717     83.3450
   456.7500      0.0000    771.4175      5.3361     83.4200
   457.0000      0.0000    783.1050      5.2671     81.4296
   457.2500      0.0000    810.4716      5.1887     77.1462
   457.5000      0.0000    859.3682      5.1334     71.6181
   457.7500      0.0000    923.3358      5.1141     66.7919
   458.0000      0.0000    979.4638      5.1183     64.2902
   458.2500      0.0000   1001.6224      5.1299     64.6176
   458.5000      0.0000    981.5274      5.1436     67.3480
   458.7500      0.0000    933.6362      5.1592     71.5735
   459.0000      0.0000    879.8226      5.1721     76.0994
   459.2500      0.0000    834.4122      5.1747     79.7772
   459.5000      0.0000    802.2126      5.1597     82.2780
   459.7500      0.0000    782.7228      5.1241     84.5962
