~Version Information
VERS.                      2.0: CWLS Log ASCII Standard - VERSION 2.0
WRAP.                       NO: One line per depth step
~Well Information Block
STRT.FT                -2.7500: 
STOP.FT              2141.2500: 
STEP.FT                 0.2500: 
NULL.                -999.2500: 
COMP.          Pioneer Nautural Resources: COMPANY
WELL.             Enzo 43-8 Tr: WELL
FLD.           Purgatorie River: FIELD
LOC.           2303' FSL & 604' FEL--: LOCATION
PROV.                       CO: PROVINCE
CNTY.               Las Animas: COUNTRY
SRVC.                         : SERVICE COMPANY
DATE.          Thu Nov 04 09:01:55 2004: LOG DATE
UWI.            05-071-08213  : UNIQUE WELL ID
~Curve Information Block
DEPT.FT            0 000 00 00: Depth
GR.GAPI                       : Gamma Ray
CCL.                          : Casing Collar Locator
TT3.usec                      : CBL 3' Travel Time
AMP3.mV                       : CBL 3' Amplitude
~Parameter Information Block
~A  Depth        GR         CCL         TT3         AMP3    
# ...
   265.2500     59.9785      0.0000    921.0000     10.2409
   265.5000     62.3598      0.0000    921.0000     10.4243
   265.7500     65.9076      0.0000    921.0000     10.4879
   266.0000     69.3668      0.0000    920.9910     10.4284
   266.2500     71.2205      0.0000    920.9372     10.3106
   266.5000     70.6909      0.0000    920.6755     10.2439
   266.7500     68.3679      0.0000    919.6846     10.3226
   267.0000     65.6482      0.0000    916.8197     10.5664
   267.2500     63.4694      0.0000    910.5407     10.9057
   267.5000     61.7823      0.0000    900.2668     11.2239
   267.7500     60.2927      0.0000    888.0411     11.4221
   268.0000     59.3629      0.0000    878.0110     11.4610
   268.2500     59.7721      0.0000    873.0331     11.3635
   268.5000     61.6273      0.0000    872.1678     11.1918
   268.7500     63.9920      0.0000    872.1712     11.0187
   269.0000     65.8455      0.0000    870.2906     10.9030
   269.2500     66.9606      0.0000    864.6671     10.8745
   269.5000     67.5048      0.0000    853.7660     10.9326
   269.7500     67.3913      0.0000    837.4747     11.0484
   270.0000     66.5902      0.0000    818.3684     11.1671
   270.2500     65.4930      0.0000    800.5964     11.2227
   270.5000     64.3322      0.0000    787.2919     11.1739
   270.7500     62.7048      0.0000    779.1653     11.0344
   271.0000     60.2445      0.0000    775.0548     10.8620
   271.2500     57.4034      0.0000    773.2894     10.7157
   271.5000     55.0315      0.0000    772.6060     10.6249
   271.7500     53.3280      0.0000    772.3156     10.5890
   272.0000     51.6307      0.0000    772.1122     10.5916
   272.2500     49.3120      0.0000    771.8820     10.6125
   272.5000     46.6841      0.0000    771.6211     10.6376
   272.7500     44.8847      0.0000    771.3793     10.6613
   273.0000     44.7877      0.0000    771.2073     10.6811
   273.2500     45.9380      0.0000    771.1201     10.6929
   273.5000     46.7569      0.0000    771.1130     10.6943
   273.7500     46.1328      0.0000    771.2064     10.6865
   274.0000     44.7062      0.0000    771.4858     10.6698
   274.2500     44.2394      0.0000    772.1661     10.6389
   274.5000     45.9037      0.0000    773.7245     10.5867
   274.7500     49.5471      0.0000    776.9525     10.5109
   275.0000     54.3362      0.0000    782.5854     10.4168
   275.2500     59.5211      0.0000    790.5092     10.3177
   275.5000     64.7092      0.0000    799.3149     10.2343
   275.7500     69.9867      0.0000    806.9392     10.1869
   276.0000     75.8773      0.0000    811.8596     10.1840
   276.2500     82.5680      0.0000    813.5416     10.2156
   276.5000     88.7658      0.0000    811.9271     10.2566
   276.7500     91.7911      0.0000    807.0567     10.2780
   277.0000     89.5456      0.0000    799.4683     10.2592
   277.2500     82.5519      0.0000    790.5950     10.1890
   277.5000     73.7736      0.0000    782.1055     10.0514
   277.7500     66.3700      0.0000    774.5043      9.8171
   278.0000     61.6844      0.0000    766.4990      9.4659
   278.2500     59.1584      0.0000    756.2749      9.0402
   278.5000     57.7162      0.0000    744.3163      8.6655
   278.7500     56.8997      0.0000    735.1268      8.4662
   279.0000     56.7319      0.0000    734.6384      8.4264
   279.2500     56.9740      0.0000    744.5782      8.3806
   279.5000     57.0550      0.0000    760.6281      8.1855
   279.7500     56.8506      0.0000    777.5974      7.8649
   280.0000     57.1780      0.0000    794.5573      7.5547
   280.2500     59.0781     -2.0000    812.9142      7.3572
   280.5000     62.6754     -1.7297    831.8372      7.2838
   280.7500     67.1324      0.0000    848.9200      7.3020
   281.0000     71.5768      0.0000    863.7067      7.4115
   281.2500     75.3497      0.0000    876.7667      7.6829
   281.5000     77.3673      0.0000    885.9943      8.1993
   281.7500     76.3859      0.0000    887.3651      8.9185
   282.0000     72.3782      0.0000    879.5679      9.6271
   282.2500     66.9617      0.0000    865.5642     10.1015
   282.5000     62.1809      0.0000    849.2973     10.3018
   282.7500     59.3833      0.0000    832.9575     10.3599
   283.0000     59.1856      0.0000    818.6533     10.4126
   283.2500     61.6458      0.0000    810.7810     10.4986
   283.5000     66.0410      0.0000    814.1516     10.5850
   283.7500     70.9386      0.0000    829.5716     10.6390
   284.0000     74.9710      0.0000    852.4127     10.6590
   284.2500     77.5071      0.0000    875.7852     10.6608
   284.5000     78.5177      0.0000    894.4893     10.6546
   284.7500     78.0540      0.0000    906.1228     10.6409
   285.0000     76.0392      0.0000    909.6144     10.6254
   285.2500     72.5408      0.0000    903.6992     10.6226
   285.5000     68.2461      0.0000    887.2481     10.6354
   285.7500     64.5282      0.0000    861.4617     10.6390
   286.0000     62.5280      0.0000    831.3138     10.5994
   286.2500     61.9077      0.0000    803.6118     10.5092
   286.5000     60.9860      0.0000    783.1265     10.3964
   286.7500     58.6161      0.0000    770.8362     10.3052
   287.0000     55.6210      0.0000    765.1870     10.2721
   287.2500     53.9278      0.0000    763.7142     10.3034
   287.5000     54.5519      0.0000    763.7949     10.3611
   287.7500     56.7641      0.0000    763.4340     10.3803
   288.0000     58.8054      0.0000    762.0987     10.3144
   288.2500     59.0634      0.0000    760.5215     10.1662
   288.5000     57.0847      0.0000    759.6121      9.9734
   288.7500     53.9778      0.0000    759.8701      9.7722
   289.0000     51.6518      0.0000    761.6663      9.5722
   289.2500     51.3877      0.0000    765.4800      9.3569
   289.5000     53.0901      0.0000    771.9250      9.1100
   289.7500     55.8579      0.0000    781.8383      8.8456
   290.0000     59.0997      0.0000    795.5657      8.6120
   290.2500     62.8792      0.0000    811.2520      8.4550
   290.5000     67.2058      0.0000    824.6114      8.3728
   290.7500     71.4895      0.0000    831.8536      8.3073
   291.0000     74.8879      0.0000    832.7999      8.1866
   291.2500     76.7238      0.0000    830.4075      7.9844
   291.5000     76.4616      0.0000    827.8367      7.7346
   291.7500     73.9149      0.0000    826.8106      7.4930
   292.0000     69.9213      0.0000    828.2425      7.2905
   292.2500     66.5850      0.0000    833.1752      7.1248
   292.5000     66.2842      0.0000    842.2084      6.9849
   292.7500     69.9312      0.0000    853.8298      6.8732
   293.0000     75.9983      0.0000    864.3618      6.8016
   293.2500     81.6263      0.0000    871.1331      6.7713
   293.5000     85.1873      0.0000    875.6562      6.7637
   293.7500     87.6220      0.0000    882.0262      6.7521
   294.0000     90.9569      0.0000    892.0328      6.7192
   294.2500     95.8257      0.0000    903.3174      6.6658
   294.5000    100.8028      0.0000    912.3371      6.6057
   294.7500    103.9154      0.0000    917.5956      6.5545
   295.0000    104.4606      0.0000    919.7897      6.5183
   295.2500    103.4880      0.0000    920.1499      6.4909
   295.5000    102.8717      0.0000    919.3453      6.4601
   295.7500    103.8179      0.0000    917.5184      6.4157
   296.0000    106.0029      0.0000    914.8448      6.3563
   296.2500    108.1958      0.0000    911.9225      6.2919
   296.5000    109.7347      0.0000    909.6568      6.2396
   296.7500    111.1741      0.0000    908.8160      6.2144
   297.0000    113.4327      0.0000    909.6693      6.2222
   297.2500    116.6401      0.0000    911.8585      6.2603
   297.5000    119.9886      0.0000    914.4988      6.3192
   297.7500    122.3717      0.0000    916.5793      6.3836
   298.0000    122.7820      0.0000    917.5619      6.4378
   298.2500    120.4780      0.0000    917.7081      6.4733
   298.5000    115.5816      0.0000    917.7623      6.4924
