~Version Information
VERS.                      2.0: CWLS Log ASCII Standard - VERSION 2.0
WRAP.                       NO: One line per depth step
~Well Information Block
STRT.FT               -14.0000: 
STOP.FT              2531.7500: 
STEP.FT                 0.2500: 
NULL.                -999.2500: 
COMP.          Petrogulf Corporation: COMPANY
WELL.            Lavedure 7-44: WELL
FLD.           Purgatorie River: FIELD
LOC.           969' FSL & 501' FEL--: LOCATION
PROV.                       CO: PROVINCE
CNTY.               Las Animas: COUNTRY
SRVC.          Patterson Wireline: SERVICE COMPANY
DATE.          Wed Dec 10 09:23:08 2003: LOG DATE
UWI.                          : UNIQUE WELL ID
~Curve Information Block
DEPT.FT            0 000 00 00: Depth
CCL.                          : Casing Collar Locator
TT3.usec                      : CBL 3' Travel Time
AMP3.mV                       : CBL 3' Amplitude
GR.GAPI                       : Gamma Ray
~Parameter Information Block
~A  Depth       CCL         TT3         AMP3         GR     
# ...
   656.0000      0.0000    265.7507     71.4030    121.2935
   656.2500      0.0000    265.7681     71.5292    117.8445
   656.5000      0.0000    265.7809     71.6634    115.9632
   656.7500      0.0000    265.7900     71.7908    115.0485
   657.0000      0.0000    265.8003     71.8870    114.0970
   657.2500      0.0000    265.8197     71.9424    112.5739
   657.5000      0.0000    265.8566     71.9552    110.8111
   657.7500      0.0000    265.9171     71.9082    109.5444
   658.0000      0.0000    266.0011     71.7682    109.1843
   658.2500      0.0000    266.0981     71.5150    109.5437
   658.5000      0.0000    266.1896     71.1705    109.9524
   658.7500      0.0000    266.2579     70.7937    109.3785
   659.0000      0.0000    266.2957     70.4454    106.8608
   659.2500      0.0000    266.3046     70.1573    102.3700
   659.5000      0.0000    266.2887     69.9382     97.1331
   659.7500      0.0000    266.2494     69.8075     92.7825
   660.0000      0.0000    266.1884     69.8132     90.2894
   660.2500      0.0000    266.1138     70.0021     89.8059
   660.5000      0.0000    266.0410     70.3624     91.1916
   660.7500      0.0000    265.9876     70.8069     94.3358
   661.0000      0.0000    265.9659     71.2188     99.0297
   661.2500      0.0000    265.9783     71.5135    104.7529
   661.5000      0.0000    266.0187     71.6641    110.6767
   661.7500      0.0000    266.0750     71.6904    115.7819
   662.0000      0.0000    266.1304     71.6385    118.9391
   662.2500      0.0000    266.1665     71.5638    119.1686
   662.5000      0.0000    266.1730     71.5171    116.2863
   662.7500      0.0000    266.1543     71.5332    111.4518
   663.0000      0.0000    266.1265     71.6195    106.7351
   663.2500      0.0000    266.1063     71.7493    103.7503
   663.5000      0.0000    266.1062     71.8702    102.6567
   663.7500      0.0000    266.1337     71.9290    102.3833
   664.0000      0.0000    266.1907     71.9014    101.6181
   664.2500      0.0000    266.2702     71.8080     99.6464
   664.5000      0.0000    266.3552     71.7060     96.5363
   664.7500      0.0000    266.4240     71.6556     92.8123
   665.0000      0.0000    266.4608     71.6824     89.1587
   665.2500      0.0000    266.4639     71.7675     86.3233
   665.5000      0.0000    266.4425     71.8726     84.9051
   665.7500      0.0000    266.4077     71.9680     85.1035
   666.0000      0.0000    266.3672     72.0390     86.8679
   666.2500      0.0000    266.3253     72.0739     90.0147
   666.5000      0.0000    266.2860     72.0579     93.7318
   666.7500      0.0000    266.2582     71.9686     96.3773
   667.0000      0.0000    266.2717     71.7461     96.4848
   667.2500      0.0000    266.4312     71.2051     93.9850
   667.5000      0.0000    267.0301     69.9172     90.3272
   667.7500      0.0000    268.6554     67.2537     87.6829
   668.0000      0.0000    272.0459     62.7703     87.7902
   668.2500      0.0000    277.4453     56.7466     90.6701
   668.5000      0.0000    283.7647     50.3127     94.3384
   668.7500      0.0000    288.6472     44.8933     96.6404
   669.0000      0.0000    290.0262     41.4056     97.5828
   669.2500      0.0000    287.8462     39.8723     99.2254
   669.5000      0.0000    283.9719     39.6734    103.3001
   669.7500      2.0000    280.4856     40.0950    109.6230
   670.0000      1.9812    278.4055     40.7129    116.7526
   670.2500      0.0000    277.8344     41.4377    123.3343
   670.5000      0.0000    278.5842     42.4272    128.5044
   670.7500      0.0000    280.1946     44.0306    131.6136
   671.0000      0.0000    281.5767     46.6422    132.2528
   671.2500      0.0000    281.3199     50.3283    130.5654
   671.5000      0.0000    278.8098     54.5486    127.0767
   671.7500      0.0000    274.8786     58.4430    122.2351
   672.0000      0.0000    271.0707     61.4484    116.5283
   672.2500      0.0000    268.4117     63.5349    110.9408
   672.5000      0.0000    266.9930     64.9488    106.8098
   672.7500      0.0000    266.3982     65.9200    105.1262
   673.0000      0.0000    266.2054     66.5737    106.0790
   673.2500      0.0000    266.1721     66.9518    109.1435
   673.5000      0.0000    266.1960     67.0614    113.4727
   673.7500      0.0000    266.2371     66.9177    118.3371
   674.0000      0.0000    266.2679     66.5725    123.3564
   674.2500      0.0000    266.2681     66.1212    128.2892
   674.5000      0.0000    266.2291     65.7069    132.5831
   674.7500      0.0000    266.1602     65.4872    135.3299
   675.0000      0.0000    266.0863     65.5563    135.8049
   675.2500      0.0000    266.0371     65.8704    134.1469
   675.5000      0.0000    266.0318     66.2511    131.5873
   675.7500      0.0000    266.0654     66.4878    129.8483
   676.0000      0.0000    266.1095     66.4682    130.0136
   676.2500      0.0000    266.1305     66.2449    131.9795
   676.5000      0.0000    266.1120     65.9978    134.9720
   676.7500      0.0000    266.0647     65.9202    138.2290
   677.0000      0.0000    266.0179     66.0970    141.0554
   677.2500      0.0000    266.0011     66.4484    142.6692
   677.5000      0.0000    266.0247     66.7834    142.4803
   677.7500      0.0000    266.0737     66.9220    140.5113
   678.0000      0.0000    266.1175     66.7984    137.4709
   678.2500      0.0000    266.1288     66.4919    134.4332
   678.5000      0.0000    266.0981     66.1838    132.3034
   678.7500      0.0000    266.0381     66.0620    131.2871
   679.0000      0.0000    265.9779     66.2091    130.7630
   679.2500      0.0000    265.9489     66.5480    129.8215
   679.5000      0.0000    265.9660     66.8901    128.0007
   679.7500      0.0000    266.0178     67.0515    125.5592
   680.0000      0.0000    266.0721     66.9510    123.1380
   680.2500      0.0000    266.0983     66.6411    121.1848
   680.5000      0.0000    266.0847     66.2744    119.7067
   680.7500      0.0000    266.0400     66.0258    118.5151
   681.0000      0.0000    265.9855     65.9967    117.5321
   681.2500      0.0000    265.9461     66.1478    116.7243
   681.5000      0.0000    265.9410     66.3225    115.7967
   681.7500      0.0000    265.9716     66.3544    114.1680
   682.0000      0.0000    266.0169     66.1785    111.4468
   682.2500      0.0000    266.0452     65.8659    107.9510
   682.5000      0.0000    266.0394     65.5619    104.5826
   682.7500      0.0000    266.0109     65.3707    101.8658
   683.0000      0.0000    265.9856     65.2816     99.2342
   683.2500      0.0000    265.9779     65.2031     95.7683
   683.5000      0.0000    265.9832     65.0646     91.4593
   683.7500      0.0000    265.9942     64.8734     87.1794
   684.0000      0.0000    266.0145     64.6737     83.6697
   684.2500      0.0000    266.0521     64.4732     81.1409
   684.5000      0.0000    266.1031     64.2434     79.6560
   684.7500      0.0000    266.1496     63.9927     79.2572
   685.0000      0.0000    266.1775     63.7903     79.6589
   685.2500      0.0000    266.1907     63.6890     80.2397
   685.5000      0.0000    266.2056     63.6439     80.5711
   685.7500      0.0000    266.2306     63.5448     80.8559
   686.0000      0.0000    266.2579     63.3359     81.7632
   686.2500      0.0000    266.2761     63.0904     83.8707
   686.5000      0.0000    266.2879     62.9497     87.2660
   686.7500      0.0000    266.3112     62.9850     91.5212
   687.0000      0.0000    266.3611     63.1240     95.8629
   687.2500      0.0000    266.4304     63.2169     99.5014
   687.5000      0.0000    266.4906     63.1675    102.0979
   687.7500      0.0000    266.5185     62.9979    103.8945
   688.0000      0.0000    266.5331     62.7845    105.1671
   688.2500      0.0000    266.6501     62.5030    105.7711
   688.5000      0.0000    267.1760     61.9046    105.6589
   688.7500      0.0000    268.7340     60.5471    105.4611
   689.0000      0.0000    272.2142     58.0007    105.7946
   689.2500      0.0000    278.2174     54.1373    106.2271
