~Version Information
 VERS.                                  2.0 : CWLS LAS VERSION
 WRAP.                                   NO : WRAPING MODE
 SWARE .                 MController 2.5.0N : SOFTWARE VERSION
~Well Information
 WELL.                       Guajardo 24-18 : WELL
 COMP.    Pioneer Natural Resources USA Inc : COMPANY
 FLD.                      Purgatoire River : FIELD
 LOC.                SE/SW Sec 18 T32S R65W : LOCATION
 DATE.                           8/4-5/2005 : DATE(S) LOGGED
 SRVC.       BLANCO Geological Services LLC : SERVICE COMPANY
 STAT.                                   CO : STATE
 CNTY.                           Las Animas : COUNTY
 CTRY.                                  USA : COUNTRY
 API.                       05-071-08377-00 : API NUMBER
 STRT.FT                             541.00 : START DEPTH
 STOP.FT                            1855.00 : STOP DEPTH
 STEP.FT                               1.00 : DEPTH INCREMENT
 NULL.                                -9999 : NULL VALUE
~Curve information
 DEPTH.FT                                   :
 ROP.MIN/FT                                 :
 GAS.UNITS                                  :
~ASCII Log data
# ...
       741.0         0.40          2.7 
       742.0         0.20          2.5 
       743.0         0.40          2.8 
       744.0         0.20          2.6 
       745.0         0.20          2.9 
       746.0         0.20          2.8 
       747.0         0.40          2.8 
       748.0         0.18          3.0 
       749.0         0.40          2.5 
       750.0         0.20          2.9 
       751.0         0.40          2.5 
       752.0         0.40          2.6 
       753.0         0.20          2.6 
       754.0         0.20          2.6 
       755.0         0.20          2.5 
       756.0         0.40          3.0 
       757.0         0.20          3.0 
       758.0         0.20          2.6 
       759.0         0.20          3.0 
       760.0         0.22          2.7 
       761.0         0.20          2.9 
       762.0         0.40          2.7 
       763.0         0.40          2.7 
       764.0         0.20          2.6 
       765.0         0.20          2.9 
       766.0         0.27          2.1 
       767.0         0.27          2.1 
       768.0         0.27          2.2 
       769.0         0.27          2.3 
       770.0         0.28          2.1 
       771.0         0.27          2.3 
       772.0         0.27          2.3 
       773.0         0.27          2.1 
       774.0         0.27          2.3 
       775.0         0.27          2.0 
       776.0         0.27          2.2 
       777.0         0.27          2.2 
       778.0         0.27          2.3 
       779.0         0.27          1.9 
       780.0         0.27          2.1 
       781.0         0.27          2.0 
       782.0         0.27          2.2 
       783.0         0.28          2.3 
       784.0         0.27          2.4 
       785.0         0.27          2.2 
       786.0         0.27          2.3 
       787.0         0.27          2.0 
       788.0         0.27          2.1 
       789.0         0.27          2.3 
       790.0         0.27          1.9 
       791.0         0.27          2.1 
       792.0         0.27          2.0 
       793.0         0.27          2.2 
       794.0         0.27          2.1 
       795.0         0.28          2.1 
       796.0         0.27          2.1 
       797.0         0.27          2.3 
       798.0         0.27          2.5 
       799.0         0.27          2.5 
       800.0         0.27          2.6 
       801.0         0.27          2.1 
       802.0         0.27          2.0 
       803.0         0.27          2.0 
       804.0         0.27          2.6 
       805.0         0.27          2.2 
       806.0         0.30          2.8 
       807.0         0.28          2.4 
       808.0         0.27          2.4 
       809.0         0.27          2.4 
       810.0         0.27          2.4 
       811.0         0.27          2.4 
       812.0         0.27          2.5 
       813.0         0.53          3.0 
       814.0         0.27          2.6 
       815.0         0.27          2.4 
       816.0         0.27          2.7 
       817.0         0.53          2.4 
       818.0         0.28          2.6 
       819.0         0.27          2.8 
       820.0         0.27          2.4 
       821.0         0.27          2.7 
       822.0         0.27          2.6 
       823.0         0.27          2.9 
       824.0         0.27          2.4 
       825.0         0.27          2.7 
       826.0         0.53          2.5 
       827.0         0.27          2.4 
       828.0         0.27          2.3 
       829.0         0.28          2.8 
       830.0         0.27          2.6 
       831.0         0.50          2.4 
       832.0         0.10          2.6 
       833.0         0.20          2.7 
       834.0         0.40          2.4 
       835.0         0.40          2.4 
       836.0         0.20          2.7 
       837.0         0.40          2.5 
       838.0         0.40          2.6 
       839.0         0.42          2.4 
       840.0         0.20          3.1 
       841.0         0.20          2.6 
       842.0         0.40          2.6 
       843.0         0.20          2.9 
       844.0         0.40          3.0 
       845.0         0.40          3.0 
       846.0         0.40          2.8 
       847.0         0.20          2.8 
       848.0         0.40          2.8 
       849.0         0.40          2.8 
       850.0         0.18          2.8 
       851.0         0.40          2.8 
       852.0         0.20          3.0 
       853.0         0.40          2.5 
       854.0         0.20          2.5 
       855.0         0.40          2.7 
       856.0         0.20          2.5 
       857.0         0.40          2.8 
       858.0         0.20          2.6 
       859.0         0.20          2.9 
       860.0         0.20          2.8 
       861.0         0.40          2.8 
       862.0         0.18          3.0 
       863.0         0.40          2.5 
       864.0         0.20          2.9 
       865.0         0.40          2.5 
       866.0         0.40          2.6 
       867.0         0.20          2.6 
       868.0         0.20          2.6 
       869.0         0.20          2.5 
       870.0         0.40          3.0 
       871.0         0.20          3.0 
       872.0         0.20          2.6 
       873.0         0.20          3.0 
       874.0         0.22          2.7 
       875.0         0.20          2.9 
       876.0         0.40          2.7 
       877.0         0.40          2.7 
       878.0         0.20          2.6 
       879.0         0.20          2.9 
       880.0         0.40          2.5 
       881.0         0.40          2.7 
       882.0         0.20          2.6 
       883.0         0.40          2.8 
       884.0         0.20          2.5 
       885.0         0.20          2.5 
       886.0         0.38          2.6 
       887.0         0.20          2.9 
       888.0         0.20          2.5 
       889.0         0.20          2.6 
       890.0         0.20          2.6 
       891.0         0.20          2.3 
       892.0         0.20          2.3 
       893.0         0.20          2.7 
       894.0         0.20          2.5 
       895.0         0.20          2.3 
       896.0         0.40          2.3 
       897.0         0.20          2.5 
       898.0         0.40          2.2 
       899.0         0.38          2.3 
       900.0         0.40          2.6 
       901.0         0.20          2.7 
       902.0         0.40          2.6 
       903.0         0.20          2.4 
       904.0         0.20          2.5 
       905.0         0.40          2.7 
       906.0         0.20          2.5 
       907.0         0.40          2.7 
       908.0         0.20          2.6 
       909.0         0.20          2.7 
       910.0         0.20          2.5 
       911.0         0.42          2.5 
       912.0         0.20          2.8 
       913.0         0.40          2.5 
       914.0         0.20          2.6 
       915.0         0.20          2.5 
       916.0         0.40          3.2 
       917.0         0.07          4.8 
       918.0         0.27         19.2 
       919.0         0.27         34.8 
       920.0         0.20         42.9 
       921.0         0.33         50.7 
       922.0         0.33         56.0 
       923.0         0.20         58.2 
       924.0         0.38         60.6 
       925.0         0.20         60.8 
       926.0         0.20         61.0 
       927.0         0.23         61.7 
       928.0         0.20         62.9 
       929.0         0.40         64.8 
       930.0         0.40         65.9 
       931.0         0.40         65.0 
       932.0         0.20         65.0 
       933.0         0.37         68.0 
       934.0         0.20         69.2 
       935.0         0.18         69.1 
       936.0         0.20         68.1 
       937.0         0.20         67.2 
       938.0         0.20         66.8 
       939.0         0.20         66.4 
       940.0         0.20         65.5 
