~Version Information
VERS.                      2.0: CWLS Log ASCII Standard - VERSION 2.0
WRAP.                       NO: One line per depth step
~Well Information Block
STRT.FT               480.0000: 
STOP.FT              1629.0000: 
STEP.FT                 0.2500: 
NULL.                -999.2500: 
COMP.          Pioneer Natural Resources: COMPANY
WELL.          Dude Canyon 22-32 Tr: WELL
FLD.           Purgatoire River: FIELD
LOC.           1741' FNL & 2331' FWL: LOCATION
PROV.                 Colorado: PROVINCE
CNTY.               Las Animas: COUNTRY
SRVC.                Patterson: SERVICE COMPANY
DATE.          Sat Jul 09 01:36:28 2005: LOG DATE
UWI.           05 071 08421 00: UNIQUE WELL ID
~Curve Information Block
DEPT.FT            0 000 00 00: Depth
SN.Ohm-m                      : IEL Short Normal
SP.mV                         : IEL Spontaneous Potential
DIR.Ohm-m                     : IEL Induction Resistivity
GR.GAPI                       : Gamma Ray
~Parameter Information Block
~A  Depth        SN          SP         DIR          GR     
# ...
   982.5000     24.7792    -94.2810     21.6263    110.7771
   982.7500     28.2131    -94.5885     22.5637    111.0772
   983.0000     31.5591    -94.8072     23.5257    111.9237
   983.2500     34.2483    -94.9148     24.4338    112.0304
   983.5000     35.9615    -94.9182     25.2017    111.7573
   983.7500     36.5978    -94.8501     25.7606    111.9042
   984.0000     36.2913    -94.7516     26.0795    113.3208
   984.2500     35.4059    -94.6520     26.1720    115.0110
   984.5000     34.3120    -94.5597     26.0837    118.1734
   984.7500     33.1606    -94.4688     25.8703    120.5121
   985.0000     31.9224    -94.3697     25.5767    124.3847
   985.2500     30.5762    -94.2580     25.2292    127.2028
   985.5000     29.1936    -94.1373     24.8409    131.2814
   985.7500     27.8530    -94.0180     24.4235    133.3208
   986.0000     26.4911    -93.9130     23.9970    134.5675
   986.2500     24.9493    -93.8317     23.5928    134.2541
   986.5000     23.2253    -93.7765     23.2455    132.9247
   986.7500     21.5612    -93.7430     22.9794    131.9282
   987.0000     20.2585    -93.7245     22.7990    130.6399
   987.2500     19.5353    -93.7164     22.6924    130.0996
   987.5000     19.5244    -93.7148     22.6440    130.0081
   987.7500     20.2183    -93.7128     22.6449    130.1528
   988.0000     21.3742    -93.6973     22.6923    129.1718
   988.2500     22.6096    -93.6540     22.7832    126.6655
   988.5000     23.7076    -93.5766     22.9132    119.6095
   988.7500     24.7164    -93.4720     23.0820    113.7749
   989.0000     25.6664    -93.3549     23.2971    106.7882
   989.2500     26.4362    -93.2357     23.5686    105.0364
   989.5000     26.9723    -93.1113     23.8924    107.5051
   989.7500     27.3883    -92.9657     24.2331    111.7630
   990.0000     27.7955    -92.7793     24.5183    119.7046
   990.2500     28.1259    -92.5389     24.6576    124.5277
   990.5000     28.1523    -92.2459     24.5840    128.9884
   990.7500     27.7260    -91.9214     24.2878    129.6538
   991.0000     26.8982    -91.6062     23.8156    128.0197
   991.2500     25.7346    -91.3473     23.2324    126.2716
   991.5000     24.2360    -91.1741     22.5837    124.4403
   991.7500     22.5512    -91.0813     21.8852    124.2976
   992.0000     21.0104    -91.0361     21.1389    125.5431
   992.2500     19.8347    -91.0028     20.3564    126.6468
   992.5000     18.9980    -90.9657     19.5741    127.1429
   992.7500     18.3840    -90.9314     18.8482    126.3021
   993.0000     17.8994    -90.9185     18.2349    124.3688
   993.2500     17.4744    -90.9457     17.7666    123.9302
   993.5000     17.1044    -91.0258     17.4373    126.0792
   993.7500     16.8483    -91.1634     17.2080    129.0884
   994.0000     16.7298    -91.3557     17.0278    133.6128
   994.2500     16.7187    -91.5970     16.8596    135.1507
   994.5000     16.7962    -91.8826     16.6940    134.3062
   994.7500     16.9514    -92.2063     16.5471    132.1071
   995.0000     17.1685    -92.5539     16.4465    127.4393
   995.2500     17.4259    -92.8994     16.4153    123.6810
   995.5000     17.6742    -93.2129     16.4612    117.4941
   995.7500     17.8854    -93.4768     16.5755    113.7160
   996.0000     18.0680    -93.6964     16.7413    110.3245
   996.2500     18.1815    -93.8929     16.9447    110.3526
   996.5000     18.1113    -94.0861     17.1775    113.9930
   996.7500     17.7788    -94.2768     17.4282    118.2088
   997.0000     17.2936    -94.4404     17.6720    125.4492
   997.2500     16.9242    -94.5346     17.8726    129.8383
   997.5000     16.8427    -94.5201     17.9958    134.5533
   997.7500     16.9752    -94.3833     18.0253    136.2858
   998.0000     17.1480    -94.1456     17.9728    137.4046
   998.2500     17.2209    -93.8532     17.8777    137.7237
   998.5000     17.1134    -93.5589     17.7968    138.0711
   998.7500     16.9167    -93.3058     17.7868    138.2245
   999.0000     16.8503    -93.1206     17.8873    138.3095
   999.2500     17.0109    -93.0117     18.1138    138.3010
   999.5000     17.3210    -92.9684     18.4606    138.1960
   999.7500     17.6618    -92.9662     18.9109    138.0215
  1000.0000     17.9163    -92.9810     19.4415    137.3988
  1000.2500     18.0009    -93.0066     20.0236    136.5385
  1000.5000     17.9706    -93.0574     20.6265    134.4569
  1000.7500     18.0882    -93.1521     21.2283    132.7769
  1001.0000     18.7879    -93.2918     21.8269    130.3259
  1001.2500     20.4919    -93.4566     22.4384    128.6787
  1001.5000     23.2989    -93.6200     23.0862    125.4993
  1001.7500     26.7363    -93.7659     23.7948    122.7100
  1002.0000     29.9072    -93.8887     24.5928    118.3382
  1002.2500     32.0848    -93.9816     25.5089    116.2002
  1002.5000     33.1466    -94.0291     26.5501    115.3237
  1002.7500     33.4364    -94.0142     27.6710    116.4864
  1003.0000     33.4190    -93.9300     28.7612    120.4116
  1003.2500     33.4353    -93.7868     29.6672    123.7198
  1003.5000     33.5532    -93.6073     30.2477    127.7619
  1003.7500     33.6263    -93.4148     30.4262    129.0273
  1004.0000     33.5277    -93.2234     30.2095    129.3067
  1004.2500     33.2056    -93.0340     29.6729    129.5849
  1004.5000     32.5538    -92.8402     28.9337    131.4803
  1004.7500     31.4501    -92.6425     28.1271    133.4309
  1005.0000     29.8849    -92.4609     27.3747    135.9362
  1005.2500     27.9443    -92.3332     26.7481    136.8129
  1005.5000     25.8006    -92.2963     26.2469    137.0620
  1005.7500     23.7762    -92.3640     25.8085    136.8552
  1006.0000     22.2298    -92.5176     25.3541    136.4853
  1006.2500     21.2688    -92.7153     24.8436    136.3584
  1006.5000     20.6831    -92.9138     24.3020    136.2419
  1006.7500     20.2480    -93.0865     23.7934    135.8621
  1007.0000     19.9705    -93.2313     23.3737    134.2673
  1007.2500     19.9403    -93.3686     23.0659    132.7447
  1007.5000     20.1691    -93.5325     22.8754    131.2849
  1007.7500     20.6942    -93.7569     22.8207    131.7269
  1008.0000     21.5834    -94.0616     22.9476    134.5675
  1008.2500     22.8246    -94.4414     23.3081    137.0898
  1008.5000     24.3132    -94.8660     23.9267    140.1603
  1008.7500     25.8961    -95.2924     24.7794    141.1220
  1009.0000     27.4411    -95.6821     25.8023    140.2710
  1009.2500     28.8686    -96.0112     26.9231    137.7434
  1009.5000     30.1433    -96.2752     28.0899    130.5957
  1009.7500     31.3127    -96.4905     29.2786    123.8926
  1010.0000     32.5035    -96.6870     30.4794    112.1891
  1010.2500     33.8490    -96.8890     31.6865    104.1118
  1010.5000     35.4812    -97.0986     32.9075     92.9310
  1010.7500     37.5404    -97.2985     34.1819     86.7852
  1011.0000     40.0383    -97.4659     35.5895     79.9375
  1011.2500     42.7387    -97.5818     37.2324     76.6230
  1011.5000     45.3560    -97.6345     39.2035     72.9212
  1011.7500     47.8311    -97.6221     41.5461     71.4381
  1012.0000     50.2839    -97.5574     44.2204     71.2367
  1012.2500     52.7706    -97.4766     47.0814     72.2259
  1012.5000     55.2272    -97.4359     49.8991     73.7894
  1012.7500     57.6485    -97.4854     52.4450     73.8279
  1013.0000     60.1830    -97.6370     54.6153     71.5765
  1013.2500     62.9788    -97.8581     56.4924     68.8266
  1013.5000     66.0381    -98.0968     58.2759     64.0929
  1013.7500     69.2669    -98.3129     60.1458     61.2945
  1014.0000     72.5857    -98.4934     62.1695     58.4592
  1014.2500     75.9180    -98.6464     64.2910     57.5922
  1014.5000     79.1270    -98.7856     66.3594     57.5555
  1014.7500     81.9913    -98.9146     68.1527     58.1067
  1015.0000     84.1829    -99.0235     69.4177     59.4167
  1015.2500     85.4026    -99.0953     69.9652     60.4617
  1015.5000     85.6040    -99.1149     69.7777     61.9678
  1015.7500     85.0097    -99.0751     69.0480     62.6777
