~Version Information
 VERS.                                  2.0 : CWLS LAS VERSION
 WRAP.                                   NO : WRAPING MODE
 SWARE .                 MController 2.5.0J : SOFTWARE VERSION
~Well Information
 WELL.                         Hill 33-22Tr : WELL
 COMP.    Pioneer Natural Resources USA Inc : COMPANY
 FLD.                      Purgatoire River : FIELD
 LOC.                 NW/SE Sec22 T32S R66W : LOCATION
 DATE.                           4/13-14/05 : DATE(S) LOGGED
 SRVC.       Blanco Geological Services LLC : SERVICE COMPANY
 STAT.                                   CO : STATE
 CNTY.                           Las Animas : COUNTY
 CTRY.                                  USA : COUNTRY
 API.                       05-071-08316-00 : API NUMBER
 STRT.FT                             642.00 : START DEPTH
 STOP.FT                            1810.00 : STOP DEPTH
 STEP.FT                               1.00 : DEPTH INCREMENT
 NULL.                                -9999 : NULL VALUE
~Curve information
 DEPTH.FT                                   :
 ROP.MIN/FT                                 :
 GAS.UNITS                                  :
~ASCII Log data
# ...
       842.0         0.23          8.2 
       843.0         0.32          9.1 
       844.0         0.33          8.8 
       845.0         0.27         10.2 
       846.0         0.20          9.9 
       847.0         0.50          9.5 
       848.0         0.20          9.1 
       849.0         0.30          8.8 
       850.0         0.17         10.2 
       851.0         0.20         10.0 
       852.0         0.17         10.0 
       853.0         0.13         10.4 
       854.0         0.13          9.9 
       855.0         0.13          9.9 
       856.0         0.23          9.9 
       857.0         0.17          9.8 
       858.0         0.18          9.8 
       859.0         0.13         10.3 
       860.0         0.23         10.0 
       861.0         0.23         10.4 
       862.0         0.23         11.3 
       863.0         0.33         13.8 
       864.0         0.33         13.0 
       865.0         0.23         11.6 
       866.0         1.23         12.2 
       867.0         0.28         10.1 
       868.0         0.27         11.3 
       869.0         0.43         13.4 
       870.0         0.53         12.6 
       871.0         0.33         11.3 
       872.0         0.27         11.4 
       873.0         0.23         12.8 
       874.0         0.20         15.6 
       875.0         0.20         16.7 
       876.0         0.20         18.4 
       877.0         0.27         18.6 
       878.0         0.20         18.2 
       879.0         0.22         18.5 
       880.0         0.17         18.6 
       881.0         0.17         19.0 
       882.0         0.20         19.0 
       883.0         0.20         19.9 
       884.0         0.17         19.9 
       885.0         0.17         19.4 
       886.0         0.20         20.2 
       887.0         0.23         17.1 
       888.0         0.17         17.1 
       889.0         0.17         16.9 
       890.0         0.23         18.1 
       891.0         0.20         20.9 
       892.0         0.17         23.1 
       893.0         0.20         30.8 
       894.0         0.27         56.3 
       895.0         0.20         74.3 
       896.0         0.88         77.9 
       897.0         0.40         53.8 
       898.0         0.27         41.0 
       899.0         0.23         37.4 
       900.0         0.20         32.3 
       901.0         0.17         30.5 
       902.0         0.20         29.0 
       903.0         0.13         28.4 
       904.0         0.17         28.1 
       905.0         0.23         27.4 
       906.0         0.20         26.3 
       907.0         0.20         25.9 
       908.0         0.13         23.0 
       909.0         0.22         21.7 
       910.0         0.23         20.1 
       911.0         0.17         17.2 
       912.0         0.33         17.3 
       913.0         0.23         16.0 
       914.0         0.27         17.4 
       915.0         0.37         18.1 
       916.0         0.37         14.1 
       917.0         0.33         12.0 
       918.0         0.30         10.1 
       919.0         0.23         10.0 
       920.0         0.27         11.6 
       921.0         0.28         15.0 
       922.0         0.10         21.7 
       923.0         0.27         28.9 
       924.0         0.27         45.0 
       925.0         0.27         46.9 
       926.0         0.90        151.0 
       927.0         0.23        132.4 
       928.0         0.50         69.8 
       929.0         0.38         45.8 
       930.0         0.40         23.5 
       931.0         0.37         19.9 
       932.0         0.33         35.2 
       933.0         0.27         40.7 
       934.0         0.17         40.7 
       935.0         0.27         51.4 
       936.0         0.30         59.1 
       937.0         0.17         65.9 
       938.0         0.13         65.9 
       939.0         0.23         67.9 
       940.0         0.30         58.2 
       941.0         0.30         28.1 
       942.0         0.32         17.0 
       943.0         0.97        243.0 
       944.0         0.27        259.2 
       945.0         0.13        259.2 
       946.0         0.27        258.2 
       947.0         0.23        238.0 
       948.0         0.23        223.7 
       949.0         0.30        217.6 
       950.0         0.37        202.6 
       951.0         0.42        195.5 
       952.0         0.37        218.7 
       953.0         0.27        188.0 
       954.0         0.27         97.1 
       955.0         0.23         59.7 
       956.0         2.88       2468.5 
       957.0         0.20       1232.5 
       958.0         0.33        908.6 
       959.0         0.50        855.0 
       960.0         0.33        668.2 
       961.0         0.27        670.5 
       962.0         0.27        670.5 
       963.0         0.23        659.7 
       964.0         0.27        639.4 
       965.0         0.35        633.8 
       966.0         0.27        580.5 
       967.0         0.27        558.3 
       968.0         0.27        552.7 
       969.0         0.30        547.8 
       970.0         0.30        545.8 
       971.0         0.30        539.3 
       972.0         0.27        534.4 
       973.0         0.23        526.9 
       974.0         0.20        517.1 
       975.0         0.23        478.8 
       976.0         0.23        450.0 
       977.0         0.23        441.5 
       978.0         0.35        458.2 
       979.0         0.43        467.0 
       980.0         0.23        440.0 
       981.0         0.23        176.2 
       982.0         0.23        182.8 
       983.0         0.20        200.5 
       984.0         0.17        330.8 
       985.0         0.20       1229.3 
       986.0         1.33       2406.3 
       987.0         0.35       1273.4 
       988.0         0.27       1050.3 
       989.0         0.40        876.3 
       990.0         0.30        717.6 
       991.0         0.27        619.1 
       992.0         0.27        591.0 
       993.0         0.20        554.0 
       994.0         0.20        550.4 
       995.0         0.20        543.2 
       996.0         0.23        524.2 
       997.0         0.23        514.8 
       998.0         0.20        494.8 
       999.0         0.27        487.6 
      1000.0         0.18        483.7 
      1001.0         0.20        483.7 
      1002.0         0.17        478.8 
      1003.0         0.33        476.8 
      1004.0         0.17        474.8 
      1005.0         0.17        467.7 
      1006.0         0.17        457.8 
      1007.0         0.13        457.8 
      1008.0         0.27        457.2 
      1009.0         0.33        449.7 
      1010.0         0.30        440.0 
      1011.0         0.27        176.3 
      1012.0         0.23        140.4 
      1013.0         0.23        160.7 
      1014.0         0.22        268.2 
      1015.0         0.43       1645.4 
      1016.0         1.00       1902.9 
      1017.0         0.23       1108.9 
      1018.0         0.17        946.6 
      1019.0         0.40        928.0 
      1020.0         0.17        691.1 
      1021.0         0.13        661.7 
      1022.0         0.30        653.8 
      1023.0         0.27        654.5 
      1024.0         0.32        638.8 
      1025.0         0.27        610.9 
      1026.0         0.30        561.2 
      1027.0         0.33        554.7 
      1028.0         0.30        523.6 
      1029.0         0.30        440.0 
      1030.0         0.23        117.1 
      1031.0         0.23         39.9 
      1032.0         0.27         36.8 
      1033.0         0.20         21.5 
      1034.0         0.23         18.1 
      1035.0         0.23         17.3 
      1036.0         0.23         16.8 
      1037.0         0.25         16.8 
      1038.0         0.30         17.4 
      1039.0         0.33         17.3 
      1040.0         0.27         17.6 
      1041.0         0.20         17.8 
