~Version Information
VERS.                      2.0: CWLS Log ASCII Standard - VERSION 2.0
WRAP.                       NO: One line per depth step
~Well Information Block
STRT.FT                -7.5000: 
STOP.FT              2339.2500: 
STEP.FT                 0.2500: 
NULL.                -999.2500: 
COMP.          Pioneer Natural Resources: COMPANY
WELL.            Harrier 44-33: WELL
FLD.           Purgatorie River: FIELD
LOC.           456' FSL & 930' FEL--: LOCATION
PROV.                       CO: PROVINCE
CNTY.               Las Animas: COUNTRY
SRVC.          Patterson Wireline: SERVICE COMPANY
DATE.          Wed Jun 29 11:08:51 2005: LOG DATE
UWI.           05 071 08398 00: UNIQUE WELL ID
~Curve Information Block
DEPT.FT            0 000 00 00: Depth
CCL.                          : Casing Collar Locator
TT3.usec                      : CBL 3' Travel Time
AMP3.mV                       : CBL 3' Amplitude
GR.GAPI                       : Gamma Ray
~Parameter Information Block
~A  Depth       CCL         TT3         AMP3         GR     
# ...
  2136.5000      0.0000    373.4299      4.9264     58.4065
  2136.7500      0.0000    378.1400      4.8857     59.3374
  2137.0000      0.0000    384.7448      4.8059     59.1318
  2137.2500      0.0000    400.4312      4.7112     57.7787
  2137.5000      0.0000    432.3983      4.6412     55.7651
  2137.7500      0.0000    480.4905      4.6226     53.5425
  2138.0000      0.0000    534.9790      4.6588     51.2343
  2138.2500      0.0000    583.9826      4.7330     48.8091
  2138.5000      0.0000    622.4640      4.8119     46.6092
  2138.7500      0.0000    652.2711      4.8621     45.7784
  2139.0000      0.0000    675.8705      4.8728     47.9668
  2139.2500      0.0000    693.6898      4.8675     54.1668
  2139.5000      0.0000    706.4763      4.8905     63.5519
  2139.7500      0.0000    717.0757      4.9767     73.4797
  2140.0000      0.0000    729.3866      5.1215     80.8747
  2140.2500      0.0000    746.1882      5.2773     83.9531
  2140.5000      0.0000    767.2520      5.3873     82.8549
  2140.7500      0.0000    788.3578      5.4304     78.7573
  2141.0000      0.0000    802.5096      5.4309     72.8347
  2141.2500      0.0000    803.8300      5.4251     66.6319
  2141.5000      0.0000    792.2581      5.4342     62.7458
  2141.7500      0.0000    775.2598      5.4685     63.5592
  2142.0000      0.0000    763.5950      5.5376     68.8136
  2142.2500      0.0000    763.6315      5.6401     75.2731
  2142.5000      0.0000    773.4113      5.7541     79.5091
  2142.7500      0.0000    786.0706      5.8543     80.9279
  2143.0000      0.0000    795.7040      5.9341     81.7476
  2143.2500      0.0000    799.7637      6.0063     84.1249
  2143.5000      0.0000    798.2017      6.0863     87.9999
  2143.7500      0.0000    792.4618      6.1808     91.9050
  2144.0000      0.0000    784.7117      6.2843     94.9218
  2144.2500      0.0000    776.2781      6.3815     97.0556
  2144.5000      0.0000    765.9103      6.4553     98.2262
  2144.7500      0.0000    749.6240      6.4887     97.8358
  2145.0000      0.0000    723.4631      6.4596     95.6306
  2145.2500      0.0000    687.7248      6.3501     92.6059
  2145.5000      0.0000    648.3433      6.1742     90.5173
  2145.7500      0.0000    612.8837      5.9853     90.4475
  2146.0000      0.0000    585.0963      5.8378     92.0670
  2146.2500      0.0000    563.9919      5.7502     94.1943
  2146.5000      0.0000    548.2085      5.7109     95.8199
  2146.7500      0.0000    540.5780      5.7019     96.5308
  2147.0000      0.0000    546.0937      5.7038     96.1971
  2147.2500      0.0000    563.0992      5.6948     94.7253
  2147.5000      0.0000    578.2256      5.6589     92.3748
  2147.7500      0.0000    574.6219      5.5930     89.8384
  2148.0000      0.0000    546.3578      5.5057     87.6136
  2148.2500      0.0000    502.9341      5.4201     85.6977
  2148.5000      0.0000    460.2987      5.3753     84.1722
  2148.7500      0.0000    429.2606      5.4068     83.4724
  2149.0000      0.0000    411.0348      5.5088     83.6958
  2149.2500      0.0000    400.4438      5.6216     84.1442
  2149.5000      0.0000    391.9763      5.6690     83.9430
  2149.7500      0.0000    383.4992      5.6135     82.8440
  2150.0000      0.0000    375.8310      5.4779     81.0874
  2150.2500      0.0000    370.2576      5.3232     78.6197
  2150.5000      0.0000    367.0134      5.2141     74.9755
  2150.7500      0.0000    365.5144      5.1944     70.2986
  2151.0000      0.0000    365.2231      5.2719     66.0896
  2151.2500      0.0000    366.0991      5.4152     64.2118
  2151.5000      0.0000    368.3674      5.5689     65.1962
  2151.7500      0.0000    372.0284      5.6869     67.8674
  2152.0000      0.0000    376.6818      5.7552     70.2768
  2152.2500      0.0000    381.7326      5.7928     70.6946
  2152.5000      0.0000    386.5166      5.8382     68.3987
  2152.7500      0.0000    390.4276      5.9315     64.1069
  2153.0000      0.0000    393.7939      6.0929     59.3406
  2153.2500      0.0000    399.7235      6.3079     55.1579
  2153.5000      0.0000    415.2460      6.5344     51.8575
  2153.7500      0.0000    448.6867      6.7249     49.8456
  2154.0000      0.0000    502.7589      6.8514     50.1396
  2154.2500      0.0000    569.3986      6.9154     53.6657
  2154.5000      0.0000    633.6316      6.9296     60.1680
  2154.7500      0.0000    683.7656      6.8997     67.9310
  2155.0000      0.0000    717.0214      6.8360     74.6883
  2155.2500      0.0000    736.2349      6.7709     79.0993
  2155.5000      0.0000    744.3410      6.7409     81.7754
  2155.7500      0.0000    743.1105      6.7508     84.8859
  2156.0000      0.0000    734.9675      6.7692     90.3054
  2156.2500      0.0000    723.7992      6.7570     97.7498
  2156.5000      0.0000    713.6588      6.6947    104.7974
  2156.7500      0.0000    706.8482      6.5874    108.9139
  2157.0000      0.0000    702.9362      6.4516    109.4723
  2157.2500      0.0000    699.6052      6.3094    107.8890
  2157.5000      0.0000    694.8754      6.1974    106.0182
  2157.7500      0.0000    688.8498      6.1597    104.5333
  2158.0000      0.0000    683.4799      6.2068    102.8966
  2158.2500      0.0000    680.9591      6.2891    100.6411
  2158.5000      0.0000    682.4056      6.3314     98.1720
  2158.7500      0.0000    687.4976      6.2982     96.1331
  2159.0000      0.0000    694.8510      6.2144     94.4660
  2159.2500      0.0000    702.8126      6.1261     92.5371
  2159.5000      0.0000    710.0591      6.0569     90.0200
  2159.7500      0.0000    715.4230      6.0083     87.2724
  2160.0000      0.0000    717.5318      5.9834     84.9924
  2160.2500      0.0000    715.2373      5.9896     83.7811
  2160.5000      0.0000    708.5394      6.0160     83.8270
  2160.7500      0.0000    698.9199      6.0257     84.6402
  2161.0000      0.0000    688.7468      5.9857     85.1841
  2161.2500      0.0000    680.1599      5.9047     84.6426
  2161.5000      0.0000    674.1092      5.8276     83.1755
  2161.7500      0.0000    670.2388      5.7913     81.6859
  2162.0000      0.0000    667.5424      5.7993     80.8425
  2162.2500      0.0000    665.0641      5.8421     80.6404
  2162.5000      0.0000    662.0248      5.9198     80.6865
  2162.7500      0.0000    657.8030      6.0295     80.2051
  2163.0000      0.0000    652.5216      6.1402     77.9847
  2163.2500      0.0000    647.7773      6.2014     73.3337
  2163.5000      0.0000    645.2719      6.1729     67.2213
  2163.7500      0.0000    643.8926      6.0408     61.8252
  2164.0000      0.0000    640.4948      5.8230     58.9085
  2164.2500      0.0000    635.4336      5.5821     58.8003
  2164.5000      0.0000    634.0831      5.4056     60.4345
  2164.7500      0.0000    639.1673      5.3332     61.9821
  2165.0000      0.0000    643.9623      5.3100     61.9147
  2165.2500      0.0000    637.3586      5.2440     60.0267
  2165.5000      0.0000    615.8579      5.1009     57.4280
  2165.7500      0.0000    588.5123      4.9146     55.3924
  2166.0000      0.0000    569.2838      4.7208     54.3277
  2166.2500      0.0000    564.7609      4.5326     53.9041
  2166.5000      0.0000    569.3107      4.3815     53.9044
  2166.7500      0.0000    571.3954      4.3271     54.5919
  2167.0000      0.0000    563.5431      4.3932     56.1839
  2167.2500      0.0000    547.8931      4.5222     58.2905
  2167.5000      0.0000    535.1077      4.6163     60.1590
  2167.7500      0.0000    537.8654      4.6138     61.3409
  2168.0000      0.0000    561.7380      4.5136     61.9262
  2168.2500      0.0000    599.8761      4.3395     62.2818
  2168.5000      0.0000    637.4878      4.1180     62.6707
  2168.7500      0.0000    662.1545      3.9023     62.9819
  2169.0000      0.0000    668.8954      3.7717     62.8291
  2169.2500      0.0000    657.2482      3.7678     62.0217
  2169.5000      0.0000    628.8690      3.8459     60.8439
  2169.7500      0.0000    589.7214      3.9252     59.8560
