~Version Information
VERS.                      2.0: CWLS Log ASCII Standard - VERSION 2.0
WRAP.                       NO: One line per depth step
~Well Information Block
STRT.FT               720.0000: 
STOP.FT              2265.7000: 
STEP.FT                 0.1000: 
NULL.                -999.2500: 
COMP.          Pioneer Natural Resources: COMPANY
WELL.          Casablanca 11-28 Tr: WELL
FLD.           Purgatoire River: FIELD
LOC.           422' FNL & 215' FWL----: LOCATION
PROV.                 Colorado: PROVINCE
CNTY.               Las Animas: COUNTRY
SRVC.                Patterson: SERVICE COMPANY
DATE.          Mon Mar 07 07:16:34 2005: LOG DATE
UWI.           05 071 08314 00: UNIQUE WELL ID
~Curve Information Block
DEPT.FT            0 000 00 00: Depth
DCAL.in                       : CDL Caliper
RHOB.g/cc                     : CDL Bulk Density
RHOC.g/cc                     : CDL Density Correction
DPOR.pu                       : CDL Density Porosity
NPOR.pu                       : Neutron Porosity
GR.GAPI                       : Gamma Ray
~Parameter Information Block
~A  Depth       DCAL        RHOB        RHOC        DPOR        NPOR         GR     
# ...
  1228.8000      8.6642      1.8071      0.0936     51.0828     12.4047    103.7442
  1228.9000      8.6642      1.6759      0.0232     59.0359      9.3104     99.5683
  1229.0000      8.4734      1.5334     -0.0166     67.6705      6.9322     92.8286
  1229.1000      8.4734      1.3520     -0.0794     78.6686      5.3331     86.1259
  1229.2000      8.4734      1.1431     -0.1666     91.3243      4.2982     82.5214
  1229.3000      8.4152      0.9718     -0.2320    101.7106      3.6433     80.1441
  1229.4000      8.4152      0.9057     -0.0979    105.7181      3.3640     75.4323
  1229.5000      8.5237      0.9630      0.0891    102.2440      3.4676     69.8763
  1229.6000      8.5237      1.1225      0.2407     92.5765      3.8671     69.0423
  1229.7000      8.5237      1.3571      0.3448     78.3598      4.5184     75.3578
  1229.8000      8.6041      1.6280      0.4695     61.9400      5.4848     83.9126
  1229.9000      8.6041      1.8797      0.5592     46.6849      6.8020     89.1056
  1230.0000      8.5301      2.0829      0.6187     34.3704      8.4491     90.6761
  1230.1000      8.5301      2.2520      0.6534     24.1203     10.2889     91.3398
  1230.2000      8.5301      2.4013      0.6685     15.0750     12.0864     95.2627
  1230.3000      8.4252      2.5163      0.6332      8.1026     13.8570    103.8850
  1230.4000      8.4252      2.5872      0.4992      3.8076     15.6736    113.8924
  1230.5000      8.3367      2.6348      0.3902      0.9184     17.2917    120.6154
  1230.6000      8.3367      2.6733      0.3279     -1.4146     18.5405    122.0073
  1230.7000      8.3367      2.6810      0.3095     -1.8782     19.4929    120.6874
  1230.8000      8.2516      2.6441      0.1555      0.3597     20.4069    120.3182
  1230.9000      8.2516      2.5891      0.0508      3.6920     21.5479    121.9450
  1231.0000      8.2039      2.5486      0.0164      6.1448     22.8214    123.8046
  1231.1000      8.2039      2.5348      0.0032      6.9841     23.9117    124.0380
  1231.2000      8.2039      2.5436      0.0095      6.4480     24.7537    121.0477
  1231.3000      8.1904      2.5635      0.0469      5.2395     25.4626    115.5384
  1231.4000      8.1904      2.5935      0.0161      3.4237     26.2019    111.2121
  1231.5000      8.1863      2.6415      0.0559      0.5147     26.8775    110.3576
  1231.6000      8.1863      2.6904      0.0662     -2.4471     27.0099    114.0823
  1231.7000      8.1863      2.6989      0.0765     -2.9632     26.6791    119.7112
  1231.8000      8.1789      2.6564      0.0204     -0.3890     26.5174    120.6392
  1231.9000      8.1789      2.5995      0.0065      3.0598     26.5453    116.5213
  1232.0000      8.1651      2.5643     -0.0363      5.1924     26.4371    113.7036
  1232.1000      8.1651      2.5611     -0.0294      5.3859     26.0259    114.0058
  1232.2000      8.1651      2.5721      0.0158      4.7200     25.1788    117.0077
  1232.3000      8.1475      2.5697      0.0216      4.8687     24.3876    120.7910
  1232.4000      8.1475      2.5565     -0.0206      5.6641     24.3475    121.9167
  1232.5000      8.1349      2.5537      0.0363      5.8352     24.7272    121.3890
  1232.6000      8.1349      2.5584      0.0588      5.5525     24.8687    121.8250
  1232.7000      8.1349      2.5568      0.0402      5.6456     24.9816    122.8255
  1232.8000      8.1273      2.5503      0.0073      6.0454     25.2293    121.8185
  1232.9000      8.1273      2.5471     -0.0075      6.2359     25.1318    117.1452
  1233.0000      8.1161      2.5514     -0.0364      5.9767     24.5411    112.1243
  1233.1000      8.1161      2.5576      0.0420      5.6023     24.0305    112.0952
  1233.2000      8.1161      2.5655      0.0083      5.1192     24.0473    115.9597
  1233.3000      8.1044      2.5899      0.0245      3.6418     24.5165    116.4949
  1233.4000      8.1044      2.6235      0.0772      1.6077     25.1253    112.2291
  1233.5000      8.1063      2.6448      0.0538      0.3152     25.5054    109.1320
  1233.6000      8.1063      2.6574      0.0735     -0.4468     25.4448    109.0587
  1233.7000      8.1063      2.6647      0.1129     -0.8928     25.3231    111.0395
  1233.8000      8.1286      2.6552      0.0683     -0.3179     25.6309    115.5555
  1233.9000      8.1286      2.6352      0.0155      0.8973     26.2888    118.6407
  1234.0000      8.1641      2.6252     -0.0226      1.5060     26.8162    117.1477
  1234.1000      8.1641      2.6253     -0.0158      1.4998     26.7166    113.8037
  1234.2000      8.1641      2.6193      0.0143      1.8621     26.0338    110.9221
  1234.3000      8.1935      2.6089     -0.0237      2.4906     25.3216    109.9249
  1234.4000      8.1935      2.6056      0.0230      2.6880     24.9920    110.8827
  1234.5000      8.2078      2.6044      0.0045      2.7651     25.0195    113.4011
  1234.6000      8.2078      2.6015      0.0313      2.9378     25.0454    117.4454
  1234.7000      8.2078      2.6004      0.0186      3.0090     24.9074    121.0777
  1234.8000      8.2071      2.5931      0.0444      3.4481     24.8260    122.5739
  1234.9000      8.2071      2.5704      0.0275      4.8234     24.6163    122.1830
  1235.0000      8.1943      2.5435      0.0096      6.4573     24.0187    121.4459
  1235.1000      8.1943      2.5346     -0.0100      6.9913     23.5316    123.1946
  1235.2000      8.1943      2.5556     -0.0146      5.7240     23.6248    125.4280
  1235.3000      8.1678      2.5903      0.0310      3.6172     23.8484    122.0348
  1235.4000      8.1678      2.6146      0.0346      2.1425     23.7587    112.6842
  1235.5000      8.1322      2.6286      0.0503      1.2950     23.6815    101.9447
  1235.6000      8.1322      2.6393      0.0650      0.6476     23.9403     93.1466
  1235.7000      8.1322      2.6464      0.0647      0.2158     24.4524     87.9973
  1235.8000      8.1110      2.6528      0.0799     -0.1682     24.8720     86.9186
  1235.9000      8.1110      2.6635      0.0763     -0.8156     25.0556     87.4806
  1236.0000      8.1090      2.6797      0.0627     -1.7985     25.3020     86.0020
  1236.1000      8.1090      2.6878      0.1555     -2.2895     25.7722     84.5337
  1236.2000      8.1090      2.6731      0.1008     -1.4028     26.0575     88.7248
  1236.3000      8.1141      2.6451      0.0422      0.2948     25.9424     96.4613
  1236.4000      8.1141      2.6208      0.0089      1.7699     25.8821     99.7926
  1236.5000      8.1185      2.6034      0.0172      2.8256     25.8801     96.6118
  1236.6000      8.1185      2.5903      0.0159      3.6197     25.2934     90.1375
  1236.7000      8.1185      2.5849     -0.0199      3.9441     24.0753     82.3668
  1236.8000      8.1196      2.5813      0.0395      4.1614     22.9611     75.2655
  1236.9000      8.1196      2.5691      0.0063      4.9003     22.5018     71.1754
  1237.0000      8.1203      2.5537      0.0250      5.8384     22.5452     71.6062
  1237.1000      8.1203      2.5469     -0.0087      6.2457     22.7721     77.1616
  1237.2000      8.1203      2.5532      0.0320      5.8655     23.0677     82.4440
  1237.3000      8.1229      2.5600      0.0548      5.4567     23.2195     81.9169
  1237.4000      8.1229      2.5585      0.0181      5.5430     23.0459     80.6161
  1237.5000      8.1290      2.5518      0.0566      5.9538     22.5421     84.1062
  1237.6000      8.1290      2.5344      0.0040      7.0052     21.8882     86.2346
  1237.7000      8.1290      2.5076     -0.0358      8.6274     21.5565     80.4797
  1237.8000      8.1369      2.4903     -0.0267      9.6808     21.7767     72.1114
  1237.9000      8.1369      2.4952     -0.0164      9.3838     22.1640     68.5068
  1238.0000      8.1371      2.5144      0.0238      8.2167     22.2005     70.1338
  1238.1000      8.1371      2.5244      0.0313      7.6103     21.9528     74.4070
  1238.2000      8.1371      2.5074     -0.0100      8.6433     21.9381     79.1309
  1238.3000      8.1209      2.4788     -0.0180     10.3770     22.2446     80.7818
