~Version Information
VERS.                      2.0: CWLS Log ASCII Standard - VERSION 2.0
WRAP.                       NO: One line per depth step
~Well Information Block
STRT.FT               340.0000: 
STOP.FT              1542.5000: 
STEP.FT                 0.1000: 
NULL.                -999.2500: 
COMP.          Petrogulf Corporation: COMPANY
WELL.            Montoya 7-21R: WELL
FLD.           Purgatorie River: FIELD
LOC.           445' FNL & 1942' FWL: LOCATION
PROV.                 Colorado: PROVINCE
CNTY.               Las Animas: COUNTRY
SRVC.                Patterson: SERVICE COMPANY
DATE.          Thu Sep 15 10:33:27 2005: LOG DATE
UWI.                          : UNIQUE WELL ID
~Curve Information Block
DEPT.FT            0 000 00 00: Depth
DCAL.in                       : CDL Caliper
RHOB.g/cc                     : CDL Bulk Density
RHOC.g/cc                     : CDL Density Correction
DPOR.pu                       : CDL Density Porosity
GR.GAPI                       : Gamma Ray
NPOR.pu                       : Neutron Porosity
~Parameter Information Block
~A  Depth       DCAL        RHOB        RHOC        DPOR         GR         NPOR    
# ...
   733.6000      8.2487      1.5662      0.0774     65.6835     90.7952     24.0027
   733.7000      8.2487      1.6100      0.0825     63.0299     96.4568     23.4174
   733.8000      8.2677      1.6349      0.0743     61.5231    107.0126     22.9851
   733.9000      8.2677      1.6335      0.0625     61.6037    113.8490     23.1701
   734.0000      8.2560      1.6112      0.0527     62.9564    112.0955     23.3346
   734.1000      8.2560      1.5771      0.0190     65.0234    105.7175     23.6667
   734.2000      8.2560      1.5389     -0.0250     67.3368     98.4947     24.3780
   734.3000      8.2339      1.4976     -0.0133     69.8437     90.4850     24.9547
   734.4000      8.2339      1.4498     -0.0493     72.7365     83.7485     25.1131
   734.5000      8.2414      1.4025     -0.0634     75.6036     80.6351     24.5731
   734.6000      8.2414      1.3675     -0.0231     77.7297     77.3753     23.6987
   734.7000      8.2414      1.3456      0.0335     79.0530     69.3274     23.7241
   734.8000      8.2793      1.3295      0.0329     80.0309     60.0260     24.8518
   734.9000      8.2793      1.3178     -0.0023     80.7417     54.6984     25.8807
   735.0000      8.4631      1.3136      0.0110     80.9930     52.2313     25.9471
   735.1000      8.4631      1.3149      0.0097     80.9177     50.2667     25.2625
   735.2000      8.4631      1.3159      0.0128     80.8568     48.9075     25.1453
   735.3000      8.7045      1.3116      0.0222     81.1125     47.9453     26.1183
   735.4000      8.7045      1.3030     -0.0149     81.6390     46.5061     26.6665
   735.5000      9.0425      1.2959     -0.0091     82.0662     45.3580     26.1046
   735.6000      9.0425      1.2942     -0.0022     82.1715     45.6448     25.5051
   735.7000      9.0425      1.3024     -0.0098     81.6702     47.7815     25.5019
   735.8000      9.1696      1.3292     -0.0122     80.0480     52.1221     25.8955
   735.9000      9.1696      1.3833      0.0210     76.7709     58.0847     26.3353
   736.0000      8.8176      1.4697      0.0611     71.5355     64.2729     26.5338
   736.1000      8.8176      1.5844      0.0884     64.5823     72.0842     26.7438
   736.2000      8.8176      1.7195      0.1218     56.3935     84.7532     26.9183
   736.3000      8.5051      1.8655      0.1625     47.5432    101.5739     26.4423
   736.4000      8.5051      2.0068      0.2387     38.9794    117.7568     25.8441
   736.5000      8.3774      2.1332      0.2395     31.3217    127.5476     26.0243
   736.6000      8.3774      2.2437      0.2121     24.6264    133.3719     26.2663
   736.7000      8.3774      2.3339      0.1753     19.1547    143.5560     25.8958
   736.8000      8.1972      2.4017      0.1604     15.0493    156.6180     25.3575
   736.9000      8.1972      2.4527      0.0344     11.9575    165.9464     24.5762
   737.0000      8.1369      2.4917      0.0292      9.5928    170.5618     23.4659
   737.1000      8.1369      2.5176      0.0388      8.0212    172.8516     22.6496
   737.2000      8.1369      2.5346      0.0468      6.9941    175.8329     22.0452
   737.3000      8.1274      2.5513      0.0413      5.9819    179.3296     21.2300
   737.4000      8.1274      2.5611      0.0649      5.3870    182.1587     20.7929
   737.5000      8.1322      2.5474      0.0323      6.2186    185.8852     21.1561
   737.6000      8.1322      2.5125      0.0353      8.3314    188.6987     21.3357
   737.7000      8.1322      2.4861     -0.0356      9.9312    187.3173     20.2477
   737.8000      8.1275      2.4938     -0.0159      9.4638    184.0957     18.6344
   737.9000      8.1275      2.5245      0.0285      7.6049    183.1542     17.8175
   738.0000      8.1245      2.5507      0.0417      6.0189    185.0175     17.1086
   738.1000      8.1245      2.5634      0.0510      5.2458    183.6754     15.3101
   738.2000      8.1245      2.5622      0.0833      5.3203    176.5495     13.7117
   738.3000      8.1316      2.5419      0.0536      6.5542    169.9224     13.9457
   738.4000      8.1316      2.5056      0.0699      8.7536    167.3242     15.3511
   738.5000      8.1414      2.4635      0.0706     11.3022    167.3862     16.1542
   738.6000      8.1414      2.4281      0.0376     13.4488    169.4878     15.8316
   738.7000      8.1414      2.4144      0.0282     14.2811    173.7552     15.4046
   738.8000      8.1401      2.4293      0.0242     13.3786    180.6280     15.9311
   738.9000      8.1401      2.4695      0.0652     10.9389    187.3325     17.2712
   739.0000      8.1375      2.5240      0.1639      7.6337    189.1365     18.4571
   739.1000      8.1375      2.5761      0.2138      4.4765    185.2127     18.9105
   739.2000      8.1375      2.6174      0.2572      1.9759    181.1289     18.9183
   739.3000      8.1476      2.6484      0.2937      0.0989    182.0811     19.0504
   739.4000      8.1476      2.6607      0.3263     -0.6464    185.7216     19.2864
   739.5000      8.1280      2.6494      0.2376      0.0334    188.3342     18.9882
   739.6000      8.1280      2.6353      0.1566      0.8933    189.4521     18.0343
   739.7000      8.1280      2.6368      0.1016      0.7995    188.3425     17.0555
   739.8000      8.1165      2.6474      0.1030      0.1565    185.6814     16.3869
   739.9000      8.1165      2.6508      0.1503     -0.0494    183.3767     15.8286
   740.0000      8.0834      2.6397      0.1027      0.6237    179.9096     15.4426
   740.1000      8.0834      2.6184      0.1110      1.9177    174.3096     15.5145
   740.2000      8.0834      2.5954      0.0937      3.3098    168.5653     15.8462
   740.3000      8.0321      2.5798      0.0514      4.2538    164.5212     15.7036
   740.4000      8.0321      2.5739      0.0620      4.6128    163.5867     15.1572
   740.5000      8.0344      2.5736      0.0427      4.6283    163.6300     15.0203
   740.6000      8.0344      2.5772      0.0493      4.4094    163.1276     15.1972
   740.7000      8.0344      2.5809      0.0537      4.1887    164.4768     14.9709
   740.8000      8.0544      2.5863      0.0513      3.8599    165.8384     14.6594
   740.9000      8.0544      2.5945      0.1239      3.3648    164.7041     14.8584
   741.0000      8.0558      2.5931      0.1087      3.4456    164.2665     15.2878
   741.1000      8.0558      2.5809      0.0752      4.1908    167.2574     15.6018
   741.2000      8.0558      2.5703      0.1077      4.8321    169.4965     15.6386
   741.3000      8.0684      2.5715      0.0249      4.7601    168.1915     15.5485
   741.4000      8.0684      2.5830      0.0923      4.0581    167.6515     15.8202
   741.5000      8.0650      2.5841      0.1079      3.9957    169.7253     16.3579
   741.6000      8.0650      2.5704      0.0207      4.8271    170.6342     17.0059
   741.7000      8.0650      2.5697      0.0303      4.8693    168.6807     17.6157
   741.8000      8.0484      2.5960      0.0949      3.2712    166.2011     17.5518
   741.9000      8.0484      2.6346      0.1441      0.9322    165.0523     17.0459
   742.0000      8.0410      2.6596      0.1691     -0.5822    163.7801     16.8843
   742.1000      8.0410      2.6539      0.1416     -0.2362    162.3658     16.8519
   742.2000      8.0410      2.6243      0.1079      1.5600    165.5412     16.5995
   742.3000      8.0383      2.5922      0.0586      3.5016    173.9156     16.4750
   742.4000      8.0383      2.5735      0.0337      4.6337    180.7666     16.5104
   742.5000      8.0324      2.5655      0.0941      5.1217    181.3262     16.3087
   742.6000      8.0324      2.5451      0.1066      6.3569    177.5416     15.9400
   742.7000      8.0324      2.4989      0.0409      9.1562    172.6714     15.9907
   742.8000      8.0451      2.4366      0.0225     12.9310    172.1782     16.5098
   742.9000      8.0451      2.3673      0.0560     17.1316    179.7026     17.1361
   743.0000      8.0653      2.3023     -0.0024     21.0710    189.9907     17.8655
   743.1000      8.0653      2.2643     -0.0372     23.3751    197.3309     18.6927
