~Version Information
VERS.                      2.0: CWLS Log ASCII Standard - VERSION 2.0
WRAP.                       NO: One line per depth step
~Well Information Block
STRT.FT               580.0000: 
STOP.FT              1756.7500: 
STEP.FT                 0.2500: 
NULL.                -999.2500: 
COMP.          Pioneer Natural Resources: COMPANY
WELL.          Lookout Point 31-23 Tr: WELL
FLD.           Purgatoire River: FIELD
LOC.           541' FNL & 1786' FEL: LOCATION
PROV.                 Colorado: PROVINCE
CNTY.               Las Animas: COUNTRY
SRVC.                Patterson: SERVICE COMPANY
DATE.          Sun Jan 23 04:14:25 2005: LOG DATE
UWI.           05 071 08260 00: UNIQUE WELL ID
~Curve Information Block
DEPT.FT            0 000 00 00: Depth
DIR.Ohm-m                     : IEL Induction Resistivity
GR.GAPI                       : Gamma Ray
SN.Ohm-m                      : IEL Short Normal
SP.mV                         : IEL Spontaneous Potential
~Parameter Information Block
~A  Depth       DIR          GR          SN          SP     
# ...
  1183.0000     25.6914    101.1057     29.5849     92.9797
  1183.2500     25.6129    104.2240     29.4497     92.4088
  1183.5000     25.3628    106.5608     29.1126     92.1045
  1183.7500     24.8977    106.3263     28.5136     92.1643
  1184.0000     24.1964    103.9541     27.6252     92.6618
  1184.2500     23.2679    101.7066     26.4772     93.6105
  1184.5000     22.1553     98.5811     25.1539     94.9411
  1184.7500     20.9325     97.4240     23.7596     96.5091
  1185.0000     19.6912     98.4129     22.3794     98.1303
  1185.2500     18.5185    101.3098     21.0648     99.6330
  1185.5000     17.4737    108.1762     19.8431    100.9006
  1185.7500     16.5772    113.0818     18.7296    101.8889
  1186.0000     15.8167    118.6444     17.7281    102.6141
  1186.2500     15.1645    120.7155     16.8288    103.1238
  1186.5000     14.5931    122.3247     16.0157    103.4697
  1186.7500     14.0839    123.3024     15.2773    103.6925
  1187.0000     13.6283    125.4736     14.6109    103.8223
  1187.2500     13.2236    127.2727     14.0245    103.8838
  1187.5000     12.8695    129.6788     13.5369    103.9021
  1187.7500     12.5664    130.6317     13.1717    103.9032
  1188.0000     12.3157    130.8965     12.9453    103.9138
  1188.2500     12.1198    130.5869     12.8542    103.9611
  1188.5000     11.9781    130.1013     12.8683    104.0715
  1188.7500     11.8798    130.0196     12.9314    104.2683
  1189.0000     11.8002    130.4790     12.9746    104.5661
  1189.2500     11.7071    131.3894     12.9454    104.9661
  1189.5000     11.5790    134.1234     12.8352    105.4540
  1189.7500     11.4209    136.8679     12.6811    106.0013
  1190.0000     11.2635    141.5967     12.5391    106.5700
  1190.2500     11.1467    144.4697     12.4515    107.1168
  1190.5000     11.0999    147.3910     12.4305    107.6001
  1190.7500     11.1295    148.0414     12.4581    107.9866
  1191.0000     11.2183    146.5942     12.4966    108.2595
  1191.2500     11.3320    143.9412     12.5057    108.4220
  1191.5000     11.4314    138.1382     12.4633    108.4984
  1191.7500     11.4859    133.9391     12.3800    108.5269
  1192.0000     11.4828    128.7455     12.2950    108.5500
  1192.2500     11.4262    126.6217     12.2547    108.6032
  1192.5000     11.3288    125.8982     12.2879    108.7061
  1192.7500     11.2065    127.1950     12.3934    108.8613
  1193.0000     11.0792    131.7828     12.5421    109.0576
  1193.2500     10.9723    136.1233     12.6908    109.2778
  1193.5000     10.9081    142.7030     12.7971    109.5030
  1193.7500     10.8928    145.7734     12.8298    109.7156
  1194.0000     10.9091    146.6102     12.7707    109.8994
  1194.2500     10.9249    144.3469     12.6186    110.0417
  1194.5000     10.9118    137.8645     12.3916    110.1377
  1194.7500     10.8609    133.0547     12.1260    110.1938
  1195.0000     10.7839    128.3445     11.8733    110.2252
  1195.2500     10.7034    128.1974     11.6936    110.2486
  1195.5000     10.6407    132.6674     11.6368    110.2721
  1195.7500     10.6107    137.8608     11.7110    110.2888
  1196.0000     10.6227    146.7491     11.8715    110.2767
  1196.2500     10.6830    152.0125     12.0505    110.2055
  1196.5000     10.7967    156.1980     12.2066    110.0475
  1196.7500     10.9674    154.9687     12.3453    109.7892
  1197.0000     11.1957    145.9111     12.4994    109.4370
  1197.2500     11.4807    135.7925     12.6997    109.0176
  1197.5000     11.8226    117.6909     12.9808    108.5719
  1197.7500     12.2263    105.8861     13.4174    108.1459
  1198.0000     12.7044     91.6670     14.1365    107.7832
  1198.2500     13.2760     85.5597     15.2574    107.5185
  1198.5000     13.9601     81.7688     16.7958    107.3729
  1198.7500     14.7616     82.2813     18.6128    107.3484
  1199.0000     15.6556     86.1101     20.4567    107.4239
  1199.2500     16.5786     89.7809     22.0745    107.5552
  1199.5000     17.4380     95.3142     23.3156    107.6819
  1199.7500     18.1420     98.0414     24.1595    107.7423
  1200.0000     18.6337     99.5441     24.6682    107.6920
  1200.2500     18.9110     98.7175     24.9243    107.5182
  1200.5000     19.0192     95.2113     24.9988    107.2439
  1200.7500     19.0278     91.7641     24.9456    106.9190
  1201.0000     19.0043     85.8726     24.8052    106.6018
  1201.2500     18.9957     82.2154     24.6109    106.3383
  1201.5000     19.0227     78.2038     24.3920    106.1472
  1201.7500     19.0851     76.6587     24.1736    106.0185
  1202.0000     19.1728     75.6959     23.9744    105.9261
  1202.2500     19.2758     75.8633     23.8065    105.8467
  1202.5000     19.3883     77.5084     23.6755    105.7780
  1202.7500     19.5092     79.3979     23.5803    105.7442
  1203.0000     19.6406     82.2463     23.5174    105.7864
  1203.2500     19.7854     83.3594     23.4824    105.9436
  1203.5000     19.9419     83.6452     23.4637    106.2338
  1203.7500     20.1003     83.5885     23.4419    106.6452
  1204.0000     20.2444     84.4644     23.4060    107.1413
  1204.2500     20.3603     85.8366     23.3637    107.6749
  1204.5000     20.4454     88.0246     23.3283    108.2017
  1204.7500     20.5112     88.6809     23.3031    108.6884
  1205.0000     20.5808     87.6576     23.2916    109.1116
  1205.2500     20.6842     85.8728     23.3219    109.4531
  1205.5000     20.8505     82.7024     23.4482    109.6954
  1205.7500     21.0977     80.8885     23.7242    109.8221
  1206.0000     21.4216     79.0861     24.1721    109.8227
  1206.2500     21.7934     78.4344     24.7722    109.6979
  1206.5000     22.1702     77.8039     25.4679    109.4635
  1206.7500     22.5084     77.2385     26.1712    109.1490
  1207.0000     22.7742     75.6901     26.7780    108.7903
  1207.2500     22.9458     74.2131     27.2036    108.4195
  1207.5000     23.0165     71.8946     27.4164    108.0579
  1207.7500     22.9990     70.6881     27.4370    107.7128
  1208.0000     22.9195     69.7158     27.3114    107.3825
  1208.2500     22.8010     69.5428     27.0888    107.0645
  1208.5000     22.6523     69.6239     26.8087    106.7615
  1208.7500     22.4779     69.6765     26.4897    106.4820
  1209.0000     22.2959     69.4100     26.1289    106.2364
  1209.2500     22.1363     68.9675     25.7215    106.0323
  1209.5000     22.0171     68.3601     25.2787    105.8755
  1209.7500     21.9255     68.3691     24.8225    105.7750
  1210.0000     21.8242     69.2317     24.3668    105.7496
  1210.2500     21.6788     70.2518     23.9145    105.8300
  1210.5000     21.4813     72.2461     23.4668    106.0558
  1210.7500     21.2524     73.7852     23.0287    106.4656
  1211.0000     21.0245     75.9512     22.6063    107.0829
  1211.2500     20.8199     76.8959     22.2050    107.9021
  1211.5000     20.6385     77.1824     21.8317    108.8785
  1211.7500     20.4624     76.7731     21.4958    109.9314
  1212.0000     20.2719     75.9547     21.2039    110.9610
  1212.2500     20.0623     75.6689     20.9559    111.8753
  1212.5000     19.8461     76.0192     20.7480    112.6156
  1212.7500     19.6405     76.8406     20.5790    113.1676
  1213.0000     19.4531     78.9101     20.4494    113.5536
  1213.2500     19.2810     80.7083     20.3564    113.8132
  1213.5000     19.1241     83.5224     20.2924    113.9829
  1213.7500     18.9948     85.0789     20.2489    114.0867
  1214.0000     18.9120     86.3936     20.2198    114.1388
  1214.2500     18.8837     86.4820     20.2019    114.1525
  1214.5000     18.8988     85.6746     20.1928    114.1475
  1214.7500     18.9357     84.8780     20.1828    114.1503
  1215.0000     18.9767     84.0415     20.1496    114.1887
  1215.2500     19.0123     84.0121     20.0675    114.2820
  1215.5000     19.0346     84.8702     19.9303    114.4338
  1215.7500     19.0348     85.9235     19.7636    114.6271
  1216.0000     19.0075     87.7295     19.6096    114.8263
  1216.2500     18.9567     88.6799     19.5008    114.9840
