~Version Information
VERS.                      2.0: CWLS Log ASCII Standard - VERSION 2.0
WRAP.                       NO: One line per depth step
~Well Information Block
STRT.FT               450.0000: 
STOP.FT              1739.2000: 
STEP.FT                 0.1000: 
NULL.                -999.2500: 
COMP.          Pioneer Natural Resources: COMPANY
WELL.            Harlee L 34-9: WELL
FLD.           Purgatoire River: FIELD
LOC.           600' FSL & 2125' FEL: LOCATION
PROV.                 Colorado: PROVINCE
CNTY.               Las Animas: COUNTRY
SRVC.                Patterson: SERVICE COMPANY
DATE.          Wed Jan 26 13:57:24 2005: LOG DATE
UWI.           05 071 08009 00: UNIQUE WELL ID
~Curve Information Block
DEPT.FT            0 000 00 00: Depth
DCAL.in                       : CDL Caliper
RHOB.g/cc                     : CDL Bulk Density
RHOC.g/cc                     : CDL Density Correction
DPOR.pu                       : CDL Density Porosity
NPOR.pu                       : Neutron Porosity
GR.GAPI                       : Gamma Ray
~Parameter Information Block
~A  Depth       DCAL        RHOB        RHOC        DPOR        NPOR         GR     
# ...
   872.4000      9.0718      2.2154      0.0077     26.3377     20.0963    142.6220
   872.5000      9.0741      2.0976     -0.0658     33.4803     18.9516    147.9131
   872.6000      9.0741      1.9858     -0.1199     40.2575     17.6707    149.8401
   872.7000      9.0741      1.9047     -0.0960     45.1726     16.3199    147.4075
   872.8000      9.0739      1.8599     -0.1022     47.8853     15.0173    142.6397
   872.9000      9.0739      1.8514     -0.0612     48.4010     14.0787    138.4799
   873.0000      9.0729      1.8796     -0.0239     46.6937     13.6978    135.1217
   873.1000      9.0729      1.9524      0.0411     42.2798     13.8073    133.3453
   873.2000      9.0729      2.0904      0.1949     33.9156     14.4303    134.1091
   873.3000      9.0769      2.2926      0.3967     21.6624     15.5903    135.5230
   873.4000      9.0769      2.5031      0.6352      8.9058     17.0929    134.5740
   873.5000      9.0911      2.6477      0.6356      0.1372     18.4718    129.1270
   873.6000      9.0911      2.7044      0.5722     -3.2953     19.2072    121.3512
   873.7000      9.0911      2.7036      0.4578     -3.2470     19.3564    113.5890
   873.8000      9.0917      2.6802      0.3322     -1.8294     19.5613    107.3397
   873.9000      9.0917      2.6511      0.2621     -0.0640     19.9443    103.5945
   874.0000      9.0452      2.6190      0.2022      1.8810     20.1260    101.9979
   874.1000      9.0452      2.5842      0.1363      3.9872     20.0125    104.7178
   874.2000      9.0452      2.5509      0.1256      6.0037     19.7725    112.9334
   874.3000      8.9839      2.5222      0.0963      7.7442     19.5334    121.2934
   874.4000      8.9839      2.5003      0.0485      9.0739     19.2682    125.5801
   874.5000      8.9578      2.4863      0.0586      9.9209     19.0401    128.1866
   874.6000      8.9578      2.4707      0.0831     10.8678     18.9523    132.5152
   874.7000      8.9578      2.4355      0.0820     13.0012     18.9214    137.9634
   874.8000      8.9549      2.3718      0.0472     16.8619     18.8335    141.0195
   874.9000      8.9549      2.2867      0.0777     22.0199     18.7083    141.5085
   875.0000      8.9499      2.1904      0.0185     27.8520     18.7754    142.1972
   875.1000      8.9499      2.0956     -0.0424     33.5978     19.1027    144.1171
   875.2000      8.9499      2.0221     -0.0620     38.0531     19.3890    147.9176
   875.3000      8.9446      1.9806     -0.0452     40.5667     19.3477    153.7331
   875.4000      8.9446      1.9629     -0.0125     41.6436     18.7951    156.8418
   875.5000      8.9411      1.9583      0.0064     41.9235     17.8369    152.8378
   875.6000      8.9411      1.9679      0.0537     41.3397     17.1529    145.6796
   875.7000      8.9411      2.0006      0.0748     39.3577     16.9194    139.6154
   875.8000      8.9385      2.0612      0.1596     35.6865     16.4502    136.6537
   875.9000      8.9385      2.1415      0.2610     30.8180     15.7772    139.2582
   876.0000      8.9367      2.2217      0.2979     25.9601     15.6795    142.9503
   876.1000      8.9367      2.2862      0.2508     22.0459     16.1960    142.7273
   876.2000      8.9367      2.3382      0.2152     18.8946     16.8054    142.1768
   876.3000      8.9361      2.3830      0.2122     16.1827     17.4106    144.0624
   876.4000      8.9361      2.4153      0.1835     14.2253     18.2078    145.6597
   876.5000      8.9386      2.4324      0.1584     13.1877     19.0217    145.8970
   876.6000      8.9386      2.4443      0.1203     12.4680     19.7059    147.0517
   876.7000      8.9386      2.4589      0.1578     11.5809     20.5835    147.5186
   876.8000      8.9410      2.4740      0.1207     10.6653     21.7444    142.5759
   876.9000      8.9410      2.4929      0.1152      9.5184     22.8593    135.3723
   877.0000      8.9417      2.5186      0.1194      7.9646     23.6394    133.0437
   877.1000      8.9417      2.5361      0.1440      6.9012     23.9521    135.3928
   877.2000      8.9417      2.5355      0.0679      6.9376     23.9896    137.7675
   877.3000      8.9424      2.5352      0.0510      6.9563     24.1347    138.6843
   877.4000      8.9424      2.5470      0.0492      6.2433     24.4548    139.9470
   877.5000      8.9432      2.5566      0.0938      5.6576     24.9213    142.6579
   877.6000      8.9432      2.5554      0.0573      5.7357     25.5021    144.7601
   877.7000      8.9432      2.5524      0.0863      5.9142     25.9356    145.4210
   877.8000      8.9436      2.5502      0.0757      6.0498     26.0748    143.6292
   877.9000      8.9436      2.5432      0.0674      6.4711     26.0505    139.9395
   878.0000      8.9445      2.5345      0.0465      6.9984     26.0065    137.5501
   878.1000      8.9445      2.5323      0.0064      7.1364     26.1064    134.9376
   878.2000      8.9445      2.5350      0.0668      6.9693     26.4582    129.4216
   878.3000      8.9446      2.5295      0.0713      7.3014     26.8644    124.3945
   878.4000      8.9446      2.5134      0.0457      8.2783     27.1574    125.6712
   878.5000      8.9425      2.4983      0.0392      9.1928     27.4313    134.1120
   878.6000      8.9425      2.4960      0.0113      9.3325     27.5357    141.3106
   878.7000      8.9425      2.5136      0.0307      8.2670     27.3574    142.4961
   878.8000      8.9413      2.5353      0.0902      6.9504     27.0089    143.7803
   878.9000      8.9413      2.5316      0.0785      7.1740     26.5523    147.2642
   879.0000      8.9430      2.5087      0.0158      8.5653     26.2280    148.3873
   879.1000      8.9430      2.4907      0.0718      9.6536     26.2455    146.8432
   879.2000      8.9430      2.4772      0.0507     10.4723     26.4713    146.6787
   879.3000      8.9459      2.4620      0.0268     11.3932     26.5720    147.2102
   879.4000      8.9459      2.4312      0.1005     13.2576     26.3134    146.3932
   879.5000      8.9538      2.3587      0.0334     17.6572     25.6302    146.3497
   879.6000      8.9538      2.2452     -0.0288     24.5326     24.3897    147.2176
   879.7000      8.9538      2.1142     -0.0679     32.4718     22.5689    145.6909
   879.8000      8.9741      1.9766     -0.0662     40.8131     20.4677    141.5126
   879.9000      8.9741      1.8386     -0.1167     49.1732     18.4666    135.9802
   880.0000      9.0136      1.7155     -0.1835     56.6392     16.6321    128.9716
   880.1000      9.0136      1.6114     -0.1157     62.9442     14.7938    119.5733
   880.2000      9.0136      1.5161     -0.1107     68.7201     12.9594    110.4385
   880.3000      9.0875      1.4355     -0.1270     73.6065     11.1777    106.0723
   880.4000      9.0875      1.3950     -0.0884     76.0602      9.5479    101.4562
   880.5000      9.1895      1.4150     -0.0099     74.8471      8.3257     92.0214
   880.6000      9.1895      1.4979      0.0799     69.8259      7.6603     83.4024
   880.7000      9.1895      1.6260      0.1779     62.0620      7.5394     80.0625
   880.8000      9.2698      1.7678      0.2835     53.4637      7.7894     79.5226
   880.9000      9.2698      1.9038      0.2950     45.2245      8.2472     79.2635
   881.0000      9.2972      2.0417      0.3072     36.8690      8.8387     81.4362
   881.1000      9.2972      2.1820      0.3995     28.3634      9.5179     86.4628
   881.2000      9.2972      2.2972      0.4011     21.3816     10.3253     90.4360
   881.3000      9.2699      2.3693      0.3195     17.0120     11.2719     92.0246
   881.4000      9.2699      2.4099      0.2459     14.5530     12.2501     93.9966
   881.5000      9.1994      2.4315      0.2026     13.2399     13.0942     97.2017
   881.6000      9.1994      2.4310      0.1618     13.2754     13.7006     99.6974
   881.7000      9.1994      2.4151      0.0727     14.2339     14.0658     99.1505
   881.8000      9.1371      2.4092      0.0664     14.5913     14.4503     96.7414
   881.9000      9.1371      2.4224      0.0581     13.7946     15.0292     97.8304
