~Version Information
 VERS.                                  2.0 : CWLS LAS VERSION
 WRAP.                                   NO : WRAPING MODE
 SWARE .                 MController 2.5.0J : SOFTWARE VERSION
~Well Information
 WELL.                         Squeal 11-26 : WELL
 COMP.    Pioneer Natural Resources USA Inc : COMPANY
 FLD.                      Purgatoire River : FIELD
 LOC.                NW/NW Sec 26 T32S R67W : LOCATION
 DATE.                         6/13-14/2005 : DATE(S) LOGGED
 SRVC.       Blanco Geological Services LLC : SERVICE COMPANY
 STAT.                                   CO : STATE
 CNTY.                           Las Animas : COUNTY
 CTRY.                                  USA : COUNTRY
 API.                       05-071-08404-00 : API NUMBER
 STRT.FT                             285.00 : START DEPTH
 STOP.FT                            2760.00 : STOP DEPTH
 STEP.FT                               1.00 : DEPTH INCREMENT
 NULL.                                -9999 : NULL VALUE
~Curve information
 DEPTH.FT                                   :
 ROP.MIN/FT                                 :
 GAS.UNITS                                  :
~ASCII Log data
       285.0     -9999.00         55.9 
       286.0         8.92         56.2 
       287.0        10.20         54.1 
       288.0         7.43        100.2 
       289.0         0.18          2.7 
       290.0        11.55          3.6 
       291.0         3.12          3.9 
       292.0         0.27          2.1 
       293.0         0.10          2.1 
       294.0         0.27          2.5 
       295.0         0.17          2.8 
       296.0         0.30          3.5 
       297.0         0.23          4.1 
       298.0         0.20          4.5 
       299.0         0.20          4.3 
       300.0         0.20          4.9 
       301.0         0.38          4.9 
       302.0         0.10          4.8 
       303.0         0.23          5.1 
       304.0         0.10          5.0 
       305.0         0.23          5.3 
       306.0         0.20          5.1 
       307.0         0.13          5.5 
       308.0         0.20          5.4 
       309.0         0.23          5.4 
       310.0         0.10          5.3 
       311.0         0.07          5.2 
       312.0         0.13          5.4 
       313.0         0.10          5.2 
       314.0         0.10          5.5 
       315.0         0.37          5.5 
       316.0         0.13          5.6 
       317.0         1.25          5.7 
       318.0         0.80          4.8 
       319.0         0.07          4.9 
       320.0         0.10          5.0 
       321.0         0.13          5.3 
       322.0         0.23          5.4 
       323.0         0.23          5.6 
       324.0         0.20          5.8 
       325.0         0.17          6.0 
       326.0         0.20          5.9 
       327.0         0.20          6.0 
       328.0         0.23          5.8 
       329.0         0.22          5.9 
       330.0         0.20          6.3 
       331.0         0.20          6.0 
       332.0         0.20          6.0 
       333.0         0.23          6.0 
       334.0         0.20          5.9 
       335.0         0.23          5.9 
       336.0         0.20          6.0 
       337.0         0.23          6.0 
       338.0         0.23          6.0 
       339.0         0.20          6.0 
       340.0         0.20          6.1 
       341.0         0.23          6.3 
       342.0         0.20          6.0 
       343.0         0.23          5.9 
       344.0         0.20          6.2 
       345.0         0.25          6.3 
       346.0         0.20          6.2 
       347.0         0.20          6.1 
       348.0         0.20          6.2 
       349.0         0.23          6.3 
       350.0         0.37          6.4 
       351.0         0.13          6.4 
       352.0         0.13          6.2 
       353.0         0.10          6.2 
       354.0         0.23          6.3 
       355.0         0.20          6.2 
       356.0         0.13          6.4 
       357.0         0.20          6.4 
       358.0         0.23          6.6 
       359.0         0.10          6.4 
       360.0         0.23          6.5 
       361.0         0.20          6.6 
       362.0         0.15          6.3 
       363.0         0.20          6.4 
       364.0         0.23          6.4 
       365.0         0.20          6.7 
       366.0         0.13          6.7 
       367.0         0.20          6.6 
       368.0         0.13          6.8 
       369.0         0.20          6.9 
       370.0         0.23          6.8 
       371.0         0.13          6.7 
       372.0         0.10          7.0 
       373.0         0.10          6.8 
       374.0         0.13          6.7 
       375.0         0.17          6.8 
       376.0         0.13          6.9 
       377.0         0.10          6.7 
       378.0         0.07          6.8 
       379.0         0.13          6.9 
       380.0         0.10          6.5 
       381.0         0.13          6.9 
       382.0         0.10          6.6 
       383.0         0.13          6.9 
       384.0         0.07          6.9 
       385.0         0.12          6.7 
       386.0         0.10          6.9 
       387.0         0.10          6.8 
       388.0         0.07          6.6 
       389.0         0.13          6.7 
       390.0         0.10          6.9 
       391.0         0.10          6.8 
       392.0         0.13          6.9 
       393.0         0.17          6.7 
       394.0         1.33          7.3 
       395.0         1.28          7.1 
       396.0         0.10          7.0 
       397.0         0.13          6.7 
       398.0         0.13          7.1 
       399.0         0.27          7.4 
       400.0         0.30          7.2 
       401.0         0.27          7.2 
       402.0         0.27          7.4 
       403.0         0.30          7.0 
       404.0         0.27          7.0 
       405.0         0.27          7.3 
       406.0         0.27          7.0 
       407.0         0.27          7.3 
       408.0         0.27          7.1 
       409.0         0.18          7.0 
       410.0         0.10          7.2 
       411.0         0.07          6.9 
       412.0         0.10          7.0 
       413.0         0.07          7.1 
       414.0         0.10          7.1 
       415.0         0.07          7.0 
       416.0         0.10          7.1 
       417.0         0.20          7.7 
       418.0         0.17          7.4 
       419.0         0.07          7.0 
       420.0         0.10          7.1 
       421.0         0.07          7.3 
       422.0         0.20          7.4 
       423.0         0.30          7.5 
       424.0         0.27          7.4 
       425.0         0.33          7.5 
       426.0         0.17          7.3 
       427.0         0.33          7.3 
       428.0         0.45          7.6 
       429.0         0.13          7.8 
       430.0         0.20          7.7 
       431.0         0.13          8.2 
       432.0         0.20          7.8 
       433.0         0.23          7.8 
       434.0         0.10          7.6 
       435.0         0.23          7.8 
       436.0         0.20          7.6 
       437.0         0.13          7.7 
       438.0         0.10          7.7 
       439.0         0.10          7.9 
       440.0         0.23          7.9 
       441.0         0.23          7.8 
       442.0         0.10          7.8 
       443.0         0.23          7.9 
       444.0         0.20          8.0 
       445.0         0.13          7.6 
       446.0         0.20          8.0 
       447.0         0.13          7.8 
       448.0         0.22          7.8 
       449.0         0.23          7.8 
       450.0         0.10          7.7 
       451.0         0.23          7.9 
       452.0         0.10          8.0 
       453.0         0.10          7.8 
       454.0         0.07          8.0 
       455.0         0.10          7.8 
       456.0         0.10          8.0 
       457.0         0.10          8.0 
       458.0         0.07          7.8 
       459.0         0.10          7.9 
       460.0         0.13          8.4 
       461.0         0.10          7.9 
       462.0         0.13          7.9 
       463.0         0.10          7.9 
       464.0         0.13          8.0 
       465.0         0.13          8.1 
       466.0         0.10          8.0 
       467.0         0.13          8.0 
       468.0         0.10          8.2 
       469.0         0.10          7.8 
       470.0         0.10          7.9 
       471.0         0.07          7.9 
       472.0         0.30          8.4 
       473.0         0.10          8.1 
       474.0         0.32          8.2 
       475.0         0.17          8.1 
       476.0         0.33          8.1 
       477.0         0.20          8.1 
       478.0         0.23          8.5 
       479.0         0.13          8.1 
       480.0         2.55          8.8 
       481.0         0.40          8.1 
       482.0         0.37          8.1 
       483.0         0.43          8.1 
       484.0         0.37          8.8 
