~Version Information
VERS.                      2.0: CWLS Log ASCII Standard - VERSION 2.0
WRAP.                       NO: One line per depth step
~Well Information Block
STRT.FT                -7.0500: 
STOP.FT              3072.6000: 
STEP.FT                 0.0500: 
NULL.                -999.2500: 
COMP.          Pioneer Natural Resources: COMPANY
WELL.              Stones 24-8: WELL
FLD.           Purgatoire River: FIELD
LOC.           648' FSL & 2264' FWL--: LOCATION
PROV.                 Colorado: PROVINCE
CNTY.               Las Animas: COUNTRY
SRVC.                Patterson: SERVICE COMPANY
DATE.          Fri Feb 04 12:43:19 2005: LOG DATE
UWI.           05 071 07945 00: UNIQUE WELL ID
~Curve Information Block
DEPT.FT            0 000 00 00: Depth
CCL.                          : Casing Collar Locator
TT3.usec                      : CBL 3' Travel Time
AMP3.mV                       : CBL 3' Amplitude
GR.GAPI                       : Gamma Ray
~Parameter Information Block
~A  Depth       CCL         TT3         AMP3         GR     
# ...
  1018.0500      0.0000    744.3698      2.2610     66.8726
  1018.1000      0.0000    744.3698      2.2610     66.8726
  1018.1500      0.0000    744.3698      2.2610     66.8726
  1018.2000      0.0000    744.3698      2.2610     66.8726
  1018.2500      0.0000    750.6146      2.0985     65.8345
  1018.3000      0.0000    750.6146      2.0985     65.8345
  1018.3500      0.0000    750.6146      2.0985     65.8345
  1018.4000      0.0000    750.6146      2.0985     65.8345
  1018.4500      0.0000    750.6146      2.0985     65.8345
  1018.5000      0.0000    752.2252      1.9838     63.9674
  1018.5500      0.0000    752.2252      1.9838     63.9674
  1018.6000      0.0000    752.2252      1.9838     63.9674
  1018.6500      0.0000    752.2252      1.9838     63.9674
  1018.7000      0.0000    752.2252      1.9838     63.9674
  1018.7500      0.0000    749.8774      1.9077     61.9720
  1018.8000      0.0000    749.8774      1.9077     61.9720
  1018.8500      0.0000    749.8774      1.9077     61.9720
  1018.9000      0.0000    749.8774      1.9077     61.9720
  1018.9500      0.0000    749.8774      1.9077     61.9720
  1019.0000      0.0000    746.4678      1.8603     60.4320
  1019.0500      0.0000    746.4678      1.8603     60.4320
  1019.1000      0.0000    746.4678      1.8603     60.4320
  1019.1500      0.0000    746.4678      1.8603     60.4320
  1019.2000      0.0000    746.4678      1.8603     60.4320
  1019.2500      0.0000    745.1478      1.8327     58.9309
  1019.3000      0.0000    745.1478      1.8327     58.9309
  1019.3500      0.0000    745.1478      1.8327     58.9309
  1019.4000      0.0000    745.1478      1.8327     58.9309
  1019.4500      0.0000    745.1478      1.8327     58.9309
  1019.5000      0.0000    747.4337      1.8152     56.5941
  1019.5500      0.0000    747.4337      1.8152     56.5941
  1019.6000      0.0000    747.4337      1.8152     56.5941
  1019.6500      0.0000    747.4337      1.8152     56.5941
  1019.7000      0.0000    747.4337      1.8152     56.5941
  1019.7500      0.0000    752.3906      1.7995     53.3820
  1019.8000      0.0000    752.3906      1.7995     53.3820
  1019.8500      0.0000    752.3906      1.7995     53.3820
  1019.9000      0.0000    752.3906      1.7995     53.3820
  1019.9500      0.0000    752.3906      1.7995     53.3820
  1020.0000      0.0000    756.9869      1.7824     50.4654
  1020.0500      0.0000    756.9869      1.7824     50.4654
  1020.1000      0.0000    756.9869      1.7824     50.4654
  1020.1500      0.0000    756.9869      1.7824     50.4654
  1020.2000      0.0000    756.9869      1.7824     50.4654
  1020.2500      0.0000    757.8571      1.7678     49.2846
  1020.3000      0.0000    757.8571      1.7678     49.2846
  1020.3500      0.0000    757.8571      1.7678     49.2846
  1020.4000      0.0000    757.8571      1.7678     49.2846
  1020.4500      0.0000    757.8571      1.7678     49.2846
  1020.5000      0.0000    753.9940      1.7629     50.4682
  1020.5500      0.0000    753.9940      1.7629     50.4682
  1020.6000      0.0000    753.9940      1.7629     50.4682
  1020.6500      0.0000    753.9940      1.7629     50.4682
  1020.7000      0.0000    753.9940      1.7629     50.4682
  1020.7500      0.0000    748.1255      1.7706     53.6711
  1020.8000      0.0000    748.1255      1.7706     53.6711
  1020.8500      0.0000    748.1255      1.7706     53.6711
  1020.9000      0.0000    748.1255      1.7706     53.6711
  1020.9500      0.0000    748.1255      1.7706     53.6711
  1021.0000      0.0000    744.7001      1.7862     58.0721
  1021.0500      0.0000    744.7001      1.7862     58.0721
  1021.1000      0.0000    744.7001      1.7862     58.0721
  1021.1500      0.0000    744.7001      1.7862     58.0721
  1021.2000      0.0000    744.7001      1.7862     58.0721
  1021.2500      0.0000    745.8943      1.7998     62.7278
  1021.3000      0.0000    745.8943      1.7998     62.7278
  1021.3500      0.0000    745.8943      1.7998     62.7278
  1021.4000      0.0000    745.8943      1.7998     62.7278
  1021.4500      0.0000    745.8943      1.7998     62.7278
  1021.5000      0.0000    749.9680      1.8024     66.7169
  1021.5500      0.0000    749.9680      1.8024     66.7169
  1021.6000      0.0000    749.9680      1.8024     66.7169
  1021.6500      0.0000    749.9680      1.8024     66.7169
  1021.7000      0.0000    749.9680      1.8024     66.7169
  1021.7500      0.0000    753.8817      1.7899     69.5751
  1021.8000      0.0000    753.8817      1.7899     69.5751
  1021.8500      0.0000    753.8817      1.7899     69.5751
  1021.9000      0.0000    753.8817      1.7899     69.5751
  1021.9500      0.0000    753.8817      1.7899     69.5751
  1022.0000      0.0000    756.7407      1.7628     71.9123
  1022.0500      0.0000    756.7407      1.7628     71.9123
  1022.1000      0.0000    756.7407      1.7628     71.9123
  1022.1500      0.0000    756.7407      1.7628     71.9123
  1022.2000      0.0000    756.7407      1.7628     71.9123
  1022.2500      0.0000    759.8685      1.7247     75.1344
  1022.3000      0.0000    759.8685      1.7247     75.1344
  1022.3500      0.0000    759.8685      1.7247     75.1344
  1022.4000      0.0000    759.8685      1.7247     75.1344
  1022.4500      0.0000    759.8685      1.7247     75.1344
  1022.5000      0.0000    764.2286      1.6831     79.7046
  1022.5500      0.0000    764.2286      1.6831     79.7046
  1022.6000      0.0000    764.2286      1.6831     79.7046
  1022.6500      0.0000    764.2286      1.6831     79.7046
  1022.7000      0.0000    764.2286      1.6831     79.7046
  1022.7500      0.0000    769.0436      1.6503     83.6106
  1022.8000      0.0000    769.0436      1.6503     83.6106
  1022.8500      0.0000    769.0436      1.6503     83.6106
  1022.9000      0.0000    769.0436      1.6503     83.6106
  1022.9500      0.0000    769.0436      1.6503     83.6106
  1023.0000      0.0000    772.8513      1.6405     83.5515
  1023.0500      0.0000    772.8513      1.6405     83.5515
  1023.1000      0.0000    772.8513      1.6405     83.5515
  1023.1500      0.0000    772.8513      1.6405     83.5515
  1023.2000      0.0000    772.8513      1.6405     83.5515
  1023.2500      0.0000    774.8541      1.6638     78.2236
  1023.3000      0.0000    774.8541      1.6638     78.2236
  1023.3500      0.0000    774.8541      1.6638     78.2236
  1023.4000      0.0000    774.8541      1.6638     78.2236
  1023.4500      0.0000    774.8541      1.6638     78.2236
  1023.5000      0.0000    774.9450      1.7195     70.1227
  1023.5500      0.0000    774.9450      1.7195     70.1227
  1023.6000      0.0000    774.9450      1.7195     70.1227
  1023.6500      0.0000    774.9450      1.7195     70.1227
  1023.7000      0.0000    774.9450      1.7195     70.1227
  1023.7500      0.0000    773.0986      1.7954     63.9868
  1023.8000      0.0000    773.0986      1.7954     63.9868
  1023.8500      0.0000    773.0986      1.7954     63.9868
  1023.9000      0.0000    773.0986      1.7954     63.9868
  1023.9500      0.0000    773.0986      1.7954     63.9868
  1024.0000      0.0000    769.4023      1.8731     63.5437
  1024.0500      0.0000    769.4023      1.8731     63.5437
  1024.1000      0.0000    769.4023      1.8731     63.5437
  1024.1500      0.0000    769.4023      1.8731     63.5437
  1024.2000      0.0000    769.4023      1.8731     63.5437
  1024.2500      0.0000    764.7269      1.9372     69.1764
  1024.3000      0.0000    764.7269      1.9372     69.1764
  1024.3500      0.0000    764.7269      1.9372     69.1764
  1024.4000      0.0000    764.7269      1.9372     69.1764
  1024.4500      0.0000    764.7269      1.9372     69.1764
  1024.5000      0.0000    760.7653      1.9809     77.9620
  1024.5500      0.0000    760.7653      1.9809     77.9620
  1024.6000      0.0000    760.7653      1.9809     77.9620
  1024.6500      0.0000    760.7653      1.9809     77.9620
  1024.7000      0.0000    760.7653      1.9809     77.9620
