~Version Information
VERS.                      2.0: CWLS Log ASCII Standard - VERSION 2.0
WRAP.                       NO: One line per depth step
~Well Information Block
STRT.FT                -6.5000: 
STOP.FT              1719.0000: 
STEP.FT                 0.5000: 
NULL.                -999.2500: 
COMP.          Pioneer Natural Resources: COMPANY
WELL.             Tami J 23-18: WELL
FLD.           Purgatorie River: FIELD
LOC.           2250' FSL & 2400' FWL: LOCATION
PROV.                 Colorado: PROVINCE
CNTY.               Las Animas: COUNTRY
SRVC.          Patterson Wireline: SERVICE COMPANY
DATE.          Fri Dec 17 13:50:12 2004: LOG DATE
UWI.           05-071-08073-00: UNIQUE WELL ID
~Curve Information Block
DEPT.FT            0 000 00 00: Depth
CCL.                          : Casing Collar Locator
TT3.usec                      : CBL 3' Travel Time
AMP3.mV                       : CBL 3' Amplitude
GR.GAPI                       : Gamma Ray
~Parameter Information Block
~A  Depth       CCL         TT3         AMP3         GR     
# ...
  1199.5000      0.0000    650.2109      4.7348     91.0445
  1200.0000      0.0000    615.6262      4.3170     80.4362
  1200.5000      0.0000    579.8431      4.6824     82.6527
  1201.0000      0.0000    571.7639      5.1543     82.1056
  1201.5000      0.0000    594.1935      5.3473     79.5623
  1202.0000      0.0000    671.8959      5.3464     76.0027
  1202.5000      0.0000    772.4935      5.0577     73.6128
  1203.0000      0.0000    826.4039      4.7158     76.1361
  1203.5000      0.0000    824.7433      4.8674     81.7187
  1204.0000      0.0000    772.1719      5.4124     85.3883
  1204.5000      0.0000    706.4664      5.7514     91.2765
  1205.0000      0.0000    704.7600      5.4949    104.5984
  1205.5000      0.0000    744.4944      4.8963    119.9224
  1206.0000      0.0000    761.4133      4.6610    128.0240
  1206.5000      0.0000    765.7896      5.0375    127.3176
  1207.0000      0.0000    768.8379      5.5467    117.6705
  1207.5000      0.0000    770.5880      5.7685    104.4534
  1208.0000      0.0000    757.6146      5.7822     96.9057
  1208.5000      0.0000    709.8915      5.7566     88.6955
  1209.0000      0.0000    637.6832      5.7048     77.0846
  1209.5000      0.0000    582.2965      5.5944     69.2613
  1210.0000      0.0000    562.7866      5.5473     64.8240
  1210.5000      0.0000    558.4329      5.7409     64.2294
  1211.0000      0.0000    556.2089      6.0752     65.5042
  1211.5000      0.0000    554.5123      6.2645     66.9322
  1212.0000      0.0000    553.0352      6.3276     71.4103
  1212.5000      0.0000    551.7355      6.3316     69.2893
  1213.0000      0.0000    556.3764      5.9924     59.3682
  1213.5000      0.0000    589.7163      5.4179     55.6831
  1214.0000      0.0000    656.3961      5.3225     59.1727
  1214.5000      0.0000    688.9828      5.1708     65.9194
  1215.0000      0.0000    661.7674      4.4660     79.9331
  1215.5000      0.0000    659.8431      3.9268    103.7714
  1216.0000      0.0000    695.6325      4.0165    134.0837
  1216.5000      0.0000    687.9399      4.5860    154.9338
  1217.0000      0.0000    681.0266      5.3520    157.5566
  1217.5000      0.0000    716.4413      6.0130    150.4940
  1218.0000      0.0000    757.9550      6.2931    145.0096
  1218.5000      0.0000    781.5524      6.2905    142.2114
  1219.0000      0.0000    753.4252      6.0825    137.1646
  1219.5000      0.0000    711.2012      5.6814    137.0983
  1220.0000      0.0000    712.6802      5.2589    140.1126
  1220.5000      0.0000    742.0416      4.9586    137.6502
  1221.0000      0.0000    760.2552      4.7793    138.5342
  1221.5000      0.0000    768.3060      4.5277    134.2638
  1222.0000      0.0000    766.4381      4.0953    126.7940
  1222.5000      0.0000    724.1139      3.7932    128.9579
  1223.0000      0.0000    634.7818      3.8841    136.1348
  1223.5000      0.0000    580.3974      4.2558    143.5506
  1224.0000      0.0000    596.7699      4.5300    147.8999
  1224.5000      0.0000    596.3428      4.6793    149.3703
  1225.0000      0.0000    583.8547      5.0718    150.1694
  1225.5000      0.0000    584.1060      5.6280    142.6498
  1226.0000      0.0000    595.6425      6.0093    138.7924
  1226.5000      0.0000    621.1561      6.1447    150.3964
  1227.0000      0.0000    646.7231      6.3600    159.1567
  1227.5000      0.0000    665.2932      6.4743    158.1506
  1228.0000      0.0000    700.8685      5.8455    154.8745
  1228.5000      0.0000    751.0417      5.0537    152.5436
  1229.0000      0.0000    766.8493      4.9554    150.6319
  1229.5000      0.0000    725.6404      5.5358    145.4537
  1230.0000      0.0000    668.5153      6.0155    136.4615
  1230.5000      0.0000    634.1616      5.8727    131.4886
  1231.0000      0.0000    626.6147      5.3518    137.1662
  1231.5000      0.0000    619.1235      4.9287    137.2606
  1232.0000      0.0000    598.0773      4.8392    126.4134
  1232.5000      0.0000    600.3159      4.9085    119.5358
  1233.0000      0.0000    658.5323      5.1725    119.7380
  1233.5000      0.0000    742.3290      5.3459    124.9406
  1234.0000      0.0000    787.4822      5.4930    130.2074
  1234.5000      0.0000    790.6737      5.7763    126.8830
  1235.0000      0.0000    776.1161      5.9153    111.1566
  1235.5000      0.0000    761.1688      5.7740     87.6578
  1236.0000      0.0000    740.9506      5.4592     64.9312
  1236.5000      0.0000    714.6857      5.3590     49.9502
  1237.0000      0.0000    696.3636      5.5876     44.3562
  1237.5000      0.0000    683.8419      5.7644     42.5825
  1238.0000      0.0000    668.7206      5.4476     40.8404
  1238.5000      0.0000    659.8585      4.7911     38.7212
  1239.0000      0.0000    662.8226      4.3245     37.7015
  1239.5000      0.0000    667.8551      4.4175     37.6816
  1240.0000      0.0000    671.1059      4.8378     36.3097
  1240.5000      0.0000    682.1422      4.9919     36.0243
  1241.0000      0.0000    702.2891      4.8653     45.5117
  1241.5000      0.0000    716.2649      4.9748     68.7310
  1242.0000      0.0000    706.9201      5.0533    102.5826
  1242.5000      0.0000    684.3939      5.0250    131.9650
  1243.0000      0.0000    645.8409      5.2147    142.4931
  1243.5000      0.0000    608.6130      5.3576    138.2300
  1244.0000      0.0000    632.3984      5.2687    130.8613
  1244.5000      0.0000    684.1367      5.1913    122.8148
  1245.0000      0.0000    705.6411      5.5549    109.6026
  1245.5000      0.0000    698.9262      5.9990     92.8161
  1246.0000      0.0000    670.9629      5.8546     76.8879
  1246.5000      0.0000    623.2938      5.3046     63.5037
  1247.0000      0.0000    606.2365      5.2088     53.0958
  1247.5000      0.0000    617.2276      5.4488     48.5344
  1248.0000      0.0000    605.5962      5.4584     48.6298
  1248.5000      0.0000    595.2830      5.4403     50.8475
  1249.0000      0.0000    619.5477      5.7112     52.8299
  1249.5000      0.0000    659.3321      5.9826     58.3249
  1250.0000      0.0000    679.1671      5.9185     64.9809
  1250.5000      0.0000    676.4515      5.6303     63.9594
  1251.0000      0.0000    662.1981      5.4312     64.5320
  1251.5000      0.0000    670.4659      5.4294     74.5702
  1252.0000      0.0000    721.2682      5.5054     84.0245
  1252.5000      0.0000    750.8685      5.5426     97.7914
  1253.0000      0.0000    716.7163      5.4676    116.8887
  1253.5000      0.0000    677.2521      5.3367    131.9123
  1254.0000      0.0000    641.4670      5.3392    144.9863
  1254.5000      0.0000    624.2944      5.3915    148.4139
  1255.0000      0.0000    646.8285      5.4716    140.2885
  1255.5000      0.0000    647.2885      5.5723    133.4280
  1256.0000      0.0000    627.5382      5.7398    135.4164
  1256.5000      0.0000    650.4604      5.8941    145.3296
  1257.0000      0.0000    703.1894      5.8720    145.7135
  1257.5000      0.0000    723.6183      5.7712    133.7067
  1258.0000      0.0000    717.8631      5.7820    120.1316
  1258.5000      0.0000    708.0061      5.8311    108.4003
  1259.0000      0.0000    677.1649      5.7109    103.1943
  1259.5000      0.0000    647.6974      5.4331    108.8397
  1260.0000      0.0000    629.1752      5.4509    119.0685
  1260.5000      0.0000    628.5430      5.9024    124.1588
  1261.0000      0.0000    666.2597      6.2725    121.6967
  1261.5000      0.0000    715.8793      6.3459    120.3024
  1262.0000      0.0000    741.4361      6.2073    121.0764
  1262.5000      0.0000    754.1548      5.9742    120.6861
  1263.0000      0.0000    762.0523      5.7505    123.6315
  1263.5000      0.0000    762.4310      5.5666    131.9935
  1264.0000      0.0000    749.4327      5.4872    143.6423
  1264.5000      0.0000    718.2513      5.5400    149.9446
  1265.0000      0.0000    686.8301      5.6680    144.9439
  1265.5000      0.0000    629.3226      5.7456    135.2478
  1266.0000      0.0000    569.9374      5.7590    121.5656
