~Version Information
VERS.                      2.0: CWLS Log ASCII Standard - VERSION 2.0
WRAP.                       NO: One line per depth step
~Well Information Block
STRT.FT               533.0000: 
STOP.FT              1578.0000: 
STEP.FT                 0.2500: 
NULL.                -999.2500: 
COMP.          Pioneer Natural Resources: COMPANY
WELL.           Telna 24-22 Tr: WELL
FLD.           Purgatoire River: FIELD
LOC.           748' FSL & 1931' FWL: LOCATION
PROV.                 Colorado: PROVINCE
CNTY.               Las Animas: COUNTRY
SRVC.                Patterson: SERVICE COMPANY
DATE.          Sun May 01 14:14:42 2005: LOG DATE
UWI.           05 071 08304 00: UNIQUE WELL ID
~Curve Information Block
DEPT.FT            0 000 00 00: Depth
SN.Ohm-m                      : IEL Short Normal
SP.mV                         : IEL Spontaneous Potential
DIR.Ohm-m                     : IEL Induction Resistivity
GR.GAPI                       : Gamma Ray
~Parameter Information Block
~A  Depth        SN          SP         DIR          GR     
# ...
  1404.0000     24.8276     26.5723     24.5947    110.3054
  1404.2500     25.2700     26.9188     25.0135    108.7519
  1404.5000     25.6240     27.3136     25.3653    104.6634
  1404.7500     25.9749     27.7472     25.6865    101.3241
  1405.0000     26.4823     28.2007     25.9944     96.4466
  1405.2500     27.2450     28.6469     26.2925     93.7546
  1405.5000     28.2497     29.0537     26.5993     90.7272
  1405.7500     29.3973     29.3964     26.9640     89.0813
  1406.0000     30.5638     29.6720     27.4483     86.5426
  1406.2500     31.6704     29.9000     28.0846     84.7409
  1406.5000     32.7270     30.1048     28.8366     82.2618
  1406.7500     33.7848     30.2933     29.5914     80.9390
  1407.0000     34.8344     30.4493     30.1886     79.2989
  1407.2500     35.7523     30.5490     30.4796     78.2403
  1407.5000     36.3380     30.5812     30.3807     76.8302
  1407.7500     36.4484     30.5537     29.8916     76.4866
  1408.0000     36.1188     30.4782     29.0748     77.7953
  1408.2500     35.4862     30.3539     28.0206     80.0004
  1408.5000     34.5737     30.1656     26.8155     84.6269
  1408.7500     33.2371     29.8975     25.5234     88.1417
  1409.0000     31.3515     29.5518     24.1813     93.9483
  1409.2500     28.9847     29.1540     22.8138     98.3814
  1409.5000     26.3862     28.7407     21.4537    105.9031
  1409.7500     23.8518     28.3408     20.1492    111.1395
  1410.0000     21.5803     27.9630     18.9491    118.3987
  1410.2500     19.6276     27.6012     17.8805    122.4115
  1410.5000     17.9661     27.2482     16.9401    126.9565
  1410.7500     16.5616     26.9081     16.1043    129.1772
  1411.0000     15.3990     26.5976     15.3471    131.8940
  1411.2500     14.4661     26.3377     14.6524    133.5606
  1411.5000     13.7412     26.1458     14.0160    135.7644
  1411.7500     13.1949     26.0296     13.4394    136.7464
  1412.0000     12.7765     25.9847     12.9234    137.1612
  1412.2500     12.4038     25.9961     12.4664    136.8647
  1412.5000     12.0142     26.0439     12.0657    136.1966
  1412.7500     11.6173     26.1123     11.7198    135.9593
  1413.0000     11.2685     26.1934     11.4294    136.2356
  1413.2500     11.0085     26.2831     11.1958    136.8914
  1413.5000     10.8366     26.3732     11.0159    138.5477
  1413.7500     10.7272     26.4493     10.8781    139.9265
  1414.0000     10.6542     26.4992     10.7633    141.6262
  1414.2500     10.6042     26.5202     10.6518    141.9190
  1414.5000     10.5775     26.5156     10.5320    140.5633
  1414.7500     10.5758     26.4891     10.4011    138.6709
  1415.0000     10.5942     26.4435     10.2599    135.3195
  1415.2500     10.6201     26.3838     10.1082    133.3515
  1415.5000     10.6274     26.3176      9.9454    131.5813
  1415.7500     10.5876     26.2554      9.7760    131.4834
  1416.0000     10.4998     26.2122      9.6108    133.2475
  1416.2500     10.3909     26.2037      9.4632    135.6570
  1416.5000     10.2773     26.2345      9.3433    140.3618
  1416.7500     10.1298     26.2890      9.2555    143.4303
  1417.0000      9.8846     26.3352      9.2002    146.7695
  1417.2500      9.5205     26.3432      9.1750    148.0153
  1417.5000      9.1201     26.3047      9.1750    148.9074
  1417.7500      8.8271     26.2383      9.1928    149.0405
  1418.0000      8.7727     26.1797      9.2226    148.2660
  1418.2500      9.0318     26.1649      9.2654    146.9597
  1418.5000      9.5639     26.2184      9.3335    144.4128
  1418.7500     10.1824     26.3466      9.4482    142.9687
  1419.0000     10.6725     26.5365      9.6310    141.6480
  1419.2500     10.9558     26.7648      9.8937    140.9477
  1419.5000     11.0902     27.0149     10.2348    138.9143
  1419.7500     11.1692     27.2882     10.6452    136.2413
  1420.0000     11.2796     27.5980     11.1195    129.6815
  1420.2500     11.5086     27.9543     11.6624    123.6862
  1420.5000     11.9743     28.3545     12.2837    113.0364
  1420.7500     12.8808     28.7888     12.9869    105.5294
  1421.0000     14.5089     29.2480     13.7624     95.0785
  1421.2500     17.0194     29.7239     14.5937     89.5047
  1421.5000     20.1839     30.2046     15.4738     84.2711
  1421.7500     23.4070     30.6722     16.4153     82.9359
  1422.0000     26.1075     31.1050     17.4435     83.3634
  1422.2500     28.0234     31.4827     18.5721     84.5564
  1422.5000     29.1824     31.7897     19.7784     86.5559
  1422.7500     29.7532     32.0158     20.9967     87.5204
  1423.0000     29.9516     32.1564     22.1319     88.0546
  1423.2500     29.9563     32.2082     23.0891     88.0255
  1423.5000     29.8531     32.1662     23.8049     88.4140
  1423.7500     29.6599     32.0239     24.2756     89.5426
  1424.0000     29.3993     31.7772     24.5625     92.6980
  1424.2500     29.1231     31.4276     24.7538     95.3028
  1424.5000     28.8526     30.9870     24.9016     98.9754
  1424.7500     28.5615     30.4805     24.9847    101.0482
  1425.0000     28.2436     29.9419     24.9380    103.7811
  1425.2500     27.9289     29.4036     24.7241    105.4902
  1425.5000     27.6147     28.8880     24.3787    108.0173
  1425.7500     27.2330     28.4049     23.9900    109.8539
  1426.0000     26.6926     27.9525     23.6402    113.3752
  1426.2500     25.9537     27.5210     23.3668    116.4916
  1426.5000     25.1038     27.0997     23.1630    122.1918
  1426.7500     24.3461     26.6839     23.0068    126.1435
  1427.0000     23.8600     26.2763     22.8926    130.8586
  1427.2500     23.6973     25.8797     22.8429    132.4458
  1427.5000     23.7943     25.4892     22.8927    132.0452
  1427.7500     24.0162     25.0952     23.0595    130.0998
  1428.0000     24.2348     24.6923     23.3216    125.0476
  1428.2500     24.4335     24.2895     23.6244    120.4055
  1428.5000     24.7046     23.9104     23.9103    112.1106
  1428.7500     25.1354     23.5820     24.1532    106.3849
  1429.0000     25.7287     23.3190     24.3674     98.9318
  1429.2500     26.4162     23.1193     24.5851     95.3802
  1429.5000     27.1346     22.9743     24.8264     92.6532
  1429.7500     27.8697     22.8808     25.0897     92.3882
  1430.0000     28.6026     22.8419     25.3638     93.4854
  1430.2500     29.2585     22.8588     25.6466     94.7173
  1430.5000     29.7381     22.9248     25.9503     96.7882
  1430.7500     29.9733     23.0252     26.2941     98.1732
  1431.0000     29.9596     23.1422     26.6943    100.1582
  1431.2500     29.7736     23.2570     27.1568    101.3489
  1431.5000     29.5420     23.3481     27.6714    102.5940
  1431.7500     29.3441     23.3946     28.2066    102.8309
  1432.0000     29.1600     23.3888     28.7041    102.2542
  1432.2500     28.9366     23.3460     29.0789    101.4018
  1432.5000     28.6581     23.2965     29.2392     99.5790
  1432.7500     28.3615     23.2678     29.1305     98.0658
  1433.0000     28.1432     23.2713     28.7791     95.9179
  1433.2500     28.0999     23.3025     28.2919     95.1873
  1433.5000     28.2067     23.3502     27.8016     96.0643
  1433.7500     28.3283     23.4098     27.4024     98.0868
  1434.0000     28.3622     23.4878     27.1156    102.6446
  1434.2500     28.3007     23.5956     26.8932    105.9616
  1434.5000     28.1726     23.7413     26.6471    109.9620
  1434.7500     27.9564     23.9270     26.2925    111.5028
  1435.0000     27.5529     24.1515     25.7872    112.4489
  1435.2500     26.8771     24.4115     25.1473    112.8546
  1435.5000     25.9691     24.7016     24.4252    114.1456
  1435.7500     24.9828     25.0128     23.6709    115.5834
  1436.0000     24.0673     25.3298     22.9030    118.1921
  1436.2500     23.2663     25.6325     22.1102    119.9715
  1436.5000     22.5253     25.9049     21.2752    122.5981
  1436.7500     21.7606     26.1453     20.4018    124.4245
  1437.0000     20.8985     26.3651     19.5201    127.5588
  1437.2500     19.9204     26.5808     18.6647    130.0903
