~Version Information
VERS.                      2.0: CWLS Log ASCII Standard - VERSION 2.0
WRAP.                       NO: One line per depth step
~Well Information Block
STRT.FT               483.0000: 
STOP.FT              1702.5000: 
STEP.FT                 0.2500: 
NULL.                -999.2500: 
COMP.          Pioneer Natural Resources: COMPANY
WELL.            Mad Dog 42-31: WELL
FLD.           Purgatorie River: FIELD
LOC.           2064' FNL & 479' FEL: LOCATION
PROV.                 Colorado: PROVINCE
CNTY.               Las Animas: COUNTRY
SRVC.                         : SERVICE COMPANY
DATE.          Sun Oct 10 04:26:24 2004: LOG DATE
UWI.           05 071 08195 00: UNIQUE WELL ID
~Curve Information Block
DEPT.FT            0 000 00 00: Depth
LTEN.lb                       : Surface Line Tension
SN.Ohm-m                      : IEL Short Normal
SP.mV                         : IEL Spontaneous Potential
DIR.Ohm-m                     : IEL Induction Resistivity
GR.GAPI                       : Gamma Ray
~Parameter Information Block
~A  Depth       LTEN         SN          SP         DIR          GR     
# ...
  1379.0000    771.1139     20.2920   -100.8727     16.8060     81.7963
  1379.2500    771.1182     21.2362    -99.8087     17.6003     80.7709
  1379.5000    770.2930     22.3952    -98.5605     18.4983     78.3066
  1379.7500    768.2396     23.7941    -97.2028     19.5378     76.3722
  1380.0000    765.5870     25.4352    -95.8138     20.7434     73.7499
  1380.2500    763.7866     27.2852    -94.4744     22.1107     72.5029
  1380.5000    764.0778     29.2768    -93.2693     23.5796     71.2807
  1380.7500    766.7195     31.3207    -92.2772     25.0308     70.4744
  1381.0000    770.8206     33.3168    -91.5584     26.3468     68.6758
  1381.2500    774.6526     35.1627    -91.1449     27.5067     67.2027
  1381.5000    776.4344     36.7638    -91.0343     28.6059     65.2473
  1381.7500    775.3973     38.0476    -91.1943     29.7464     64.2362
  1382.0000    772.4444     38.9781    -91.5784     30.8934     62.7789
  1382.2500    769.5964     39.5646    -92.1403     31.8333     61.6967
  1382.5000    768.3268     39.8595    -92.8449     32.3208     60.1634
  1382.7500    768.3636     39.9462    -93.6699     32.3263     59.4518
  1383.0000    768.5161     39.9199    -94.5987     32.1147     59.1524
  1383.2500    768.6121     39.8674    -95.6047     32.0397     59.5135
  1383.5000    769.9123     39.8506    -96.6367     32.2827     60.5088
  1383.7500    773.4645     39.9025    -97.6187     32.7367     60.9244
  1384.0000    778.5581     40.0320    -98.4538     33.0728     60.1846
  1384.2500    782.9396     40.2347    -99.0432     32.9652     58.5667
  1384.5000    784.4582     40.5032    -99.3057     32.3511     54.8805
  1384.7500    782.8419     40.8300    -99.1931     31.4875     52.0374
  1385.0000    780.0019     41.2056    -98.7052     30.7569     47.8452
  1385.2500    778.3220     41.6155    -97.8831     30.4381     45.4128
  1385.5000    778.6812     42.0375    -96.8102     30.6087     43.0385
  1385.7500    780.2795     42.4398    -95.5923     31.1592     42.7785
  1386.0000    781.9119     42.7813    -94.3523     31.8500     44.5857
  1386.2500    782.8709     43.0182    -93.2049     32.3885     46.7447
  1386.5000    782.9730     43.1169    -92.2419     32.5315     49.6752
  1386.7500    782.4596     43.0615    -91.5110     32.1999     50.4007
  1387.0000    781.7988     42.8512    -91.0092     31.5201     48.9442
  1387.2500    781.0885     42.4875    -90.6831     30.7168     46.7721
  1387.5000    779.7745     41.9660    -90.4498     29.9399     43.5810
  1387.7500    777.4059     41.2760    -90.2171     29.1758     42.5796
  1388.0000    774.5277     40.4031    -89.9110     28.2974     43.8931
  1388.2500    772.3871     39.3301    -89.4914     27.1963     46.8179
  1388.5000    771.7193     38.0392    -88.9545     25.8854     53.7066
  1388.7500    772.0836     36.5239    -88.3252     24.4892     59.1036
  1389.0000    772.4594     34.8063    -87.6444     23.1567     66.3278
  1389.2500    772.3007     32.9466    -86.9558     21.9788     69.4866
  1389.5000    771.7732     31.0320    -86.2962     20.9607     71.2369
  1389.7500    771.1498     29.1497    -85.6909     20.0439     71.1356
  1390.0000    770.5900     27.3618    -85.1523     19.1520     71.1386
  1390.2500    770.5825     25.6977    -84.6802     18.2355     72.0780
  1390.5000    771.7372     24.1638    -84.2662     17.2924     74.9468
  1390.7500    773.7435     22.7540    -83.8997     16.3610     77.3750
  1391.0000    775.2517     21.4496    -83.5718     15.4959     81.2836
  1391.2500    775.2878     20.2118    -83.2763     14.7397     84.3023
  1391.5000    774.3332     18.9838    -83.0092     14.1015     90.5117
  1391.7500    773.7706     17.7164    -82.7607     13.5543     96.1288
  1392.0000    774.5579     16.4056    -82.5051     13.0530    105.6402
  1392.2500    776.5090     15.1106    -82.1965     12.5617    111.0418
  1392.5000    778.5211     13.9328    -81.7770     12.0691    114.9473
  1392.7500    779.4241     12.9653    -81.1852     11.5826    114.1817
  1393.0000    778.8561     12.2505    -80.3745     11.1154    109.1368
  1393.2500    777.4274     11.7709    -79.3290     10.6817    104.5581
  1393.5000    776.1764     11.4700    -78.0725     10.2972     98.1529
  1393.7500    776.0873     11.2810    -76.6656      9.9763     94.8938
  1394.0000    777.7501     11.1453    -75.1964      9.7256     91.4709
  1394.2500    780.7092     11.0200    -73.7610      9.5400     89.9617
  1394.5000    783.2793     10.8826    -72.4472      9.4075     89.2170
  1394.7500    783.8912     10.7352    -71.3167      9.3189     90.1844
  1395.0000    782.7377     10.6009    -70.3969      9.2742     93.8448
  1395.2500    781.5769     10.5126    -69.6773      9.2811     97.0209
  1395.5000    781.9365     10.4963    -69.1183      9.3468    101.0031
  1395.7500    783.8877     10.5623    -68.6604      9.4709    102.3136
  1396.0000    786.3659     10.7047    -68.2460      9.6431    102.0502
  1396.2500    788.0591     10.9092    -67.8268      9.8470    100.8251
  1396.5000    787.9761     11.1608    -67.3768     10.0656     98.2553
  1396.7500    785.9197     11.4491    -66.8890     10.2859     96.2873
  1397.0000    782.8347     11.7675    -66.3683     10.5001     93.1129
  1397.2500    780.4489     12.1092    -65.8266     10.7014     91.1185
  1397.5000    780.2558     12.4617    -65.2717     10.8776     89.1499
  1397.7500    782.5596     12.8072    -64.7095     11.0091     88.8465
  1398.0000    786.1563     13.1291    -64.1431     11.0793     89.6376
  1398.2500    788.9548     13.4142    -63.5787     11.0877     90.5618
  1398.5000    789.2979     13.6484    -63.0213     11.0523     91.8077
  1398.7500    786.9453     13.8086    -62.4766     10.9958     92.0013
  1399.0000    783.1019     13.8631    -61.9553     10.9289     90.2536
  1399.2500    779.8704     13.7873    -61.4731     10.8432     87.6076
  1399.5000    779.2158     13.5817    -61.0591     10.7187     82.9749
  1399.7500    781.5302     13.2789    -60.7528     10.5386     80.9387
  1400.0000    785.0958     12.9323    -60.5984     10.3017     81.0557
  1400.2500    787.4910     12.5935    -60.6324     10.0237     82.9593
  1400.5000    787.6666     12.2924    -60.8680      9.7276     86.5163
  1400.7500    786.5446     12.0315    -61.2856      9.4310     88.1215
  1401.0000    785.7476     11.7953    -61.8347      9.1409     88.4843
  1401.2500    785.9565     11.5659    -62.4459      8.8580     87.7715
  1401.5000    786.4310     11.3359    -63.0480      8.5841     87.1286
  1401.7500    785.7867     11.1117    -63.5835      8.3262     88.1392
  1402.0000    783.0959     10.9073    -64.0193      8.0932     92.5685
  1402.2500    778.6639     10.7349    -64.3485      7.8934     96.8113
  1402.5000    774.1352     10.5969    -64.5807      7.7327    102.7272
  1402.7500    771.6274     10.4841    -64.7289      7.6154    105.0478
  1403.0000    772.3301     10.3808    -64.7996      7.5423    105.1645
  1403.2500    775.6236     10.2762    -64.7795      7.5087    103.3355
  1403.5000    779.3391     10.1721    -64.6381      7.5041     99.0865
  1403.7500    781.0634     10.0796    -64.3388      7.5167     96.0307
  1404.0000    779.9026     10.0085    -63.8556      7.5398     92.0380
  1404.2500    777.3654      9.9629    -63.1845      7.5749     90.1235
  1404.5000    776.0345      9.9484    -62.3555      7.6309     88.8585
  1404.7500    777.0892      9.9817    -61.4239      7.7197     89.2809
  1405.0000    779.5666     10.0916    -60.4623      7.8548     91.6883
  1405.2500    781.9301     10.3105    -59.5405      8.0526     93.9800
  1405.5000    783.4559     10.6685    -58.7126      8.3363     97.0351
  1405.7500    784.1121     11.1997    -58.0137      8.7359     98.0607
  1406.0000    784.1690     11.9595    -57.4579      9.2799     97.4741
  1406.2500    784.1608     13.0395    -57.0471      9.9787     95.5613
  1406.5000    784.4901     14.5698    -56.7727     10.8037     89.9600
  1406.7500    784.9395     16.6970    -56.6223     11.6774     84.0791
