~Version Information
VERS.                      2.0: CWLS Log ASCII Standard - VERSION 2.0
WRAP.                       NO: One line per depth step
~Well Information Block
STRT.FT                -7.5000: 
STOP.FT               978.5000: 
STEP.FT                 0.2500: 
NULL.                -999.2500: 
COMP.          Pioneer Natural Resources: COMPANY
WELL.          Piggyback 33-25: WELL
FLD.           Purgatoire River: FIELD
LOC.           1600' FSL & 1800' FEL: LOCATION
PROV.                 Colorado: PROVINCE
CNTY.               Las Animas: COUNTRY
SRVC.                Patterson: SERVICE COMPANY
DATE.          Mon May 09 09:22:28 2005: LOG DATE
UWI.           05 071 08233 00: UNIQUE WELL ID
~Curve Information Block
DEPT.FT            0 000 00 00: Depth
CCL.                          : Casing Collar Locator
TT3.usec                      : CBL 3' Travel Time
AMP3.mV                       : CBL 3' Amplitude
GR.GAPI                       : Gamma Ray
~Parameter Information Block
~A  Depth       CCL         TT3         AMP3         GR     
# ...
   696.0000      0.0000    765.9669      7.4725     78.4258
   696.2500      0.0000    766.0488      7.5989     76.9181
   696.5000      0.0000    765.9719      7.6359     76.7251
   696.7500      0.0000    765.8114      7.5968     77.3209
   697.0000      0.0000    765.5916      7.5138     77.9434
   697.2500      0.0000    765.2751      7.4197     77.9785
   697.5000      0.0000    764.6990      7.3397     77.3039
   697.7500      0.0000    763.4533      7.2919     76.5291
   698.0000      0.0000    760.9012      7.2886     76.6911
   698.2500      0.0000    756.7258      7.3305     78.3397
   698.5000      0.0000    751.8391      7.3972     80.9121
   698.7500      0.0000    748.4725      7.4473     83.2042
   699.0000      0.0000    748.5983      7.4454     84.3608
   699.2500      0.0000    751.9894      7.3957     84.2493
   699.5000      0.0000    756.2368      7.3452     83.1616
   699.7500      0.0000    758.8818      7.3489     81.4999
   700.0000      0.0000    759.3758      7.4304     79.5815
   700.2500      0.0000    759.0612      7.5728     77.4704
   700.5000      0.0000    759.5718      7.7382     75.0928
   700.7500      0.0000    761.3766      7.8903     72.6895
   701.0000      0.0000    763.7205      7.9989     71.0383
   701.2500      0.0000    765.6279      8.0354     70.9973
   701.5000      0.0000    766.6908      7.9810     72.8394
   701.7500      0.0000    767.0255      7.8424     76.0779
   702.0000      0.0000    766.8688      7.6567     79.7718
   702.2500      0.0000    766.3250      7.4763     82.9649
   702.5000      0.0000    765.2685      7.3473     85.1321
   702.7500      0.0000    763.2166      7.2928     86.3765
   703.0000      0.0000    759.4490      7.3045     87.1258
   703.2500      0.0000    753.8383      7.3429     87.6605
   703.5000      0.0000    747.8560      7.3559     87.9707
   703.7500      0.0000    744.1700      7.3103     87.8638
   704.0000      0.0000    744.3762      7.2117     87.1028
   704.2500      0.0000    746.9307      7.0931     85.5535
   704.5000      0.0000    747.2780      6.9922     83.2762
   704.7500      0.0000    740.1170      6.9358     80.5311
   705.0000      0.0000    722.9531      6.9367     77.8390
   705.2500      0.0000    699.3935      6.9907     75.9199
   705.5000      0.0000    678.6141      7.0779     75.2943
   705.7500      0.0000    669.0485      7.1732     75.7901
   706.0000      0.0000    671.2645      7.2636     76.4161
   706.2500      0.0000    677.9296      7.3596     75.7919
   706.5000      0.0000    680.9705      7.4837     72.9177
   706.7500      0.0000    677.5394      7.6414     67.7685
   707.0000      0.0000    669.6544      7.8028     61.2885
   707.2500      0.0000    660.8782      7.9186     54.8490
   707.5000      0.0000    654.2578      7.9533     49.5699
   707.7500      0.0000    651.3848      7.9043     45.9426
   708.0000      0.0000    651.8155      7.7949     44.0277
   708.2500      0.0000    653.7487      7.6535     43.9709
   708.5000      0.0000    655.4493      7.4945     46.1520
   708.7500      0.0000    655.6935      7.3059     50.6108
   709.0000      0.0000    653.8288      7.0533     56.2639
   709.2500      0.0000    651.1829      6.7134     60.9057
   709.5000      0.0000    652.3571      6.3128     62.5380
   709.7500      0.0000    663.2396      5.9213     60.9640
   710.0000      0.0000    686.1818      5.6037     57.7436
   710.2500      0.0000    716.9767      5.4057     54.4002
   710.5000      0.0000    747.0383      5.3647     51.1719
   710.7500      0.0000    769.0472      5.4804     47.7983
   711.0000      2.0000    781.0826      5.6780     44.8097
   711.2500     -2.0000    785.9497      5.8476     43.3440
   711.5000     -2.0000    787.3050      5.9243     43.9378
   711.7500      0.0000    786.8018      5.9241     45.9355
   712.0000      0.0000    784.2844      5.9236     47.9139
   712.2500      0.0000    779.7685      6.0047     48.5709
   712.5000      0.0000    774.8777      6.1869     47.6284
   712.7500      0.0000    772.1489      6.4110     46.1051
   713.0000      0.0000    772.7625      6.6128     45.4914
   713.2500      0.0000    775.4143      6.7944     46.6310
   713.5000      0.0000    777.8048      6.9959     49.5299
   713.7500      0.0000    778.7239      7.2204     53.8287
   714.0000      0.0000    778.3339      7.4188     58.9003
   714.2500      0.0000    777.1059      7.5385     63.7645
   714.5000      0.0000    775.1263      7.5679     67.6604
   714.7500      0.0000    772.2800      7.5382     70.8512
   715.0000      0.0000    768.5553      7.4908     74.4737
   715.2500      0.0000    764.0589      7.4426     79.4027
   715.5000      0.0000    759.1862      7.3771     85.3042
   715.7500      0.0000    754.8523      7.2747     90.8158
   716.0000      0.0000    752.1987      7.1438     94.6636
   716.2500      0.0000    751.8776      7.0166     96.6325
   716.5000      0.0000    753.5393      6.9187     97.3411
   716.7500      0.0000    755.7941      6.8552     97.2422
   717.0000      0.0000    756.8386      6.8182     96.3369
   717.2500      0.0000    755.6317      6.7970     94.8910
   717.5000      0.0000    752.5509      6.7816     93.8242
   717.7500      0.0000    748.7027      6.7673     94.0895
   718.0000      0.0000    744.8198      6.7574     95.9383
   718.2500      0.0000    741.1687      6.7583     98.8810
   718.5000      0.0000    738.1971      6.7699    101.9226
   718.7500      0.0000    736.4912      6.7839    103.5481
   719.0000      0.0000    735.7125      6.7908    101.9358
   719.2500      0.0000    734.0388      6.7854     95.9326
   719.5000      0.0000    729.5240      6.7691     86.2038
   719.7500      0.0000    722.3409      6.7451     75.3606
   720.0000      0.0000    715.3598      6.7097     66.8348
   720.2500      0.0000    712.0787      6.6499     63.3262
   720.5000      0.0000    714.0350      6.5550     65.6171
   720.7500      0.0000    720.0542      6.4314     72.0707
   721.0000      0.0000    727.1386      6.3053     79.1633
   721.2500      0.0000    731.7137      6.2164     83.3193
   721.5000      0.0000    731.0952      6.2052     83.1285
   721.7500      0.0000    724.9634      6.2982     80.0716
   722.0000      0.0000    715.9760      6.4942     77.0349
   722.2500      0.0000    709.0057      6.7596     76.0764
   722.5000      0.0000    708.9054      7.0353     77.3148
   722.7500      0.0000    717.4379      7.2554     79.3543
   723.0000      0.0000    731.7389      7.3842     80.4132
   723.2500      0.0000    746.3232      7.4464     79.2673
   723.5000      0.0000    756.9783      7.5168     75.6768
   723.7500      0.0000    762.7859      7.6661     70.4650
   724.0000      0.0000    765.1501      7.9094     65.2778
   724.2500      0.0000    765.8292      8.2000     61.7201
   724.5000      0.0000    765.9208      8.4709     60.3063
   724.7500      0.0000    765.8887      8.6812     60.2087
   725.0000      0.0000    765.8987      8.8243     60.0245
   725.2500      0.0000    765.9953      8.9025     58.8741
   725.5000      0.0000    766.1382      8.9091     57.1204
   725.7500      0.0000    766.1494      8.8394     56.2018
   726.0000      0.0000    765.5500      8.7094     57.5259
   726.2500      0.0000    763.2509      8.5524     61.2494
   726.5000      0.0000    757.4529      8.3946     66.0648
   726.7500      0.0000    746.4432      8.2349     70.1418
   727.0000      0.0000    730.3423      8.0482     72.3158
   727.2500      0.0000    712.2531      7.8155     72.6961
   727.5000      0.0000    697.1486      7.5496     72.5082
   727.7500      0.0000    689.1567      7.2892     73.2637
   728.0000      0.0000    689.6000      7.0695     75.6452
   728.2500      0.0000    696.9153      6.9034     79.1098
   728.5000      0.0000    707.8796      6.7877     82.7327
   728.7500      0.0000    719.1887      6.7140     86.1536
   729.0000      0.0000    728.5042      6.6691     89.2549
   729.2500      0.0000    734.5753      6.6352     91.1984
