~Version Information
VERS.                      2.0: CWLS Log ASCII Standard - VERSION 2.0
WRAP.                       NO: One line per depth step
~Well Information Block
STRT.FT               550.0000: 
STOP.FT              2042.5000: 
STEP.FT                 0.2500: 
NULL.                -999.2500: 
COMP.          Petrogulf Corporation: COMPANY
WELL.          Robinson 15-12V: WELL
FLD.           Purgatorie River: FIELD
LOC.           1788' FNL & 466' FWL: LOCATION
PROV.                 Colorado: PROVINCE
CNTY.               Las Animas: COUNTRY
SRVC.                Patterson: SERVICE COMPANY
DATE.          Mon Sep 12 10:04:59 2005: LOG DATE
UWI.                          : UNIQUE WELL ID
~Curve Information Block
DEPT.FT            0 000 00 00: Depth
SP.mV                         : DIL Spontaneous Potential
RILD.Ohm-m                    : DIL Deep Resistivity
RILM.Ohm-m                    : DIL Medium Resistivity
RLL3.Ohm-m                    : DIL Shallow Resistivity
GR.GAPI                       : Gamma Ray
~Parameter Information Block
~A  Depth        SP         RILD        RILM        RLL3         GR     
# ...
  1334.0000    207.9709     15.8368     16.8729     26.9719     95.6027
  1334.2500    208.6641     16.0975     18.2048     50.3746     83.0791
  1334.5000    207.8961     16.8865     19.0238     87.0263     74.6657
  1334.7500    208.4804     16.8702     20.3082     81.2418     70.2796
  1335.0000    207.5411     17.5029     20.6032     60.4456     88.7080
  1335.2500    207.7944     18.3770     21.1032     37.3134    102.9188
  1335.5000    207.5495     20.0586     21.6537     25.4973    112.8297
  1335.7500    207.2173     20.9522     23.1059     19.8014    107.5471
  1336.0000    207.3672     23.3157     24.8244     22.0458    101.0904
  1336.2500    207.0921     24.7459     27.4953     29.9924     80.8215
  1336.5000    207.7904     25.2281     28.6839     38.3964     74.2606
  1336.7500    207.2214     25.7172     30.7564     42.1615     69.7730
  1337.0000    207.5030     26.7253     31.4413     44.3641     63.3124
  1337.2500    206.8928     26.8815     32.5110     47.4255     63.2980
  1337.5000    206.9003     27.7307     32.3107     49.8169     60.4951
  1337.7500    206.9735     27.7202     32.2280     50.4802     61.4048
  1338.0000    205.9531     26.9737     31.7814     48.6453     68.7761
  1338.2500    205.9763     26.9423     31.6102     45.1760     67.1031
  1338.5000    205.9107     28.6529     32.6801     41.8190     68.2151
  1338.7500    205.7710     28.5868     34.1475     40.5809     76.3392
  1339.0000    204.8965     29.7875     34.1377     42.0413     83.8202
  1339.2500    204.2019     30.4405     32.5694     42.4152     80.9037
  1339.5000    204.4569     30.5339     35.1812     40.8409     80.6936
  1339.7500    204.1315     30.0264     33.8841     40.1473     83.7725
  1340.0000    203.8522     30.5275     33.2203     40.4412     72.0506
  1340.2500    203.9234     29.4510     34.9617     41.2576     70.8537
  1340.5000    204.4969     29.1466     34.8522     41.3607     79.8186
  1340.7500    204.9594     29.0731     33.7589     41.1776     74.2491
  1341.0000    203.9403     29.4417     34.5438     41.5763     74.7919
  1341.2500    203.2568     29.6846     33.1885     42.4501     79.3414
  1341.5000    203.2227     29.2468     33.5978     42.3432     75.3881
  1341.7500    202.7413     28.5254     35.2601     40.8496     76.5239
  1342.0000    202.7752     27.7399     34.2965     39.8641     80.9612
  1342.2500    201.3151     28.2352     32.5569     38.1294     77.0050
  1342.5000    201.7342     28.2463     33.0602     37.4810     78.6283
  1342.7500    200.9725     27.7016     33.4404     36.6104     81.9149
  1343.0000    200.9570     27.9591     32.1422     36.6803    103.1835
  1343.2500    200.5165     26.9562     33.2188     37.8986     95.3197
  1343.5000    200.3112     27.8267     34.0267     40.3662     91.8940
  1343.7500    199.6305     27.8247     33.7313     42.5187     88.5438
  1344.0000    198.9808     26.9601     36.0571     45.1419     92.6901
  1344.2500    199.4455     28.0927     35.8263     46.4310     91.0751
  1344.5000    199.0297     27.6004     35.1401     46.2178     84.7167
  1344.7500    199.1879     27.9671     35.2462     44.8777     79.8333
  1345.0000    198.8208     28.2253     34.2951     43.0033     73.0914
  1345.2500    199.2984     29.5411     34.3087     41.9338     76.6003
  1345.5000    199.5637     30.9206     36.4561     41.7518     74.7935
  1345.7500    199.0526     32.4190     38.5754     42.0777     71.7297
  1346.0000    199.4506     31.0344     37.7673     42.1111     78.8832
  1346.2500    199.3328     31.2690     36.2539     42.1797     78.0734
  1346.5000    199.9703     31.4155     36.8361     41.8671     71.5186
  1346.7500    200.2747     31.0962     37.0655     41.9094     65.7668
  1347.0000    199.7046     29.0606     40.9720     43.1648     68.0632
  1347.2500    199.7975     30.6661     39.3273     43.2542     73.8180
  1347.5000    200.7297     30.9022     39.9369     42.5452     67.1867
  1347.7500    201.2864     29.1286     42.5080     41.9795     68.1516
  1348.0000    202.0410     29.1027     39.7549     44.6397     65.5005
  1348.2500    202.0446     28.5728     40.2109     49.8344     66.1005
  1348.5000    202.7833     28.9135     42.3896     54.1585     63.4480
  1348.7500    203.3034     29.0469     41.6414     58.9167     61.6071
  1349.0000    204.4433     27.8088     38.4605     64.7633     64.1466
  1349.2500    204.7295     28.7500     36.5370     66.7579     67.6101
  1349.5000    205.4902     26.8180     36.2881     62.0969     70.4611
  1349.7500    206.8641     26.4051     35.9362     56.8588     67.5762
  1350.0000    207.8131     23.9199     35.8477     50.1439     67.1372
  1350.2500    208.4616     22.2024     33.2852     51.8565     69.7910
  1350.5000    209.4250     21.0360     31.3908     57.4796     77.8601
  1350.7500    210.3344     19.3101     29.8039     43.2285     88.0471
  1351.0000    211.4737     17.2773     25.7410     26.2344    103.7080
  1351.2500    212.0339     16.2047     22.0459     21.3590    106.7066
  1351.5000    213.0502     15.3044     20.0669     21.0337    118.5566
  1351.7500    213.8885     13.8970     16.9866     15.7323    129.2108
  1352.0000    214.9195     13.2048     15.0498     11.3724    146.9156
  1352.2500    215.8674     12.6576     13.2041      9.5663    156.3171
  1352.5000    215.6524     11.6879     11.7614      9.3843    163.9129
  1352.7500    216.2593     11.3781     11.1691      9.5813    159.6064
  1353.0000    216.4243     10.7372     10.1853      9.5267    161.1644
  1353.2500    216.5091     10.0885      9.6401      8.9141    162.1258
  1353.5000    216.4720      9.9020      9.1292      8.7629    151.9382
  1353.7500    216.7644      9.5397      8.7570      8.6567    157.1089
  1354.0000    217.3581      9.1686      8.5576      8.5507    166.3127
  1354.2500    217.3456      9.3312      8.2923      8.4425    161.9313
  1354.5000    218.1036      9.3823      8.2894      8.1661    175.3095
  1354.7500    218.0768      9.4234      8.4097      8.2790    175.0742
  1355.0000    218.2854      9.6778      8.5416      8.3912    157.9922
  1355.2500    218.6875      9.7037      8.8944      8.7052    152.5483
  1355.5000    218.0385     10.1908      9.4922      9.1215    149.9934
  1355.7500    217.9431     10.2159      9.9315      9.6193    146.6188
  1356.0000    218.3845     10.4264     10.7124     11.3483    122.3834
  1356.2500    218.6997     10.8061     11.7221     14.3008    114.4355
  1356.5000    219.1962     11.2276     12.1674     20.1630    102.2861
  1356.7500    218.5405     11.5080     13.0042     24.9104     89.4459
  1357.0000    218.6469     11.7289     13.9412     26.9990    100.0296
  1357.2500    218.2798     12.2010     13.7481     22.4646    106.4918
  1357.5000    218.6478     12.8995     14.3527     16.1064    108.6926
  1357.7500    218.3109     13.5231     14.9824     12.4453    104.6794
  1358.0000    217.7147     13.7400     15.2341     11.8760    115.8530
  1358.2500    217.6705     14.1146     15.8281     13.2270    113.8955
  1358.5000    217.1051     14.4766     16.4220     14.6964    115.5735
  1358.7500    217.5155     14.3141     16.5355     15.7851    114.2719
  1359.0000    216.7953     14.0619     17.0332     16.3177    112.8037
  1359.2500    216.1618     13.8190     16.6151     17.4915    112.6653
  1359.5000    216.5569     13.4062     16.4534     17.5478    120.0008
  1359.7500    216.8352     12.9885     15.1972     15.7738    128.3999
  1360.0000    217.1800     12.9920     14.3833     13.5969    125.9220
  1360.2500    216.7944     12.7047     13.6933     11.4924    121.6782
  1360.5000    216.7797     12.2485     13.5228     10.4386    136.1107
  1360.7500    216.9929     12.0975     13.3290     10.6329    132.2248
  1361.0000    216.8665     11.7703     13.1990     11.9551    144.1689
  1361.2500    216.3502     11.6314     12.3140     12.6304    140.3298
  1361.5000    216.4483     11.6364     12.1209     11.2434    145.3760
  1361.7500    217.0169     11.5122     11.9359      9.8928    140.9587
