~Version Information
 VERS.                                  2.0 : CWLS LAS VERSION
 WRAP.                                   NO : WRAPING MODE
 SWARE .                 MController 2.5.0J : SOFTWARE VERSION
~Well Information
 WELL.                       Costello 44-24 : WELL
 COMP.    Pioneer Natural Resources USA Inc : COMPANY
 FLD.                      Purgatoire River : FIELD
 LOC.                SE/SE Sec 24 T32S R67W : LOCATION
 DATE.                            7/10/2005 : DATE(S) LOGGED
 SRVC.       BLANCO Geological Services LLC : SERVICE COMPANY
 STAT.                                   CO : STATE
 CNTY.                           Las Animas : COUNTY
 CTRY.                                  USA : COUNTRY
 API.                       05-071-08413-00 : API NUMBER
 STRT.FT                             305.00 : START DEPTH
 STOP.FT                            2545.00 : STOP DEPTH
 STEP.FT                               1.00 : DEPTH INCREMENT
 NULL.                                 999 : NULL VALUE
~Curve information
 DEPTH.FT                                   :
 ROP.MIN/FT                                 :
 GAS.UNITS                                  :
~ASCII Log data
# ...
      1905.0         0.30        187.4 
      1906.0         0.37        177.8 
      1907.0         0.23        185.0 
      1908.0         0.23        188.6 
      1909.0         0.28        193.1 
      1910.0         0.37        190.1 
      1911.0         0.37        185.8 
      1912.0         0.37        170.7 
      1913.0         0.33        160.6 
      1914.0         0.33        156.6 
      1915.0         0.40        156.9 
      1916.0         5.53        456.9 
      1917.0         0.17        441.9 
      1918.0         0.20        422.5 
      1919.0         0.30        371.3 
      1920.0         0.37        310.9 
      1921.0         0.53        316.1 
      1922.0         0.53        316.8 
      1923.0         0.28        286.5 
      1924.0         0.20        260.7 
      1925.0         0.20        254.4 
      1926.0         0.17        242.0 
      1927.0         0.17        235.3 
      1928.0         0.17        228.9 
      1929.0         0.20        223.2 
      1930.0         0.17        216.8 
      1931.0         0.20        208.3 
      1932.0         0.20        205.3 
      1933.0         0.17        197.2 
      1934.0         0.17        196.0 
      1935.0         0.17        195.1 
      1936.0         0.20        193.2 
      1937.0         0.17        188.2 
      1938.0         0.17        184.1 
      1939.0         0.17        182.3 
      1940.0         0.17        175.5 
      1941.0         0.25        169.3 
      1942.0         0.20        165.0 
      1943.0         0.17        163.4 
      1944.0         0.17        175.4 
      1945.0         0.20        181.9 
      1946.0         8.50       1390.0 
      1947.0         0.82        671.4 
      1948.0         0.33        618.7 
      1949.0         0.37        656.2 
      1950.0         0.37        646.3 
      1951.0         0.47        641.3 
      1952.0         0.30        578.7 
      1953.0         0.27        559.1 
      1954.0         0.27        522.6 
      1955.0         0.37        527.6 
      1956.0         0.37        537.2 
      1957.0         0.28        541.0 
      1958.0         0.23        537.2 
      1959.0         0.27        534.0 
      1960.0         0.27        520.3 
      1961.0         0.30        511.8 
      1962.0         0.23        506.4 
      1963.0         0.27        505.1 
      1964.0         0.27        495.3 
      1965.0         0.30        492.1 
      1966.0         0.27        484.5 
      1967.0         0.33        482.9 
      1968.0         0.33        475.0 
      1969.0         0.28        478.4 
      1970.0         0.23        476.9 
      1971.0         0.23        470.2 
      1972.0         0.30        456.5 
      1973.0         0.33        453.4 
      1974.0         0.30        463.8 
      1975.0         0.23        462.9 
      1976.0         4.18        463.1 
      1977.0         0.40        420.4 
      1978.0         0.33        334.4 
      1979.0         0.32        348.7 
      1980.0         0.30        363.5 
      1981.0         0.27       3244.8 
      1982.0         0.23       5015.4 
      1983.0         0.23       5440.7 
      1984.0         0.17       5277.0 
      1985.0         0.20       4865.6 
      1986.0         0.23       4514.9 
      1987.0         0.20       4475.6 
      1988.0         0.20       4261.0 
      1989.0         0.20       3838.3 
      1990.0         0.23       3568.2 
      1991.0         0.20       3185.7 
      1992.0         0.27       2981.6 
      1993.0         0.18       2860.1 
      1994.0         0.20       2828.0 
      1995.0         0.20       2560.5 
      1996.0         0.23       2429.1 
      1997.0         0.17       2253.6 
      1998.0         0.20       2047.0 
      1999.0         0.20       1967.0 
      2000.0         0.20       1800.3 
      2001.0         0.17       1629.9 
      2002.0         0.20       1592.1 
      2003.0         0.23       1352.2 
      2004.0         0.17       1352.2 
      2005.0         0.17       1317.3 
      2006.0         4.77       3413.0 
      2007.0         0.23       2048.5 
      2008.0         0.27       1386.8 
      2009.0         0.30       1086.2 
      2010.0         0.23       1191.3 
      2011.0         0.27       1297.0 
      2012.0         0.27       1262.1 
      2013.0         0.23       1142.4 
      2014.0         0.27       1061.8 
      2015.0         0.23        926.0 
      2016.0         0.23        836.1 
      2017.0         0.23        784.1 
      2018.0         0.22        725.7 
      2019.0         0.20        676.8 
      2020.0         0.17        717.1 
      2021.0         0.20        782.2 
      2022.0         0.17        836.1 
      2023.0         0.17        857.1 
      2024.0         0.17        844.1 
      2025.0         0.17        804.1 
      2026.0         0.20        776.5 
      2027.0         0.13        757.4 
      2028.0         0.27        731.1 
      2029.0         0.20        726.0 
      2030.0         0.17        653.0 
      2031.0         0.17        635.2 
      2032.0         0.20        586.0 
      2033.0         0.20        577.8 
      2034.0         0.17        573.3 
      2035.0         0.20        573.3 
      2036.0         5.10       2467.5 
      2037.0         0.27       1735.0 
      2038.0         0.30       1214.1 
      2039.0         0.27        828.8 
      2040.0         0.27        866.0 
      2041.0         0.27       1076.4 
      2042.0         0.25       1130.4 
      2043.0         0.20       1115.4 
      2044.0         0.20       1056.4 
      2045.0         0.20        970.4 
      2046.0         0.17        953.6 
      2047.0         0.20        810.7 
      2048.0         0.17        713.0 
      2049.0         0.17        662.8 
      2050.0         0.17        639.4 
      2051.0         0.20        629.5 
      2052.0         0.20        671.4 
      2053.0         0.20        713.9 
      2054.0         0.20        766.3 
      2055.0         0.17        740.0 
      2056.0         0.20        740.0 
      2057.0         0.20        670.5 
      2058.0         0.20        663.2 
      2059.0         0.28        601.9 
      2060.0         0.30        584.8 
      2061.0         0.30        575.6 
      2062.0         0.20        572.7 
      2063.0         0.23        574.9 
      2064.0         0.23        572.7 
      2065.0         0.27        570.8 
      2066.0         7.57       3110.8 
      2067.0         0.30        899.6 
      2068.0         0.33        725.7 
      2069.0         0.32        657.1 
      2070.0         0.33        749.2 
      2071.0         0.37        848.2 
      2072.0         0.37        815.8 
      2073.0         0.27        778.4 
      2074.0         0.23        703.2 
      2075.0         0.20        690.1 
      2076.0         0.17        638.7 
      2077.0         0.17        617.8 
      2078.0         0.17        618.7 
      2079.0         0.20        588.6 
      2080.0         0.20        582.9 
      2081.0         0.20        575.6 
      2082.0         0.20        575.2 
      2083.0         0.22        580.0 
      2084.0         0.17        577.5 
      2085.0         0.20        569.9 
      2086.0         0.20        561.6 
      2087.0         0.20        555.6 
      2088.0         0.13        549.5 
      2089.0         0.17        547.3 
      2090.0         0.20        541.9 
      2091.0         0.20        532.4 
      2092.0         0.17        520.7 
      2093.0         0.20        521.0 
      2094.0         0.20        524.2 
      2095.0         0.20        524.2 
      2096.0         5.33       1812.1 
      2097.0         0.33        678.1 
      2098.0         0.30        673.6 
      2099.0         0.30        747.3 
      2100.0         0.30        813.6 
      2101.0         0.30        790.1 
      2102.0         0.37        734.9 
      2103.0         0.50        677.8 
      2104.0         0.28        723.2 
