~Version Information
VERS.                      2.0: CWLS Log ASCII Standard - VERSION 2.0
WRAP.                       NO: One line per depth step
~Well Information Block
STRT.FT               840.0000: 
STOP.FT              2450.0000: 
STEP.FT                 0.1000: 
NULL.                -999.2500: 
COMP.          Petrogulf Corporation: COMPANY
WELL.             Leier 17-42V: WELL
FLD.           Purgatorie River: FIELD
LOC.           2309' FNL & 1062' FEL SENE 17 33S 67W: LOCATION
PROV.                 Colorado: PROVINCE
CNTY.               Las Animas: COUNTRY
SRVC.                Patterson: SERVICE COMPANY
DATE.          Thu Sep 22 09:35:36 2005: LOG DATE
UWI.           071 08409 : UNIQUE WELL ID
~Curve Information Block
DEPT.FT            0 000 00 00: Depth
DCAL.in                       : CDL Caliper
RHOB.g/cc                     : CDL Bulk Density
RHOC.g/cc                     : CDL Density Correction
DPOR.pu                       : CDL Density Porosity
GR.GAPI                       : Gamma Ray
NPOR.pu                       : Neutron Porosity
~Parameter Information Block
~A  Depth       DCAL        RHOB        RHOC        DPOR         GR         NPOR    
# ...
  1905.6000      7.9040      2.4417     -0.0070     12.6271    111.7681     19.1778
  1905.7000      7.9040      2.4629      0.0756     11.3374    114.5997     20.0927
  1905.8000      7.8969      2.4889      0.0728      9.7661    113.7119     21.4882
  1905.9000      7.8969      2.5231      0.0620      7.6918    111.8426     22.3276
  1906.0000      7.8848      2.5710      0.1509      4.7850    114.8048     22.5681
  1906.1000      7.8848      2.6139      0.2361      2.1898    124.2611     22.8377
  1906.2000      7.8848      2.6344      0.2364      0.9429    132.2267     23.3409
  1906.3000      7.8654      2.6367      0.2293      0.8049    132.1147     24.0610
  1906.4000      7.8654      2.6225      0.2169      1.6669    129.3711     24.8196
  1906.5000      7.9429      2.5870      0.1729      3.8155    130.1148     25.2932
  1906.6000      7.9429      2.5475      0.0282      6.2116    133.6670     25.4343
  1906.7000      7.9429      2.5299      0.0703      7.2763    137.3987     25.3409
  1906.8000      7.9288      2.5368      0.0506      6.8616    140.7190     25.0060
  1906.9000      7.9288      2.5564      0.0792      5.6727    140.6055     24.4592
  1907.0000      7.9753      2.5721      0.1195      4.7207    134.6098     24.0518
  1907.1000      7.9753      2.5691      0.0760      4.9031    129.1250     24.0869
  1907.2000      7.9753      2.5503      0.0575      6.0440    127.7146     24.2301
  1907.3000      8.0189      2.5289      0.0346      7.3364    127.1775     24.1043
  1907.4000      8.0189      2.5131      0.0467      8.2960    127.1061     23.9177
  1907.5000      8.0581      2.5107     -0.0064      8.4441    128.5241     23.8118
  1907.6000      8.0581      2.5276      0.0436      7.4155    131.0998     23.8496
  1907.7000      8.0581      2.5493      0.0649      6.1027    135.5107     24.1298
  1907.8000      8.0322      2.5520      0.0616      5.9384    140.9623     24.2848
  1907.9000      8.0322      2.5348      0.0200      6.9823    142.8110     24.1488
  1908.0000      7.9837      2.5233      0.0214      7.6803    139.7499     24.1329
  1908.1000      7.9837      2.5390      0.0180      6.7278    134.9336     24.3786
  1908.2000      7.9837      2.5754      0.0710      4.5186    129.1370     24.6991
  1908.3000      7.9865      2.6096      0.1107      2.4460    125.7115     25.0738
  1908.4000      7.9865      2.6258      0.1607      1.4669    130.4119     25.4398
  1908.5000      7.9794      2.6271      0.1552      1.3898    137.0926     25.4135
  1908.6000      7.9794      2.6263      0.1376      1.4362    137.1320     24.9807
  1908.7000      7.9794      2.6236      0.1204      1.5982    133.2187     24.5935
  1908.8000      7.9803      2.6104      0.0591      2.3972    129.7887     24.2599
  1908.9000      7.9803      2.5894      0.0410      3.6735    128.4779     23.7489
  1909.0000      7.9512      2.5755      0.0031      4.5123    128.1993     23.1000
  1909.1000      7.9512      2.5714      0.0623      4.7659    126.8668     22.5823
  1909.2000      7.9512      2.5625      0.0148      5.3049    124.4755     22.4808
  1909.3000      7.9485      2.5523     -0.0482      5.9237    123.6761     22.6074
  1909.4000      7.9485      2.5543      0.0429      5.7977    124.5456     22.5483
  1909.5000      7.9501      2.5623      0.0093      5.3133    124.8641     22.2940
  1909.6000      7.9501      2.5528      0.0376      5.8929    126.1592     22.1106
  1909.7000      7.9501      2.4945      0.0265      9.4261    129.6146     22.1164
  1909.8000      7.9464      2.3857     -0.0220     16.0180    130.6551     22.4156
  1909.9000      7.9464      2.2668     -0.0509     23.2247    127.6153     23.0594
  1910.0000      7.9478      2.1699     -0.0470     29.0994    124.5473     23.7435
  1910.1000      7.9478      2.0902     -0.0852     33.9273    121.3596     24.2124
  1910.2000      7.9478      2.0141     -0.0960     38.5411    116.1470     24.7178
  1910.3000      7.9655      1.9512     -0.1398     42.3497    111.0494     25.2726
  1910.4000      7.9655      1.9267     -0.0978     43.8341    108.4810     25.5321
  1910.5000      8.0595      1.9450     -0.0242     42.7276    108.0865     25.7689
  1910.6000      8.0595      1.9851      0.0589     40.2969    106.4774     26.5865
  1910.7000      8.0595      2.0402      0.0579     36.9547    103.1256     28.0846
  1910.8000      8.1447      2.1219      0.1239     32.0056    102.2435     29.6009
  1910.9000      8.1447      2.2154      0.2070     26.3410    104.0271     30.3653
  1911.0000      8.1629      2.2899      0.1140     21.8249    106.7638     30.4467
  1911.1000      8.1629      2.3462      0.0946     18.4122    112.1991     30.5780
  1911.2000      8.1629      2.4058      0.0989     14.8021    119.4993     30.8736
  1911.3000      7.9779      2.4719      0.1537     10.7938    123.8605     30.6943
  1911.4000      7.9779      2.5310      0.1707      7.2112    123.6189     29.9122
  1911.5000      7.9357      2.5813      0.1873      4.1638    123.2616     29.1724
  1911.6000      7.9357      2.6211      0.2509      1.7540    125.2311     28.7656
  1911.7000      7.9357      2.6363      0.2505      0.8285    127.1049     28.2770
  1911.8000      7.9401      2.6226      0.2196      1.6636    128.4083     27.5324
  1911.9000      7.9401      2.5959      0.1247      3.2796    129.9078     26.9295
  1912.0000      7.9516      2.5758      0.1060      4.4976    128.6841     26.4934
  1912.1000      7.9516      2.5671      0.0758      5.0219    122.3077     26.1697
  1912.2000      7.9516      2.5705      0.0895      4.8165    114.0956     25.9299
  1912.3000      7.9422      2.5869      0.0828      3.8267    107.3088     25.1917
  1912.4000      7.9422      2.6066      0.0889      2.6276    103.1609     23.9063
  1912.5000      7.9450      2.6151      0.0801      2.1160    102.7483     22.8253
  1912.6000      7.9450      2.6093      0.1012      2.4674    103.5780     22.3414
  1912.7000      7.9450      2.5947      0.1014      3.3542    102.4766     22.0945
  1912.8000      7.9024      2.5741      0.0612      4.6010    100.5922     21.6835
  1912.9000      7.9024      2.5547      0.0705      5.7781     99.5805     21.3188
  1913.0000      7.8953      2.5466      0.0645      6.2646     99.4431     21.3720
  1913.1000      7.8953      2.5468      0.0407      6.2564     98.3710     21.7151
  1913.2000      7.8953      2.5428      0.0300      6.5000     94.4399     21.9663
  1913.3000      7.9166      2.5365      0.0371      6.8784     89.9242     21.8419
  1913.4000      7.9166      2.5412      0.0374      6.5946     87.6599     21.4497
  1913.5000      7.9178      2.5603      0.0541      5.4362     86.6623     21.1785
  1913.6000      7.9178      2.5835      0.0785      4.0307     84.6634     21.0607
  1913.7000      7.9178      2.5993      0.1056      3.0750     81.9450     21.1300
  1913.8000      7.8930      2.6071      0.0857      2.6023     80.5001     21.4856
  1913.9000      7.8930      2.6128      0.1214      2.2545     81.2403     21.8495
  1914.0000      7.8557      2.6140      0.1549      2.1833     82.3054     21.9172
  1914.1000      7.8557      2.6105      0.0663      2.3934     82.8536     21.5238
  1914.2000      7.8557      2.6071      0.1282      2.5995     85.1111     20.9196
  1914.3000      7.8286      2.5958      0.1169      3.2852     87.5711     20.6416
  1914.4000      7.8286      2.5752      0.0598      4.5354     87.8169     20.7311
  1914.5000      7.8486      2.5545      0.0844      5.7882     88.8090     20.7849
  1914.6000      7.8486      2.5363      0.0358      6.8918     94.5434     20.7285
  1914.7000      7.8486      2.5224      0.0525      7.7345    103.9978     20.9413
  1914.8000      7.8701      2.5154      0.0503      8.1548    112.7595     21.6258
  1914.9000      7.8701      2.5190      0.0333      7.9405    118.5899     22.5659
  1915.0000      7.9189      2.5297      0.0689      7.2907    122.2002     23.4906
  1915.1000      7.9189      2.5328      0.0741      7.1011    125.8031     24.2364
