~Version Information
VERS.                      2.0: CWLS Log ASCII Standard - VERSION 2.0
WRAP.                       NO: One line per depth step
~Well Information Block
STRT.FT               240.0000: 
STOP.FT               966.2000: 
STEP.FT                 0.1000: 
NULL.                -999.2500: 
COMP.          Pioneer Natural Resources: COMPANY
WELL.          New Mexico 21-5: WELL
FLD.           Purgatoire River: FIELD
LOC.           175' FNL & 1700' FWL: LOCATION
PROV.                 Colorado: PROVINCE
CNTY.               Las Animas: COUNTRY
SRVC.                Patterson: SERVICE COMPANY
DATE.          Mon Dec 13 06:55:26 2004: LOG DATE
UWI.           05 071 08234 00: UNIQUE WELL ID
~Curve Information Block
DEPT.FT            0 000 00 00: Depth
DCAL.in                       : CDL Caliper
RHOB.g/cc                     : CDL Bulk Density
RHOC.g/cc                     : CDL Density Correction
DPOR.pu                       : CDL Density Porosity
NPOR.pu                       : Neutron Porosity
GR.GAPI                       : Gamma Ray
~Parameter Information Block
~A  Depth       DCAL        RHOB        RHOC        DPOR        NPOR         GR     
# ...
   710.4000      7.9210      2.5298      0.0350      7.2857     31.5685    128.3979
   710.5000      7.9228      2.5262      0.0789      7.5050     31.3176    127.8232
   710.6000      7.9228      2.5264      0.0490      7.4925     30.7454    128.8701
   710.7000      7.9228      2.5342      0.0504      7.0155     30.4487    132.3213
   710.8000      7.9231      2.5474      0.0753      6.2155     30.5622    132.5065
   710.9000      7.9231      2.5563      0.0519      5.6776     30.5200    126.9327
   711.0000      7.9220      2.5589      0.0416      5.5183     29.9376    122.9419
   711.1000      7.9220      2.5579      0.0727      5.5814     29.0754    127.3879
   711.2000      7.9220      2.5462      0.0730      6.2885     28.2550    136.0116
   711.3000      7.9235      2.5171      0.0377      8.0548     27.5529    141.2922
   711.4000      7.9235      2.4818      0.0139     10.1911     27.0003    142.2934
   711.5000      7.9318      2.4533      0.0061     11.9242     26.4741    142.8944
   711.6000      7.9318      2.4359     -0.0302     12.9786     25.6653    148.0076
   711.7000      7.9318      2.4301      0.0141     13.3297     24.7193    160.8174
   711.8000      7.9473      2.4259      0.0180     13.5811     23.9964    174.7386
   711.9000      7.9473      2.4220      0.0148     13.8206     23.3598    177.2575
   712.0000      7.9661      2.4310      0.0423     13.2728     22.5746    170.7411
   712.1000      7.9661      2.4522      0.0663     11.9891     21.8765    170.1487
   712.2000      7.9661      2.4663      0.0801     11.1346     21.5282    175.1972
   712.3000      7.9852      2.4578      0.1052     11.6457     21.2339    173.3132
   712.4000      7.9852      2.4316      0.0618     13.2390     20.6877    167.3647
   712.5000      7.9976      2.4092      0.0523     14.5968     20.1934    168.1687
   712.6000      7.9976      2.4075      0.0566     14.6956     20.1303    171.7619
   712.7000      7.9976      2.4232      0.0583     13.7447     20.4276    167.0502
   712.8000      8.0038      2.4363      0.0848     12.9530     20.8512    156.2019
   712.9000      8.0038      2.4302      0.0457     13.3217     21.4162    151.5727
   713.0000      8.0089      2.4121      0.0311     14.4189     22.1808    151.8759
   713.1000      8.0089      2.3904      0.0502     15.7349     23.1151    150.4416
   713.2000      8.0089      2.3571      0.0238     17.7499     24.3697    148.6320
   713.3000      8.0178      2.3114     -0.0131     20.5233     25.9320    146.7188
   713.4000      8.0178      2.2597      0.0065     23.6548     26.8896    142.9453
   713.5000      8.0268      2.1952      0.0065     27.5658     26.7592    138.6840
   713.6000      8.0268      2.0987      0.0438     33.4131     26.6333    137.6355
   713.7000      8.0268      1.9669     -0.0669     41.3971     26.9657    134.5399
   713.8000      8.0281      1.8323     -0.1488     49.5554     26.9594    125.2674
   713.9000      8.0281      1.7241     -0.1417     56.1156     26.2262    117.7540
   714.0000      8.0185      1.6332     -0.0960     61.6238     24.7353    113.0639
   714.1000      8.0185      1.5390     -0.0702     67.3314     22.4506    107.0746
   714.2000      8.0185      1.4420     -0.0809     73.2102     19.7327    104.3341
   714.3000      7.9946      1.3641     -0.0714     77.9307     16.9770    104.4373
   714.4000      7.9946      1.3247     -0.0498     80.3205     14.3639    100.3918
   714.5000      7.9686      1.3213      0.0023     80.5270     12.1455     93.9898
   714.6000      7.9686      1.3366      0.0458     79.6000     10.5417     89.7459
   714.7000      7.9686      1.3567      0.0295     78.3843      9.4101     88.0204
   714.8000      7.9624      1.3740      0.0504     77.3329      8.5068     90.2739
   714.9000      7.9624      1.3823      0.0770     76.8311      7.9344     94.7793
   715.0000      7.9706      1.3852      0.0746     76.6533      7.8344     96.2828
   715.1000      7.9706      1.3980      0.0978     75.8762      7.7882     96.1141
   715.2000      7.9706      1.4311      0.0992     73.8712      7.4171     97.2903
   715.3000      7.9824      1.4811      0.1358     70.8453      6.9391     99.8043
   715.4000      7.9824      1.5363      0.1377     67.4975      6.6321    104.2380
   715.5000      7.9907      1.5914      0.1368     64.1557      6.4929    110.1828
   715.6000      7.9907      1.6534      0.1381     60.4005      6.5210    116.8976
   715.7000      7.9907      1.7304      0.1903     55.7331      6.8804    123.8816
   715.8000      7.9948      1.8201      0.2161     50.2990      7.5349    128.0725
   715.9000      7.9948      1.9168      0.2413     44.4368      8.2163    127.9004
   716.0000      7.9998      2.0227      0.2472     38.0186      8.8668    126.5112
   716.1000      7.9998      2.1393      0.2871     30.9516      9.5589    127.4507
   716.2000      7.9998      2.2574      0.2999     23.7929     10.2532    132.7770
   716.3000      8.0129      2.3583      0.3538     17.6810     11.0111    141.3238
   716.4000      8.0129      2.4280      0.2749     13.4539     11.8431    146.9549
   716.5000      8.0224      2.4731      0.2501     10.7200     12.7268    145.0403
   716.6000      8.0224      2.5040      0.2127      8.8459     13.8646    138.5507
   716.7000      8.0224      2.5210      0.2143      7.8192     15.2347    133.3881
   716.8000      8.0079      2.5198      0.1740      7.8928     16.5825    130.8224
   716.9000      8.0079      2.5046      0.0974      8.8145     17.7803    130.1974
   717.0000      7.9858      2.4853      0.1063      9.9807     18.7339    133.1258
   717.1000      7.9858      2.4690      0.0475     10.9672     19.2417    137.5091
   717.2000      7.9858      2.4607      0.0716     11.4729     19.2701    137.9063
   717.3000      7.9699      2.4552      0.0523     11.8082     19.1433    136.1469
   717.4000      7.9699      2.4483      0.0342     12.2236     19.2830    137.5396
   717.5000      7.9562      2.4462      0.0633     12.3496     19.6578    141.9838
   717.6000      7.9562      2.4476      0.0887     12.2651     19.8071    145.3568
   717.7000      7.9562      2.4483      0.0279     12.2249     19.5951    145.3837
   717.8000      7.9479      2.4484      0.0664     12.2205     19.1550    142.6542
   717.9000      7.9479      2.4425      0.0414     12.5758     18.5825    140.6209
   718.0000      7.9478      2.4354      0.0377     13.0081     18.1885    144.1938
   718.1000      7.9478      2.4435      0.0199     12.5145     18.1781    149.1004
   718.2000      7.9478      2.4643      0.0810     11.2553     18.4963    147.0376
   718.3000      7.9491      2.4778      0.0391     10.4341     19.0388    137.7061
   718.4000      7.9491      2.4824      0.0387     10.1550     19.4647    125.8301
   718.5000      7.9486      2.4914      0.0378      9.6117     19.3973    120.3280
   718.6000      7.9486      2.5101      0.0535      8.4790     19.2270    123.9002
   718.7000      7.9486      2.5282      0.0643      7.3806     19.6660    128.3020
   718.8000      7.9483      2.5333      0.0487      7.0699     20.4445    128.3139
   718.9000      7.9483      2.5302      0.0440      7.2636     20.8008    125.0943
   719.0000      7.9503      2.5282      0.0503      7.3830     20.8628    120.5195
   719.1000      7.9503      2.5258      0.0342      7.5266     20.9434    114.5860
   719.2000      7.9503      2.5179      0.0403      8.0065     20.7874    109.5975
   719.3000      7.9533      2.5048      0.0220      8.8024     20.5838    109.9905
   719.4000      7.9533      2.4903      0.0198      9.6766     20.8700    112.9209
   719.5000      7.9545      2.4809     -0.0136     10.2456     21.4398    112.9195
   719.6000      7.9545      2.4806     -0.0050     10.2645     21.7439    112.2288
   719.7000      7.9545      2.4890      0.0227      9.7585     21.7436    114.9984
   719.8000      7.9546      2.5036      0.0590      8.8748     21.6250    121.2004
   719.9000      7.9546      2.5154      0.0683      8.1567     21.4877    126.8836
