~Version Information
VERS.                      2.0: CWLS Log ASCII Standard - VERSION 2.0
WRAP.                       NO: One line per depth step
~Well Information Block
STRT.FT               480.0000: 
STOP.FT              1629.0000: 
STEP.FT                 0.2500: 
NULL.                -999.2500: 
COMP.          Pioneer Natural Resources: COMPANY
WELL.          Dude Canyon 22-32 Tr: WELL
FLD.           Purgatoire River: FIELD
LOC.           1741' FNL & 2331' FWL: LOCATION
PROV.                 Colorado: PROVINCE
CNTY.               Las Animas: COUNTRY
SRVC.                Patterson: SERVICE COMPANY
DATE.          Sat Jul 09 01:36:28 2005: LOG DATE
UWI.           05 071 08421 00: UNIQUE WELL ID
~Curve Information Block
DEPT.FT            0 000 00 00: Depth
SN.Ohm-m                      : IEL Short Normal
SP.mV                         : IEL Spontaneous Potential
DIR.Ohm-m                     : IEL Induction Resistivity
GR.GAPI                       : Gamma Ray
~Parameter Information Block
~A  Depth        SN          SP         DIR          GR     
# ...
   547.0000   2000.0000   2000.0000     21.5472    159.1539
   547.2500   2000.0000   2000.0000     21.3288    160.1816
   547.5000   2000.0000   2000.0000     21.2218    160.9416
   547.7500   2000.0000   2000.0000     21.2193    160.2857
   548.0000   2000.0000   2000.0000     21.3263    157.1183
   548.2500   2000.0000   2000.0000     21.5501    153.9521
   548.5000   2000.0000   2000.0000     21.8842    148.9411
   548.7500   2000.0000   2000.0000     22.2984    145.9119
   549.0000   2000.0000   2000.0000     22.7475    141.8479
   549.2500   2000.0000   2000.0000     23.2012    139.4612
   549.5000   2000.0000   2000.0000     23.6717    136.8636
   549.7500   2000.0000   2000.0000     24.2103    135.9504
   550.0000   2000.0000   2000.0000     24.8739    134.9729
   550.2500   2000.0000   2000.0000     25.6908    133.6067
   550.5000   2000.0000   2000.0000     26.6528    129.4479
   550.7500   2000.0000   2000.0000     27.7259    125.6919
   551.0000   2000.0000   2000.0000     28.8657    120.6089
   551.2500   2000.0000   2000.0000     30.0285    118.5600
   551.5000   2000.0000   2000.0000     31.1804    117.5099
   551.7500   2000.0000   2000.0000     32.3124    117.3976
   552.0000   2000.0000   2000.0000     33.4524    116.6857
   552.2500   2000.0000   2000.0000     34.6595    115.3636
   552.5000   2000.0000   2000.0000     36.0009    112.0517
   552.7500   2000.0000   2000.0000     37.5221    109.3194
   553.0000   2000.0000   2000.0000     39.2313    105.2932
   553.2500   2000.0000   2000.0000     41.1018    102.9128
   553.5000   2000.0000   2000.0000     43.0887     99.4937
   553.7500   2000.0000   2000.0000     45.1463     96.9328
   554.0000   2000.0000   2000.0000     47.2441     92.2643
   554.2500   2000.0000   2000.0000     49.3756     88.6744
   554.5000   2000.0000   2000.0000     51.5480     83.1274
   554.7500   2000.0000   2000.0000     53.7381     79.6836
   555.0000   2000.0000   2000.0000     55.8326     75.2214
   555.2500   2000.0000   2000.0000     57.6138     72.7615
   555.5000   2000.0000   2000.0000     58.8109     69.9864
   555.7500   2000.0000   2000.0000     59.1668     68.8513
   556.0000   2000.0000   2000.0000     58.4842     68.1420
   556.2500   2000.0000   2000.0000     56.6843     68.1866
   556.5000   2000.0000   2000.0000     53.9033     69.1500
   556.7500   2000.0000   2000.0000     50.5027     70.8743
   557.0000   2000.0000   2000.0000     46.9329     76.3938
   557.2500   2000.0000   2000.0000     43.5553     82.6496
   557.5000   2000.0000   2000.0000     40.5642     95.6736
   557.7500   2000.0000   2000.0000     38.0113    105.5532
   558.0000   2000.0000   2000.0000     35.8519    118.9335
   558.2500   2000.0000   2000.0000     33.9804    125.4784
   558.5000   2000.0000   2000.0000     32.2614    131.6789
   558.7500   2000.0000   2000.0000     30.5797    134.3799
   559.0000   2000.0000   2000.0000     28.8942    137.5506
   559.2500   2000.0000   2000.0000     27.2554    139.0394
   559.5000   2000.0000   2000.0000     25.7651    140.0038
   559.7500   2000.0000   2000.0000     24.5059    140.0700
   560.0000   2000.0000   2000.0000     23.4969    140.0191
   560.2500   2000.0000   2000.0000     22.6940    139.8658
   560.5000   2000.0000   2000.0000     22.0221    139.0161
   560.7500   2000.0000   2000.0000     21.4133    138.2062
   561.0000   2000.0000   2000.0000     20.8280    137.8663
   561.2500   2000.0000   2000.0000     20.2551    138.9981
   561.5000   2000.0000   2000.0000     19.7015    143.2346
   561.7500   2000.0000   2000.0000     19.1827    147.3369
   562.0000   2000.0000   2000.0000     18.7148    153.6420
   562.2500   2000.0000   2000.0000     18.3061    156.8699
   562.5000   2000.0000   2000.0000     17.9531    159.7447
   562.7500   2000.0000   2000.0000     17.6460    160.9721
   563.0000   2000.0000   2000.0000     17.3792    163.1759
   563.2500   2000.0000   2000.0000     17.1598    165.2804
   563.5000   2000.0000   2000.0000     17.0048    169.4748
   563.7500   2000.0000   2000.0000     16.9333    172.9679
   564.0000   2000.0000   2000.0000     16.9580    179.0340
   564.2500   2000.0000   2000.0000     17.0843    183.1181
   564.5000   2000.0000   2000.0000     17.3133    187.8472
   564.7500   2000.0000   2000.0000     17.6461    189.2050
   565.0000   2000.0000   2000.0000     18.0817    187.6711
   565.2500   2000.0000   2000.0000     18.6085    184.2732
   565.5000   2000.0000   2000.0000     19.1970    176.3266
   565.7500   2000.0000   2000.0000     19.8028    169.7616
   566.0000   2000.0000   2000.0000     20.3813    159.4613
   566.2500   2000.0000   2000.0000     20.9057    153.3807
   566.5000   2000.0000   2000.0000     21.3790    147.0340
   566.7500   2000.0000   2000.0000     21.8354    144.8426
   567.0000   2000.0000   2000.0000     22.3353    143.4215
   567.2500   2000.0000   2000.0000     22.9487    142.6841
   567.5000   2000.0000   2000.0000     23.7255    140.8425
   567.7500   2000.0000   2000.0000     24.6666    139.1676
   568.0000   2000.0000   2000.0000     25.7167    136.5492
   568.2500   2000.0000   2000.0000     26.7970    134.9153
   568.5000   2000.0000   2000.0000     27.8565    132.5479
   568.7500   2000.0000   2000.0000     28.8897    130.8988
   569.0000   2000.0000   2000.0000     29.9031    128.0836
   569.2500   2000.0000   2000.0000     30.8686    125.8022
   569.5000   2000.0000   2000.0000     31.7160    121.4201
   569.7500   2000.0000   2000.0000     32.3687    117.7199
   570.0000   2000.0000   2000.0000     32.7930    111.3428
   570.2500   2000.0000   2000.0000     33.0207    107.2657
   570.5000   2000.0000   2000.0000     33.1320    103.0092
   570.7500   2000.0000   2000.0000     33.2077    101.9232
   571.0000   2000.0000   2000.0000     33.2797    102.6521
   571.2500   2000.0000   2000.0000     33.3130    104.2545
   571.5000   2000.0000   2000.0000     33.2318    107.8311
   571.7500   2000.0000   2000.0000     32.9779    110.8583
   572.0000   2000.0000   2000.0000     32.5569    115.8107
   572.2500   2000.0000   2000.0000     32.0389    118.7245
   572.5000   2000.0000   2000.0000     31.5234    121.5155
   572.7500   2000.0000   2000.0000     31.0957    122.4471
   573.0000   2000.0000   2000.0000     30.8024    123.9528
   573.2500   2000.0000   2000.0000     30.6449    125.8402
   573.5000   2000.0000   2000.0000     30.5887    129.7991
   573.7500   2000.0000   2000.0000     30.5729    132.2727
   574.0000   2000.0000   2000.0000     30.5252    134.2900
   574.2500   2000.0000   2000.0000     30.3862    134.2987
   574.5000   2000.0000   2000.0000     30.1411    132.6099
   574.7500   2000.0000   2000.0000     29.8325    130.2891
   575.0000   2000.0000   2000.0000     29.5367    124.3867
   575.2500   2000.0000   2000.0000     29.3183    118.8765
   575.5000   2000.0000   2000.0000     29.1949    109.9605
   575.7500   2000.0000   2000.0000     29.1327    105.0901
   576.0000   2000.0000   2000.0000     29.0705    101.2007
   576.2500   2000.0000   2000.0000     28.9537    101.1062
   576.5000   2000.0000   2000.0000     28.7627    104.0320
   576.7500   2000.0000   2000.0000     28.5250    107.4010
   577.0000   2000.0000   2000.0000     28.3066    113.7113
   577.2500   2000.0000   2000.0000     28.1875    118.4865
   577.5000   2000.0000   2000.0000     28.2240    126.1004
   577.7500   2000.0000   2000.0000     28.4239    131.0392
   578.0000   2000.0000   2000.0000     28.7535    137.2622
   578.2500   2000.0000   2000.0000     29.1760    140.2352
   578.5000   2000.0000   2000.0000     29.6807    142.9747
   578.7500   2000.0000   2000.0000     30.2712    143.9059
   579.0000   2000.0000   2000.0000     30.9308    143.9752
   579.2500   2000.0000   2000.0000     31.6076    142.7929
   579.5000   2000.0000   2000.0000     32.2468    138.7446
   579.7500   2000.0000   2000.0000     32.8435    134.6063
   580.0000   2000.0000   2000.0000     33.4731    126.2652
   580.2500   2000.0000   2000.0000     34.2714    118.9757
