~Version Information
VERS.                      2.0: CWLS Log ASCII Standard - VERSION 2.0
WRAP.                       NO: One line per depth step
~Well Information Block
STRT.FT               450.0000: 
STOP.FT              2756.0000: 
STEP.FT                 0.2500: 
NULL.                -999.2500: 
COMP.          Pioneer Natural Resources: COMPANY
WELL.             Squeal 11-26: WELL
FLD.           Purgatoire River: FIELD
LOC.           1186' FNL & 152' FWL: LOCATION
PROV.                 Colorado: PROVINCE
CNTY.               Las Animas: COUNTRY
SRVC.                Patterson: SERVICE COMPANY
DATE.          Wed Jun 15 02:22:08 2005: LOG DATE
UWI.           05 071 08404 00: UNIQUE WELL ID
~Curve Information Block
DEPT.FT            0 000 00 00: Depth
SN.Ohm-m                      : IEL Short Normal
SP.mV                         : IEL Spontaneous Potential
DIR.Ohm-m                     : IEL Induction Resistivity
GR.GAPI                       : Gamma Ray
~Parameter Information Block
~A  Depth        SN          SP         DIR          GR     
# ...
   617.5000   2000.0000   2000.0000     47.3148     66.9688
   617.7500   2000.0000   2000.0000     46.8024     65.0851
   618.0000   2000.0000   2000.0000     46.2925     62.5555
   618.2500   2000.0000   2000.0000     45.8835     61.8559
   618.5000   2000.0000   2000.0000     45.6560     62.9951
   618.7500   2000.0000   2000.0000     45.6289     65.0657
   619.0000   2000.0000   2000.0000     45.7277     69.3482
   619.2500   2000.0000   2000.0000     45.8020     72.4948
   619.5000   2000.0000   2000.0000     45.6975     76.8373
   619.7500   2000.0000   2000.0000     45.3354     79.0430
   620.0000   2000.0000   2000.0000     44.7448     81.0740
   620.2500   2000.0000   2000.0000     44.0322     81.9384
   620.5000   2000.0000   2000.0000     43.3233     83.4120
   620.7500   2000.0000   2000.0000     42.7117     84.5819
   621.0000   2000.0000   2000.0000     42.2350     85.6185
   621.2500   2000.0000   2000.0000     41.8739     85.1240
   621.5000   2000.0000   2000.0000     41.5718     82.3405
   621.7500   2000.0000   2000.0000     41.2596     79.6799
   622.0000   2000.0000   2000.0000     40.8773     76.0410
   622.2500   2000.0000   2000.0000     40.3830     74.6738
   622.5000   2000.0000   2000.0000     39.7564     74.9592
   622.7500   2000.0000   2000.0000     39.0032     76.6277
   623.0000   2000.0000   2000.0000     38.1633     80.2977
   623.2500   2000.0000   2000.0000     37.3108     82.6448
   623.5000   2000.0000   2000.0000     36.5314     85.1845
   623.7500   2000.0000   2000.0000     35.8712     86.5945
   624.0000   2000.0000   2000.0000     35.2877     89.7977
   624.2500   2000.0000   2000.0000     34.6462     93.2228
   624.5000   2000.0000   2000.0000     33.7813    100.0467
   624.7500   2000.0000   2000.0000     32.5946    105.2702
   625.0000   2000.0000   2000.0000     31.1136    113.4765
   625.2500   2000.0000   2000.0000     29.4704    118.7251
   625.5000   2000.0000   2000.0000     27.8276    124.9746
   625.7500   2000.0000   2000.0000     26.3164    127.3598
   626.0000   2000.0000   2000.0000     25.0143    128.1840
   626.2500   2000.0000   2000.0000     23.9512    127.7444
   626.5000   2000.0000   2000.0000     23.1269    128.0141
   626.7500   2000.0000   2000.0000     22.5221    129.9939
   627.0000   2000.0000   2000.0000     22.1051    135.8419
   627.2500   2000.0000   2000.0000     21.8348    140.5873
   627.5000   2000.0000   2000.0000     21.6665    146.4809
   627.7500   2000.0000   2000.0000     21.5581    148.7109
   628.0000   2000.0000   2000.0000     21.4747    149.7600
   628.2500   2000.0000   2000.0000     21.3934    149.8029
   628.5000   2000.0000   2000.0000     21.3069    150.2385
   628.7500   2000.0000   2000.0000     21.2224    150.8493
   629.0000   2000.0000   2000.0000     21.1548    151.1404
   629.2500   2000.0000   2000.0000     21.1110    150.1789
   629.5000   2000.0000   2000.0000     21.0793    146.7449
   629.7500   2000.0000   2000.0000     21.0334    143.6532
   630.0000   2000.0000   2000.0000     20.9523    139.0994
   630.2500   2000.0000   2000.0000     20.8399    136.6335
   630.5000   2000.0000   2000.0000     20.7289    134.0779
   630.7500   2000.0000   2000.0000     20.6631    133.1400
   631.0000   2000.0000   2000.0000     20.6745    132.8682
   631.2500   2000.0000   2000.0000     20.7707    133.3635
   631.5000   2000.0000   2000.0000     20.9372    134.6588
   631.7500   2000.0000   2000.0000     21.1496    135.3393
   632.0000   2000.0000   2000.0000     21.3886    134.7698
   632.2500   2000.0000   2000.0000     21.6493    132.7477
   632.5000   2000.0000   2000.0000     21.9375    127.6619
   632.7500   2000.0000   2000.0000     22.2545    124.0625
   633.0000   2000.0000   2000.0000     22.5863    120.5960
   633.2500   2000.0000   2000.0000     22.9091    120.1203
   633.5000   2000.0000   2000.0000     23.2093    121.4824
   633.7500   2000.0000   2000.0000     23.4963    123.0547
   634.0000   2000.0000   2000.0000     23.7942    125.6977
   634.2500   2000.0000   2000.0000     24.1201    127.5379
   634.5000   2000.0000   2000.0000     24.4747    130.2912
   634.7500   2000.0000   2000.0000     24.8500    132.0798
   635.0000   2000.0000   2000.0000     25.2477    134.7204
   635.2500   2000.0000   2000.0000     25.6812    136.3154
   635.5000   2000.0000   2000.0000     26.1526    137.7291
   635.7500   2000.0000   2000.0000     26.6291    137.6112
   636.0000   2000.0000   2000.0000     27.0633    135.8024
   636.2500   2000.0000   2000.0000     27.4577    133.8147
   636.5000   2000.0000   2000.0000     27.9100    130.4481
   636.7500   2000.0000   2000.0000     28.5714    128.5241
   637.0000   2000.0000   2000.0000     29.5510    126.9179
   637.2500   2000.0000   2000.0000     30.8549    126.6208
   637.5000   2000.0000   2000.0000     32.4077    126.0312
   637.7500   2000.0000   2000.0000     34.1250    124.5898
   638.0000   2000.0000   2000.0000     35.9593    120.0495
   638.2500   2000.0000   2000.0000     37.8726    115.6124
   638.5000   2000.0000   2000.0000     39.7709    107.6494
   638.7500   2000.0000   2000.0000     41.4730    101.8735
   639.0000   2000.0000   2000.0000     42.7670     92.9624
   639.2500   2000.0000   2000.0000     43.5342     87.0426
   639.5000   2000.0000   2000.0000     43.8505     78.3493
   639.7500   2000.0000   2000.0000     43.9631     72.7563
   640.0000   2000.0000   2000.0000     44.1650     65.3009
   640.2500   2000.0000   2000.0000     44.6694     61.6515
   640.5000   2000.0000   2000.0000     45.5616     58.9997
   640.7500   2000.0000   2000.0000     46.8015     58.8471
   641.0000   2000.0000   2000.0000     48.2197     59.6156
   641.2500   2000.0000   2000.0000     49.5152     60.1917
   641.5000   2000.0000   2000.0000     50.3424     61.4923
   641.7500   2000.0000   2000.0000     50.5348     63.3721
   642.0000   2000.0000   2000.0000     50.3007     68.5298
   642.2500   2000.0000   2000.0000     50.1497     73.2076
   642.5000   2000.0000   2000.0000     50.5871     79.9386
   642.7500   2000.0000   2000.0000     51.8257     82.5237
   643.0000   2000.0000   2000.0000     53.6447     81.6808
   643.2500   2000.0000   2000.0000     55.4508     78.3276
   643.5000   2000.0000   2000.0000     56.5996     71.7836
   643.7500   2000.0000   2000.0000     56.8143     68.0990
   644.0000   2000.0000   2000.0000     56.2745     65.1057
   644.2500   2000.0000   2000.0000     55.3304     64.7671
   644.5000   2000.0000   2000.0000     54.2486     65.7424
   644.7500   2000.0000   2000.0000     53.1955     66.6628
   645.0000   2000.0000   2000.0000     52.3195     67.7262
   645.2500   2000.0000   2000.0000     51.7744     68.3605
   645.5000   2000.0000   2000.0000     51.6844     70.2110
   645.7500   2000.0000   2000.0000     52.0961     72.6223
   646.0000   2000.0000   2000.0000     52.9256     77.9762
   646.2500   2000.0000   2000.0000     53.9226     81.9240
   646.5000   2000.0000   2000.0000     54.6796     86.5705
   646.7500   2000.0000   2000.0000     54.7467     88.1502
   647.0000   2000.0000   2000.0000     53.8052     88.3149
   647.2500   2000.0000   2000.0000     51.8049     87.3233
   647.5000   2000.0000   2000.0000     48.9658     84.4874
   647.7500   2000.0000   2000.0000     45.6637     81.7215
   648.0000   2000.0000   2000.0000     42.2912     76.8135
   648.2500   2000.0000   2000.0000     39.1612     73.8910
   648.5000   2000.0000   2000.0000     36.4580     72.1074
   648.7500   2000.0000   2000.0000     34.2300     73.8792
   649.0000   2000.0000   2000.0000     32.4203     82.3425
   649.2500   2000.0000   2000.0000     30.9234     91.7707
   649.5000   2000.0000   2000.0000     29.6349    109.4864
   649.7500   2000.0000   2000.0000     28.4716    121.5946
   650.0000   2000.0000   2000.0000     27.3712    136.6776
   650.2500   2000.0000   2000.0000     26.2935    143.4939
   650.5000   2000.0000   2000.0000     25.2344    148.8489
   650.7500   2000.0000   2000.0000     24.2333    149.9692
