~Version Information
VERS.                      2.0: CWLS Log ASCII Standard - VERSION 2.0
WRAP.                       NO: One line per depth step
~Well Information Block
STRT.FT               660.8000: 
STOP.FT              2375.1000: 
STEP.FT                 0.1000: 
NULL.                -999.2500: 
COMP.          Petrogulf Corporation: COMPANY
WELL.             State 16-34V: WELL
FLD.           Purgatorie River: FIELD
LOC.           1146' FSL & 1393' FEL: LOCATION
CNTY.               Las Animas: COUNTY
SRVC.                         : SERVICE COMPANY
DATE.          Sat Jun 07 20:51:20 2003: LOG DATE
UWI.           05 071 07724 00: UNIQUE WELL ID
STAT.                 Colorado: STATE
~Curve Information Block
DEPT.FT            0 000 00 00: Depth
DCAL.in                       : Caliper from Density Tool
RHOB.g/cc                     : Bulk Density
RHOC.g/cc                     : Density Correction
DPOR.pu                       : Density Porosity
GR.GAPI                       : Gamma Ray
NPOR.pu                       : Neutron Porosity
~Parameter Information Block
~A  Depth       DCAL        RHOB        RHOC        DPOR         GR         NPOR    
# ...
  2244.8000      7.7539      2.5170      0.0874      8.0622     72.9773     19.9670
  2244.9000      7.7539      2.5170      0.0874      8.0622     72.9164     19.8862
  2245.0000      7.8354      2.5204      0.0899      7.8569     72.8740     19.8103
  2245.1000      7.8354      2.5204      0.0899      7.8569     72.8821     19.7379
  2245.2000      7.8354      2.5204      0.0899      7.8569     72.9650     19.6672
  2245.3000      7.9268      2.5236      0.0944      7.6635     73.1364     19.5961
  2245.4000      7.9268      2.5236      0.0944      7.6635     73.3952     19.5228
  2245.5000      7.9875      2.5231      0.0970      7.6903     73.7281     19.4459
  2245.6000      7.9875      2.5231      0.0970      7.6903     74.1116     19.3656
  2245.7000      7.9875      2.5231      0.0970      7.6903     74.5167     19.2830
  2245.8000      7.9590      2.5171      0.1002      8.0549     74.9125     19.2006
  2245.9000      7.9590      2.5171      0.1002      8.0549     75.2727     19.1211
  2246.0000      7.8482      2.5091      0.1019      8.5371     75.5767     19.0471
  2246.1000      7.8482      2.5091      0.1019      8.5371     75.8119     18.9802
  2246.2000      7.8482      2.5091      0.1019      8.5371     75.9748     18.9209
  2246.3000      7.7760      2.4915      0.1037      9.6059     76.0694     18.8683
  2246.4000      7.7760      2.4915      0.1037      9.6059     76.1084     18.8207
  2246.5000      7.7442      2.4767      0.1036     10.5045     76.1089     18.7767
  2246.6000      7.7442      2.4767      0.1036     10.5045     76.0928     18.7356
  2246.7000      7.7442      2.4767      0.1036     10.5045     76.0828     18.6980
  2246.8000      7.7119      2.4526      0.0999     11.9649     76.1012     18.6663
  2246.9000      7.7119      2.4526      0.0999     11.9649     76.1654     18.6442
  2247.0000      7.6965      2.4379      0.0951     12.8570     76.2872     18.6359
  2247.1000      7.6965      2.4379      0.0951     12.8570     76.4704     18.6458
  2247.2000      7.6965      2.4379      0.0951     12.8570     76.7107     18.6774
  2247.3000      7.7171      2.4230      0.0863     13.7562     76.9968     18.7329
  2247.4000      7.7171      2.4230      0.0863     13.7562     77.3126     18.8127
  2247.5000      7.7570      2.4204      0.0811     13.9144     77.6388     18.9154
  2247.6000      7.7570      2.4204      0.0811     13.9144     77.9561     19.0382
  2247.7000      7.7570      2.4204      0.0811     13.9144     78.2470     19.1772
  2247.8000      7.7506      2.4286      0.0771     13.4152     78.4950     19.3271
  2247.9000      7.7506      2.4286      0.0771     13.4152     78.6883     19.4826
  2248.0000      7.7087      2.4409      0.0774     12.6728     78.8177     19.6374
  2248.1000      7.7087      2.4409      0.0774     12.6728     78.8776     19.7849
  2248.2000      7.7087      2.4409      0.0774     12.6728     78.8664     19.9186
  2248.3000      7.6979      2.4647      0.0816     11.2323     78.7876     20.0323
  2248.4000      7.6979      2.4647      0.0816     11.2323     78.6499     20.1207
  2248.5000      7.7150      2.4809      0.0857     10.2502     78.4693     20.1800
  2248.6000      7.7150      2.4809      0.0857     10.2502     78.2664     20.2084
  2248.7000      7.7150      2.4809      0.0857     10.2502     78.0667     20.2070
  2248.8000      7.6856      2.5009      0.0913      9.0373     77.8976     20.1800
  2248.9000      7.6856      2.5009      0.0913      9.0373     77.7834     20.1343
  2249.0000      7.6732      2.5096      0.0932      8.5092     77.7414     20.0790
  2249.1000      7.6732      2.5096      0.0932      8.5092     77.7792     20.0246
  2249.2000      7.6732      2.5096      0.0932      8.5092     77.8893     19.9815
  2249.3000      7.7242      2.5155      0.0919      8.1531     78.0516     19.9587
  2249.4000      7.7242      2.5155      0.0919      8.1531     78.2334     19.9627
  2249.5000      7.7915      2.5161      0.0888      8.1152     78.3947     19.9963
  2249.6000      7.7915      2.5161      0.0888      8.1152     78.4924     20.0588
  2249.7000      7.7915      2.5161      0.0888      8.1152     78.4883     20.1457
  2249.8000      7.8279      2.5161      0.0841      8.1171     78.3546     20.2500
  2249.9000      7.8279      2.5161      0.0841      8.1171     78.0789     20.3626
  2250.0000      7.8346      2.5171      0.0826      8.0532     77.6676     20.4741
  2250.1000      7.8346      2.5171      0.0826      8.0532     77.1458     20.5763
  2250.2000      7.8346      2.5171      0.0826      8.0532     76.5551     20.6627
  2250.3000      7.8610      2.5200      0.0837      7.8766     75.9496     20.7297
  2250.4000      7.8610      2.5200      0.0837      7.8766     75.3901     20.7769
  2250.5000      7.8722      2.5208      0.0856      7.8278     74.9373     20.8069
  2250.6000      7.8722      2.5208      0.0856      7.8278     74.6479     20.8244
  2250.7000      7.8722      2.5208      0.0856      7.8278     74.5682     20.8359
  2250.8000      7.8491      2.5163      0.0868      8.1008     74.7317     20.8482
  2250.9000      7.8491      2.5163      0.0868      8.1008     75.1564     20.8672
  2251.0000      7.8325      2.5087      0.0854      8.5661     75.8459     20.8977
  2251.1000      7.8325      2.5087      0.0854      8.5661     76.7900     20.9426
  2251.2000      7.8325      2.5087      0.0854      8.5661     77.9669     21.0031
  2251.3000      7.8497      2.4926      0.0814      9.5373     79.3459     21.0784
  2251.4000      7.8497      2.4926      0.0814      9.5373     80.8893     21.1666
  2251.5000      7.8713      2.4815      0.0799     10.2098     82.5566     21.2642
  2251.6000      7.8713      2.4815      0.0799     10.2098     84.3050     21.3661
  2251.7000      7.8713      2.4815      0.0799     10.2098     86.0932     21.4651
  2251.8000      7.8749      2.4655      0.0847     11.1809     87.8803     21.5518
  2251.9000      7.8749      2.4655      0.0847     11.1809     89.6286     21.6137
  2252.0000      7.9003      2.4507      0.0942     12.0799     91.3011     21.6356
  2252.1000      7.9003      2.4507      0.0942     12.0799     92.8643     21.5998
  2252.2000      7.9003      2.4507      0.0942     12.0799     94.2868     21.4875
  2252.3000      7.9254      2.4035      0.1171     14.9377     95.5398     21.2802
  2252.4000      7.9254      2.4035      0.1171     14.9377     96.5949     20.9616
  2252.5000      7.9106      2.3434      0.1353     18.5806     97.4271     20.5205
  2252.6000      7.9106      2.3434      0.1353     18.5806     98.0088     19.9522
  2252.7000      7.9106      2.3434      0.1353     18.5806     98.3119     19.2605
  2252.8000      7.9044      2.2051      0.1623     26.9666     98.3058     18.4578
  2252.9000      7.9044      2.2051      0.1623     26.9666     97.9573     17.5652
  2253.0000      7.9226      2.0905      0.1787     33.9072     97.2324     16.6106
  2253.1000      7.9226      2.0905      0.1787     33.9072     96.1015     15.6257
  2253.2000      7.9226      2.0905      0.1787     33.9072     94.5428     14.6412
  2253.3000      7.9086      1.9124      0.2012     44.7021     92.5502     13.6825
  2253.4000      7.9086      1.9124      0.2012     44.7021     90.1369     12.7687
  2253.5000      7.8871      1.8034      0.2158     51.3075     87.3394     11.9103
  2253.6000      7.8871      1.8034      0.2158     51.3075     84.2190     11.1094
  2253.7000      7.8871      1.8034      0.2158     51.3075     80.8580     10.3597
  2253.8000      7.9218      1.6703      0.2394     59.3772     77.3548      9.6491
  2253.9000      7.9218      1.6703      0.2394     59.3772     73.8144      8.9621
  2254.0000      7.9592      1.6061      0.2567     63.2694     70.3419      8.2833
  2254.1000      7.9592      1.6061      0.2567     63.2694     67.0322      7.6009
  2254.2000      7.9592      1.6061      0.2567     63.2694     63.9639      6.9097
  2254.3000      7.9158      1.5474      0.2826     66.8270     61.1961      6.2125
