~Version Information
VERS.                      2.0: CWLS Log ASCII Standard - VERSION 2.0
WRAP.                       NO: One line per depth step
~Well Information Block
STRT.FT                -7.5000: 
STOP.FT               978.5000: 
STEP.FT                 0.2500: 
NULL.                -999.2500: 
COMP.          Pioneer Natural Resources: COMPANY
WELL.          Piggyback 33-25: WELL
FLD.           Purgatoire River: FIELD
LOC.           1600' FSL & 1800' FEL: LOCATION
PROV.                 Colorado: PROVINCE
CNTY.               Las Animas: COUNTRY
SRVC.                Patterson: SERVICE COMPANY
DATE.          Mon May 09 09:22:28 2005: LOG DATE
UWI.           05 071 08233 00: UNIQUE WELL ID
~Curve Information Block
DEPT.FT            0 000 00 00: Depth
CCL.                          : Casing Collar Locator
TT3.usec                      : CBL 3' Travel Time
AMP3.mV                       : CBL 3' Amplitude
GR.GAPI                       : Gamma Ray
~Parameter Information Block
~A  Depth       CCL         TT3         AMP3         GR     
# ...
   629.0000      0.0000    747.4218      6.8417     95.8635
   629.2500      0.0000    748.0097      6.8055     94.8860
   629.5000      0.0000    748.8307      6.8166     93.9394
   629.7500      0.0000    747.8135      6.8567     94.2171
   630.0000      0.0000    741.9164      6.9124     96.7339
   630.2500      0.0000    729.4304      6.9847    101.6934
   630.5000      0.0000    712.2979      7.0767    107.9757
   630.7500      0.0000    695.4253      7.1758    113.2375
   631.0000      0.0000    683.3283      7.2501    115.1463
   631.2500      0.0000    677.8981      7.2686    113.1679
   631.5000      0.0000    679.0676      7.2270    109.2203
   631.7500      0.0000    686.1714      7.1527    106.0745
   632.0000      0.0000    697.9116      7.0848    104.7513
   632.2500      0.0000    711.8368      7.0529    103.7066
   632.5000      0.0000    725.0462      7.0712    100.7211
   632.7500      0.0000    735.6576      7.1446     95.2032
   633.0000      0.0000    743.3029      7.2700     88.3456
   633.2500      0.0000    748.4398      7.4308     81.5685
   633.5000      0.0000    751.6636      7.5943     75.6051
   633.7500      0.0000    753.6234      7.7253     71.0479
   634.0000      0.0000    755.0020      7.8080     68.8496
   634.2500      0.0000    756.2615      7.8524     69.6830
   634.5000      0.0000    757.5823      7.8831     73.1165
   634.7500      0.0000    759.1182      7.9279     77.8180
   635.0000      0.0000    761.0457      8.0077     82.5051
   635.2500      0.0000    763.2753      8.1223     86.5880
   635.5000      0.0000    765.3493      8.2390     90.1332
   635.7500      0.0000    766.8290      8.3056     93.5387
   636.0000      0.0000    767.6952      8.2826     97.2297
   636.2500      0.0000    768.2172      8.1689    101.4861
   636.5000      0.0000    768.3813      8.0005    106.5661
   636.7500      0.0000    767.3401      7.8267    112.9750
   637.0000      0.0000    763.6133      7.6886    121.0524
   637.2500      0.0000    756.5673      7.6118    129.8315
   637.5000      0.0000    748.1283      7.6027    136.6495
   637.7500      0.0000    742.2523      7.6443    138.5819
   638.0000      0.0000    741.7465      7.7012    134.5282
   638.2500      0.0000    745.8961      7.7422    126.0641
   638.5000      0.0000    751.6150      7.7587    116.6279
   638.7500      0.0000    756.2519      7.7608    109.7870
   639.0000      0.0000    758.8714      7.7606    107.5130
   639.2500      0.0000    759.6915      7.7616    109.3825
   639.5000      0.0000    759.1927      7.7550    113.2943
   639.7500      0.0000    757.7733      7.7242    116.9726
   640.0000      0.0000    755.8641      7.6566    118.8607
   640.2500      0.0000    754.0103      7.5557    118.2987
   640.5000      0.0000    752.5904      7.4392    115.8259
   640.7500      0.0000    751.5483      7.3246    113.4149
   641.0000      0.0000    750.5407      7.2208    113.5342
   641.2500      0.0000    749.3204      7.1311    117.2339
   641.5000      0.0000    748.3456      7.0622    123.0840
   641.7500      0.0000    749.1915      7.0253    128.1409
   642.0000      0.0000    753.5027      7.0264    130.0741
   642.2500      0.0000    760.8552      7.0542    128.6864
   642.5000      0.0000    768.2850      7.0850    125.5795
   642.7500      0.0000    772.5500      7.1026    122.4547
   643.0000      0.0000    772.5037      7.1108    119.9481
   643.2500      0.0000    768.9012      7.1217    117.8846
   643.5000      0.0000    762.6218      7.1373    115.9640
   643.7500      0.0000    754.0353      7.1483    114.0389
   644.0000      0.0000    744.1289      7.1480    112.2537
   644.2500      0.0000    735.3629      7.1359    111.1257
   644.5000      0.0000    730.6437      7.1104    111.1329
   644.7500      0.0000    731.2442      7.0669    112.1182
   645.0000      0.0000    735.6497      7.0069    113.2825
   645.2500      0.0000    740.6508      6.9358    113.7738
   645.5000      0.0000    744.2386      6.8488    113.2091
   645.7500      0.0000    747.5533      6.7347    111.6770
   646.0000      0.0000    753.3788      6.6022    109.4306
   646.2500      0.0000    762.7307      6.4863    106.7330
   646.5000      0.0000    773.5875      6.4182    103.8852
   646.7500      0.0000    782.8785      6.3934    101.2330
   647.0000      0.0000    788.9659      6.3803     99.0370
   647.2500      0.0000    792.1341      6.3505     97.3979
   647.5000      0.0000    793.5320      6.2939     96.4338
   647.7500      0.0000    794.1230      6.2128     96.5604
   648.0000      0.0000    794.3709      6.1170     98.3478
   648.2500      0.0000    794.4119      6.0233    101.8729
   648.5000      0.0000    794.2988      5.9490    106.2000
   648.7500      0.0000    794.1067      5.9005    109.7547
   649.0000      0.0000    793.9134      5.8705    111.4712
   649.2500      0.0000    793.7677      5.8464    111.5280
   649.5000      0.0000    793.6972      5.8168    110.7833
   649.7500      0.0000    793.7253      5.7745    109.6363
   650.0000      0.0000    793.8655      5.7235    107.5904
   650.2500      0.0000    794.1013      5.6826    103.6405
   650.5000      0.0000    794.3897      5.6751     96.9414
   650.7500      0.0000    794.7015      5.7109     87.4747
   651.0000      0.0000    795.0577      5.7856     76.2858
   651.2500      0.0000    795.4901      5.8921     65.0013
   651.5000      0.0000    795.9094      6.0242     55.0849
   651.7500      0.0000    795.9998      6.1647     47.4975
   652.0000      0.0000    795.2693      6.2822     42.6828
   652.2500      0.0000    793.3322      6.3519     40.5367
   652.5000      0.0000    790.3936      6.3728     40.3222
   652.7500      0.0000    787.5806      6.3614     40.7516
   653.0000      0.0000    786.4711      6.3327     40.4304
   653.2500      0.0000    787.8474      6.2943     38.6369
   653.5000      0.0000    790.9980      6.2530     35.9385
   653.7500      0.0000    794.5198      6.2222     33.9177
   654.0000      0.0000    797.6792      6.2200     33.9371
   654.2500      0.0000    800.7878      6.2592     35.9264
   654.5000      0.0000    804.4083      6.3377     38.4087
   654.7500      0.0000    808.5062      6.4376     39.8500
   655.0000      0.0000    812.5605      6.5345     39.9209
   655.2500      0.0000    816.2283      6.6101     39.3261
   655.5000      0.0000    819.2309      6.6633     38.6972
   655.7500      0.0000    820.6407      6.7110     38.1306
   656.0000      0.0000    819.3315      6.7785     37.6892
   656.2500      0.0000    815.6066      6.8913     37.7743
   656.5000      0.0000    811.6282      7.0662     38.8221
   656.7500      0.0000    809.7879      7.2986     40.8698
   657.0000      0.0000    811.2328      7.5522     43.4123
   657.2500      0.0000    816.4039      7.7703     45.4037
   657.5000      0.0000    826.1347      7.9054     45.4866
   657.7500      0.0000    840.7139      7.9502     42.7496
   658.0000      0.0000    857.7977      7.9372     37.5363
   658.2500      0.0000    872.6490      7.9116     31.3715
   658.5000      0.0000    880.7578      7.9044     26.1270
   658.7500      0.0000    879.5304      7.9235     23.4506
   659.0000      0.0000    868.5627      7.9535     24.6313
   659.2500      0.0000    850.2789      7.9665     30.2268
   659.5000      0.0000    829.8305      7.9431     39.4694
   659.7500      0.0000    812.4885      7.8879     50.3637
   660.0000      0.0000    800.5710      7.8242     60.7734
   660.2500      0.0000    793.1131      7.7708     69.5245
   660.5000      0.0000    788.1176      7.7233     76.4350
   660.7500      0.0000    784.7103      7.6577     81.5798
   661.0000      0.0000    783.3113      7.5536     85.0010
   661.2500      0.0000    784.2280      7.4141     87.1283
   661.5000      0.0000    786.6140      7.2595     88.9560
   661.7500      0.0000    788.9651      7.1080     91.3474
   662.0000      0.0000    790.2075      6.9696     94.1475
   662.2500      0.0000    790.0881      6.8545     96.2671
