~Version Information
VERS.                      2.0: CWLS Log ASCII Standard - VERSION 2.0
WRAP.                       NO: One line per depth step
~Well Information Block
STRT.FT                 0.0000: 
STOP.FT              2025.0000: 
STEP.FT                 0.2500: 
NULL.                -999.2500: 
COMP.          Petrogulf Corporation: COMPANY
WELL.          Robinson 15-12V: WELL
FLD.           Purgatorie River: FIELD
LOC.           1788' FNL & 466' FWL: LOCATION
PROV.                 Colorado: PROVINCE
CNTY.               Las Animas: COUNTRY
SRVC.                Patterson: SERVICE COMPANY
DATE.          Tue Oct 04 11:57:31 2005: LOG DATE
UWI.                          : UNIQUE WELL ID
~Curve Information Block
DEPT.FT            0 000 00 00: Depth
GR.GAPI                       : Gamma Ray
CCL.                          : Casing Collar Locator
TT3.usec                      : CBL 3' Travel Time
AMP3.mV                       : CBL 3' Amplitude
~Parameter Information Block
~A  Depth        GR         CCL         TT3         AMP3    
# ...
   804.0000     85.1849      0.0000    266.3570     71.8768
   804.2500     83.4514      0.0000    266.4664     71.3120
   804.5000     79.8025      0.0000    266.5514     71.0074
   804.7500     77.0914      0.0000    266.6595     70.9143
   805.0000     78.5399      0.0000    266.8684     70.9655
   805.2500     85.6681      0.0000    267.1459     71.1197
   805.5000     96.9043      0.0000    267.2557     71.3659
   805.7500    108.4407      0.0000    267.0218     71.7506
   806.0000    116.8895      0.0000    266.5956     72.3461
   806.2500    121.2271      0.0000    266.2354     73.1093
   806.5000    122.2340      0.0000    266.0335     73.8334
   806.7500    120.4919      0.0000    265.9465     74.3424
   807.0000    115.4533      0.0000    265.9070     74.6345
   807.2500    106.6083      0.0000    265.8814     74.7851
   807.5000     95.1372      0.0000    265.8692     74.8507
   807.7500     83.7717      0.0000    265.8671     74.8885
   808.0000     74.8892      0.0000    265.8592     74.9458
   808.2500     69.0034      0.0000    265.8391     75.0107
   808.5000     64.9932      0.0000    265.8193     75.0356
   808.7500     61.3416      0.0000    265.8159     74.9972
   809.0000     57.2278      0.0000    265.8364     74.9019
   809.2500     52.8733      0.0000    265.8768     74.7624
   809.5000     49.0504      0.0000    265.9234     74.5950
   809.7500     46.2518      0.0000    265.9597     74.4278
   810.0000     44.2762      0.0000    265.9790     74.2835
   810.2500     42.5097      0.0000    265.9875     74.1675
   810.5000     40.5130      0.0000    265.9929     74.0866
   810.7500     38.4040      0.0000    265.9943     74.0576
   811.0000     36.7085      0.0000    265.9839     74.0959
   811.2500     35.7495      0.0000    265.9583     74.2002
   811.5000     35.1883      0.0000    265.9234     74.3463
   811.7500     34.3079      0.0000    265.9014     74.4963
   812.0000     32.7481      0.0000    265.9501     74.6100
   812.2500     30.8263      0.0000    266.1433     74.6669
   812.5000     29.1378      0.0000    266.4330     74.6790
   812.7500     28.0060      0.0000    266.5765     74.6612
   813.0000     27.4120      0.0000    266.4166     74.6125
   813.2500     27.3330      0.0000    266.1222     74.5404
   813.5000     27.9977      0.0000    265.9258     74.4722
   813.7500     29.8171      0.0000    265.8637     74.4267
   814.0000     33.1822      0.0000    265.8676     74.3990
   814.2500     38.4663      0.0000    265.8854     74.3823
   814.5000     46.1327      0.0000    265.8925     74.3794
   814.7500     56.5332      0.0000    265.8821     74.4018
   815.0000     69.3771      0.0000    265.8556     74.4687
   815.2500     83.3458      0.0000    265.8185     74.5797
   815.5000     96.2178      0.0000    265.7799     74.7010
   815.7500    105.4851      0.0000    265.7437     74.8047
   816.0000    109.2853      0.0000    265.7110     74.8877
   816.2500    107.3235      0.0000    265.6835     74.9519
   816.5000    101.0709      0.0000    265.6627     74.9903
   816.7500     92.8458      0.0000    265.6584     74.9792
   817.0000     84.5535      0.0000    265.6852     74.9007
   817.2500     77.2340      0.0000    265.7397     74.7771
   817.5000     71.4956      0.0000    265.8005     74.6512
   817.7500     67.8590      0.0000    265.8467     74.5506
   818.0000     66.4882      0.0000    265.8661     74.4991
   818.2500     66.8841      0.0000    265.8543     74.5202
   818.5000     68.2701      0.0000    265.8175     74.6089
   818.7500     70.4064      0.0000    265.7693     74.7348
   819.0000     73.8707      0.0000    265.7242     74.8665
   819.2500     79.4864      0.0000    265.6917     74.9773
   819.5000     87.4713      0.0000    265.6717     75.0499
   819.7500     96.7460      0.0000    265.6590     75.0795
   820.0000    104.9107      0.0000    265.6500     75.0719
   820.2500    109.5377      0.0000    265.6440     75.0409
   820.5000    110.0992      0.0000    265.6429     74.9973
   820.7500    108.5628      0.0000    265.6469     74.9501
   821.0000    107.8527      0.0000    265.6497     74.9179
   821.2500    109.5720      0.0000    265.6477     74.9151
   821.5000    113.0139      0.0000    265.6447     74.9352
   821.7500    116.2200      0.0000    265.6426     74.9616
   822.0000    117.9700      0.0000    265.6385     74.9860
   822.2500    118.6862      0.0000    265.6290     75.0105
   822.5000    119.5433      0.0000    265.6128     75.0332
   822.7500    121.0627      0.0000    265.5922     75.0459
   823.0000    122.7606      0.0000    265.5725     75.0410
   823.2500    123.8471      0.0000    265.5589     75.0059
   823.5000    123.8819      0.0000    265.5512     74.9423
   823.7500    122.8544      0.0000    265.5454     74.8791
   824.0000    121.1787      0.0000    265.5407     74.8325
   824.2500    119.7216      0.0000    265.5331     74.8004
   824.5000    119.1968      0.0000    265.5110     74.7904
   824.7500    119.0931      0.0000    265.4781     74.7913
   825.0000    117.6682      0.0000    265.4572     74.7654
   825.2500    113.5645      0.0000    265.4898     74.6949
   825.5000    107.3430      0.0000    265.8334     74.4941
   825.7500    101.1828      0.0000    267.6375     73.6446
   826.0000     97.2305      0.0000    273.6091     70.8211
   826.2500     96.3922      0.0000    286.0272     64.7449
   826.5000     98.2374      0.0000    301.3388     56.9406
   826.7500    101.3762      0.0000    310.6722     51.9514
   827.0000    104.0494      0.0000    311.0226     51.8894
   827.2500    105.1992      0.0000    308.6178     54.2197
   827.5000    105.3504      0.0000    308.1666     56.4259
   827.7500    105.9932      0.0000    308.8363     57.9493
   828.0000    107.7858     -2.0000    309.2803     58.7469
   828.2500    109.6331     -2.0000    309.4583     58.9927
   828.5000    109.7588      0.0000    309.5408     58.9344
   828.7500    107.5062      0.0000    309.4503     58.4059
   829.0000    103.9806      0.0000    308.7838     56.9605
   829.2500    101.1218      0.0000    306.9170     55.1688
   829.5000    100.2782      0.0000    303.8722     55.2092
   829.7500    101.2020      0.0000    300.0735     58.2844
   830.0000    101.9016      0.0000    294.0847     63.0285
   830.2500     99.9274      0.0000    284.6920     67.7393
   830.5000     94.6052      0.0000    275.1169     71.4685
   830.7500     88.0602      0.0000    269.2763     73.6234
   831.0000     83.7871      0.0000    267.1031     74.3248
   831.2500     84.1948      0.0000    266.5807     74.2797
   831.5000     89.1692      0.0000    266.4829     74.1005
   831.7500     96.3780      0.0000    266.4602     74.0340
   832.0000    102.8398      0.0000    266.4539     74.0781
   832.2500    106.7102      0.0000    266.4554     74.1666
   832.5000    108.2051      0.0000    266.4613     74.2532
   832.7500    108.9831      0.0000    266.4634     74.2932
   833.0000    110.3552      0.0000    266.4569     74.2423
   833.2500    111.9621      0.0000    266.4503     74.1295
   833.5000    112.2661      0.0000    266.4591     74.0452
   833.7500    110.2620      0.0000    266.4867     74.0045
   834.0000    106.7633      0.0000    266.5217     73.9431
   834.2500    104.2310      0.0000    266.5513     73.8575
   834.5000    105.1271      0.0000    266.5686     73.8015
   834.7500    109.9242      0.0000    266.5742     73.7943
   835.0000    116.6281      0.0000    266.5755     73.8308
   835.2500    122.5211      0.0000    266.5777     73.9119
   835.5000    126.2948      0.0000    266.5812     74.0560
   835.7500    128.1747      0.0000    266.5891     74.2775
   836.0000    128.3326      0.0000    266.6023     74.5259
   836.2500    126.2658      0.0000    266.6145     74.7079
   836.5000    122.1860      0.0000    266.6210     74.7608
   836.7500    118.0570      0.0000    266.6252     74.6616
   837.0000    116.2719      0.0000    266.6333     74.4351
   837.2500    117.3732      0.0000    266.6454     74.1507
