~Version Information
VERS.                      2.0: CWLS Log ASCII Standard - VERSION 2.0
WRAP.                       NO: One line per depth step
~Well Information Block
STRT.FT               420.0000: 
STOP.FT              1528.5000: 
STEP.FT                 0.2500: 
NULL.                -999.2500: 
COMP.          Evergreen Operating Corporation: COMPANY
WELL.              Chase 21-10: WELL
FLD.           Purgatoire River: FIELD
LOC.           1122' FNL & 1544' FWL: LOCATION
PROV.                       CO: PROVINCE
CNTY.               Las Animas: COUNTRY
SRVC.                         : SERVICE COMPANY
DATE.          Sun May 23 21:20:45 2004: LOG DATE
UWI.           05 071 08006 00: UNIQUE WELL ID
~Curve Information Block
DEPT.FT            0 000 00 00: Depth
SN.Ohm-m                      : IEL Short Normal
SP.mV                         : IEL Spontaneous Potential
DIR.Ohm-m                     : IEL Induction Resistivity
GR.GAPI                       : Gamma Ray
~Parameter Information Block
~A  Depth        SN          SP         DIR          GR     
# ...
  1056.5000     12.3270    127.0401     11.2411    103.6913
  1056.7500     12.2608    126.9872     11.2058    100.2981
  1057.0000     12.2058    126.9366     11.1995     95.6001
  1057.2500     12.2344    126.8905     11.2220     93.4920
  1057.5000     12.3553    126.8496     11.2690     93.0849
  1057.7500     12.5118    126.8133     11.3326     95.1090
  1058.0000     12.6194    126.7802     11.4000    101.5480
  1058.2500     12.6143    126.7488     11.4541    107.3613
  1058.5000     12.4834    126.7172     11.4772    115.9530
  1058.7500     12.2634    126.6844     11.4582    120.2247
  1059.0000     12.0170    126.6495     11.3980    123.6716
  1059.2500     11.8036    126.6124     11.3088    124.5935
  1059.5000     11.6595    126.5736     11.2085    125.6385
  1059.7500     11.5918    126.5341     11.1132    126.7703
  1060.0000     11.5853    126.4960     11.0331    128.8362
  1060.2500     11.6140    126.4622     10.9725    129.6182
  1060.5000     11.6521    126.4361     10.9308    128.6625
  1060.7500     11.6799    126.4218     10.9053    126.6027
  1061.0000     11.6838    126.4234     10.8916    122.1574
  1061.2500     11.6544    126.4443     10.8855    118.6801
  1061.5000     11.5847    126.4871     10.8835    113.3544
  1061.7500     11.4698    126.5525     10.8829    110.4306
  1062.0000     11.3082    126.6399     10.8798    108.3554
  1062.2500     11.1040    126.7465     10.8687    108.8461
  1062.5000     10.8682    126.8678     10.8435    111.6992
  1062.7500     10.6192    126.9980     10.8008    114.1293
  1063.0000     10.3817    127.1304     10.7416    117.1563
  1063.2500     10.1859    127.2576     10.6713    118.3231
  1063.5000     10.0638    127.3726     10.5978    118.6865
  1063.7500     10.0420    127.4688     10.5292    118.1946
  1064.0000     10.1309    127.5407     10.4719    116.9000
  1064.2500     10.3151    127.5848     10.4297    115.9480
  1064.5000     10.5538    127.5996     10.4038    114.6636
  1064.7500     10.7920    127.5858     10.3936    114.0927
  1065.0000     10.9792    127.5466     10.3977    114.1819
  1065.2500     11.0855    127.4867     10.4137    115.0825
  1065.5000     11.1076    127.4124     10.4386    117.4454
  1065.7500     11.0628    127.3301     10.4681    119.1024
  1066.0000     10.9773    127.2461     10.4973    120.2297
  1066.2500     10.8745    127.1656     10.5207    119.4535
  1066.5000     10.7694    127.0926     10.5329    116.4618
  1066.7500     10.6683    127.0294     10.5297    114.4067
  1067.0000     10.5714    126.9771     10.5097    113.4413
  1067.2500     10.4772    126.9353     10.4752    114.8652
  1067.5000     10.3839    126.9030     10.4300    119.4449
  1067.7500     10.2912    126.8785     10.3779    122.8280
  1068.0000     10.2001    126.8601     10.3203    126.0169
  1068.2500     10.1129    126.8461     10.2564    126.4042
  1068.5000     10.0324    126.8352     10.1838    125.6045
  1068.7500      9.9604    126.8271     10.1007    125.3336
  1069.0000      9.8957    126.8222     10.0076    126.2693
  1069.2500      9.8347    126.8222      9.9076    127.2858
  1069.5000      9.7727    126.8293      9.8053    127.5474
  1069.7500      9.7084    126.8465      9.7042    126.0873
  1070.0000      9.6450    126.8765      9.6054    121.5593
  1070.2500      9.5893    126.9214      9.5083    117.8673
  1070.5000      9.5463    126.9820      9.4136    113.3029
  1070.7500      9.5151    127.0576      9.3238    111.6031
  1071.0000      9.4878    127.1459      9.2417    110.6697
  1071.2500      9.4532    127.2434      9.1672    110.4439
  1071.5000      9.4021    127.3458      9.0979    110.3508
  1071.7500      9.3337    127.4483      9.0321    110.8123
  1072.0000      9.2563    127.5461      8.9728    112.6316
  1072.2500      9.1848    127.6342      8.9276    114.3056
  1072.5000      9.1348    127.7080      8.9039    116.7696
  1072.7500      9.1174    127.7633      8.9053    118.0646
  1073.0000      9.1365    127.7962      8.9309    119.0074
  1073.2500      9.1903    127.8041      8.9771    118.8314
  1073.5000      9.2740    127.7854      9.0413    117.9593
  1073.7500      9.3821    127.7407      9.1236    117.7375
  1074.0000      9.5085    127.6722      9.2274    118.7255
  1074.2500      9.6459    127.5842      9.3586    119.9519
  1074.5000      9.7882    127.4823      9.5262    121.5964
  1074.7500      9.9352    127.3726      9.7410    122.3641
  1075.0000     10.0961    127.2613     10.0155    123.5208
  1075.2500     10.2900    127.1534     10.3608    124.6862
  1075.5000     10.5434    127.0527     10.7844    127.5141
  1075.7500     10.8860    126.9614     11.2889    130.1558
  1076.0000     11.3494    126.8804     11.8734    134.4129
  1076.2500     11.9655    126.8096     12.5365    136.5328
  1076.5000     12.7673    126.7482     13.2789    137.3106
  1076.7500     13.7913    126.6949     14.1025    135.8512
  1077.0000     15.0805    126.6481     15.0037    130.2512
  1077.2500     16.6798    126.6066     15.9671    124.0020
  1077.5000     18.6129    126.5694     16.9648    111.3301
  1077.7500     20.8413    126.5363     17.9643    101.8070
  1078.0000     23.2277    126.5084     18.9402     88.3514
  1078.2500     25.5354    126.4881     19.8753     80.8060
  1078.5000     27.4797    126.4790     20.7486     71.7738
  1078.7500     28.8122    126.4855     21.5218     66.9953
  1079.0000     29.3971    126.5122     22.1387     61.2913
  1079.2500     29.2438    126.5626     22.5398     58.4818
  1079.5000     28.4862    126.6388     22.6848     56.4270
  1079.7500     27.3228    126.7402     22.5656     57.1079
  1080.0000     25.9498    126.8639     22.2061     61.7395
  1080.2500     24.5162    127.0046     21.6529     66.9115
  1080.5000     23.1141    127.1551     20.9663     76.4360
  1080.7500     21.7980    127.3070     20.2132     83.0707
  1081.0000     20.6085    127.4520     19.4613     92.0717
  1081.2500     19.5836    127.5816     18.7706     96.8297
  1081.5000     18.7551    127.6888     18.1859    101.8266
  1081.7500     18.1383    127.7676     17.7342    104.0381
  1082.0000     17.7286    127.8138     17.4272    106.0373
  1082.2500     17.5061    127.8248     17.2653    106.1726
  1082.5000     17.4471    127.8003     17.2412    103.9623
  1082.7500     17.5349    127.7417     17.3425    101.2980
  1083.0000     17.7645    127.6525     17.5546     97.5599
  1083.2500     18.1406    127.5378     17.8661     96.3820
  1083.5000     18.6706    127.4040     18.2727     97.1395
  1083.7500     19.3592    127.2581     18.7767     98.6800
  1084.0000     20.2067    127.1068     19.3840    100.3412
  1084.2500     21.2077    126.9565     20.0978     99.7158
  1084.5000     22.3490    126.8123     20.9189     95.0498
  1084.7500     23.6023    126.6781     21.8483     89.5759
  1085.0000     24.9189    126.5564     22.8890     78.9295
  1085.2500     26.2330    126.4482     24.0403     71.1321
  1085.5000     27.4753    126.3528     25.2877     60.2844
  1085.7500     28.5923    126.2686     26.5941     54.7469
  1086.0000     29.5601    126.1925     27.9042     50.3142
  1086.2500     30.3884    126.1212     29.1573     50.0783
  1086.5000     31.1146    126.0514     30.3067     53.0512
  1086.7500     31.7888    125.9806     31.3351     56.5207
  1087.0000     32.4549    125.9081     32.2610     62.4615
  1087.2500     33.1338    125.8353     33.1281     65.8954
  1087.5000     33.8141    125.7658     33.9776     68.4607
  1087.7500     34.4585    125.7052     34.8166     67.6775
  1088.0000     35.0202    125.6601     35.6007     62.5477
  1088.2500     35.4615    125.6375     36.2471     57.1247
  1088.5000     35.7624    125.6431     36.6722     47.8362
  1088.7500     35.9188    125.6812     36.8234     41.8813
  1089.0000     35.9356    125.7537     36.6865     34.3314
  1089.2500     35.8200    125.8602     36.2716     30.4231
  1089.5000     35.5788    125.9982     35.6032     26.1312
  1089.7500     35.2177    126.1632     34.7228     24.1280
