~Version Information
VERS.                      2.0: CWLS Log ASCII Standard - VERSION 2.0
WRAP.                       NO: One line per depth step
~Well Information Block
STRT.FT               906.0000: 
STOP.FT              1960.5000: 
STEP.FT                 0.2500: 
NULL.                -999.2500: 
COMP.          Petrogulf Corporation: COMPANY
WELL.            Torcom 17-33R: WELL
FLD.           Purgatorie River: FIELD
LOC.           1483' FSL & 1804' FEL: LOCATION
PROV.                 Colorado: PROVINCE
CNTY.               Las Animas: COUNTRY
SRVC.                Patterson: SERVICE COMPANY
DATE.          Thu Aug 18 08:33:01 2005: LOG DATE
UWI.                071 08069 : UNIQUE WELL ID
~Curve Information Block
DEPT.FT            0 000 00 00: Depth
SP.mV                         : DIL Spontaneous Potential
RILD.Ohm-m                    : DIL Deep Resistivity
RILM.Ohm-m                    : DIL Medium Resistivity
RLL3.Ohm-m                    : DIL Shallow Resistivity
GR.GAPI                       : Gamma Ray
~Parameter Information Block
~A  Depth        SP         RILD        RILM        RLL3         GR     
   906.0000    -51.6399      6.7099 100000.0000      0.7201     84.8548
   906.2500    -52.2111      6.8538 100000.0000      1.8983     83.9684
   906.5000    -52.3605      6.8099 100000.0000      2.9529     92.8653
   906.7500    -51.6441      6.7516 100000.0000      2.1150     88.1559
   907.0000    -50.9394      6.6526 100000.0000      1.1351     92.1660
   907.2500    -49.9976      6.5134 100000.0000      0.6261    100.4876
   907.5000    -48.5053      6.4524 100000.0000      1.4578    103.2115
   907.7500    -47.6902      6.3723 100000.0000      1.2598     99.5180
   908.0000    -50.9236      6.2634 100000.0000      0.5975     87.3013
   908.2500    -55.1649      6.2042 100000.0000      0.6691     88.8684
   908.5000    -57.9456      6.1235 100000.0000      1.9598     88.7937
   908.7500    -59.9517      6.0899 100000.0000      0.3922     89.3849
   909.0000    -60.0243      6.1149 100000.0000     -1.0452     83.6643
   909.2500    -62.0999      6.1647 100000.0000     -0.0636     86.0360
   909.5000    -63.0527      6.2426 100000.0000     -0.3254     82.6149
   909.7500    -61.1276      6.2051 100000.0000      0.5121     81.9330
   910.0000    -60.1331      6.2382 100000.0000     -0.3303     71.5478
   910.2500    -58.4492      6.2908 100000.0000      1.9856     74.3998
   910.5000    -58.9104      6.3030 100000.0000      7.5022     68.8380
   910.7500    -56.3665      6.2075 100000.0000      6.1297     59.2028
   911.0000    -50.9401      6.1436 100000.0000      5.1774     55.4759
   911.2500    -49.4068      6.0646 100000.0000      0.7676     59.4690
   911.5000    -51.7886      6.0773 100000.0000     -0.7535     59.8819
   911.7500    -56.0801      6.0588 100000.0000      1.9481     67.0984
   912.0000    -63.4774      6.0924 100000.0000      5.3635     75.6114
   912.2500    -68.2652      6.0956 100000.0000      2.1201     78.8920
   912.5000    -69.1934      6.0377 100000.0000      6.4870     79.7792
   912.7500    -64.5453      6.0985 100000.0000      3.9044     79.6480
   913.0000    -62.4608      6.1946 100000.0000     -0.9901     84.7995
   913.2500    -62.6098      6.2836 100000.0000      1.2040     80.0199
   913.5000    -64.7295      6.2956 100000.0000      3.0285     83.6526
   913.7500    -66.4272      6.3617 100000.0000      2.2686     84.2647
   914.0000    -60.8379      6.3926 100000.0000      1.9465     93.7140
   914.2500    -58.6945      6.3481 100000.0000     -2.2727     98.4004
   914.5000    -53.6966      6.3844 100000.0000     -1.9530     95.9745
   914.7500    -49.8538      6.3901 100000.0000     -0.2012     90.9984
   915.0000    -46.3394      6.3973 100000.0000      0.6207     89.3444
   915.2500    -46.0911      6.3697 100000.0000      1.0848     87.9489
   915.5000    -50.1589      6.3489 100000.0000      1.0903     72.6259
   915.7500    -54.6448      6.2954 100000.0000      1.7278     67.5661
   916.0000    -53.5043      6.2963 100000.0000      1.4269     61.7587
   916.2500    -59.0982      6.3166 100000.0000      0.6678     58.3825
   916.5000    -64.2943      6.3759 100000.0000      1.2053     55.5076
   916.7500    -68.2975      6.3766 100000.0000      2.0606     53.6197
   917.0000    -71.3089      6.3357 100000.0000      2.0293     61.4046
   917.2500    -74.2832      6.2897 100000.0000      5.3322     61.9416
   917.5000    -76.1282      6.2108 100000.0000      5.5559     63.8592
   917.7500    -76.8880      6.1546 100000.0000      1.3690     60.3981
   918.0000    -71.1241      6.1111 100000.0000      1.9099     64.1991
   918.2500    -61.2655      6.0876 100000.0000      4.0271     60.1765
   918.5000    -57.4937      6.0937 100000.0000      0.3968     65.9860
   918.7500    -55.5686      6.0404 100000.0000     -2.4650     68.0763
   919.0000    -55.4537      5.9238 100000.0000      0.8928     67.9618
   919.2500    -57.8442      5.9164 100000.0000      0.3428     64.3846
   919.5000    -59.3056      5.8816 100000.0000      0.1380     75.6616
   919.7500    -65.4674      5.7604 100000.0000      2.9291     75.4305
   920.0000    -72.3928      5.4229 100000.0000      0.9036     69.3454
   920.2500    -75.6863      5.2233 100000.0000      2.3235     79.0054
   920.5000    -79.7244      5.5824 100000.0000      5.0187     79.5771
   920.7500    -82.1088      6.2784 100000.0000     -0.8310     77.1957
   921.0000    -80.9263      6.6806 100000.0000     -0.8850     88.1397
   921.2500    -76.9331      6.6067 100000.0000     -0.3215     85.0841
   921.5000    -70.6966      6.3313 100000.0000     -0.6022     82.4265
   921.7500    -70.6382      6.1434 100000.0000     -0.8532     76.6074
   922.0000    -70.3234      5.9925 100000.0000      0.9801     85.9720
   922.2500    -59.0164      5.8244 100000.0000      2.1728     88.1657
   922.5000    -50.7390      5.6158 100000.0000      3.9899     91.1183
   922.7500    -46.9011      5.4191 100000.0000      2.8989     89.5460
   923.0000    -41.3442      5.7045 100000.0000      0.9729     83.6036
   923.2500    -38.5632      6.7986 100000.0000      0.3755     83.1797
   923.5000    -37.7193      8.7466 100000.0000     -1.9952     82.5069
   923.7500    -37.9217     10.0887 100000.0000     -0.0621     84.9646
   924.0000    -34.0878      8.1940 100000.0000      2.1268     83.7725
   924.2500    -30.0272      6.1932 100000.0000      0.6343     85.1953
   924.5000    -26.7535      5.4122 100000.0000      2.8920     82.6786
   924.7500    -22.6731      5.0939 100000.0000      3.8721     79.9692
   925.0000    -18.3775      5.0969 100000.0000      8.4887     73.9422
   925.2500    -12.9633      5.1543 100000.0000      7.9215     70.3826
   925.5000     -5.8599      5.1620 100000.0000      3.5943     66.6171
   925.7500      3.2810      5.1092 100000.0000      2.1022     67.0806
   926.0000     13.3627      5.0747 100000.0000      2.5968     65.8065
   926.2500     15.8788      6.1114 100000.0000      3.5850     63.3350
   926.5000     22.1736     12.6298 100000.0000      4.5951     62.3292
   926.7500     24.7155 100000.0000 100000.0000      3.2508     66.0431
   927.0000     28.2885 100000.0000 100000.0000      2.6452     70.5077
   927.2500     31.7143      5.3916 100000.0000      1.1767     69.0870
   927.5000     32.7747      3.0148 100000.0000      0.9086     79.4033
   927.7500     28.0910      2.8509 100000.0000      1.8345     87.8302
   928.0000     17.1298      3.6425 100000.0000      4.3133     90.1404
   928.2500     -0.0676      4.6088 100000.0000      7.1349     93.5708
   928.5000    -23.7753      5.4373 100000.0000      9.7165     87.6559
   928.7500    -44.1822      6.4696 100000.0000     31.6199     80.5654
   929.0000    -57.8317      9.5451 100000.0000     67.9416     82.9625
   929.2500    -68.0361     60.6606 100000.0000    103.9839     86.8132
   929.5000    -76.7895 100000.0000 100000.0000     63.8584     74.2116
   929.7500    -82.9363      5.4342 100000.0000     40.3466     78.8648
   930.0000    -89.6347      1.8989 100000.0000     29.0117     85.6622
   930.2500    -95.6178      1.1227 100000.0000     26.6682     93.9926
   930.5000   -100.4973      1.4304      6.4487     26.0751     97.7403
   930.7500   -104.2189      3.2699      2.4224     19.6280     94.4480
   931.0000   -106.0833      8.4868      2.7929     14.0843    104.7529
   931.2500   -106.3205     24.4219      5.6392     14.2917    103.2172
   931.5000   -106.2039     87.5817     23.0901     13.4737    107.8983
   931.7500   -105.8154 100000.0000     22.6337     16.1827    107.8280
   932.0000   -106.4919 100000.0000     15.5605     15.3199    111.3188
   932.2500   -106.0948 100000.0000     14.2983     13.0360    106.0977
   932.5000   -105.5340 100000.0000     13.8633     13.8019    110.4968
   932.7500   -103.1138 100000.0000     14.1449     13.7296    104.1121
   933.0000    -97.3461 100000.0000     16.2552     13.6278     91.8115
   933.2500    -89.3640     22.2856     33.9801     14.6676     85.1571
   933.5000    -78.7604     13.1870 100000.0000     15.5789     86.3979
   933.7500    -69.3701     14.6557 100000.0000     19.7085     82.1732
