~Version Information
 VERS.                                  2.0 : CWLS LAS VERSION
 WRAP.                                   NO : WRAPING MODE
 SWARE .                 MController 2.5.0J : SOFTWARE VERSION
~Well Information
 WELL.                         Norton 9-14V : WELL
 COMP.                       Petrogulf Corp : COMPANY
 FLD.                      Purgatoire River : FIELD
 LOC.                 SW/SW Sec 9 T33S R67W : LOCATION
 DATE.                             10/27/04 : DATE(S) LOGGED
 SRVC.      Blanco Geological Servivces LLC : SERVICE COMPANY
 STAT.                                   CO : STATE
 CNTY.                           Las Animas : COUNTY
 CTRY.                                  USA : COUNTRY
 API.                       05-071-07891-00 : API NUMBER
 STRT.FT                             752.00 : START DEPTH
 STOP.FT                            2427.00 : STOP DEPTH
 STEP.FT                               1.00 : DEPTH INCREMENT
 NULL.                                -9999 : NULL VALUE
~Curve information
 DEPTH.FT                                   :
 ROP.MIN/FT                                 :
 GAS.UNITS                                  :
~ASCII Log data
# ...
      1152.0         0.13         23.0 
      1153.0         0.13         23.0 
      1154.0         0.13         23.0 
      1155.0         0.10         22.9 
      1156.0         0.10         23.4 
      1157.0         0.10         23.4 
      1158.0         0.10         23.4 
      1159.0         0.20         23.0 
      1160.0         0.10         22.8 
      1161.0         0.13         20.9 
      1162.0         0.07         20.9 
      1163.0         0.10         18.9 
      1164.0         0.07         18.9 
      1165.0         0.30         18.3 
      1166.0         0.23         18.1 
      1167.0         0.17         17.5 
      1168.0         0.10         17.5 
      1169.0         0.10         16.9 
      1170.0         0.17         16.9 
      1171.0         0.17         16.5 
      1172.0         0.23         16.2 
      1173.0         0.17         15.2 
      1174.0         0.20         14.3 
      1175.0         0.33         14.7 
      1176.0         0.27         20.9 
      1177.0         0.30         19.0 
      1178.0         0.27         17.9 
      1179.0         0.25         18.0 
      1180.0         0.17         18.4 
      1181.0         0.13         17.2 
      1182.0         0.20         16.9 
      1183.0         0.20         15.8 
      1184.0         0.13         15.8 
      1185.0         0.13         14.6 
      1186.0         0.10         13.9 
      1187.0         0.10         13.6 
      1188.0         0.10         14.3 
      1189.0         0.10         14.3 
      1190.0         0.10         13.6 
      1191.0         0.13         13.8 
      1192.0         0.10         13.8 
      1193.0         0.10         13.8 
      1194.0         0.07         13.8 
      1195.0         0.13         13.1 
      1196.0         0.23         13.9 
      1197.0         0.17         13.9 
      1198.0         0.23         13.6 
      1199.0         0.30         13.5 
      1200.0         0.23         14.5 
      1201.0         0.20         14.7 
      1202.0         0.17         14.3 
      1203.0         0.20         14.8 
      1204.0         0.20         14.7 
      1205.0         0.13         14.4 
      1206.0         0.10         17.7 
      1207.0         0.15         17.7 
      1208.0         0.17         18.3 
      1209.0         0.13         18.2 
      1210.0         0.17         17.7 
      1211.0         0.13         16.3 
      1212.0         0.13         16.3 
      1213.0         0.10         16.3 
      1214.0         0.13         16.3 
      1215.0         0.10         16.3 
      1216.0         0.13         16.3 
      1217.0         0.20         17.0 
      1218.0         0.20         16.9 
      1219.0         0.17         16.7 
      1220.0         0.13         16.3 
      1221.0         0.17         15.6 
      1222.0         0.20         14.9 
      1223.0         0.17         14.9 
      1224.0         0.13         14.8 
      1225.0         0.13         14.6 
      1226.0         0.27         14.3 
      1227.0         0.20         14.0 
      1228.0         0.20         13.7 
      1229.0         0.17         13.7 
      1230.0         0.13         13.1 
      1231.0         0.20         13.2 
      1232.0         0.23         13.8 
      1233.0         0.25         13.2 
      1234.0         0.30         13.0 
      1235.0         0.23         13.3 
      1236.0         0.23         15.9 
      1237.0         0.23         15.9 
      1238.0         0.20         17.1 
      1239.0         0.23         17.7 
      1240.0         0.20         17.9 
      1241.0         0.20         18.4 
      1242.0         0.17         17.9 
      1243.0         0.13         17.5 
      1244.0         0.17         17.7 
      1245.0         0.13         17.6 
      1246.0         0.10         16.6 
      1247.0         0.13         16.6 
      1248.0         0.13         15.7 
      1249.0         0.13         15.7 
      1250.0         0.10         15.3 
      1251.0         0.13         15.3 
      1252.0         0.15         15.4 
      1253.0         0.13         15.0 
      1254.0         0.17         15.0 
      1255.0         0.23         15.5 
      1256.0         0.33         14.9 
      1257.0         0.23         14.2 
      1258.0         0.32         14.1 
      1259.0         0.30         14.0 
      1260.0         0.30         13.9 
      1261.0         0.27         13.0 
      1262.0         0.27         13.2 
      1263.0         0.23         12.7 
      1264.0         0.23         13.5 
      1265.0         0.20         12.7 
      1266.0         0.27         12.9 
      1267.0         0.30         12.6 
      1268.0         0.23         13.0 
      1269.0         0.27         13.6 
      1270.0         0.28         16.1 
      1271.0         0.27         16.1 
      1272.0         0.17         16.0 
      1273.0         0.20         17.6 
      1274.0         0.17         20.2 
      1275.0         0.27         22.8 
      1276.0         0.20         22.6 
      1277.0         0.17         22.6 
      1278.0         0.23         22.2 
      1279.0         0.17         22.6 
      1280.0         0.17         20.9 
      1281.0         0.13         21.2 
      1282.0         0.10         20.6 
      1283.0         0.13         18.8 
      1284.0         0.20         18.8 
      1285.0         0.20         17.7 
      1286.0         0.27         17.5 
      1287.0         0.27         16.2 
      1288.0         0.23         16.4 
      1289.0         0.23         15.9 
      1290.0         0.23         16.3 
      1291.0         0.27         17.2 
      1292.0         0.27         16.6 
      1293.0         0.30         16.0 
      1294.0         0.32         15.5 
      1295.0         0.30         15.9 
      1296.0         0.23         15.2 
      1297.0         0.13         15.2 
      1298.0         0.10         15.3 
      1299.0         0.13         15.3 
      1300.0         0.17         14.8 
      1301.0         0.20         14.3 
      1302.0         0.20         14.4 
      1303.0         0.30         15.1 
      1304.0         0.30         15.1 
      1305.0         0.27         16.7 
      1306.0         0.27         19.0 
      1307.0         0.27         21.2 
      1308.0         0.23         21.0 
      1309.0         0.22         21.0 
      1310.0         0.23         20.6 
      1311.0         0.27         20.5 
      1312.0         0.20         18.9 
      1313.0         0.17         17.8 
      1314.0         0.13         16.9 
      1315.0         0.17         16.4 
      1316.0         0.13         15.8 
      1317.0         0.23         16.2 
      1318.0         0.17         16.2 
      1319.0         0.27         16.2 
      1320.0         0.33         16.5 
      1321.0         0.33         14.8 
      1322.0         0.23         14.4 
      1323.0         0.30         14.3 
      1324.0         0.30         15.5 
      1325.0         0.33         15.1 
      1326.0         0.23         13.9 
      1327.0         0.17         13.6 
      1328.0         0.13         12.9 
      1329.0         0.28         13.3 
      1330.0         0.23         13.5 
      1331.0         0.27         19.3 
      1332.0         0.23         19.3 
      1333.0         0.23         20.4 
      1334.0         0.23         21.0 
      1335.0         0.20         21.0 
      1336.0         0.23         20.0 
      1337.0         0.20         19.4 
      1338.0         0.20         18.4 
      1339.0         0.23         17.5 
      1340.0         0.17         16.9 
      1341.0         0.20         15.9 
      1342.0         0.17         15.9 
      1343.0         0.20         16.0 
      1344.0         0.22         15.1 
      1345.0         0.17         16.2 
      1346.0         0.33         17.5 
      1347.0         0.30         16.7 
      1348.0         0.27         17.6 
      1349.0         0.20         14.7 
      1350.0         0.23         14.9 
      1351.0         0.20         15.8 
