~Version Information
VERS.                      2.0: CWLS Log ASCII Standard - VERSION 2.0
WRAP.                       NO: One line per depth step
~Well Information Block
STRT.FT               545.0000: 
STOP.FT              1920.5000: 
STEP.FT                 0.1000: 
NULL.                -999.2500: 
COMP.          Pioneer Natural Resources: COMPANY
WELL.            Summers 21-19: WELL
FLD.           Purgatoire River: FIELD
LOC.           900' FNL & 1950' FWL: LOCATION
PROV.                 Colorado: PROVINCE
CNTY.               Las Animas: COUNTRY
SRVC.                Patterson: SERVICE COMPANY
DATE.          Mon Oct 17 07:05:22 2005: LOG DATE
UWI.           05 071 08315 00: UNIQUE WELL ID
~Curve Information Block
DEPT.FT            0 000 00 00: Depth
DCAL.in                       : CDL Caliper
RHOB.g/cc                     : CDL Bulk Density
RHOC.g/cc                     : CDL Density Correction
DPOR.pu                       : CDL Density Porosity
GR.GAPI                       : Gamma Ray
NPOR.pu                       : Neutron Porosity
~Parameter Information Block
~A  Depth       DCAL        RHOB        RHOC        DPOR         GR         NPOR    
# ...
   909.8000      8.0489      2.5609      0.0669      5.4011     69.8668     17.6180
   909.9000      8.0489      2.5422      0.0143      6.5304     67.7346     18.4685
   910.0000      8.0302      2.5539      0.0141      5.8246     72.9305     19.5916
   910.1000      8.0302      2.5894      0.1016      3.6750     83.2837     20.7822
   910.2000      8.0302      2.6151      0.1019      2.1141     91.7763     22.1560
   910.3000      8.0941      2.6123      0.0948      2.2847     95.9435     23.5777
   910.4000      8.0941      2.5844      0.1097      3.9765     97.3764     24.0280
   910.5000      8.0630      2.5516      0.0837      5.9627     94.9449     23.6519
   910.6000      8.0630      2.5364      0.0370      6.8848     87.9701     23.9708
   910.7000      8.0630      2.5408      0.0211      6.6181     83.3545     25.3903
   910.8000      8.0640      2.5456      0.0638      6.3297     86.9010     26.3753
   910.9000      8.0640      2.5355      0.0718      6.9377     95.4536     25.7281
   911.0000      8.0549      2.5253     -0.0163      7.5606    103.3319     24.4543
   911.1000      8.0549      2.5310      0.0453      7.2149    109.4501     24.0437
   911.2000      8.0549      2.5403      0.0156      6.6484    115.5534     24.6923
   911.3000      8.0173      2.5369      0.0605      6.8550    120.8151     25.6772
   911.4000      8.0173      2.5155      0.0154      8.1502    121.7628     26.3702
   911.5000      8.0134      2.4855      0.0256      9.9674    118.7715     26.6603
   911.6000      8.0134      2.4661      0.0240     11.1467    119.4741     26.3593
   911.7000      8.0134      2.4690     -0.0110     10.9706    126.8759     25.6385
   911.8000      8.0075      2.4885      0.0571      9.7908    132.7786     25.7858
   911.9000      8.0075      2.5118      0.0116      8.3728    133.8357     27.0288
   912.0000      8.0256      2.5362      0.0824      6.8977    133.0394     27.9559
   912.1000      8.0256      2.5585      0.1029      5.5436    131.0357     27.9338
   912.2000      8.0256      2.5748      0.0656      4.5590    130.0493     27.5563
   912.3000      8.0280      2.5835      0.1199      4.0320    131.2848     27.1259
   912.4000      8.0280      2.5739      0.1521      4.6126    130.1087     26.8783
   912.5000      8.0298      2.5453      0.0706      6.3450    127.1356     26.8829
   912.6000      8.0298      2.5214      0.0251      7.7969    129.2983     26.7713
   912.7000      8.0298      2.5238      0.0196      7.6478    134.5072     26.6539
   912.8000      8.0300      2.5553      0.0273      5.7365    133.3271     27.0602
   912.9000      8.0300      2.6038      0.0686      2.7991    124.3862     27.8772
   913.0000      8.0297      2.6547      0.1018     -0.2878    116.0527     28.1630
   913.1000      8.0297      2.6954      0.1908     -2.7491    112.5475     28.0130
   913.2000      8.0297      2.7220      0.1682     -4.3609    110.6317     27.6408
   913.3000      8.0240      2.7467      0.1756     -5.8616    108.9906     26.6988
   913.4000      8.0240      2.7808      0.1717     -7.9253    107.8738     26.0570
   913.5000      8.0017      2.8201      0.1410    -10.3084    107.7869     26.3998
   913.6000      8.0017      2.8475      0.2018    -11.9698    108.5032     27.0157
   913.7000      8.0017      2.8530      0.0964    -12.3057    105.4040     27.2264
   913.8000      7.9957      2.8382      0.0739    -11.4043     97.8880     26.7760
   913.9000      7.9957      2.8087     -0.0078     -9.6196     89.9250     25.9241
   914.0000      7.9925      2.7742      0.0265     -7.5282     84.0537     25.2577
   914.1000      7.9925      2.7293      0.0089     -4.8038     83.9280     24.8998
   914.2000      7.9925      2.6723     -0.0983     -1.3523     89.9892     24.1310
   914.3000      8.0217      2.6323     -0.1431      1.0704     96.0234     22.3714
   914.4000      8.0217      2.6306     -0.0690      1.1777     95.8416     20.5323
   914.5000      8.0707      2.6502     -0.0550     -0.0130     90.8753     19.4066
   914.6000      8.0707      2.6595      0.0245     -0.5733     86.8012     19.1285
   914.7000      8.0707      2.6412     -0.0022      0.5309     84.8206     19.9443
   914.8000      8.0374      2.6112     -0.0157      2.3496     83.1270     21.2534
   914.9000      8.0374      2.5937      0.0092      3.4104     83.8983     22.1431
   915.0000      8.0550      2.5905      0.0255      3.6049     89.1152     22.6277
   915.1000      8.0550      2.5910      0.0654      3.5742     94.4391     22.4920
   915.2000      8.0550      2.5873      0.0213      3.8007     99.7016     21.2600
   915.3000      7.9982      2.5778      0.0740      4.3754    109.5528     20.0000
   915.4000      7.9982      2.5683      0.0011      4.9509    120.3521     20.2304
   915.5000      7.9530      2.5677      0.0197      4.9881    129.6807     21.9241
   915.6000      7.9530      2.5709      0.0447      4.7952    141.0091     23.8695
   915.7000      7.9530      2.5732      0.0193      4.6520    147.8091     24.8117
   915.8000      7.9440      2.5873      0.0374      3.8030    144.4398     24.4379
   915.9000      7.9440      2.6110      0.0756      2.3645    136.3913     23.8488
   916.0000      7.9613      2.6211      0.0698      1.7506    129.6958     23.8245
   916.1000      7.9613      2.6096      0.0786      2.4472    127.4180     24.2844
   916.2000      7.9613      2.5931      0.0145      3.4466    131.7083     25.3197
   916.3000      7.9881      2.5866     -0.0121      3.8416    142.4569     26.8672
   916.4000      7.9881      2.5932      0.0237      3.4437    148.7438     28.2780
   916.5000      7.9905      2.6064      0.0375      2.6447    142.5033     28.8392
   916.6000      7.9905      2.6149      0.0304      2.1294    134.0799     28.1477
   916.7000      7.9905      2.6126      0.0363      2.2648    130.4167     26.6837
   916.8000      7.9855      2.6030      0.0451      2.8457    128.8737     25.7807
   916.9000      7.9855      2.5984      0.0280      3.1266    131.7447     25.8817
   917.0000      8.0001      2.6137      0.0144      2.2006    137.7664     26.3332
   917.1000      8.0001      2.6478      0.0615      0.1328    140.0959     26.9813
   917.2000      8.0001      2.6791      0.0509     -1.7632    137.1962     27.9021
   917.3000      7.9873      2.6952      0.0637     -2.7364    132.7347     28.1667
   917.4000      7.9873      2.6983      0.1102     -2.9254    132.1927     27.3565
   917.5000      7.9730      2.6906      0.1050     -2.4630    137.4033     26.4154
   917.6000      7.9730      2.6738      0.1107     -1.4419    142.7883     25.7805
   917.7000      7.9730      2.6536      0.0258     -0.2205    144.6830     24.8740
   917.8000      7.9795      2.6371     -0.0202      0.7796    145.3500     23.4695
   917.9000      7.9795      2.6220     -0.0475      1.6979    144.1656     22.7122
   918.0000      7.9695      2.6120     -0.0741      2.3022    136.7961     23.6361
   918.1000      7.9695      2.6203      0.0198      1.7978    125.9484     25.1009
   918.2000      7.9695      2.6460      0.0725      0.2404    118.7502     25.3116
   918.3000      7.9610      2.6778      0.0300     -1.6868    118.3080     24.6007
   918.4000      7.9610      2.7042      0.0683     -3.2862    122.4034     24.3050
   918.5000      7.9970      2.7219      0.0400     -4.3567    124.3556     24.7409
   918.6000      7.9970      2.7371      0.0358     -5.2779    119.4274     25.5149
   918.7000      7.9970      2.7491      0.0122     -6.0040    111.6843     25.9704
   918.8000      7.9929      2.7458      0.0365     -5.8035    106.7479     25.9061
   918.9000      7.9929      2.7163     -0.0144     -4.0203    104.7386     25.6043
   919.0000      8.0008      2.6777     -0.0852     -1.6805    105.4749     25.3605
   919.1000      8.0008      2.6661     -0.0993     -0.9762    109.8694     25.3917
   919.2000      8.0008      2.6799     -0.0131     -1.8098    113.4276     25.7949
   919.3000      8.0030      2.6758      0.0383     -1.5635    112.9542     26.6092
