~Version Information
VERS.                      2.0: CWLS Log ASCII Standard - VERSION 2.0
WRAP.                       NO: One line per depth step
~Well Information Block
STRT.FT               275.0000: 
STOP.FT               811.2000: 
STEP.FT                 0.1000: 
NULL.                -999.2500: 
COMP.          Pioneer Natural Resources: COMPANY
WELL.          Barrelman 41-27: WELL
FLD.           Purgatoire River: FIELD
LOC.           371' FNL & 493' FEL--: LOCATION
PROV.                 Colorado: PROVINCE
CNTY.               Las Animas: COUNTRY
SRVC.                Patterson: SERVICE COMPANY
DATE.          Fri May 20 11:50:01 2005: LOG DATE
UWI.           05 071 08334 00: UNIQUE WELL ID
~Curve Information Block
DEPT.FT            0 000 00 00: Depth
DCAL.in                       : CDL Caliper
RHOB.g/cc                     : CDL Bulk Density
RHOC.g/cc                     : CDL Density Correction
DPOR.pu                       : CDL Density Porosity
NPOR.pu                       : Neutron Porosity
GR.GAPI                       : Gamma Ray
~Parameter Information Block
~A  Depth       DCAL        RHOB        RHOC        DPOR        NPOR         GR     
# ...
   313.4000      8.0320      2.2425      0.0531     24.6941     18.0580    137.1144
   313.5000      8.0322      2.2307     -0.0132     25.4133     16.7645    128.8985
   313.6000      8.0322      2.2315     -0.0062     25.3621     15.5827    121.3540
   313.7000      8.0322      2.2513      0.0460     24.1616     14.6008    117.0286
   313.8000      8.0331      2.2738      0.0993     22.7973     13.8168    111.7852
   313.9000      8.0331      2.2894      0.0934     21.8557     13.3415    104.8016
   314.0000      8.0330      2.3139      0.1178     20.3680     13.0734    101.6622
   314.1000      8.0330      2.3600      0.1376     17.5739     12.8399    104.8916
   314.2000      8.0330      2.4198      0.1530     13.9534     12.7575    110.2909
   314.3000      8.0323      2.4738      0.1814     10.6776     13.1535    113.9209
   314.4000      8.0323      2.5046      0.1216      8.8096     14.2139    114.2925
   314.5000      8.0317      2.5076      0.1173      8.6325     15.6075    108.8245
   314.6000      8.0317      2.4904      0.0386      9.6750     16.8102     99.0686
   314.7000      8.0317      2.4698      0.0453     10.9193     17.6992     92.1440
   314.8000      8.0314      2.4673      0.0140     11.0701     18.3726     91.5793
   314.9000      8.0314      2.4999      0.0369      9.0965     18.8738     95.2638
   315.0000      8.0304      2.5490      0.1431      6.1233     19.2186     97.8020
   315.1000      8.0304      2.5719      0.1306      4.7342     19.5548     93.4639
   315.2000      8.0304      2.5557      0.1023      5.7171     20.1060     85.8605
   315.3000      8.0298      2.5257      0.0647      7.5308     20.7683     83.2018
   315.4000      8.0298      2.5168      0.0528      8.0713     21.2419     84.3683
   315.5000      8.0317      2.5405      0.0802      6.6394     21.2215     84.9472
   315.6000      8.0317      2.5680      0.1647      4.9704     20.8174     83.7987
   315.7000      8.0317      2.5651      0.0864      5.1425     20.5726     82.0564
   315.8000      8.0325      2.5428      0.0429      6.4943     20.6513     80.8122
   315.9000      8.0325      2.5286      0.0673      7.3603     20.7764     79.2934
   316.0000      8.0313      2.5214      0.0706      7.7917     20.7002     77.7592
   316.1000      8.0313      2.5081      0.0391      8.5992     20.4766     77.0776
   316.2000      8.0313      2.4961      0.0257      9.3255     20.2564     76.1630
   316.3000      8.0313      2.5075      0.0603      8.6360     20.1553     74.6490
   316.4000      8.0313      2.5386      0.1147      6.7502     20.0610     74.3105
   316.5000      8.0326      2.5582      0.1361      5.5636     19.6694     77.9380
   316.6000      8.0326      2.5466      0.1069      6.2666     19.0879     83.5192
   316.7000      8.0326      2.5125      0.0923      8.3354     18.6091     85.0989
   316.8000      8.0331      2.4816      0.0426     10.2084     18.0523     80.5181
   316.9000      8.0331      2.4747      0.0447     10.6231     17.2740     72.3255
   317.0000      8.0328      2.4816      0.0773     10.2031     16.6044     66.3384
   317.1000      8.0328      2.4757      0.0690     10.5663     16.4426     64.9550
   317.2000      8.0328      2.4545      0.0203     11.8467     16.5301     64.7160
   317.3000      8.0338      2.4403      0.0053     12.7085     16.4715     63.4082
   317.4000      8.0338      2.4496      0.0028     12.1466     16.5307     63.9332
   317.5000      8.0355      2.4796      0.0411     10.3276     16.8137     67.1361
   317.6000      8.0355      2.5121      0.0599      8.3549     16.8555     69.7106
   317.7000      8.0355      2.5294      0.0827      7.3061     16.6743     70.8291
   317.8000      8.0360      2.5303      0.0628      7.2516     16.5553     69.7158
   317.9000      8.0360      2.5276      0.0481      7.4176     16.1726     66.5842
   318.0000      8.0351      2.5254      0.0726      7.5527     15.4822     65.1163
   318.1000      8.0351      2.5209      0.0496      7.8268     15.0493     65.4896
   318.2000      8.0351      2.5212      0.0572      7.8040     15.1923     65.7870
   318.3000      8.0332      2.5299      0.0920      7.2794     15.7141     65.8991
   318.4000      8.0332      2.5354      0.1073      6.9454     16.3181     64.8062
   318.5000      8.0303      2.5302      0.0888      7.2605     16.8214     63.4788
   318.6000      8.0303      2.5186      0.0839      7.9610     16.9146     64.8048
   318.7000      8.0303      2.4987      0.0633      9.1671     16.4868     67.0117
   318.8000      8.0284      2.4679      0.0388     11.0335     15.9955     65.6843
   318.9000      8.0284      2.4448     -0.0093     12.4392     15.7381     60.7508
   319.0000      8.0280      2.4425      0.0552     12.5786     15.6075     57.4194
   319.1000      8.0280      2.4464      0.0551     12.3374     15.5587     57.8066
   319.2000      8.0280      2.4537      0.0275     11.8991     15.7823     58.1941
   319.3000      8.0295      2.4811      0.0364     10.2352     15.9532     57.1817
   319.4000      8.0295      2.5249      0.1263      7.5809     15.3635     55.8541
   319.5000      8.0317      2.5569      0.1625      5.6449     14.4117     54.4039
   319.6000      8.0317      2.5621      0.1573      5.3298     14.0370     54.6268
   319.7000      8.0317      2.5479      0.1449      6.1856     14.2147     57.6420
   319.8000      8.0321      2.5285      0.1079      7.3648     14.3801     60.4510
   319.9000      8.0321      2.5142      0.1078      8.2309     14.4651     60.2806
   320.0000      8.0311      2.5083      0.0799      8.5888     14.6985     57.8281
   320.1000      8.0311      2.5125      0.0419      8.3360     14.9721     54.3935
   320.2000      8.0311      2.5275      0.0719      7.4271     15.1298     51.5470
   320.3000      8.0303      2.5445      0.0874      6.3921     15.2906     50.7555
   320.4000      8.0303      2.5518      0.0956      5.9499     15.4340     51.3614
   320.5000      8.0303      2.5446      0.0958      6.3897     15.3298     52.5813
   320.6000      8.0303      2.5279      0.0663      7.3972     14.9867     55.0595
   320.7000      8.0303      2.5162      0.0362      8.1097     14.7319     57.0477
   320.8000      8.0302      2.5154      0.0665      8.1578     14.7118     56.0850
   320.9000      8.0302      2.5138      0.0679      8.2543     14.5945     54.3323
   321.0000      8.0299      2.5075      0.0470      8.6347     14.2568     54.7533
   321.1000      8.0299      2.5098      0.0665      8.4960     14.0603     56.4661
   321.2000      8.0299      2.5260      0.0683      7.5160     14.0031     57.7092
   321.3000      8.0293      2.5450      0.0780      6.3631     13.9903     57.4497
   321.4000      8.0293      2.5542      0.0751      5.8053     14.2619     55.1906
   321.5000      8.0288      2.5450      0.0905      6.3652     14.8468     51.9713
   321.6000      8.0288      2.5194      0.0440      7.9177     15.3339     50.4672
   321.7000      8.0288      2.4977      0.0221      9.2289     15.5458     51.0650
   321.8000      8.0289      2.4914      0.0555      9.6134     15.7101     51.2673
   321.9000      8.0289      2.4908      0.0476      9.6475     16.0501     50.4671
   322.0000      8.0292      2.4925      0.0486      9.5458     16.5261     51.1632
   322.1000      8.0292      2.5033      0.0185      8.8924     16.7504     53.9662
   322.2000      8.0292      2.5252      0.0175      7.5638     16.5596     55.2252
   322.3000      8.0297      2.5431      0.0998      6.4765     16.2425     54.2004
   322.4000      8.0297      2.5398      0.0745      6.6797     15.9678     53.4122
   322.5000      8.0298      2.5254      0.0401      7.5525     15.7285     52.7148
   322.6000      8.0298      2.5150      0.1005      8.1841     15.4903     51.1346
   322.7000      8.0298      2.5087      0.0887      8.5618     15.2291     49.4575
   322.8000      8.0299      2.5134      0.0708      8.2810     15.0723     48.5365
   322.9000      8.0299      2.5264      0.1081      7.4933     14.9705     49.0329
