~Version Information
VERS.                      2.0: CWLS Log ASCII Standard - VERSION 2.0
WRAP.                       NO: One line per depth step
~Well Information Block
STRT.FT               234.0000: 
STOP.FT              1773.2000: 
STEP.FT                 0.1000: 
NULL.                -999.2500: 
COMP.          Pioneer Natural Resources: COMPANY
WELL.             Tami J 23-18: WELL
FLD.           Purgatorie River: FIELD
LOC.           2250' FSL & 2400' FWL: LOCATION
PROV.                 Colorado: PROVINCE
CNTY.               Las Animas: COUNTRY
SRVC.                         : SERVICE COMPANY
DATE.          Mon Dec 13 07:02:50 2004: LOG DATE
UWI.           05 071 08073 00: UNIQUE WELL ID
~Curve Information Block
DEPT.FT            0 000 00 00: Depth
LTEN.lb                       : Surface Line Tension
DCAL.in                       : CDL Caliper
RHOB.g/cc                     : CDL Bulk Density
RHOC.g/cc                     : CDL Density Correction
DPOR.pu                       : CDL Density Porosity
GR.GAPI                       : Gamma Ray
NPOR.pu                       : Neutron Porosity
~Parameter Information Block
~A  Depth       LTEN        DCAL        RHOB        RHOC        DPOR         GR         NPOR    
# ...
  1460.4000   1170.1675      7.8837      1.8635      0.0536     47.6674     86.0486     14.1127
  1460.5000   1091.5670      7.8888      1.8804      0.0639     46.6454     84.5703     14.7659
  1460.6000   1091.5670      7.8888      1.9218      0.1474     44.1347     85.3264     15.5014
  1460.7000   1091.5670      7.8888      1.9783      0.2111     40.7084     89.0193     15.8596
  1460.8000   1119.1311      7.8850      2.0228      0.2807     38.0092     96.8639     15.7427
  1460.9000   1119.1311      7.8850      2.0343      0.2973     37.3141    103.0108     15.4675
  1461.0000   1174.1305      7.8847      2.0075      0.2772     38.9400    101.7743     15.1946
  1461.1000   1174.1305      7.8847      1.9462      0.2528     42.6532     97.8195     14.8055
  1461.2000   1174.1305      7.8847      1.8616      0.1696     47.7795     95.7079     14.2320
  1461.3000   1111.3613      7.9107      1.7701      0.0633     53.3293     94.0127     13.4292
  1461.4000   1111.3613      7.9107      1.6752      0.0259     59.0769     93.1898     12.3042
  1461.5000   1171.9045      7.9763      1.5603      0.0285     66.0399     93.6918     11.1176
  1461.6000   1171.9045      7.9763      1.4276     -0.0403     74.0855     92.4306     10.1100
  1461.7000   1171.9045      7.9763      1.3295     -0.0634     80.0329     87.8378      9.2131
  1461.8000   1109.5095      8.0569      1.3113      0.0339     81.1310     83.0131      8.7830
  1461.9000   1109.5095      8.0569      1.3538      0.1667     78.5548     80.0478      9.0722
  1462.0000   1199.4534      8.1206      1.4070      0.2186     75.3350     77.4225      9.4762
  1462.1000   1199.4534      8.1206      1.4436      0.2689     73.1181     74.8522      9.5508
  1462.2000   1199.4534      8.1206      1.4663      0.2419     71.7366     72.3251      9.5867
  1462.3000   1173.6962      8.1716      1.4873      0.2973     70.4646     68.4007      9.9723
  1462.4000   1173.6962      8.1716      1.5115      0.3003     69.0002     64.7538     10.7767
  1462.5000   1153.4865      8.1952      1.5437      0.2748     67.0484     62.6441     11.8253
  1462.6000   1153.4865      8.1952      1.5897      0.2281     64.2603     58.7115     13.0969
  1462.7000   1153.4865      8.1952      1.6395      0.2328     61.2426     54.5180     14.9143
  1462.8000   1141.6479      8.1790      1.6797      0.1643     58.8091     55.7126     17.2355
  1462.9000   1141.6479      8.1790      1.7275      0.1296     55.9113     59.9407     19.2036
  1463.0000   1137.3702      8.1203      1.8139      0.1781     50.6752     63.1904     20.5269
  1463.1000   1137.3702      8.1203      1.9369      0.2073     43.2154     68.8074     21.8736
  1463.2000   1137.3702      8.1203      2.0606      0.2377     35.7185     76.7138     23.1712
  1463.3000   1128.1987      8.0381      2.1561      0.2735     29.9334     81.8449     23.8607
  1463.4000   1128.1987      8.0381      2.2347      0.2617     25.1697     84.6853     24.2025
  1463.5000   1124.8143      7.9739      2.3237      0.2801     19.7766     87.3915     24.5376
  1463.6000   1124.8143      7.9739      2.4091      0.2918     14.6020     91.1089     24.8510
  1463.7000   1124.8143      7.9739      2.4509      0.2090     12.0679     98.1907     25.1023
  1463.8000   1101.1400      7.9441      2.4537      0.0832     11.8983    107.9231     25.2643
  1463.9000   1101.1400      7.9441      2.4596      0.0771     11.5387    117.2215     25.4917
  1464.0000   1128.7054      7.9297      2.4845      0.0914     10.0282    123.9369     25.7900
  1464.1000   1128.7054      7.9297      2.5097      0.1096      8.5046    128.4788     25.6935
  1464.2000   1128.7054      7.9297      2.5204      0.0915      7.8533    132.2250     25.1704
  1464.3000   1110.5856      7.9216      2.5201      0.1005      7.8738    135.3408     24.8178
  1464.4000   1110.5856      7.9216      2.5137      0.0953      8.2606    134.7946     24.9404
  1464.5000   1120.3525      7.9183      2.5040      0.0807      8.8462    130.7894     25.4058
  1464.6000   1120.3525      7.9183      2.4966      0.0651      9.2978    130.4250     25.7858
  1464.7000   1120.3525      7.9183      2.4953      0.0547      9.3785    133.2935     25.9774
  1464.8000   1064.8038      7.9169      2.5063      0.0543      8.7092    131.6491     26.4234
  1464.9000   1064.8038      7.9169      2.5341      0.0574      7.0223    126.3174     27.0881
  1465.0000   1084.6959      7.9166      2.5643      0.0872      5.1943    122.9018     27.4655
  1465.1000   1084.6959      7.9166      2.5778      0.0773      4.3752    122.6780     27.2688
  1465.2000   1084.6959      7.9166      2.5723      0.0638      4.7064    123.6457     26.8388
  1465.3000   1057.4758      7.9166      2.5549      0.0521      5.7611    123.1824     26.7314
  1465.4000   1057.4758      7.9166      2.5392     -0.0025      6.7178    120.0670     26.8060
  1465.5000   1081.3456      7.9162      2.5362      0.0625      6.8945    117.1858     26.6341
  1465.6000   1081.3456      7.9162      2.5433      0.0336      6.4656    116.9108     26.0180
  1465.7000   1081.3456      7.9162      2.5560     -0.0097      5.6947    115.1229     25.0790
  1465.8000   1087.1781      7.9160      2.5661      0.0315      5.0878    108.7285     24.2328
  1465.9000   1087.1781      7.9160      2.5711     -0.0300      4.7789    101.2742     23.6744
  1466.0000   1079.2581      7.9154      2.5854      0.0259      3.9153     95.8318     23.5182
  1466.1000   1079.2581      7.9154      2.5992      0.1299      3.0791     93.8679     23.7910
  1466.2000   1079.2581      7.9154      2.5887      0.1063      3.7141     97.2658     23.9676
  1466.3000   1137.1847      7.9138      2.5538      0.1314      5.8307    104.5810     23.7401
  1466.4000   1137.1847      7.9138      2.5009      0.0949      9.0338    112.2824     23.4548
  1466.5000   1046.1368      7.9121      2.4402      0.0332     12.7128    117.6826     23.2131
  1466.6000   1046.1368      7.9121      2.3923      0.0515     15.6193    120.3310     22.8082
  1466.7000   1046.1368      7.9121      2.3725      0.0459     16.8183    122.2436     22.4583
  1466.8000   1152.6764      7.9121      2.3805      0.0593     16.3356    123.0804     22.7313
  1466.9000   1152.6764      7.9121      2.4058      0.0717     14.7973    121.8299     23.5760
  1467.0000   1063.5280      7.9172      2.4394      0.1032     12.7662    120.9839     24.3092
  1467.1000   1063.5280      7.9172      2.4766      0.1239     10.5083    126.5284     24.6467
  1467.2000   1063.5280      7.9172      2.5170      0.1400      8.0611    139.7377     24.6569
  1467.3000   1136.7539      7.9284      2.5552      0.1848      5.7470    148.8446     24.4298
  1467.4000   1136.7539      7.9284      2.5806      0.1998      4.2064    145.4547     24.2042
  1467.5000   1110.9587      7.9446      2.5958      0.1928      3.2844    138.1127     24.0893
  1467.6000   1110.9587      7.9446      2.6067      0.1982      2.6248    136.0107     24.0646
  1467.7000   1110.9587      7.9446      2.6043      0.1799      2.7679    137.0354     24.0956
  1467.8000   1125.4648      7.9741      2.5872      0.1212      3.8053    135.8066     24.0063
  1467.9000   1125.4648      7.9741      2.5757      0.0759      4.5046    130.3277     23.6219
  1468.0000   1156.7522      8.0053      2.5807      0.0756      4.2026    122.4421     23.2525
  1468.1000   1156.7522      8.0053      2.5879      0.0839      3.7656    117.4905     23.3368
  1468.2000   1156.7522      8.0053      2.5879      0.0679      3.7608    116.3865     23.5418
  1468.3000   1110.6401      8.0131      2.5827      0.0635      4.0815    114.8688     23.4514
  1468.4000   1110.6401      8.0131      2.5711      0.1075      4.7834    114.6300     23.4371
  1468.5000   1173.1440      8.0094      2.5596      0.0205      5.4784    117.9292     23.8117
  1468.6000   1173.1440      8.0094      2.5514      0.1043      5.9751    123.1120     24.0668
  1468.7000   1173.1440      8.0094      2.5349      0.0449      6.9759    129.5694     23.8465
