~Version Information
VERS.                      2.0: CWLS Log ASCII Standard - VERSION 2.0
WRAP.                       NO: One line per depth step
~Well Information Block
STRT.FT               260.0000: 
STOP.FT              2269.5000: 
STEP.FT                 0.1000: 
NULL.                -999.2500: 
COMP.          Pioneer Natural Resources: COMPANY
WELL.            Moo Moo 31-36: WELL
FLD.           Purgatoire River: FIELD
LOC.           612' FNL & 2326' FEL: LOCATION
PROV.                 Colorado: PROVINCE
CNTY.               Las Animas: COUNTRY
SRVC.                Patterson: SERVICE COMPANY
DATE.          Fri Jun 17 07:04:43 2005: LOG DATE
UWI.           05 071 08395 00: UNIQUE WELL ID
~Curve Information Block
DEPT.FT            0 000 00 00: Depth
DCAL.in                       : CDL Caliper
RHOB.g/cc                     : CDL Bulk Density
RHOC.g/cc                     : CDL Density Correction
DPOR.pu                       : CDL Density Porosity
GR.GAPI                       : Gamma Ray
NPOR.pu                       : Neutron Porosity
~Parameter Information Block
~A  Depth       DCAL        RHOB        RHOC        DPOR         GR         NPOR    
# ...
  1191.2000      8.4374      2.3148      0.0444     20.3161    157.3703     29.6608
  1191.3000      8.4549      2.2854      0.0804     22.0975    154.3507     29.3588
  1191.4000      8.4549      2.2645      0.1085     23.3666    149.3756     29.3619
  1191.5000      8.5854      2.2489      0.0867     24.3068    143.0280     29.7140
  1191.6000      8.5854      2.2441      0.1227     24.6024    139.5651     30.0415
  1191.7000      8.5854      2.2550      0.1343     23.9387    139.8856     29.8310
  1191.8000      8.6622      2.2866      0.1645     22.0239    142.2003     28.7372
  1191.9000      8.6622      2.3395      0.2807     18.8170    142.9776     27.8897
  1192.0000      9.1231      2.4009      0.3267     15.0995    141.7862     28.3595
  1192.1000      9.1231      2.4479      0.4140     12.2510    143.8517     29.4682
  1192.2000      9.1231      2.4580      0.3973     11.6340    149.8028     30.4047
  1192.3000      9.7344      2.4199      0.3271     13.9451    157.3781     30.7072
  1192.4000      9.7344      2.3417      0.1910     18.6826    165.2151     29.8441
  1192.5000      9.9820      2.2509      0.1687     24.1866    169.1497     28.5340
  1192.6000      9.9820      2.1802      0.0730     28.4727    167.4467     28.5850
  1192.7000      9.9820      2.1536      0.1072     30.0861    163.1924     30.4219
  1192.8000      8.8364      2.1667      0.1369     29.2933    161.5035     32.3656
  1192.9000      8.8364      2.1996      0.1498     27.2979    163.4681     32.9114
  1193.0000      8.5454      2.2463      0.1731     24.4658    163.0725     32.4162
  1193.1000      8.5454      2.3098      0.2576     20.6163    158.4325     32.0541
  1193.2000      8.5454      2.3727      0.4240     16.8040    153.7273     32.2243
  1193.3000      8.5177      2.4125      0.3246     14.3948    150.0032     32.5627
  1193.4000      8.5177      2.4379      0.3377     12.8530    144.5976     32.3605
  1193.5000      8.4451      2.4564      0.3198     11.7349    138.2721     31.2780
  1193.6000      8.4451      2.4588      0.2409     11.5869    134.9996     30.2135
  1193.7000      8.4451      2.4525      0.1653     11.9713    139.5603     30.0049
  1193.8000      8.4328      2.4543      0.1632     11.8580    150.6799     30.1896
  1193.9000      8.4328      2.4632      0.1326     11.3215    159.6406     29.9154
  1194.0000      8.3737      2.4719      0.1345     10.7958    161.0800     29.1899
  1194.1000      8.3737      2.4848      0.1286     10.0139    157.1000     28.4418
  1194.2000      8.3737      2.5041      0.1590      8.8444    154.5528     27.9986
  1194.3000      8.2732      2.5232      0.1545      7.6874    155.6548     27.8711
  1194.4000      8.2732      2.5442      0.1147      6.4120    155.6542     27.9286
  1194.5000      8.1826      2.5659      0.1944      5.0944    153.9031     28.1007
  1194.6000      8.1826      2.5679      0.1326      4.9782    154.1826     28.2212
  1194.7000      8.1826      2.5506      0.0797      6.0243    157.6584     28.1674
  1194.8000      8.1794      2.5343      0.1265      7.0107    162.3055     27.7557
  1194.9000      8.1794      2.5221      0.1030      7.7545    164.4612     27.4703
  1195.0000      8.3343      2.5078      0.1071      8.6173    162.6091     27.8626
  1195.1000      8.3343      2.4902      0.0988      9.6877    158.4861     28.4008
  1195.2000      8.3343      2.4754      0.0507     10.5835    154.0036     28.3800
  1195.3000      8.1452      2.4735      0.0533     10.6982    152.3537     27.7721
  1195.4000      8.1452      2.4852      0.0302      9.9878    151.9801     26.7132
  1195.5000      8.0912      2.5001      0.0905      9.0841    151.5959     25.7822
  1195.6000      8.0912      2.5092      0.0970      8.5303    155.9565     25.5902
  1195.7000      8.0912      2.5116      0.1135      8.3896    164.8576     26.2256
  1195.8000      8.0933      2.5104      0.0578      8.4636    170.2688     27.4266
  1195.9000      8.0933      2.5145      0.0430      8.2151    169.2871     28.3274
  1196.0000      8.0897      2.5245      0.0802      7.6064    165.9306     28.4319
  1196.1000      8.0897      2.5343      0.0377      7.0119    159.7726     28.2031
  1196.2000      8.0897      2.5495      0.0310      6.0929    149.4797     28.0117
  1196.3000      8.0479      2.5747      0.0777      4.5660    140.5049     27.7889
  1196.4000      8.0479      2.5984      0.0952      3.1266    135.2773     27.5649
  1196.5000      8.0015      2.6106      0.1073      2.3873    130.2795     27.4565
  1196.6000      8.0015      2.6179      0.0982      1.9479    125.3401     27.3914
  1196.7000      8.0015      2.6341      0.0880      0.9616    123.1772     27.2298
  1196.8000      8.0243      2.6740      0.0082     -1.4536    121.8421     26.9778
  1196.9000      8.0243      2.7353      0.1291     -5.1702    117.3189     26.9770
  1197.0000      8.0267      2.7869      0.1537     -8.2954    108.6406     27.0903
  1197.1000      8.0267      2.8036      0.1047     -9.3096     97.9028     26.3645
  1197.2000      8.0267      2.7852      0.1121     -8.1941     87.5307     24.6440
  1197.3000      7.9922      2.7518      0.0623     -6.1710     77.1065     22.9564
  1197.4000      7.9922      2.7451     -0.0274     -5.7664     65.1073     21.7129
  1197.5000      7.9885      2.7769      0.1147     -7.6909     54.6128     20.6770
  1197.6000      7.9885      2.8031      0.1214     -9.2797     49.4522     20.3436
  1197.7000      7.9885      2.7848      0.0657     -8.1702     48.1627     20.8390
  1197.8000      7.9890      2.7332     -0.0256     -5.0432     48.4725     20.6762
  1197.9000      7.9890      2.6848     -0.0722     -2.1102     48.3560     18.9502
  1198.0000      8.0158      2.6564     -0.0427     -0.3908     44.7191     17.1517
  1198.1000      8.0158      2.6348     -0.0378      0.9240     40.3139     16.4664
  1198.2000      8.0158      2.6065     -0.0713      2.6356     39.2504     16.1312
  1198.3000      8.0637      2.5788     -0.0484      4.3163     40.0103     15.2232
  1198.4000      8.0637      2.5587     -0.0031      5.5352     39.9217     14.1680
  1198.5000      8.0017      2.5486     -0.0602      6.1449     37.3196     13.8253
  1198.6000      8.0017      2.5581     -0.0263      5.5723     32.6595     14.3017
  1198.7000      8.0017      2.5900      0.0016      3.6388     29.8468     14.8861
  1198.8000      7.9799      2.6224      0.0691      1.6733     29.8399     15.0752
  1198.9000      7.9799      2.6211      0.1349      1.7529     29.7130     14.8437
  1199.0000      7.9807      2.5778      0.0984      4.3773     29.3684     14.0729
  1199.1000      7.9807      2.5273      0.0412      7.4390     29.2788     13.0940
  1199.2000      7.9807      2.5074      0.0632      8.6423     28.5967     12.5661
  1199.3000      7.9436      2.5274      0.0237      7.4274     28.3584     12.6180
  1199.4000      7.9436      2.5793      0.0553      4.2824     29.8225     13.0680
  1199.5000      7.8996      2.6422      0.1233      0.4744     31.8909     13.6983
  1199.6000      7.8996      2.6918      0.1513     -2.5330     33.1130     14.1669
  1199.7000      7.8996      2.7121      0.2089     -3.7637     33.2244     14.3656
  1199.8000      7.9105      2.7077      0.1348     -3.4999     33.4686     14.4466
  1199.9000      7.9105      2.7017      0.1464     -3.1360     33.2104     14.5357
  1200.0000      7.9170      2.6974      0.2166     -2.8714     30.7066     14.6519
  1200.1000      7.9170      2.6850      0.1127     -2.1233     26.9971     14.7818
  1200.2000      7.9170      2.6695      0.0955     -1.1826     23.5667     15.0085
  1200.3000      7.9190      2.6562      0.0536     -0.3756     20.5256     15.3497
  1200.4000      7.9190      2.6492      0.0213      0.0458     18.2784     15.5045
  1200.5000      7.9255      2.6530      0.0636     -0.1813     17.2040     15.3042
  1200.6000      7.9255      2.6562      0.0802     -0.3754     17.5865     14.6251
  1200.7000      7.9255      2.6477      0.0518      0.1381     20.0507     13.3673
