~Version Information
VERS.                      2.0: CWLS Log ASCII Standard - VERSION 2.0
WRAP.                       NO: One line per depth step
~Well Information Block
STRT.FT               948.2500: 
STOP.FT              2134.5000: 
STEP.FT                 0.2500: 
NULL.                -999.2500: 
COMP.          Petrogulf Corporation: COMPANY
WELL.             Valejo 8-12R: WELL
FLD.           Purgatorie River: FIELD
LOC.           1351'' FNL & 1562' FWL: LOCATION
CNTY.               Las Animas: COUNTY
SRVC.                         : SERVICE COMPANY
DATE.          Wed Apr 28 02:30:32 2004: LOG DATE
UWI.           05 071 08038 00: UNIQUE WELL ID
STAT.                 Colorado: STATE
~Curve Information Block
DEPT.FT            0 000 00 00: Depth
SP.mV                         : DIL Spontaneous Potential
RILD.Ohm-m                    : DIL Deep Resistivity
RILM.Ohm-m                    : DIL Medium Resistivity
RLL3.Ohm-m                    : DIL Shallow Resistivity
GR.GAPI                       : Gamma Ray
~Parameter Information Block
~A  Depth        SP         RILD        RILM        RLL3         GR     
# ...
  1564.2500    111.6054      9.4209     10.4191     13.9070    111.9777
  1564.5000    111.7941      9.5165     10.6256     15.4051    105.2657
  1564.7500    112.0097      9.6736     10.8487     16.3710    102.8583
  1565.0000    112.2613      9.8937     11.0869     16.3286    103.0686
  1565.2500    112.5340     10.1735     11.3584     15.4436    105.2967
  1565.5000    112.7939     10.5014     11.6991     14.4818    109.3948
  1565.7500    113.0014     10.8537     12.1495     14.3535    110.8744
  1566.0000    113.1317     11.1932     12.7357     15.6521    109.4914
  1566.2500    113.1896     11.4729     13.4482     18.4632    106.4932
  1566.5000    113.2050     11.6479     14.2276     22.4478    100.8766
  1566.7500    113.2148     11.6904     14.9634     27.0350     97.4429
  1567.0000    113.2456     11.5993     15.5176     31.5424     93.5907
  1567.2500    113.3031     11.3977     15.7687     35.1622     92.1375
  1567.5000    113.3640     11.1208     15.6589     36.9620     92.5069
  1567.7500    113.3828     10.8028     15.2140     36.1419     95.1060
  1568.0000    113.3204     10.4685     14.5252     32.5524    102.7256
  1568.2500    113.1757     10.1310     13.7029     27.0618    109.4644
  1568.5000    112.9888      9.7944     12.8367     21.2731    119.8014
  1568.7500    112.8141      9.4584     11.9802     16.6344    125.9622
  1569.0000    112.6921      9.1228     11.1600     13.6593    134.3318
  1569.2500    112.6454      8.7881     10.3912     11.9145    139.9493
  1569.5000    112.6908      8.4567      9.6878     10.6665    148.3497
  1569.7500    112.8436      8.1332      9.0645      9.4991    152.9236
  1570.0000    113.1054      7.8245      8.5313      8.4230    156.6437
  1570.2500    113.4518      7.5386      8.0896      7.6056    157.2021
  1570.5000    113.8397      7.2826      7.7319      7.1262    156.9753
  1570.7500    114.2237      7.0595      7.4451      6.9396    157.0296
  1571.0000    114.5589      6.8676      7.2149      6.9458    157.7760
  1571.2500    114.7974      6.7024      7.0293      7.0364    158.5346
  1571.5000    114.9089      6.5591      6.8807      7.1112    159.6940
  1571.7500    114.9127      6.4362      6.7653      7.1071    160.1971
  1572.0000    114.8772      6.3344      6.6816      7.0313    159.8475
  1572.2500    114.8702      6.2538      6.6281      6.9592    158.5201
  1572.5000    114.9133      6.1926      6.6019      6.9859    154.8674
  1572.7500    114.9826      6.1468      6.5978      7.1595    151.7716
  1573.0000    115.0375      6.1124      6.6092      7.4415    147.4513
  1573.2500    115.0459      6.0869      6.6295      7.7280    145.5582
  1573.5000    115.0025      6.0692      6.6525      7.9212    144.8813
  1573.7500    114.9448      6.0591      6.6725      7.9879    145.7501
  1574.0000    114.9473      6.0553      6.6848      7.9516    148.2936
  1574.2500    115.0789      6.0555      6.6871      7.8363    150.3925
  1574.5000    115.3471      6.0553      6.6806      7.6381    153.4575
  1574.7500    115.6805      6.0493      6.6690      7.3602    154.9148
  1575.0000    115.9717      6.0321      6.6564      7.0652    155.3599
  1575.2500    116.1429      6.0002      6.6448      6.8687    154.4064
  1575.5000    116.1723      5.9534      6.6315      6.8652    151.9104
  1575.7500    116.0679      5.8949      6.6095      7.0560    150.2966
  1576.0000    115.8353      5.8303      6.5689      7.3414    149.0050
  1576.2500    115.4796      5.7652      6.5011      7.5742    149.1092
  1576.5000    115.0303      5.7046      6.4036      7.6292    150.2973
  1576.7500    114.5588      5.6516      6.2826      7.4525    151.2537
  1577.0000    114.1695      5.6083      6.1512      7.0782    152.1472
  1577.2500    113.9574      5.5752      6.0252      6.6120    152.2198
  1577.5000    113.9493      5.5516      5.9182      6.1851    151.6740
  1577.7500    114.0746      5.5347      5.8390      5.8949    151.0265
  1578.0000    114.2053      5.5202      5.7909      5.7700    150.0541
  1578.2500    114.2527      5.5038      5.7718      5.7867    149.8078
  1578.5000    114.2394      5.4833      5.7757      5.9151    150.6336
  1578.7500    114.2704      5.4593      5.7944      6.1379    151.9524
  1579.0000    114.4252      5.4356      5.8193      6.4264    154.3263
  1579.2500    114.6910      5.4176      5.8432      6.7181    155.6219
  1579.5000    115.0006      5.4105      5.8621      6.9362    156.6737
  1579.7500    115.2957      5.4187      5.8755      7.0268    156.8664
  1580.0000    115.5413      5.4444      5.8872      6.9740    156.7115
  1580.2500    115.7179      5.4866      5.9046      6.7978    156.3494
  1580.5000    115.8379      5.5409      5.9383      6.5595    155.0408
  1580.7500    115.9601      5.5997      5.9994      6.3772    153.1883
  1581.0000    116.1596      5.6542      6.0952      6.4266    148.0954
  1581.2500    116.4742      5.6974      6.2250      6.8958    143.0818
  1581.5000    116.8832      5.7267      6.3762      7.8683    134.1475
  1581.7500    117.3312      5.7443      6.5250      9.1824    128.3037
  1582.0000    117.7575      5.7557      6.6436     10.4100    121.6576
  1582.2500    118.1070      5.7683      6.7111     11.0596    119.6147
  1582.5000    118.3377      5.7887      6.7237     10.8880    121.0916
  1582.7500    118.4369      5.8226      6.6957     10.0606    124.9877
  1583.0000    118.4271      5.8736      6.6514      9.0275    133.5950
  1583.2500    118.3530      5.9432      6.6153      8.2344    139.6491
  1583.5000    118.2595      6.0303      6.6045      7.8805    146.8067
  1583.7500    118.1749      6.1318      6.6277      7.8734    149.7706
  1584.0000    118.1057      6.2436      6.6880      7.9810    152.2538
  1584.2500    118.0419      6.3629      6.7857      8.0446    153.2559
  1584.5000    117.9693      6.4901      6.9215      8.0940    153.8497
  1584.7500    117.8789      6.6299      7.0974      8.3086    153.0456
  1585.0000    117.7699      6.7906      7.3172      8.8675    149.0962
  1585.2500    117.6447      6.9817      7.5881      9.7729    144.7825
  1585.5000    117.5013      7.2111      7.9216     10.7846    137.5564
  1585.7500    117.3328      7.4832      8.3351     11.6007    133.5675
  1586.0000    117.1446      7.7980      8.8533     12.2167    129.7318
  1586.2500    116.9804      8.1526      9.5057     13.1601    127.8394
  1586.5000    116.9226      8.5419     10.3210     15.3522    123.7118
  1586.7500    117.0494      8.9591     11.3134     19.6437    119.3579
  1587.0000    117.3770      9.3933     12.4642     26.2620    111.1361
  1587.2500    117.8403      9.8294     13.7067     34.4676    105.7282
  1587.5000    118.3349     10.2497     14.9307     42.7387     99.8085
  1587.7500    118.7832     10.6390     16.0153     49.5367     98.0925
  1588.0000    119.1623     10.9878     16.8669     54.0391     99.2710
  1588.2500    119.4768     11.2913     17.4334     56.0605    102.3587
  1588.5000    119.7154     11.5430     17.6949     55.3670    109.5321
  1588.7500    119.8384     11.7297     17.6592     51.5139    115.2791
  1589.0000    119.8069     11.8314     17.3700     44.6038    124.0277
  1589.2500    119.6300     11.8275     16.9069     35.9101    129.2854
  1589.5000    119.3812     11.7044     16.3630     27.4377    135.6614
  1589.7500    119.1560     11.4607     15.8104     20.8860    138.8429
  1590.0000    119.0075     11.1072     15.2752     17.0011    142.0576
  1590.2500    118.9194     10.6658     14.7339     15.5954    143.0257
  1590.5000    118.8331     10.1664     14.1298     15.9008    142.3998
  1590.7500    118.6985      9.6429     13.4070     16.9183    140.8093
  1591.0000    118.5119      9.1280     12.5497     17.6758    138.1918
  1591.2500    118.3287      8.6478     11.5999     17.4586    137.4796
  1591.5000    118.2370      8.2187     10.6384     16.0353    139.0771
  1591.7500    118.2973      7.8472      9.7464     13.7348    141.6136
  1592.0000    118.4924      7.5316      8.9760     11.2319    146.0270
