~Version Information
VERS.                      2.0: CWLS Log ASCII Standard - VERSION 2.0
WRAP.                       NO: One line per depth step
~Well Information Block
STRT.FT               780.0000: 
STOP.FT              3152.2500: 
STEP.FT                 0.2500: 
NULL.                -999.2500: 
COMP.          Pioneer Natural Resources: COMPANY
WELL.            Paradise 13-8: WELL
FLD.           Purgatoire River: FIELD
LOC.           1896' FSL & 1120' FWL: LOCATION
PROV.                 Colorado: PROVINCE
CNTY.               Las Animas: COUNTRY
SRVC.                Patterson: SERVICE COMPANY
DATE.          Sat Jan 22 20:39:47 2005: LOG DATE
UWI.           05 071 07946 00: UNIQUE WELL ID
~Curve Information Block
DEPT.FT            0 000 00 00: Depth
SN.Ohm-m                      : IEL Short Normal
SP.mV                         : IEL Spontaneous Potential
DIR.Ohm-m                     : IEL Induction Resistivity
GR.GAPI                       : Gamma Ray
~Parameter Information Block
~A  Depth        SN          SP         DIR          GR     
# ...
  2488.5000     23.6566    -98.4556     19.6081     54.1008
  2488.7500     23.2499    -99.7422     19.3641     52.3739
  2489.0000     22.7060   -100.5139     19.1611     50.7948
  2489.2500     21.9442   -100.5058     18.9365     50.9239
  2489.5000     20.9451    -99.5590     18.5862     53.9555
  2489.7500     19.7628    -97.6491     17.9944     58.5870
  2490.0000     18.4988    -94.8848     17.1060     70.2599
  2490.2500     17.2532    -91.4789     15.9841     81.0790
  2490.5000     16.0905    -87.7023     14.7794    100.4782
  2490.7500     15.0344    -83.8338     13.6394    114.0732
  2491.0000     14.0812    -80.1184     12.6447    132.2640
  2491.2500     13.2161    -76.7387     11.8068    141.2019
  2491.5000     12.4240    -73.8043     11.1002    148.4189
  2491.7500     11.6982    -71.3545     10.4933    149.5279
  2492.0000     11.0429    -69.3739      9.9640    148.0461
  2492.2500     10.4712    -67.8116      9.5024    146.6970
  2492.5000      9.9988    -66.6029      9.1067    146.2258
  2492.7500      9.6372    -65.6842      8.7783    147.1791
  2493.0000      9.3879    -65.0018      8.5196    149.5728
  2493.2500      9.2398    -64.5135      8.3321    151.0557
  2493.5000      9.1730    -64.1856      8.2164    152.1819
  2493.7500      9.1652    -63.9907      8.1730    151.9904
  2494.0000      9.1983    -63.9053      8.2006    150.4184
  2494.2500      9.2632    -63.9097      8.2946    148.7124
  2494.5000      9.3593    -63.9873      8.4454    145.4387
  2494.7500      9.4902    -64.1242      8.6394    142.9218
  2495.0000      9.6618    -64.3092      8.8636    139.0825
  2495.2500      9.8843    -64.5374      9.1100    136.8694
  2495.5000     10.1706    -64.8136      9.3764    134.5636
  2495.7500     10.5265    -65.1577      9.6646    133.5591
  2496.0000     10.9427    -65.6040      9.9773    131.9431
  2496.2500     11.3990    -66.1968     10.3176    130.4982
  2496.5000     11.8798    -66.9815     10.6901    128.4541
  2496.7500     12.3876    -67.9943     11.1033    127.7419
  2497.0000     12.9438    -69.2545     11.5685    127.3098
  2497.2500     13.5755    -70.7608     12.0964    126.3960
  2497.5000     14.2948    -72.4910     12.6932    122.4630
  2497.7500     15.0871    -74.4042     13.3585    118.1048
  2498.0000     15.9188    -76.4428     14.0857    110.2680
  2498.2500     16.7571    -78.5316     14.8624    104.9949
  2498.5000     17.5826    -80.5762     15.6683     97.7513
  2498.7500     18.3827    -82.4650     16.4728     93.6015
  2499.0000     19.1365    -84.0797     17.2395     88.8754
  2499.2500     19.8121    -85.3160     17.9381     86.9327
  2499.5000     20.3770    -86.1071     18.5563     85.7906
  2499.7500     20.8081    -86.4422     19.0983     86.0270
  2500.0000     21.0921    -86.3692     19.5707     87.3740
  2500.2500     21.2206    -85.9826     19.9678     88.3870
  2500.5000     21.1980    -85.4006     20.2681     88.8073
  2500.7500     21.0571    -84.7397     20.4413     87.8612
  2501.0000     20.8595    -84.0964     20.4626     84.8171
  2501.2500     20.6730    -83.5372     20.3296     82.2187
  2501.5000     20.5446    -83.0989     20.0726     78.0604
  2501.7500     20.4862    -82.7934     19.7524     75.1142
  2502.0000     20.4786    -82.6169     19.4398     70.4455
  2502.2500     20.4869    -82.5576     19.1901     67.4906
  2502.5000     20.4785    -82.6007     19.0266     64.0672
  2502.7500     20.4361    -82.7313     18.9416     62.6090
  2503.0000     20.3610    -82.9327     18.9098     61.3794
  2503.2500     20.2647    -83.1864     18.8999     61.1814
  2503.5000     20.1593    -83.4720     18.8808     62.5264
  2503.7500     20.0574    -83.7729     18.8261     64.9547
  2504.0000     19.9760    -84.0854     18.7249     70.4086
  2504.2500     19.9340    -84.4301     18.5897     74.2220
  2504.5000     19.9403    -84.8567     18.4491     78.6848
  2504.7500     19.9867    -85.4398     18.3295     80.7964
  2505.0000     20.0546    -86.2604     18.2430     83.7194
  2505.2500     20.1302    -87.3779     18.1897     86.0523
  2505.5000     20.2154    -88.7986     18.1674     90.1197
  2505.7500     20.3179    -90.4514     18.1737     92.5690
  2506.0000     20.4235    -92.1794     18.1983     94.0761
  2506.2500     20.4766    -93.7528     18.2129     92.8183
  2506.5000     20.3950    -94.9062     18.1709     87.6366
  2506.7500     20.1082    -95.3934     18.0204     82.9839
  2507.0000     19.5919    -95.0451     17.7244     76.7173
  2507.2500     18.8764    -93.8118     17.2770     74.4220
  2507.5000     18.0270    -91.7765     16.7054     75.4175
  2507.7500     17.1134    -89.1319     16.0586     79.3279
  2508.0000     16.1899    -86.1320     15.3872     89.4267
  2508.2500     15.2994    -83.0358     14.7282     97.9380
  2508.5000     14.4906    -80.0611     14.1007    110.4834
  2508.7500     13.8168    -77.3601     13.5114    116.8590
  2509.0000     13.3077    -75.0162     12.9624    121.9046
  2509.2500     12.9472    -73.0564     12.4561    122.9812
  2509.5000     12.6860    -71.4689     11.9971    124.1789
  2509.7500     12.4792    -70.2195     11.5923    126.0998
  2510.0000     12.3094    -69.2642     11.2515    130.6850
  2510.2500     12.1855    -68.5565     10.9847    133.7826
  2510.5000     12.1255    -68.0522     10.7980    136.8046
  2510.7500     12.1402    -67.7108     10.6881    137.6573
  2511.0000     12.2257    -67.4967     10.6391    138.0606
  2511.2500     12.3620    -67.3790     10.6283    138.0517
  2511.5000     12.5166    -67.3333     10.6380    137.4344
  2511.7500     12.6605    -67.3427     10.6685    136.4589
  2512.0000     12.7916    -67.4017     10.7390    134.1559
  2512.2500     12.9429    -67.5198     10.8765    132.1607
  2512.5000     13.1619    -67.7254     11.0991    128.9242
  2512.7500     13.4791    -68.0663     11.4097    127.0920
  2513.0000     13.8985    -68.6030     11.7996    125.5304
  2513.2500     14.4077    -69.3965     12.2587    125.2062
  2513.5000     14.9940    -70.4924     12.7809    124.9067
  2513.7500     15.6550    -71.9077     13.3635    124.3038
  2514.0000     16.3976    -73.6274     14.0036    122.4317
  2514.2500     17.2276    -75.6103     14.6973    120.5855
  2514.5000     18.1416    -77.8019     15.4410    117.0767
  2514.7500     19.1324    -80.1434     16.2348    114.2574
  2515.0000     20.2020    -82.5728     17.0827    109.2106
  2515.2500     21.3606    -85.0172     17.9912    105.2993
  2515.5000     22.6057    -87.3837     18.9631     99.1157
  2515.7500     23.9034    -89.5601     19.9901     95.4321
  2516.0000     25.1837    -91.4277     21.0493     91.4549
  2516.2500     26.3477    -92.8828     22.1008     89.5962
  2516.5000     27.2836    -93.8547     23.0825     86.4750
  2516.7500     27.9040    -94.3139     23.9060     83.6029
  2517.0000     28.1937    -94.2686     24.4716     79.1199
  2517.2500     28.2235    -93.7572     24.7151     77.3956
  2517.5000     28.1033    -92.8449     24.6560     78.2178
  2517.7500     27.9091    -91.6238     24.3942     80.5470
  2518.0000     27.6491    -90.2120     24.0544     83.9866
  2518.2500     27.2922    -88.7442     23.7253     84.6288
  2518.5000     26.8220    -87.3538     23.4365     81.9540
  2518.7500     26.2689    -86.1513     23.1741     78.1701
  2519.0000     25.7015    -85.2072     22.9137     71.3795
  2519.2500     25.1907    -84.5460     22.6452     67.2364
  2519.5000     24.7708    -84.1513     22.3748     62.5613
  2519.7500     24.4242    -83.9762     22.1116     60.4341
  2520.0000     24.1010    -83.9569     21.8546     58.3557
  2520.2500     23.7604    -84.0240     21.5900     57.5562
  2520.5000     23.3973    -84.1124     21.3013     56.9216
  2520.7500     23.0356    -84.1703     20.9804     56.6471
  2521.0000     22.7046    -84.1666     20.6355     56.2822
  2521.2500     22.4210    -84.0933     20.2899     56.1030
  2521.5000     22.1879    -83.9636     19.9710     55.8680
  2521.7500     22.0001    -83.8030     19.6980     55.5456
