~Version Information
VERS.                      2.0: CWLS Log ASCII Standard - VERSION 2.0
WRAP.                       NO: One line per depth step
~Well Information Block
STRT.FT               840.0000: 
STOP.FT              2020.0000: 
STEP.FT                 0.1000: 
NULL.                -999.2500: 
COMP.          Petrogulf Corporation: COMPANY
WELL.           Lavedure 7-44R: WELL
FLD.           Purgatorie River: FIELD
LOC.           946' FSL & 521' FEL: LOCATION
PROV.                 Colorado: PROVINCE
CNTY.               Las Animas: COUNTRY
SRVC.                Patterson: SERVICE COMPANY
DATE.          Mon Sep 26 08:30:48 2005: LOG DATE
UWI.                          : UNIQUE WELL ID
~Curve Information Block
DEPT.FT            0 000 00 00: Depth
DCAL.in                       : CDL Caliper
RHOB.g/cc                     : CDL Bulk Density
RHOC.g/cc                     : CDL Density Correction
DPOR.pu                       : CDL Density Porosity
GR.GAPI                       : Gamma Ray
NPOR.pu                       : Neutron Porosity
~Parameter Information Block
~A  Depth       DCAL        RHOB        RHOC        DPOR         GR         NPOR    
# ...
  1070.4000      7.9827      2.4989     -0.0113      9.1588     96.1052     20.4650
  1070.5000      7.9850      2.4960     -0.0028      9.3324     92.3112     20.5686
  1070.6000      7.9850      2.4958      0.0524      9.3482     87.3440     20.7641
  1070.7000      7.9850      2.4869      0.0774      9.8820     86.1220     20.9479
  1070.8000      7.9883      2.4752      0.0259     10.5916     87.9812     21.1419
  1070.9000      7.9883      2.4718      0.0259     10.7975     89.4458     21.1131
  1071.0000      8.0036      2.4746      0.0224     10.6332     90.2679     20.6096
  1071.1000      8.0036      2.4780      0.0710     10.4267     91.0554     19.8926
  1071.2000      8.0036      2.4830      0.0632     10.1218     91.3125     19.4323
  1071.3000      8.0105      2.4947      0.0731      9.4098     91.3796     19.2487
  1071.4000      8.0105      2.5093      0.1396      8.5293     93.2555     19.0765
  1071.5000      8.0094      2.5226      0.1293      7.7191     96.6637     18.9736
  1071.6000      8.0094      2.5412      0.1374      6.5944     98.1210     19.1829
  1071.7000      8.0094      2.5660      0.1626      5.0890     95.2984     19.5693
  1071.8000      8.0125      2.5874      0.1802      3.7939     89.6700     20.0778
  1071.9000      8.0125      2.5940      0.2045      3.3920     86.3077     20.6588
  1072.0000      8.0229      2.5885      0.1592      3.7245     86.5488     20.8464
  1072.1000      8.0229      2.5889      0.1460      3.7026     87.1688     20.3210
  1072.2000      8.0229      2.6015      0.1349      2.9371     88.7137     19.4414
  1072.3000      8.0276      2.6116      0.1355      2.3293     91.3211     18.7552
  1072.4000      8.0276      2.6064      0.0965      2.6433     90.8233     18.5543
  1072.5000      8.0098      2.5877      0.0708      3.7749     86.9984     18.8488
  1072.6000      8.0098      2.5680      0.0228      4.9723     84.6837     19.3738
  1072.7000      8.0098      2.5623     -0.0100      5.3160     86.4994     19.8380
  1072.8000      8.0280      2.5662      0.0536      5.0810     90.5547     20.2137
  1072.9000      8.0280      2.5539      0.0325      5.8261     93.6699     20.6278
  1073.0000      8.0711      2.5175     -0.0020      8.0319     95.5345     21.1637
  1073.1000      8.0711      2.4842     -0.0540     10.0486     96.5350     21.7050
  1073.2000      8.0711      2.4783      0.0242     10.4082     96.0552     21.9398
  1073.3000      8.0815      2.4853      0.0633      9.9810     94.9478     21.7224
  1073.4000      8.0815      2.4885      0.0083      9.7901     94.6201     21.4727
  1073.5000      8.0797      2.4982      0.0267      9.2007     94.6769     21.5828
  1073.6000      8.0797      2.5155      0.0222      8.1506     95.1089     21.8142
  1073.7000      8.0797      2.5156      0.0401      8.1431     96.1878     22.0194
  1073.8000      8.0756      2.4874     -0.0234      9.8547     96.1953     22.2927
  1073.9000      8.0756      2.4518     -0.0002     12.0141     93.6737     22.4673
  1074.0000      8.0695      2.4292     -0.0197     13.3820     91.0518     22.3667
  1074.1000      8.0695      2.4288     -0.0112     13.4077     92.3427     22.0076
  1074.2000      8.0695      2.4507      0.0029     12.0805     96.0400     21.5181
  1074.3000      8.0649      2.4736      0.0578     10.6890     95.4513     21.0729
  1074.4000      8.0649      2.4757      0.0704     10.5664     89.6931     20.8199
  1074.5000      8.0657      2.4635      0.0353     11.3051     84.7030     20.8584
  1074.6000      8.0657      2.4564      0.0569     11.7312     82.7221     21.1024
  1074.7000      8.0657      2.4550      0.0702     11.8188     81.4782     21.3421
  1074.8000      8.0613      2.4454      0.0647     12.4002     80.0962     21.5083
  1074.9000      8.0613      2.4249      0.0810     13.6435     79.3244     21.8088
  1075.0000      8.0631      2.4079     -0.0058     14.6741     78.5457     22.2664
  1075.1000      8.0631      2.4060      0.0858     14.7852     76.9953     22.4420
  1075.2000      8.0631      2.4143      0.0287     14.2851     75.4396     22.2081
  1075.3000      8.0635      2.4282      0.0428     13.4424     74.0851     22.0120
  1075.4000      8.0635      2.4338      0.1000     13.1024     70.7259     22.0882
  1075.5000      8.0922      2.4182      0.0559     14.0510     65.8339     22.3457
  1075.6000      8.0922      2.4032     -0.0043     14.9552     63.8068     22.6108
  1075.7000      8.0922      2.4117      0.0309     14.4403     66.3728     22.7293
  1075.8000      8.0908      2.4351      0.0778     13.0246     70.3906     22.5905
  1075.9000      8.0908      2.4539      0.1013     11.8864     73.0211     22.2028
  1076.0000      8.0880      2.4588      0.0574     11.5876     73.0443     21.7399
  1076.1000      8.0880      2.4553      0.0750     11.8002     70.2580     21.2710
  1076.2000      8.0880      2.4524      0.0260     11.9757     66.6911     20.7521
  1076.3000      8.0876      2.4506      0.0544     12.0838     66.3312     20.2593
  1076.4000      8.0876      2.4388      0.0673     12.7975     70.4295     20.0742
  1076.5000      8.0869      2.4160      0.0265     14.1808     75.2186     20.3183
  1076.6000      8.0869      2.4013     -0.0160     15.0709     77.9339     20.7603
  1076.7000      8.0869      2.4072     -0.0004     14.7165     79.2382     21.2225
  1076.8000      8.0892      2.4239      0.0283     13.7043     80.3458     21.4198
  1076.9000      8.0892      2.4342      0.0241     13.0769     80.9889     21.2085
  1077.0000      8.0925      2.4300      0.0417     13.3326     79.8454     20.8783
  1077.1000      8.0925      2.4184     -0.0220     14.0367     77.2820     20.5283
  1077.2000      8.0925      2.4117     -0.0175     14.4411     75.2215     20.2401
  1077.3000      8.0927      2.4072      0.0504     14.7126     74.9038     20.1914
  1077.4000      8.0927      2.3996     -0.0147     15.1732     76.2636     20.2530
  1077.5000      8.0990      2.3990      0.0010     15.2119     78.9559     20.3475
  1077.6000      8.0990      2.4089      0.0245     14.6100     80.5753     20.5041
  1077.7000      8.0990      2.4164      0.0578     14.1552     77.8634     20.7529
  1077.8000      8.1017      2.4169      0.0270     14.1298     73.2383     21.0943
  1077.9000      8.1017      2.4229      0.0140     13.7654     70.9429     21.2992
  1078.0000      8.0985      2.4361      0.0163     12.9614     71.8054     21.3332
  1078.1000      8.0985      2.4393      0.0465     12.7698     73.8479     21.2798
  1078.2000      8.0985      2.4226      0.0098     13.7832     75.3685     21.1317
  1078.3000      8.0876      2.4004     -0.0182     15.1277     76.9425     20.9907
  1078.4000      8.0876      2.3943      0.0013     15.4994     77.7928     20.8890
  1078.5000      8.0841      2.4062      0.0451     14.7740     75.1050     20.9536
  1078.6000      8.0841      2.4191      0.0486     13.9933     68.6230     21.3811
  1078.7000      8.0841      2.4183      0.0443     14.0401     62.8295     21.8375
  1078.8000      8.0838      2.4076      0.0017     14.6887     61.3425     21.9499
  1078.9000      8.0838      2.4021      0.0109     15.0222     64.1579     21.7995
  1079.0000      8.0837      2.4082      0.0274     14.6549     68.1247     21.5167
  1079.1000      8.0837      2.4199      0.0559     13.9429     69.1184     21.3924
  1079.2000      8.0837      2.4286      0.0578     13.4208     67.8032     21.6365
  1079.3000      8.0826      2.4263      0.0423     13.5554     66.9997     22.0609
  1079.4000      8.0826      2.4179      0.0113     14.0641     67.2708     22.3645
  1079.5000      8.0818      2.4195      0.0104     13.9716     68.2047     22.3540
  1079.6000      8.0818      2.4300      0.0371     13.3340     69.4225     22.0463
  1079.7000      8.0818      2.4343      0.0339     13.0724     70.4030     21.9158
  1079.8000      8.0777      2.4247      0.0737     13.6558     70.4978     22.3101
  1079.9000      8.0777      2.4058      0.0183     14.7987     69.8433     22.8806
