~Version Information
VERS.                      2.0: CWLS Log ASCII Standard - VERSION 2.0
WRAP.                       NO: One line per depth step
~Well Information Block
STRT.FT               823.7000: 
STOP.FT              2444.0000: 
STEP.FT                 0.1000: 
NULL.                -999.2500: 
COMP.          Petrogulf Corporation: COMPANY
WELL.            Kraft 17-23 V: WELL
FLD.           Purgatorie River: FIELD
LOC.           1500' FSL & 1773' FWL: LOCATION
CNTY.               Las Animas: COUNTY
SRVC.                         : SERVICE COMPANY
DATE.          Thu Nov 20 07:09:00 2003: LOG DATE
UWI.                          : UNIQUE WELL ID
STAT.                 Colorado: STATE
~Curve Information Block
DEPT.FT            0 000 00 00: Depth
DCAL.in                       : CDL Caliper
RHOB.g/cc                     : CDL Bulk Density
RHOC.g/cc                     : CDL Density Correction
DPOR.pu                       : CDL Density Porosity
GR.GAPI                       : Gamma Ray
NPOR.pu                       : Neutron Porosity
~Parameter Information Block
~A  Depth       DCAL        RHOB        RHOC        DPOR         GR         NPOR    
# ...
  2110.1000      8.0641      2.4996      0.0830      9.1131    103.3739     25.9693
  2110.2000      8.0641      2.5284      0.1067      7.3692     96.3531     26.0079
  2110.3000      8.0302      2.5521      0.1258      5.9357     96.7539     25.9309
  2110.4000      8.0302      2.5370      0.1433      6.8489    102.7257     25.6725
  2110.5000      8.0120      2.4923      0.0188      9.5552    112.6710     25.1821
  2110.6000      8.0120      2.4707      0.0244     10.8684    123.4783     24.7310
  2110.7000      8.0120      2.4841      0.0836     10.0546    131.1581     24.8031
  2110.8000      8.0265      2.4931      0.1136      9.5090    133.2794     25.0926
  2110.9000      8.0265      2.4818      0.0767     10.1922    130.4641     24.9210
  2111.0000      8.0636      2.4746      0.0063     10.6301    126.8870     24.6249
  2111.1000      8.0636      2.4922      0.0884      9.5662    122.9117     25.0956
  2111.2000      8.0636      2.5229      0.1395      7.7010    119.2837     26.1807
  2111.3000      8.0627      2.5428      0.1209      6.4986    121.4865     27.0953
  2111.4000      8.0627      2.5438      0.1301      6.4384    127.4851     27.6735
  2111.5000      8.0551      2.5326      0.1211      7.1133    129.1600     28.0490
  2111.6000      8.0551      2.5223      0.1425      7.7368    124.9784     28.3978
  2111.7000      8.0551      2.5269      0.0877      7.4577    119.9296     28.8722
  2111.8000      8.0686      2.5377      0.1654      6.8078    118.0409     29.1876
  2111.9000      8.0686      2.5263      0.1191      7.4998    119.1674     28.9804
  2112.0000      8.0690      2.5040      0.0365      8.8504    120.0079     28.3495
  2112.1000      8.0690      2.5079      0.0720      8.6147    119.0123     27.7412
  2112.2000      8.0690      2.5351      0.1502      6.9653    115.1893     27.4373
  2112.3000      8.0190      2.5611      0.0633      5.3875    105.5389     27.4467
  2112.4000      8.0190      2.5687      0.1741      4.9258     93.8883     27.6384
  2112.5000      7.9243      2.5508      0.0655      6.0106     90.6867     27.7525
  2112.6000      7.9243      2.5270      0.0897      7.4525     96.5357     27.5089
  2112.7000      7.9243      2.5176      0.0993      8.0240    101.7952     26.9138
  2112.8000      7.9062      2.5298      0.0559      7.2823    104.8435     26.4542
  2112.9000      7.9062      2.5592      0.1087      5.5028    111.0583     26.4139
  2113.0000      8.0176      2.5800      0.1395      4.2418    114.9107     26.5516
  2113.1000      8.0176      2.5712      0.0806      4.7737    109.5515     26.8228
  2113.2000      8.0176      2.5372      0.0861      6.8372    103.0075     27.1754
  2113.3000      8.1177      2.5026      0.0227      8.9342    103.6967     27.4336
  2113.4000      8.1177      2.4882      0.0776      9.8045    109.8197     27.5204
  2113.5000      8.1232      2.4870     -0.0038      9.8811    116.7565     27.1197
  2113.6000      8.1232      2.4813      0.0741     10.2241    120.5017     26.3129
  2113.7000      8.1232      2.4609      0.0337     11.4607    119.7501     25.7982
  2113.8000      8.0764      2.4396     -0.0619     12.7498    116.1380     25.9587
  2113.9000      8.0764      2.4414      0.0042     12.6425    109.3463     26.4237
  2114.0000      8.0500      2.4632     -0.0175     11.3239     99.1174     26.5831
  2114.1000      8.0500      2.4861      0.0520      9.9358     89.9174     26.1146
  2114.2000      8.0500      2.4930      0.0902      9.5148     84.3862     25.5718
  2114.3000      8.0576      2.4789      0.0666     10.3683     82.9439     25.7504
  2114.4000      8.0576      2.4599      0.0093     11.5188     83.8042     26.5682
  2114.5000      8.0677      2.4545      0.0210     11.8466     82.0914     27.5107
  2114.6000      8.0677      2.4642      0.0057     11.2600     80.3443     28.1290
  2114.7000      8.0677      2.4733      0.0987     10.7112     85.6729     28.2078
  2114.8000      8.0671      2.4656      0.0262     11.1768     97.0072     28.0293
  2114.9000      8.0671      2.4590     -0.0222     11.5747    105.3137     27.9317
  2115.0000      8.0391      2.4721      0.0568     10.7833    109.3866     27.7739
  2115.1000      8.0391      2.4801      0.1301     10.2982    115.5416     27.6487
  2115.2000      8.0391      2.4626      0.0846     11.3563    121.2386     27.8855
  2115.3000      8.0092      2.4375      0.0134     12.8795    121.7925     28.2399
  2115.4000      8.0092      2.4249      0.0053     13.6428    117.2231     28.3505
  2115.5000      8.0236      2.4224      0.0763     13.7931    110.0961     28.4827
  2115.6000      8.0236      2.4189      0.0765     14.0082    104.7762     29.0022
  2115.7000      8.0236      2.4103      0.0547     14.5265     99.8261     29.5707
  2115.8000      8.0254      2.3977      0.1011     15.2925     93.9732     29.5655
  2115.9000      8.0254      2.3917      0.0671     15.6545     90.9285     29.2664
  2116.0000      7.9422      2.4095      0.1095     14.5733     92.0524     29.1406
  2116.1000      7.9422      2.4382      0.1830     12.8390     95.0100     28.8825
  2116.2000      7.9422      2.4446      0.1825     12.4486     97.5695     28.6796
  2116.3000      7.8619      2.4342      0.0789     13.0764     97.1824     29.0958
  2116.4000      7.8619      2.4373      0.1457     12.8929     94.2127     29.5464
  2116.5000      7.9494      2.4498      0.2011     12.1334     91.3740     29.4638
  2116.6000      7.9494      2.4482      0.1555     12.2327     87.5814     29.5923
  2116.7000      7.9494      2.4368      0.1513     12.9207     86.2249     30.2756
  2116.8000      8.0708      2.4395      0.1655     12.7599     96.0805     30.7504
  2116.9000      8.0708      2.4610      0.1568     11.4565    113.4068     30.7407
  2117.0000      8.1209      2.4832      0.1791     10.1100    120.9184     30.4990
  2117.1000      8.1209      2.5009      0.1481      9.0367    115.1368     30.1209
  2117.2000      8.1209      2.5290      0.2067      7.3341    110.1258     29.8620
  2117.3000      8.1322      2.5589      0.2860      5.5222    107.5926     29.9469
  2117.4000      8.1322      2.5606      0.2203      5.4190     99.4057     30.3027
  2117.5000      8.1214      2.5296      0.1921      7.2992     91.7355     30.6086
  2117.6000      8.1214      2.4924      0.0643      9.5500     97.3004     30.5679
  2117.7000      8.1214      2.4712      0.1118     10.8382    113.2234     30.5306
  2117.8000      8.1101      2.4445      0.1531     12.4519    124.5968     30.9417
  2117.9000      8.1101      2.3735      0.1017     16.7548    122.9444     31.3688
  2118.0000      8.1079      2.2505      0.0517     24.2106    113.0451     31.3222
  2118.1000      8.1079      2.1054     -0.0389     33.0072    102.6847     31.0245
  2118.2000      8.1079      1.9839     -0.0729     40.3706     91.0263     30.9004
  2118.3000      8.1058      1.9190     -0.1300     44.3032     79.5915     31.1188
  2118.4000      8.1058      1.9029     -0.0287     45.2784     72.5955     31.3627
  2118.5000      8.0902      1.9006     -0.0178     45.4198     70.6614     31.2797
  2118.6000      8.0902      1.9102     -0.0609     44.8338     71.9759     30.8344
  2118.7000      8.0902      1.9543      0.0795     42.1639     72.7276     30.0958
  2118.8000      8.0733      2.0219      0.1863     38.0642     74.2260     29.3444
  2118.9000      8.0733      2.0832      0.2222     34.3497     78.3065     29.0323
  2119.0000      8.0828      2.1198      0.2454     32.1315     80.0706     29.2895
  2119.1000      8.0828      2.1205      0.1788     32.0879     74.7313     29.7264
  2119.2000      8.0828      2.0826      0.1460     34.3896     65.3937     30.0684
  2119.3000      8.0979      2.0240      0.0626     37.9380     56.2883     30.2102
  2119.4000      8.0979      1.9806      0.0560     40.5682     46.9319     30.1654
  2119.5000      8.0594      1.9752      0.0369     40.8993     37.4144     30.1668
  2119.6000      8.0594      2.0073      0.1011     38.9515     33.3642     30.2812
