~Version Information
VERS.                      2.0: CWLS Log ASCII Standard - VERSION 2.0
WRAP.                       NO: One line per depth step
~Well Information Block
STRT.FT               860.0000: 
STOP.FT              1907.0000: 
STEP.FT                 0.1000: 
NULL.                -999.2500: 
COMP.          Pioneer Natural Resources: COMPANY
WELL.          Victory 12-14 Tr: WELL
FLD.           Purgatoire River: FIELD
LOC.           2522' FNL & 276' FWL: LOCATION
PROV.                 Colorado: PROVINCE
CNTY.               Las Animas: COUNTRY
SRVC.                Patterson: SERVICE COMPANY
DATE.          Mon Jul 18 06:52:40 2005: LOG DATE
UWI.           05 071 08433 00: UNIQUE WELL ID
~Curve Information Block
DEPT.FT            0 000 00 00: Depth
DCAL.in                       : CDL Caliper
RHOB.g/cc                     : CDL Bulk Density
RHOC.g/cc                     : CDL Density Correction
DPOR.pu                       : CDL Density Porosity
GR.GAPI                       : Gamma Ray
NPOR.pu                       : Neutron Porosity
~Parameter Information Block
~A  Depth       DCAL        RHOB        RHOC        DPOR         GR         NPOR    
   860.0000      8.2256      2.2740     -0.3976     22.7891    134.6089     24.6030
   860.1000      8.2256      2.2587     -0.4642     23.7130    141.7131     23.2972
   860.2000      8.2256      2.2497     -0.4574     24.2626    145.4375     22.3764
   860.3000      8.2300      2.2473     -0.4132     24.4037    145.0885     22.3898
   860.4000      8.2300      2.2291     -0.4424     25.5106    142.5684     22.7527
   860.5000      8.2317      2.2030     -0.5328     27.0895    139.2802     22.9937
   860.6000      8.2317      2.1978     -0.4988     27.4082    133.6746     22.9089
   860.7000      8.2317      2.2158     -0.4184     26.3179    126.4556     22.8015
   860.8000      8.2314      2.2406     -0.4242     24.8133    123.2228     22.9163
   860.9000      8.2314      2.2601     -0.4442     23.6293    125.5901     22.7230
   861.0000      8.2290      2.2600     -0.4135     23.6383    128.8326     22.0841
   861.1000      8.2290      2.2344     -0.5275     25.1853    128.8304     21.7183
   861.2000      8.2290      2.2008     -0.4783     27.2217    127.9968     21.8564
   861.3000      8.2320      2.1747     -0.4799     28.8077    129.7828     21.9091
   861.4000      8.2320      2.1672     -0.5644     29.2578    134.5117     21.3960
   861.5000      8.2364      2.1896     -0.5106     27.9015    137.5902     20.5661
   861.6000      8.2364      2.2323     -0.4831     25.3177    132.1761     19.8517
   861.7000      8.2364      2.2657     -0.4197     23.2906    122.1765     19.4838
   861.8000      8.2320      2.2670     -0.4834     23.2124    116.6877     19.3762
   861.9000      8.2320      2.2460     -0.4719     24.4830    116.0828     19.0457
   862.0000      8.2323      2.2234     -0.4365     25.8531    115.3777     18.5969
   862.1000      8.2323      2.2124     -0.5000     26.5229    112.1583     18.6595
   862.2000      8.2323      2.2229     -0.4838     25.8833    107.9226     18.9167
   862.3000      8.2332      2.2471     -0.4397     24.4166    104.1709     18.6777
   862.4000      8.2332      2.2630     -0.4238     23.4558    100.8291     18.5274
   862.5000      8.2391      2.2565     -0.4027     23.8502     98.5777     18.9993
   862.6000      8.2391      2.2315     -0.4236     25.3665     96.7522     19.3506
   862.7000      8.2391      2.2106     -0.4948     26.6283     91.8193     18.9649
   862.8000      8.2381      2.2085     -0.3960     26.7586     85.0754     18.3409
   862.9000      8.2381      2.2101     -0.4354     26.6635     83.5385     17.9477
   863.0000      8.2384      2.2037     -0.4767     27.0466     87.0947     17.6426
   863.1000      8.2384      2.1897     -0.4187     27.8994     90.7528     17.3491
   863.2000      8.2384      2.1722     -0.5138     28.9589     92.9161     17.0461
   863.3000      8.2393      2.1604     -0.4858     29.6713     93.1191     16.8680
   863.4000      8.2393      2.1546     -0.5091     30.0246     91.8441     16.9955
   863.5000      8.2391      2.1525     -0.4315     30.1518     90.3870     17.2039
   863.6000      8.2391      2.1546     -0.4583     30.0240     87.3506     16.9288
   863.7000      8.2391      2.1599     -0.5018     29.7038     81.3822     16.3030
   863.8000      8.2393      2.1657     -0.4525     29.3521     73.2427     16.3291
   863.9000      8.2393      2.1635     -0.4882     29.4876     66.6387     17.1177
   864.0000      8.2383      2.1520     -0.4773     30.1831     64.9088     17.5259
   864.1000      8.2383      2.1468     -0.5053     30.4969     65.6383     17.2104
   864.2000      8.2383      2.1592     -0.5073     29.7462     64.6153     16.9878
   864.3000      8.2398      2.1798     -0.4791     28.4953     62.8998     17.0833
   864.4000      8.2398      2.1951     -0.5114     27.5672     64.4961     17.0533
   864.5000      8.2365      2.2015     -0.4458     27.1793     69.1120     16.8082
   864.6000      8.2365      2.2006     -0.4573     27.2365     75.4776     16.4348
   864.7000      8.2365      2.2055     -0.4875     26.9421     83.2993     16.1879
   864.8000      8.2399      2.2200     -0.3904     26.0600     89.3519     16.5191
   864.9000      8.2399      2.2274     -0.4205     25.6127     89.9487     16.6251
   865.0000      8.2382      2.2218     -0.4459     25.9508     85.3422     15.8557
   865.1000      8.2382      2.2042     -0.4111     27.0155     78.4143     15.0738
   865.2000      8.2382      2.1757     -0.5021     28.7431     70.9968     14.7646
   865.3000      8.2346      2.1570     -0.5299     29.8791     64.9875     14.8985
   865.4000      8.2346      2.1630     -0.4834     29.5129     62.8943     15.6337
   865.5000      8.2346      2.1804     -0.4870     28.4611     65.7542     16.4217
   865.6000      8.2346      2.1940     -0.4792     27.6362     69.0851     16.5241
   865.7000      8.2346      2.2099     -0.4701     26.6721     68.2066     16.0719
   865.8000      8.2378      2.2366     -0.4580     25.0565     65.0370     15.5702
   865.9000      8.2378      2.2578     -0.4632     23.7723     63.7133     15.8180
   866.0000      8.2372      2.2590     -0.4593     23.6984     64.5607     16.6743
   866.1000      8.2372      2.2491     -0.4125     24.2950     64.5338     17.1794
   866.2000      8.2372      2.2431     -0.4854     24.6580     63.1216     17.4908
   866.3000      8.2358      2.2472     -0.4645     24.4143     62.5579     18.4809
   866.4000      8.2358      2.2501     -0.4135     24.2384     63.6874     20.2381
   866.5000      8.2346      2.2405     -0.4429     24.8202     65.2222     21.6672
   866.6000      8.2346      2.2169     -0.4477     26.2500     67.8922     21.6847
   866.7000      8.2346      2.1883     -0.5026     27.9824     74.0145     20.8981
   866.8000      8.2400      2.1675     -0.4305     29.2442     81.6170     20.8876
   866.9000      8.2400      2.1536     -0.4531     30.0824     87.7346     21.8710
   867.0000      8.2406      2.1522     -0.5244     30.1721     90.4539     22.6324
   867.1000      8.2406      2.1592     -0.4000     29.7467     91.2569     22.6426
   867.2000      8.2406      2.1448     -0.4321     30.6189     95.2218     22.4869
   867.3000      8.2361      2.1082     -0.5003     32.8369    103.9895     22.4646
   867.4000      8.2361      2.0822     -0.5382     34.4125    113.9001     22.4944
   867.5000      8.2367      2.0838     -0.4664     34.3144    119.4980     22.8005
   867.6000      8.2367      2.1052     -0.4964     33.0153    121.2614     23.4922
   867.7000      8.2367      2.1295     -0.4628     31.5434    123.9501     24.4741
   867.8000      8.2391      2.1445     -0.5043     30.6335    125.5609     25.3379
   867.9000      8.2391      2.1482     -0.4216     30.4134    126.8101     25.4461
   868.0000      8.2387      2.1329     -0.4723     31.3422    132.0580     25.2004
   868.1000      8.2387      2.0967     -0.5503     33.5343    135.9094     25.1817
   868.2000      8.2387      2.0544     -0.5140     36.0984    134.2255     25.1150
   868.3000      8.2401      2.0169     -0.5364     38.3715    130.5587     24.9350
   868.4000      8.2401      1.9748     -0.5170     40.9233    129.4982     24.7252
   868.5000      8.2410      1.9028     -0.5074     45.2819    131.6011     24.5057
   868.6000      8.2410      1.7991     -0.6014     51.5691    130.7249     24.7202
   868.7000      8.2410      1.6929     -0.6718     58.0088    123.8161     25.3367
   868.8000      8.2397      1.5957     -0.6852     63.8997    114.2145     25.6165
   868.9000      8.2397      1.5012     -0.7643     69.6272    103.4382     25.2237
   869.0000      8.2394      1.4268     -0.8416     74.1306     95.1842     24.7547
   869.1000      8.2394      1.3902     -0.7976     76.3520     92.3713     24.6482
   869.2000      8.2394      1.3786     -0.8556     77.0570     89.7850     24.4660
   869.3000      8.2386      1.3761     -0.7777     77.2088     85.7988     24.0844
   869.4000      8.2386      1.3796     -0.8162     76.9963     82.1664     24.0765
   869.5000      8.2435      1.3952     -0.8003     76.0478     78.1610     24.5132
