~Version Information
VERS.                      2.0: CWLS Log ASCII Standard - VERSION 2.0
WRAP.                       NO: One line per depth step
~Well Information Block
STRT.FT                -8.2500: 
STOP.FT              2356.2500: 
STEP.FT                 0.2500: 
NULL.                -999.2500: 
COMP.          Petrogulf Corporation: COMPANY
WELL.             State 16-12V: WELL
FLD.           Purgatorie River: FIELD
LOC.           1992' FNL & 1237' FWL: LOCATION
PROV.                 Colorado: PROVINCE
CNTY.               Las Animas: COUNTRY
SRVC.                Patterson: SERVICE COMPANY
DATE.          Thu Aug 11 14:44:06 2005: LOG DATE
UWI.                          : UNIQUE WELL ID
~Curve Information Block
DEPT.FT            0 000 00 00: Depth
GR.GAPI                       : Gamma Ray
CCL.                          : Casing Collar Locator
TT3.usec                      : CBL 3' Travel Time
AMP3.mV                       : CBL 3' Amplitude
~Parameter Information Block
~A  Depth        GR         CCL         TT3         AMP3    
# ...
   460.7500     80.6402      0.0000    880.9590     13.8011
   461.0000     79.0568      0.0000    884.9633     13.9643
   461.2500     80.6707      0.0000    880.7880     14.0536
   461.5000     86.1528      0.0000    867.8217     14.0729
   461.7500     94.5986      0.0000    848.7887     14.1093
   462.0000    103.2132      0.0000    831.1330     14.2520
   462.2500    108.5940      0.0000    821.5255     14.4617
   462.5000    108.9445      0.0000    818.3126     14.5966
   462.7500    104.9783      0.0000    808.8094     14.5504
   463.0000     98.7494      0.0000    772.9889     14.3355
   463.2500     92.2094      0.0000    699.0945     14.0521
   463.5000     86.8760      0.0000    604.9383     13.8120
   463.7500     83.8285      0.0000    528.5929     13.6819
   464.0000     83.2396      0.0000    489.6055     13.6499
   464.2500     84.2831      0.0000    478.4138     13.6427
   464.5000     86.1041      0.0000    477.4792     13.6013
   464.7500     88.6399      0.0000    474.1695     13.5379
   465.0000     91.9856      0.0000    464.1319     13.5035
   465.2500     95.2715      0.0000    453.2950     13.5089
   465.5000     96.8566      0.0000    450.2321     13.4971
   465.7500     95.6766      0.0000    455.3091     13.3997
   466.0000     92.1664      0.0000    462.0986     13.2211
   466.2500     87.8965      0.0000    466.2633     13.0405
   466.5000     84.4224      0.0000    468.0729     12.9277
   466.7500     82.3609      0.0000    468.9550     12.9107
   467.0000     81.3107      0.0000    469.4333     12.9994
   467.2500     80.5663      0.0000    469.6026     13.1754
   467.5000     79.9607      0.0000    469.6875     13.3770
   467.7500     80.0216      0.0000    470.1012     13.5348
   468.0000     81.2859      0.0000    472.4992     13.6158
   468.2500     83.5358      0.0000    482.6184     13.6414
   468.5000     85.8290      0.0000    510.1950     13.6681
   468.7500     87.2606      0.0000    557.7811     13.7361
   469.0000     87.5457      0.0000    613.8917     13.8374
   469.2500     86.8899      0.0000    671.8229     13.9252
   469.5000     85.4828      0.0000    734.9701     13.9306
   469.7500     83.2119      0.0000    793.4011     13.7993
   470.0000     79.8530      0.0000    829.1912     13.5575
   470.2500     75.4362      0.0000    841.1516     13.3365
   470.5000     70.3592      0.0000    848.9505     13.2911
   470.7500     65.2050      0.0000    880.4514     13.4580
   471.0000     60.5871      0.0000    945.5648     13.6897
   471.2500     57.1544      0.0000   1018.0288     13.7838
   471.5000     55.5893      0.0000   1057.0726     13.6959
   471.7500     56.4481      0.0000   1046.9083     13.5566
   472.0000     59.8902      0.0000   1006.5981     13.4731
   472.2500     65.4262      0.0000    967.8381     13.4031
   472.5000     71.9411      0.0000    946.0721     13.2352
   472.7500     78.0733      0.0000    931.2996     12.9038
   473.0000     82.6496      0.0000    909.2839     12.4124
   473.2500     84.9676      0.0000    880.1179     11.8217
   473.5000     84.9878      0.0000    845.9941     11.2238
   473.7500     83.4131      0.0000    794.3448     10.7055
   474.0000     81.5388      0.0000    714.8211     10.2966
   474.2500     80.7431      0.0000    632.9825      9.9268
   474.5000     81.6254      0.0000    593.9776      9.4930
   474.7500     83.3470      0.0000    605.4426      9.0008
   475.0000     84.0116      0.0000    629.3788      8.5680
   475.2500     81.9914      0.0000    629.9677      8.2233
   475.5000     76.9567      0.0000    609.3447      7.7575
   475.7500     69.7935      0.0000    600.8657      6.9645
   476.0000     62.0208      0.0000    629.2241      5.9795
   476.2500     55.4181      0.0000    680.7858      5.0738
   476.5000     51.6585      0.0000    721.8295      4.3293
   476.7500     51.5052      0.0000    737.1759      3.7667
   477.0000     54.0475      0.0000    744.0199      3.4027
   477.2500     57.0676      0.0000    764.3384      3.1748
   477.5000     58.5923      0.0000    787.9217      3.0479
   477.7500     58.2395      2.0000    785.6443      3.0591
   478.0000     57.1586      0.0000    755.1359      3.2189
   478.2500     56.7977      0.0000    722.3356      3.5252
   478.5000     57.7158      0.0000    707.8560      4.0568
   478.7500     59.3938      0.0000    713.9651      4.8742
   479.0000     60.9061      0.0000    729.8479      5.8020
   479.2500     61.7200      0.0000    741.8410      6.5227
   479.5000     62.0892      0.0000    744.1040      6.9315
   479.7500     62.7319      0.0000    734.6592      7.1985
   480.0000     63.8934      0.0000    709.7414      7.5160
   480.2500     64.7116      0.0000    674.6415      7.9523
   480.5000     63.8713      0.0000    646.4348      8.5002
   480.7500     61.0498      0.0000    635.5182      9.1138
   481.0000     57.4711      0.0000    637.4206      9.7083
   481.2500     54.8617      0.0000    645.8028     10.2349
   481.5000     54.0094      0.0000    661.2585     10.7113
   481.7500     54.4251      0.0000    685.6714     11.1389
   482.0000     55.0695      0.0000    712.8362     11.4642
   482.2500     55.0807      0.0000    728.4850     11.6138
   482.5000     53.9669      0.0000    726.5661     11.5381
   482.7500     51.5154      0.0000    716.7212     11.2713
   483.0000     47.7712      0.0000    705.9370     10.9296
   483.2500     43.2239      0.0000    692.8896     10.5872
   483.5000     38.9079      0.0000    682.1347     10.2201
   483.7500     35.9630      0.0000    682.2410      9.8142
   484.0000     34.8447      0.0000    695.2731      9.4049
   484.2500     35.0257      0.0000    715.5598      8.9780
   484.5000     35.5761      0.0000    731.0087      8.4754
   484.7500     35.9860      0.0000    732.0768      7.9295
   485.0000     36.4297      0.0000    723.9354      7.4727
   485.2500     37.3373      0.0000    720.4260      7.1797
   485.5000     38.7979      0.0000    727.0778      6.9975
   485.7500     40.3825      0.0000    735.6472      6.8760
   486.0000     41.4519      0.0000    735.5397      6.8482
   486.2500     41.5516      0.0000    725.8280      6.9228
   486.5000     40.5435      0.0000    713.3503      7.0232
   486.7500     38.5083      0.0000    708.0655      7.0802
   487.0000     35.7304      0.0000    719.0345      7.0832
   487.2500     32.9049      0.0000    743.2844      7.0554
   487.5000     31.1750      0.0000    765.4637      7.0505
   487.7500     31.6539      0.0000    777.8466      7.1223
   488.0000     34.7633      0.0000    796.7314      7.2719
   488.2500     40.1161      0.0000    840.2347      7.4623
   488.5000     47.0640      0.0000    890.3333      7.6601
   488.7500     55.2463      0.0000    915.3155      7.8611
   489.0000     64.4604      0.0000    912.8584      8.0812
   489.2500     74.0024      0.0000    894.7726      8.2880
   489.5000     82.4018      0.0000    864.6815      8.3952
   489.7500     88.1604      0.0000    824.8018      8.3786
   490.0000     90.7459      0.0000    784.1641      8.3199
   490.2500     90.7612      0.0000    752.5558      8.3183
   490.5000     89.4113      0.0000    732.9373      8.3851
   490.7500     87.9967      0.0000    732.5721      8.4337
   491.0000     87.5472      0.0000    761.9438      8.4174
   491.2500     88.3514      0.0000    809.4063      8.4122
   491.5000     89.6025      0.0000    845.8464      8.4996
   491.7500     89.7328      0.0000    859.4805      8.6896
   492.0000     87.5754      0.0000    862.4700      8.9786
   492.2500     83.7201      0.0000    867.9204      9.3271
   492.5000     80.7526      0.0000    876.3225      9.6055
   492.7500     81.5261      0.0000    880.6161      9.7035
   493.0000     86.7272      0.0000    876.5566      9.6537
   493.2500     94.2569      0.0000    867.4068      9.5605
   493.5000    100.9820      0.0000    860.8925      9.4711
   493.7500    104.8033      0.0000    865.0393      9.3781
   494.0000    105.4089      0.0000    886.1588      9.2691
