~Version Information
VERS.                      2.0: CWLS Log ASCII Standard - VERSION 2.0
WRAP.                       NO: One line per depth step
~Well Information Block
STRT.FT               240.0000: 
STOP.FT              1709.2000: 
STEP.FT                 0.1000: 
NULL.                -999.2500: 
COMP.          Pioneer Natural Resources: COMPANY
WELL.              Patten 22-2: WELL
FLD.           Purgatoire River: FIELD
LOC.           2157' FNL & 1528' FWL: LOCATION
PROV.                 Colorado: PROVINCE
CNTY.               Las Animas: COUNTRY
SRVC.                Patterson: SERVICE COMPANY
DATE.          Fri Dec 10 09:15:13 2004: LOG DATE
UWI.           05 071 08168 00: UNIQUE WELL ID
~Curve Information Block
DEPT.FT            0 000 00 00: Depth
DCAL.in                       : CDL Caliper
RHOB.g/cc                     : CDL Bulk Density
RHOC.g/cc                     : CDL Density Correction
DPOR.pu                       : CDL Density Porosity
NPOR.pu                       : Neutron Porosity
GR.GAPI                       : Gamma Ray
~Parameter Information Block
~A  Depth       DCAL        RHOB        RHOC        DPOR        NPOR         GR     
# ...
  1008.0000      7.9974      2.6169      0.0586      2.0062     23.1258    116.3023
  1008.1000      7.9974      2.6184      0.0560      1.9157     23.2697    108.6928
  1008.2000      7.9974      2.6334      0.0853      1.0080     23.7890    102.0931
  1008.3000      7.9975      2.6405      0.0535      0.5773     24.8145    100.6032
  1008.4000      7.9975      2.6327      0.0583      1.0510     25.9684    102.0838
  1008.5000      7.9978      2.6150      0.0348      2.1221     26.7369    103.9615
  1008.6000      7.9978      2.5929      0.0362      3.4612     27.0424    106.3525
  1008.7000      7.9978      2.5701      0.0134      4.8403     27.2582    108.0187
  1008.8000      7.9994      2.5578     -0.0001      5.5851     27.5529    111.4552
  1008.9000      7.9994      2.5610      0.0070      5.3921     27.7210    118.5415
  1009.0000      8.0003      2.5659      0.0596      5.0986     27.5844    127.5563
  1009.1000      8.0003      2.5606      0.0341      5.4163     27.2839    135.3700
  1009.2000      8.0003      2.5491      0.0821      6.1125     26.8298    136.1683
  1009.3000      7.9999      2.5446      0.0461      6.3876     26.1626    129.3418
  1009.4000      7.9999      2.5607      0.0650      5.4143     25.5422    123.7091
  1009.5000      7.9996      2.5932      0.1283      3.4418     24.9613    127.0705
  1009.6000      7.9996      2.6219      0.1567      1.7031     24.5817    136.0781
  1009.7000      7.9996      2.6352      0.1533      0.8999     24.9110    143.0109
  1009.8000      8.0002      2.6337      0.1885      0.9856     25.5308    144.2984
  1009.9000      8.0002      2.6218      0.1186      1.7083     25.6462    140.7661
  1010.0000      8.0007      2.6055      0.0942      2.6955     25.4878    134.1527
  1010.1000      8.0007      2.5825      0.1189      4.0923     25.6647    128.6264
  1010.2000      8.0007      2.5524      0.0789      5.9154     26.1695    128.3932
  1010.3000      8.0062      2.5311      0.0396      7.2082     26.4880    132.2161
  1010.4000      8.0062      2.5286      0.0615      7.3578     26.3032    137.4904
  1010.5000      8.0197      2.5372      0.0545      6.8358     25.8539    141.2691
  1010.6000      8.0197      2.5473      0.0756      6.2255     25.4924    140.6851
  1010.7000      8.0197      2.5517      0.0722      5.9562     25.0863    137.7215
  1010.8000      8.0358      2.5459      0.0920      6.3112     24.3933    136.9096
  1010.9000      8.0358      2.5352      0.0449      6.9572     23.6387    139.6353
  1011.0000      8.0525      2.5296      0.0699      7.2968     23.2504    144.2274
  1011.1000      8.0525      2.5236      0.1176      7.6616     23.1856    148.3848
  1011.2000      8.0525      2.5140      0.0712      8.2423     23.0997    150.9699
  1011.3000      8.0649      2.5181      0.0683      7.9914     23.0315    154.5777
  1011.4000      8.0649      2.5416      0.0971      6.5709     23.0748    159.7773
  1011.5000      8.0688      2.5589      0.1484      5.5210     22.9992    158.4250
  1011.6000      8.0688      2.5529      0.0844      5.8842     22.7787    147.9989
  1011.7000      8.0688      2.5447      0.0649      6.3801     22.7911    138.3148
  1011.8000      8.0732      2.5509      0.1126      6.0085     23.1513    135.4583
  1011.9000      8.0732      2.5574      0.1023      5.6131     23.4524    136.5096
  1012.0000      8.0900      2.5553      0.0599      5.7383     23.3594    139.8415
  1012.1000      8.0900      2.5447      0.0836      6.3805     22.9898    145.0795
  1012.2000      8.0900      2.5220      0.0641      7.7559     22.7956    149.9100
  1012.3000      8.1096      2.5017      0.0160      8.9893     23.1432    154.2806
  1012.4000      8.1096      2.5069      0.0226      8.6740     23.7202    156.2409
  1012.5000      8.1258      2.5290      0.0624      7.3358     24.0074    150.6641
  1012.6000      8.1258      2.5340      0.0677      7.0301     24.1079    141.3930
  1012.7000      8.1258      2.5099      0.0235      8.4915     24.2546    137.1296
  1012.8000      8.1338      2.4777     -0.0220     10.4433     24.4310    137.2533
  1012.9000      8.1338      2.4654     -0.0571     11.1854     24.5947    139.2699
  1013.0000      8.1176      2.4813      0.0231     10.2255     24.5901    143.8798
  1013.1000      8.1176      2.5060      0.0232      8.7300     24.4455    147.5129
  1013.2000      8.1176      2.5139      0.0817      8.2465     24.3841    147.1997
  1013.3000      8.0936      2.5055      0.0106      8.7594     24.3471    143.9230
  1013.4000      8.0936      2.5029      0.0857      8.9155     24.3489    138.5169
  1013.5000      8.0749      2.5023      0.0591      8.9530     24.4627    133.2930
  1013.6000      8.0749      2.4828      0.0614     10.1351     24.4442    132.5109
  1013.7000      8.0749      2.4483      0.0252     12.2239     24.4325    139.0146
  1013.8000      8.0530      2.4247     -0.0390     13.6529     24.8027    148.4479
  1013.9000      8.0530      2.4228      0.0549     13.7673     25.4427    153.2981
  1014.0000      8.0288      2.4262      0.0023     13.5651     25.8226    151.3766
  1014.1000      8.0288      2.4191      0.0336     13.9955     25.6311    149.0921
  1014.2000      8.0288      2.3940      0.0664     15.5122     25.3608    151.6726
  1014.3000      8.0086      2.3533      0.0290     17.9793     25.3723    153.8913
  1014.4000      8.0086      2.3125      0.0446     20.4556     25.3625    153.3990
  1014.5000      7.9920      2.2865      0.0149     22.0289     24.9405    154.0784
  1014.6000      7.9920      2.2795      0.0371     22.4529     24.1575    154.5518
  1014.7000      7.9920      2.2816      0.0906     22.3263     23.3907    153.7946
  1014.8000      7.9799      2.2825      0.1041     22.2752     22.5480    152.2072
  1014.9000      7.9799      2.2729      0.1105     22.8534     21.3668    145.7331
  1015.0000      7.9869      2.2286      0.1361     25.5401     20.1944    137.8903
  1015.1000      7.9869      2.1369      0.0999     31.0979     19.2206    135.5800
  1015.2000      7.9869      2.0324      0.0099     37.4331     18.1749    137.1660
  1015.3000      8.0252      1.9583     -0.0017     41.9203     17.1190    137.2167
  1015.4000      8.0252      1.9271      0.0204     43.8099     15.9239    131.2792
  1015.5000      8.0780      1.9377      0.0244     43.1709     14.3213    119.5372
  1015.6000      8.0780      1.9853      0.0445     40.2821     12.6919    107.9538
  1015.7000      8.0780      2.0511      0.1239     36.2976     11.4394    102.5432
  1015.8000      8.1092      2.1191      0.1014     32.1784     10.6520    106.4989
  1015.9000      8.1092      2.1969      0.1531     27.4622     10.3968    118.1853
  1016.0000      8.1189      2.2887      0.2576     21.8957     10.6755    129.4819
  1016.1000      8.1189      2.3825      0.3261     16.2093     11.3260    134.5274
  1016.2000      8.1189      2.4714      0.3114     10.8247     12.1038    133.5789
  1016.3000      8.1132      2.5451      0.3035      6.3563     12.8561    126.5242
  1016.4000      8.1132      2.5867      0.1910      3.8380     13.7218    116.9907
  1016.5000      8.0809      2.5977      0.1352      3.1703     14.8080    111.2905
  1016.6000      8.0809      2.5904      0.1048      3.6113     16.0260    109.8925
  1016.7000      8.0809      2.5746      0.0577      4.5693     17.3477    106.7236
  1016.8000      8.0397      2.5591      0.0649      5.5116     18.6721     99.1286
  1016.9000      8.0397      2.5507      0.0267      6.0189     19.6258     94.0186
  1017.0000      8.0137      2.5567      0.0775      5.6523     20.0550     98.0506
  1017.1000      8.0137      2.5750      0.1049      4.5434     20.3465    109.0472
  1017.2000      8.0137      2.5953      0.0947      3.3131     20.7979    115.2837
  1017.3000      8.0036      2.6150      0.0699      2.1236     21.4332    109.7748
  1017.4000      8.0036      2.6252      0.0983      1.5021     22.0945    100.4056
  1017.5000      8.0016      2.6049      0.0939      2.7325     22.5678     96.4258
