~Version Information
VERS.                      2.0: CWLS Log ASCII Standard - VERSION 2.0
WRAP.                       NO: One line per depth step
~Well Information Block
STRT.FT               -11.2500: 
STOP.FT              1934.7500: 
STEP.FT                 0.2500: 
NULL.                -999.2500: 
COMP.          Pioneer Natural Resources: COMPANY
WELL.          Commander 43-26 Tr: WELL
FLD.           Purgatorie River: FIELD
LOC.           2439' FSL  & 446' FEL--------: LOCATION
PROV.                       CO: PROVINCE
CNTY.               Las Animas: COUNTRY
SRVC.          Patterson Wireline: SERVICE COMPANY
DATE.          Tue Apr 26 09:07:23 2005: LOG DATE
UWI.           05 071 08341 00: UNIQUE WELL ID
~Curve Information Block
DEPT.FT            0 000 00 00: Depth
CCL.                          : Casing Collar Locator
TT3.usec                      : CBL 3' Travel Time
AMP3.mV                       : CBL 3' Amplitude
GR.GAPI                       : Gamma Ray
~Parameter Information Block
~A  Depth       CCL         TT3         AMP3         GR     
# ...
   491.2500      0.0000    743.7454      9.1893     72.7204
   491.5000      0.0000    743.5195      9.3599     73.9136
   491.7500      0.0000    743.2714      9.4825     73.6160
   492.0000      0.0000    742.9983      9.5445     71.5850
   492.2500      0.0000    742.7352      9.5578     68.3060
   492.5000      0.0000    742.5261      9.5548     64.5243
   492.7500      0.0000    742.3705      9.5630     61.1124
   493.0000      0.0000    742.2166      9.5857     59.1310
   493.2500      0.0000    742.0226      9.6106     59.4988
   493.5000      0.0000    741.8239      9.6298     62.1405
   493.7500      0.0000    741.7223      9.6464     65.5089
   494.0000      0.0000    741.7936      9.6660     67.5288
   494.2500      0.0000    742.0118      9.6813     67.4535
   494.5000      0.0000    742.2825      9.6715     66.5779
   494.7500      0.0000    742.5511      9.6272     66.9368
   495.0000      0.0000    742.8934      9.5688     69.4808
   495.2500      0.0000    743.5946      9.5335     73.5591
   495.5000      0.0000    745.2562      9.5478     77.8656
   495.7500      0.0000    748.8069      9.6129     81.6660
   496.0000      0.0000    755.0505      9.7104     85.2106
   496.2500      0.0000    763.6276      9.8206     89.0938
   496.5000      0.0000    772.2621      9.9369     93.1806
   496.7500      0.0000    777.5510     10.0655     96.2070
   497.0000      0.0000    777.1262     10.2124     96.7095
   497.2500      0.0000    771.3670     10.3692     94.5562
   497.5000      0.0000    763.2300     10.5074     91.3026
   497.7500      0.0000    756.3284     10.5956     88.7200
   498.0000      0.0000    752.5359     10.6191     87.0758
   498.2500      0.0000    751.0759     10.5771     85.0705
   498.5000      0.0000    750.0267     10.4726     81.4089
   498.7500      0.0000    748.4320     10.3226     76.2340
   499.0000      0.0000    746.6962     10.1608     70.9611
   499.2500      0.0000    745.5607     10.0172     66.9244
   499.5000      0.0000    745.3821      9.9047     64.4983
   499.7500      0.0000    746.2452      9.8275     63.6048
   500.0000      0.0000    748.2439      9.7845     64.6558
   500.2500      0.0000    751.4607      9.7650     68.3814
   500.5000      0.0000    755.7822      9.7550     74.6454
   500.7500      0.0000    760.9410      9.7413     82.1452
   501.0000      0.0000    766.8465      9.7110     89.6783
   501.2500      0.0000    773.8286      9.6605     97.0586
   501.5000      0.0000    782.4748      9.6029    104.1554
   501.7500      0.0000    792.9971      9.5535    109.5433
   502.0000      0.0000    804.5120      9.5160    110.9623
   502.2500      0.0000    815.3090      9.4913    107.3103
   502.5000      0.0000    824.2382      9.4856     99.9255
   502.7500      0.0000    831.1558      9.4993     91.6792
   503.0000      0.0000    835.5750      9.5248     84.8607
   503.2500      0.0000    836.1839      9.5562     79.9713
   503.5000      0.0000    832.5793      9.5868     76.2330
   503.7500      0.0000    826.2900      9.6009     72.9217
   504.0000      0.0000    819.2030      9.5885     70.3132
   504.2500      0.0000    811.8641      9.5594     69.4912
   504.5000      0.0000    803.9799      9.5248     71.1181
   504.7500      0.0000    795.8998      9.4755     74.3463
   505.0000      0.0000    788.8419      9.3998     77.0279
   505.2500      0.0000    783.8568      9.3081     77.2327
   505.5000      0.0000    781.0946      9.2195     74.8174
   505.7500      0.0000    780.1455      9.1399     71.5563
   506.0000      0.0000    780.8712      9.0760     69.6121
   506.2500      0.0000    783.8677      9.0472     69.9458
   506.5000      0.0000    790.2399      9.0599     72.1991
   506.7500      0.0000    800.8344      9.0853     75.7392
   507.0000      0.0000    815.3558      9.0889     80.5175
   507.2500      0.0000    831.9435      9.0661     87.1178
   507.5000      0.0000    847.6212      9.0336     96.2717
   507.7500      0.0000    859.4652      9.0007    108.1901
   508.0000      0.0000    865.5743      8.9641    122.0259
   508.2500      0.0000    864.9716      8.9173    135.8615
   508.5000      0.0000    856.9457      8.8518    147.3598
   508.7500      0.0000    841.2826      8.7631    154.7829
   509.0000      0.0000    819.5522      8.6614    157.9331
   509.2500      0.0000    795.6850      8.5623    158.0551
   509.5000      0.0000    774.4829      8.4660    156.2310
   509.7500      0.0000    759.1431      8.3617    152.1113
   510.0000      0.0000    750.0532      8.2565    145.0229
   510.2500      0.0000    745.5825      8.1695    136.0702
   510.5000      0.0000    743.6770      8.0970    128.2152
   510.7500      0.0000    742.8851      8.0112    124.2828
   511.0000      0.0000    742.5566      7.9059    125.3088
   511.2500      0.0000    742.6827      7.8127    130.3222
   511.5000      0.0000    743.8331      7.7630    136.8850
   511.7500      0.0000    747.2264      7.7599    142.1475
   512.0000      0.0000    754.6221      7.7998    144.4435
   512.2500      0.0000    767.6777      7.8965    144.1678
   512.5000      0.0000    786.6509      8.0627    142.7501
   512.7500      0.0000    809.0415      8.2811    140.8178
   513.0000      0.0000    829.4158      8.5088    137.7773
   513.2500      0.0000    841.5953      8.6965    132.9116
   513.5000      0.0000    842.6334      8.7820    126.1658
   513.7500      0.0000    835.5690      8.6807    117.9900
   514.0000      0.0000    827.8211      8.3370    109.1637
   514.2500      0.0000    825.7787      7.8172    100.7692
   514.5000      0.0000    830.3526      7.3098     93.8740
   514.7500      0.0000    837.3107      6.9815     89.2508
   515.0000      0.0000    841.4149      6.8463     87.4823
   515.2500      2.0000    840.9660      6.8017     89.0278
   515.5000      2.0000    839.7304      6.7608     93.7868
   515.7500      0.0000    843.9606      6.7086    100.5407
   516.0000      0.0000    855.9032      6.6699    107.2268
   516.2500      0.0000    870.3480      6.6835    112.2176
   516.5000      0.0000    878.8759      6.7994    115.3442
   516.7500      0.0000    877.3956      7.0381    117.5697
   517.0000      0.0000    868.6071      7.3400    120.0352
   517.2500      0.0000    858.0706      7.5933    123.7572
   517.5000      0.0000    849.7834      7.7162    129.5633
   517.7500      0.0000    845.1750      7.6993    137.2807
   518.0000      0.0000    843.9252      7.5887    145.1078
   518.2500      0.0000    844.4949      7.4444    150.7835
   518.5000      0.0000    844.6868      7.3054    153.4073
   518.7500      0.0000    842.6036      7.1838    153.2649
   519.0000      0.0000    836.9294      7.0866    150.0972
   519.2500      0.0000    826.2859      7.0239    142.9400
   519.5000      0.0000    809.5269      6.9941    132.0553
   519.7500      0.0000    788.0326      6.9829    119.8657
   520.0000      0.0000    767.1442      6.9879    109.2588
   520.2500      0.0000    753.0936      7.0278    101.4409
   520.5000      0.0000    747.4001      7.1124     95.7139
   520.7500      0.0000    745.5681      7.2139     90.8905
   521.0000      0.0000    742.3024      7.2855     86.5966
   521.2500      0.0000    736.6837      7.3102     83.3977
   521.5000      0.0000    731.1040      7.3138     81.8808
   521.7500      0.0000    726.8295      7.3244     81.6863
   522.0000      0.0000    722.8354      7.3355     81.5511
   522.2500      0.0000    718.4409      7.3234     80.3537
   522.5000      0.0000    714.9937      7.2898     77.9885
   522.7500      0.0000    714.3226      7.2677     75.2316
   523.0000      0.0000    716.3166      7.2808     72.9552
   523.2500      0.0000    718.6714      7.3116     71.5391
   523.5000      0.0000    719.1703      7.3207     70.8259
   523.7500      0.0000    718.3235      7.2958     70.3225
   524.0000      0.0000    719.8708      7.2691     69.4826
   524.2500      0.0000    728.5953      7.2824     68.1954
   524.5000      0.0000    746.8437      7.3381     67.2542
