~Version Information
VERS.                      2.0: CWLS Log ASCII Standard - VERSION 2.0
WRAP.                       NO: One line per depth step
~Well Information Block
STRT.FT                -2.0000: 
STOP.FT              1016.0000: 
STEP.FT                 0.2500: 
NULL.                -999.2500: 
COMP.          Evergreen Operating Corp.: COMPANY
WELL.              Sunset 24-3: WELL
FLD.           Purgatorie River: FIELD
LOC.           467' FSL & 2262' FWL--: LOCATION
PROV.                       CO: PROVINCE
CNTY.               Las Animas: COUNTRY
SRVC.                         : SERVICE COMPANY
DATE.          Mon Sep 27 13:40:22 2004: LOG DATE
UWI.           005 071 08158  : UNIQUE WELL ID
~Curve Information Block
DEPT.FT            0 000 00 00: Depth
GR.GAPI                       : Gamma Ray
CCL.                          : Casing Collar Locator
TT3.usec                      : CBL 3' Travel Time
AMP3.mV                       : CBL 3' Amplitude
~Parameter Information Block
~A  Depth        GR         CCL         TT3         AMP3    
# ...
   132.0000     72.4212      0.0000    917.4716      6.1438
   132.2500     75.8220      0.0000    912.1755      6.3343
   132.5000     81.2679      0.0000    902.9307      6.6786
   132.7500     86.7172      0.0000    890.6696      7.2675
   133.0000     90.4734      0.0000    879.1743      8.0662
   133.2500     91.6925      0.0000    873.6466      8.8604
   133.5000     90.6073      0.0000    877.1396      9.4000
   133.7500     88.5805      0.0000    887.9411      9.6009
   134.0000     87.5602      0.0000    900.7617      9.5661
   134.2500     88.8801      0.0000    910.5994      9.4417
   134.5000     92.3414      0.0000    915.3203      9.3110
   134.7500     96.3596      0.0000    915.3260      9.2036
   135.0000     98.9774      0.0000    912.3012      9.1346
   135.2500     99.0519      0.0000    908.7028      9.1143
   135.5000     96.8000      0.0000    907.1187      9.1437
   135.7500     93.3698      0.0000    908.7564      9.2095
   136.0000     89.9389      0.0000    912.5804      9.2808
   136.2500     87.1579      0.0000    916.4651      9.3196
   136.5000     85.1173      0.0000    918.9664      9.3082
   136.7500     83.5644      0.0000    919.7733      9.2664
   137.0000     82.2464      0.0000    918.9451      9.2301
   137.2500     81.2271      0.0000    916.4098      9.2107
   137.5000     80.7652      0.0000    912.4764      9.1859
   137.7500     80.8253      0.0000    908.6050      9.1297
   138.0000     81.0149      0.0000    906.9547      9.0454
   138.2500     81.1939      0.0000    908.6050      8.9626
   138.5000     81.9766      0.0000    912.4811      8.9093
   138.7500     84.3116      0.0000    916.4401      8.8896
   139.0000     88.4444      0.0000    919.0992      8.8800
   139.2500     93.5190      0.0000    920.3829      8.8485
   139.5000     98.4743      0.0000    920.8440      8.7793
   139.7500    103.0539      0.0000    920.9595      8.6774
   140.0000    107.3293      0.0000    920.9220      8.5537
   140.2500    110.5068      0.0000    920.6036      8.4119
   140.5000    111.1341      0.0000    919.3254      8.2544
   140.7500    108.5159      0.0000    915.3852      8.0959
   141.0000    103.1309      0.0000    905.9211      7.9631
   141.2500     95.8662      0.0000    888.2019      7.8752
   141.5000     87.6838      0.0000    862.3268      7.8250
   141.7500     79.8196      0.0000    832.8211      7.7817
   142.0000     73.5166      0.0000    806.4983      7.7194
   142.2500     69.3707      0.0000    788.0896      7.6471
   142.5000     67.1019      0.0000    778.1487      7.6028
   142.7500     65.9786      0.0000    774.8745      7.6122
   143.0000     65.4427      0.0000    777.2520      7.6589
   143.2500     65.3595      0.0000    786.4375      7.6995
   143.5000     65.8884      0.0000    804.2003      7.7041
   143.7500     67.2854      0.0000    829.3659      7.6748
   144.0000     69.5624      0.0000    855.4044      7.6294
   144.2500     71.9849      0.0000    872.4414      7.5754
   144.5000     73.2048      0.0000    873.0804      7.5092
   144.7500     72.3393      0.0000    857.3391      7.4327
   145.0000     69.8589      0.0000    832.5903      7.3611
   145.2500     67.2020      0.0000    808.5734      7.3099
   145.5000     65.7069      0.0000    791.6293      7.2785
   145.7500     66.0772      0.0000    782.6602      7.2513
   146.0000     68.3468      0.0000    779.3536      7.2193
   146.2500     71.7940      0.0000    779.5206      7.1973
   146.5000     75.2737      0.0000    782.9058      7.2087
   146.7500     78.1945      0.0000    790.9080      7.2502
   147.0000     80.8847      0.0000    804.3340      7.2798
   147.2500     83.7202      0.0000    820.2795      7.2444
   147.5000     86.3283      0.0000    831.6469      7.1183
   147.7500     87.8865      0.0000    831.8452      6.9206
   148.0000     87.8760      0.0000    820.6522      6.7006
   148.2500     86.3976      0.0000    804.1939      6.5122
   148.5000     84.0087      0.0000    789.1785      6.3926
   148.7500     81.3315      0.0000    778.8242      6.3509
   149.0000     78.7235      0.0000    774.3654      6.3724
   149.2500     76.4344      0.0000    777.8565      6.4341
   149.5000     74.9978      0.0000    790.9302      6.5154
   149.7500     75.0136      0.0000    810.7485      6.5949
   150.0000     76.4282      0.0000    829.6845      6.6501
   150.2500     78.4739      0.0000    841.3309      6.6739
   150.5000     80.5985      0.0000    845.9966      6.6863
   150.7500     83.1207      0.0000    848.1506      6.7162
   151.0000     86.7108      0.0000    849.9792      6.7734
   151.2500     91.5598      0.0000    850.9478      6.8497
   151.5000     97.2468      0.0000    852.4437      6.9363
   151.7500    102.8885      0.0000    857.7809      7.0265
   152.0000    107.0692      0.0000    866.8461      7.1054
   152.2500    108.2237      0.0000    874.8889      7.1573
   152.5000    105.8383      0.0000    878.0272      7.1805
   152.7500    101.3822      0.0000    877.1807      7.1842
   153.0000     97.6535      0.0000    875.7325      7.1709
   153.2500     96.7859      0.0000    875.9634      7.1395
   153.5000     98.5991      0.0000    878.1831      7.1072
   153.7500    100.9350      0.0000    880.7328      7.1139
   154.0000    101.7373      0.0000    880.3889      7.1937
   154.2500    100.7588      0.0000    874.9321      7.3446
   154.5000     99.2297      0.0000    865.3674      7.5335
   154.7500     98.3521      0.0000    854.1891      7.7269
   155.0000     98.6190      0.0000    842.1251      7.9111
   155.2500    100.0872      0.0000    828.1119      8.0886
   155.5000    102.2510      0.0000    812.1647      8.2565
   155.7500    103.5371      0.0000    796.7634      8.3909
   156.0000    101.9703      0.0000    784.9617      8.4527
   156.2500     96.9756      0.0000    777.8975      8.4157
   156.5000     90.1705      0.0000    774.5020      8.2867
   156.7500     84.1913      0.0000    772.9755      8.0991
   157.0000     81.0557      0.0000    772.0200      7.8906
   157.2500     81.4367      0.0000    771.1067      7.6838
   157.5000     84.4920      0.0000    770.1862      7.4814
   157.7500     88.0579      0.0000    769.4080      7.2801
   158.0000     89.8338      0.0000    769.0425      7.0900
   158.2500     89.0998      0.0000    769.6611      6.9365
   158.5000     87.1656      0.0000    772.3447      6.8443
   158.7500     85.9181      0.0000    778.3107      6.8201
   159.0000     86.1883      0.0000    787.4221      6.8511
   159.2500     87.6505      0.0000    796.6884      6.9168
   159.5000     89.7671      0.0000    801.3959      7.0031
   159.7500     92.3121      0.0000    799.0427      7.1117
   160.0000     95.0930      0.0000    791.7656      7.2526
   160.2500     97.4231      0.0000    784.1235      7.4261
   160.5000     97.9336      0.0000    779.1672      7.6133
   160.7500     95.0303      0.0000    777.1467      7.7839
   161.0000     88.0363      0.0000    776.8813      7.9106
   161.2500     78.3854      0.0000    777.2814      7.9819
   161.5000     69.4176      0.0000    777.9484      8.0101
   161.7500     64.3101      0.0000    779.3548      8.0309
   162.0000     63.9763      0.0000    783.1395      8.0801
   162.2500     67.0007      0.0000    792.0070      8.1634
   162.5000     71.3569      0.0000    808.0681      8.2491
   162.7500     76.0278      0.0000    829.6725      8.3000
   163.0000     81.0692      0.0000    849.9020      8.3121
   163.2500     86.5509      0.0000    860.2906      8.3163
   163.5000     92.0085      0.0000    857.5787      8.3372
   163.7500     96.9310      0.0000    846.0181      8.3601
   164.0000    101.1245      0.0000    832.1965      8.3451
   164.2500    104.2887      0.0000    819.0764      8.2685
   164.5000    105.7541      0.0000    806.3057      8.1450
   164.7500    104.9524      0.0000    794.1603      8.0171
   165.0000    101.9541      0.0000    784.4890      7.9256
   165.2500     97.6241      0.0000    778.5129      7.8827
