~Version Information
VERS.                      2.0: CWLS Log ASCII Standard - VERSION 2.0
WRAP.                       NO: One line per depth step
~Well Information Block
STRT.FT                -3.0000: 
STOP.FT              1679.2500: 
STEP.FT                 0.2500: 
NULL.                -999.2500: 
COMP.          Evergreen Operating Corp.: COMPANY
WELL.            Rimrock 14-29: WELL
FLD.           Purgatorie River: FIELD
LOC.           945' FSL & 604' FWL--: LOCATION
PROV.                       CO: PROVINCE
CNTY.               Las Animas: COUNTRY
SRVC.                         : SERVICE COMPANY
DATE.          Mon Oct 04 13:02:21 2004: LOG DATE
UWI.           05 071 08136 00: UNIQUE WELL ID
~Curve Information Block
DEPT.FT            0 000 00 00: Depth
GR.GAPI                       : Gamma Ray
CCL.                          : Casing Collar Locator
TT3.usec                      : CBL 3' Travel Time
AMP3.mV                       : CBL 3' Amplitude
~Parameter Information Block
~A  Depth        GR         CCL         TT3         AMP3    
# ...
   868.0000    150.6000      0.0000    498.8924     14.8429
   868.2500    150.4852      0.0000    513.9437     14.7416
   868.5000    148.6675      0.0000    551.8639     14.6311
   868.7500    144.9930      0.0000    596.6145     14.5267
   869.0000    140.4202      0.0000    629.9506     14.4305
   869.2500    136.1916      0.0000    640.7933     14.3247
   869.5000    132.8460      0.0000    630.6868     14.1918
   869.7500    130.4512      0.0000    613.0297     14.0440
   870.0000    129.5740      0.0000    606.3505     13.9218
   870.2500    131.4915      0.0000    622.5674     13.8574
   870.5000    137.0634      0.0000    657.3386     13.8434
   870.7500    145.3510      0.0000    692.6415     13.8413
   871.0000    153.6470      0.0000    709.6506     13.8163
   871.2500    159.1950      0.0000    699.1608     13.7554
   871.5000    161.0284      0.0000    663.3455     13.6544
   871.7500    160.3278      0.0000    613.4520     13.4977
   872.0000    159.2448      0.0000    566.3466     13.2562
   872.2500    159.3199      0.0000    537.6360     12.9073
   872.5000    160.6517      0.0000    533.2773     12.4673
   872.7500    162.3277      0.0000    547.6268     12.0052
   873.0000    163.6520      0.0000    570.6973     11.6005
   873.2500    164.9337      0.0000    596.6003     11.2682
   873.5000    166.8732      0.0000    624.5408     10.9565
   873.7500    169.0578      0.0000    653.5682     10.6368
   874.0000    169.3116      0.0000    678.7458     10.3547
   874.2500    164.9397      0.0000    693.2591     10.1660
   874.5000    154.9758      0.0000    693.8956     10.0671
   874.7500    141.5467      0.0000    683.6556     10.0152
   875.0000    129.0868      2.0000    668.0156      9.9876
   875.2500    121.8111      2.0000    648.9783     10.0121
   875.5000    121.4150      0.0000    625.6292     10.1476
   875.7500    126.6219      0.0000    601.8776     10.4037
   876.0000    134.3813      0.0000    588.9216     10.6630
   876.2500    141.4332      0.0000    595.5106     10.7515
   876.5000    145.5372      0.0000    618.4426     10.6439
   876.7500    146.2655      0.0000    646.9855     10.5221
   877.0000    144.8613      0.0000    673.7933     10.5634
   877.2500    142.9586      0.0000    696.2087     10.7506
   877.5000    141.3600      0.0000    708.9500     10.9458
   877.7500    140.0746      0.0000    701.7104     11.0734
   878.0000    138.9153      0.0000    665.7759     11.1684
   878.2500    137.5385      0.0000    602.4528     11.2924
   878.5000    135.2889      0.0000    525.5170     11.4567
   878.7500    131.6530      0.0000    454.8575     11.6227
   879.0000    127.0115      0.0000    405.6874     11.7477
   879.2500    122.7250      0.0000    382.1504     11.8196
   879.5000    120.1426      0.0000    379.0692     11.8512
   879.7500    119.4066      0.0000    387.1949     11.8548
   880.0000    119.3373      0.0000    396.9141     11.8315
   880.2500    118.3779      0.0000    400.6326     11.7812
   880.5000    115.6534      0.0000    395.1554     11.7210
   880.7500    111.6843      0.0000    382.6114     11.6846
   881.0000    108.5500      0.0000    368.2157     11.7004
   881.2500    108.9718      0.0000    356.5143     11.7689
   881.5000    114.4189      0.0000    349.2307     11.8633
   881.7500    123.7882      0.0000    345.6874     11.9468
   882.0000    134.0784      0.0000    344.3716     11.9936
   882.2500    142.3314      0.0000    344.0718     11.9989
   882.5000    146.8173      0.0000    344.1518     11.9757
   882.7500    146.9497      0.0000    344.3522     11.9412
   883.0000    143.2014      0.0000    344.5382     11.9060
   883.2500    137.5222      0.0000    344.6064     11.8733
   883.5000    132.9379      0.0000    344.4987     11.8467
   883.7500    131.4966      0.0000    344.2433     11.8332
   884.0000    132.2817      0.0000    343.9481     11.8373
   884.2500    131.9525      0.0000    343.7991     11.8532
   884.5000    127.6896      0.0000    344.1915     11.8654
   884.7500    119.6306      0.0000    346.0583     11.8572
   885.0000    110.4858      0.0000    351.2273     11.8190
   885.2500    103.1540      0.0000    362.1749     11.7501
   885.5000     98.8453      0.0000    380.5194     11.6569
   885.7500     97.0337      0.0000    404.9211     11.5535
   886.0000     96.6683      0.0000    430.6804     11.4573
   886.2500     97.1926      0.0000    452.4760     11.3770
   886.5000     98.3367      0.0000    468.1941     11.3046
   886.7500     99.1563      0.0000    480.5384     11.2257
   887.0000     97.9657      0.0000    495.3525     11.1375
   887.2500     93.6712      0.0000    518.0316     11.0557
   887.5000     86.9866      0.0000    550.0065     11.0037
   887.7500     80.3487      0.0000    587.5609     10.9914
   888.0000     76.8068      0.0000    623.4794     11.0033
   888.2500     78.3600      0.0000    650.1305     11.0088
   888.5000     84.6150      0.0000    663.6013     10.9864
   888.7500     93.2736      0.0000    667.9264     10.9332
   889.0000    102.4445      0.0000    673.5990     10.8585
   889.2500    112.1247      0.0000    688.0470     10.7781
   889.5000    123.0381      0.0000    708.3483     10.7144
   889.7500    134.7296      0.0000    725.5756     10.6899
   890.0000    145.4740      0.0000    734.1229     10.7138
   890.2500    153.6600      0.0000    734.7297     10.7750
   890.5000    158.9073      0.0000    730.9247     10.8487
   890.7500    162.0641      0.0000    725.2271     10.9069
   891.0000    164.2478      0.0000    717.7024     10.9249
   891.2500    165.8639      0.0000    706.7582     10.8890
   891.5000    166.6580      0.0000    692.0765     10.8055
   891.7500    166.5313      0.0000    677.7607     10.6990
   892.0000    165.7278      0.0000    671.2551     10.5929
   892.2500    164.3172      0.0000    677.4547     10.4942
   892.5000    162.4377      0.0000    694.1868     10.3988
   892.7500    161.3238      0.0000    714.1227     10.3073
   893.0000    163.0670      0.0000    730.0469     10.2289
   893.2500    168.4666      0.0000    738.1534     10.1717
   893.5000    175.5264      0.0000    738.4569     10.1335
   893.7500    180.7807      0.0000    733.7351     10.0971
   894.0000    181.9900      0.0000    727.6549     10.0341
   894.2500    179.3608      0.0000    722.8287      9.9206
   894.5000    174.7684      0.0000    720.0033      9.7545
   894.7500    170.3518      0.0000    718.6751      9.5541
   895.0000    167.4908      0.0000    718.1254      9.3412
   895.2500    166.5027      0.0000    718.0800      9.1262
   895.5000    167.0827      0.0000    718.8877      8.9073
   895.7500    168.8486      0.0000    721.4150      8.6805
   896.0000    171.2499      0.0000    726.5419      8.4486
   896.2500    173.1330      0.0000    734.2558      8.2195
   896.5000    172.8994      0.0000    743.0840      7.9947
   896.7500    169.5162      0.0000    750.7024      7.7678
   897.0000    163.3544      0.0000    755.2950      7.5341
   897.2500    155.7162      0.0000    756.4076      7.3009
   897.5000    147.4679      0.0000    754.9272      7.0880
   897.7500    138.3656      0.0000    752.6582      6.9242
   898.0000    127.6426      0.0000    751.5347      6.8422
   898.2500    115.0748      0.0000    752.4883      6.8650
   898.5000    101.6885      0.0000    754.9299      6.9862
   898.7500     89.6628      0.0000    757.5167      7.1672
   899.0000     81.3051      0.0000    759.2054      7.3607
   899.2500     77.8536      0.0000    759.2777      7.5407
   899.5000     79.1596      0.0000    756.5133      7.7063
   899.7500     84.2844      0.0000    748.6008      7.8582
   900.0000     92.2361      0.0000    732.6363      7.9813
   900.2500    102.1217      0.0000    706.2671      8.0617
   900.5000    112.5108      0.0000    668.2028      8.1165
   900.7500    120.9757      0.0000    618.2885      8.1947
   901.0000    125.2198      0.0000    559.1295      8.3419
   901.2500    125.1118      0.0000    498.3303      8.5648
