~Version Information
VERS.                      2.0: CWLS Log ASCII Standard - VERSION 2.0
WRAP.                       NO: One line per depth step
~Well Information Block
STRT.FT               423.0000: 
STOP.FT              2306.0000: 
STEP.FT                 0.1000: 
NULL.                -999.2500: 
COMP.          Pioneer Natural Resources: COMPANY
WELL.             Culver 14-12: WELL
FLD.           Purgatoire River: FIELD
LOC.           913' FSL & 1140' FWL: LOCATION
PROV.                 Colorado: PROVINCE
CNTY.               Las Animas: COUNTRY
SRVC.                Patterson: SERVICE COMPANY
DATE.          Tue Jun 07 09:21:05 2005: LOG DATE
UWI.           05 071 08386 00: UNIQUE WELL ID
~Curve Information Block
DEPT.FT            0 000 00 00: Depth
DCAL.in                       : CDL Caliper
RHOB.g/cc                     : CDL Bulk Density
RHOC.g/cc                     : CDL Density Correction
DPOR.pu                       : CDL Density Porosity
GR.GAPI                       : Gamma Ray
NPOR.pu                       : Neutron Porosity
~Parameter Information Block
~A  Depth       DCAL        RHOB        RHOC        DPOR         GR         NPOR    
# ...
  1047.0000      8.1701      2.4063      0.0396     14.7690    138.8722     22.1943
  1047.1000      8.1701      2.3858      0.0198     16.0144    142.8696     22.9776
  1047.2000      8.1701      2.4018      0.0878     15.0420    144.7581     23.6378
  1047.3000      8.1721      2.4558      0.1403     11.7673    147.5590     24.3631
  1047.4000      8.1721      2.5221      0.2705      7.7491    150.5936     24.9866
  1047.5000      8.1785      2.5705      0.3221      4.8199    150.0389     25.3049
  1047.6000      8.1785      2.5929      0.2899      3.4583    144.2331     25.7425
  1047.7000      8.1785      2.6019      0.2973      2.9126    135.3862     26.3595
  1047.8000      8.1856      2.6044      0.2595      2.7650    131.5649     26.8324
  1047.9000      8.1856      2.5963      0.2491      3.2558    139.1621     27.2922
  1048.0000      8.2274      2.5806      0.0946      4.2038    149.8468     27.7416
  1048.1000      8.2274      2.5716      0.0914      4.7505    152.5755     27.9268
  1048.2000      8.2274      2.5713      0.0844      4.7681    148.9967     27.8424
  1048.3000      8.1933      2.5725      0.0727      4.6999    147.3123     27.6965
  1048.4000      8.1933      2.5814      0.0023      4.1562    149.6804     27.7103
  1048.5000      8.1685      2.6077      0.0487      2.5645    150.8858     27.8314
  1048.6000      8.1685      2.6409      0.0709      0.5511    149.8868     27.7281
  1048.7000      8.1685      2.6525      0.0992     -0.1505    149.8788     27.3950
  1048.8000      8.1536      2.6301      0.0683      1.2060    150.0366     27.0887
  1048.9000      8.1536      2.6074      0.0398      2.5799    145.4978     26.7162
  1049.0000      8.1651      2.6163      0.0694      2.0454    138.8442     26.1391
  1049.1000      8.1651      2.6375      0.0944      0.7559    137.5724     25.6067
  1049.2000      8.1651      2.6456      0.0444      0.2651    141.3749     25.4348
  1049.3000      8.1731      2.6439      0.0573      0.3693    143.5658     25.7118
  1049.4000      8.1731      2.6360      0.0801      0.8480    137.8376     26.0381
  1049.5000      8.1600      2.6267      0.0048      1.4092    126.5310     26.0684
  1049.6000      8.1600      2.6272      0.0339      1.3840    120.2540     26.1249
  1049.7000      8.1600      2.6351      0.0614      0.9059    121.1105     26.2979
  1049.8000      8.1623      2.6415      0.0705      0.5165    121.1362     26.3967
  1049.9000      8.1623      2.6434      0.0788      0.3980    117.6232     26.5522
  1050.0000      8.1567      2.6438      0.0569      0.3757    116.7572     26.7567
  1050.1000      8.1567      2.6440      0.0770      0.3653    122.4801     26.7400
  1050.2000      8.1567      2.6301      0.0742      1.2089    127.9140     26.4002
  1050.3000      8.1512      2.5997      0.0233      3.0491    126.8101     25.9565
  1050.4000      8.1512      2.5788      0.0043      4.3128    122.7005     25.6192
  1050.5000      8.1531      2.5941      0.0227      3.3858    119.4144     25.3695
  1050.6000      8.1531      2.6405      0.0700      0.5742    120.5511     25.2674
  1050.7000      8.1531      2.6783      0.0565     -1.7153    127.4331     25.2440
  1050.8000      8.1491      2.6845      0.1001     -2.0916    134.4159     25.1274
  1050.9000      8.1491      2.6768      0.1044     -1.6220    138.3778     25.0364
  1051.0000      8.1528      2.6695      0.1435     -1.1833    141.6269     24.9735
  1051.1000      8.1528      2.6595      0.0289     -0.5739    141.4661     24.7941
  1051.2000      8.1528      2.6415      0.0907      0.5136    135.9592     24.6222
  1051.3000      8.1485      2.6204      0.0213      1.7943    130.2195     24.5212
  1051.4000      8.1485      2.6152      0.0193      2.1108    125.6705     24.5116
  1051.5000      8.1525      2.6315      0.0253      1.1237    120.7524     24.6836
  1051.6000      8.1525      2.6560      0.0689     -0.3633    117.9897     24.9060
  1051.7000      8.1525      2.6734      0.0625     -1.4179    118.4848     24.9691
  1051.8000      8.1541      2.6709      0.1029     -1.2684    118.3010     24.8805
  1051.9000      8.1541      2.6463      0.0686      0.2247    115.6396     24.9120
  1052.0000      8.1536      2.6198      0.0363      1.8307    114.4629     25.0606
  1052.1000      8.1536      2.6127      0.0792      2.2593    117.2061     24.9958
  1052.2000      8.1536      2.6206      0.0694      1.7800    119.5934     24.6065
  1052.3000      8.1479      2.6227      0.0337      1.6520    119.2993     24.2763
  1052.4000      8.1479      2.6150      0.0401      2.1231    121.0532     24.4573
  1052.5000      8.1406      2.6134      0.0594      2.2156    127.2458     25.0214
  1052.6000      8.1406      2.6162      0.0455      2.0469    132.4799     25.2871
  1052.7000      8.1406      2.6056      0.0314      2.6935    133.5589     25.1029
  1052.8000      8.1469      2.5886      0.0273      3.7242    134.4955     25.0938
  1052.9000      8.1469      2.5862      0.0364      3.8693    135.5571     25.3572
  1053.0000      8.1568      2.6033      0.0039      2.8273    131.7345     25.1817
  1053.1000      8.1568      2.6281      0.0892      1.3302    123.4169     24.5218
  1053.2000      8.1568      2.6433      0.0602      0.4035    116.7393     24.2372
  1053.3000      8.1571      2.6478      0.0611      0.1315    113.3052     24.4526
  1053.4000      8.1571      2.6454      0.0645      0.2795    108.6822     24.5645
  1053.5000      8.1666      2.6312      0.0321      1.1393    102.8164     24.5822
  1053.6000      8.1666      2.6093      0.0220      2.4644    101.9211     24.6176
  1053.7000      8.1666      2.5946      0.0425      3.3568    109.7500     24.4231
  1053.8000      8.1652      2.5904      0.0666      3.6111    119.0050     24.1610
  1053.9000      8.1652      2.5927     -0.0094      3.4727    120.8612     24.1135
  1054.0000      8.1711      2.6065      0.0045      2.6386    119.2191     24.3487
  1054.1000      8.1711      2.6319     -0.0077      1.0956    120.3279     24.5455
  1054.2000      8.1711      2.6480      0.0872      0.1236    121.7339     24.4795
  1054.3000      8.1677      2.6339      0.0053      0.9760    119.5076     24.5628
  1054.4000      8.1677      2.6049      0.0233      2.7324    113.4492     24.7427
  1054.5000      8.1740      2.5865     -0.0043      3.8466    104.9960     24.6596
  1054.6000      8.1740      2.5776      0.0448      4.3857     99.2841     24.4935
  1054.7000      8.1740      2.5738     -0.0240      4.6180    100.5972     24.4988
  1054.8000      8.1825      2.5923     -0.0314      3.4958    104.1574     24.4326
  1054.9000      8.1825      2.6394      0.0193      0.6449    103.6354     23.9864
  1055.0000      8.1914      2.6886      0.0523     -2.3417    100.7265     23.4550
  1055.1000      8.1914      2.7104      0.0893     -3.6591    100.2451     23.2496
  1055.2000      8.1914      2.6906      0.1094     -2.4596    101.8761     23.1626
  1055.3000      8.1900      2.6473      0.0205      0.1643    102.1901     22.9523
  1055.4000      8.1900      2.6145      0.1094      2.1541    101.9050     22.8205
  1055.5000      8.1958      2.6022      0.0188      2.8952    105.5255     22.7487
  1055.6000      8.1958      2.6052      0.0562      2.7157    112.2065     22.4952
  1055.7000      8.1958      2.6084      0.0411      2.5190    116.7967     22.1574
  1055.8000      8.2063      2.6011      0.0436      2.9650    117.6386     21.8675
  1055.9000      8.2063      2.5896     -0.0047      3.6585    115.6048     21.6669
  1056.0000      8.2184      2.5737      0.0533      4.6225    112.1755     21.4767
  1056.1000      8.2184      2.5343      0.0180      7.0127    110.1925     20.9242
  1056.2000      8.2184      2.4685     -0.0609     10.9981    110.9973     20.1490
  1056.3000      8.2323      2.3918      0.0053     15.6499    113.1122     19.6165
  1056.4000      8.2323      2.3093     -0.0240     20.6472    114.1037     19.2769
  1056.5000      8.2367      2.2268     -0.0958     25.6494    114.0558     18.9163
