~Version Information
 VERS.                                  2.0 : CWLS LAS VERSION
 WRAP.                                   NO : WRAPING MODE
 SWARE .                 MController 2.5.0J : SOFTWARE VERSION
~Well Information
 WELL.                       Montoya 12-41R : WELL
 COMP.                       Petrogulf Corp : COMPANY
 FLD.                      Purgatorie River : FIELD
 LOC.                NW/NW Sec 12 T33S R68W : LOCATION
 DATE.                             11/17/04 : DATE(S) LOGGED
 SRVC.       Blanco Geological Services LLC : SERVICE COMPANY
 STAT.                                   CO : STATE
 CNTY.                           Las Animas : COUNTY
 CTRY.                                  USA : COUNTRY
 API.                       05-071-08241-00 : API NUMBER
 STRT.FT                             536.00 : START DEPTH
 STOP.FT                            1530.00 : STOP DEPTH
 STEP.FT                               1.00 : DEPTH INCREMENT
 NULL.                                -9999 : NULL VALUE
~Curve information
 DEPTH.FT                                   :
 ROP.MIN/FT                                 :
 GAS.UNITS                                  :
~ASCII Log data
# ...
      1336.0         0.17          3.3 
      1337.0         0.13          3.2 
      1338.0         0.13          3.6 
      1339.0         0.17          4.2 
      1340.0         0.13          4.2 
      1341.0         0.17          4.3 
      1342.0         0.13          3.8 
      1343.0         0.13          3.4 
      1344.0         0.27          4.0 
      1345.0         0.30          5.2 
      1346.0         0.33          6.6 
      1347.0         0.30          7.4 
      1348.0         0.40          9.1 
      1349.0         0.33          9.1 
      1350.0         0.43         11.7 
      1351.0         0.27         12.1 
      1352.0         0.23         10.7 
      1353.0         0.27          8.9 
      1354.0         0.20          7.9 
      1355.0         0.28          7.2 
      1356.0         0.27          5.2 
      1357.0         0.17          5.2 
      1358.0         0.27          5.6 
      1359.0         0.37          4.1 
      1360.0         0.33          4.5 
      1361.0         0.37          4.9 
      1362.0         0.30          5.1 
      1363.0         0.33          3.8 
      1364.0         0.33          3.8 
      1365.0         0.13          4.0 
      1366.0         0.13          3.6 
      1367.0         0.17          3.7 
      1368.0         0.18          3.5 
      1369.0         0.17          3.9 
      1370.0         0.23          4.8 
      1371.0         0.30          4.2 
      1372.0         0.33          3.7 
      1373.0         0.40          4.0 
      1374.0         0.33          3.9 
      1375.0         0.33          4.8 
      1376.0         0.33          4.1 
      1377.0         0.43          7.1 
      1378.0         0.47          9.8 
      1379.0         0.50         10.2 
      1380.0         0.57          8.9 
      1381.0         0.48          6.6 
      1382.0         0.47          5.3 
      1383.0         0.53          5.6 
      1384.0         0.60          3.8 
      1385.0         0.43          3.6 
      1386.0         0.40          3.8 
      1387.0         0.43          4.3 
      1388.0         0.38          4.0 
      1389.0         0.33          3.8 
      1390.0         0.37          3.7 
      1391.0         0.30          3.8 
      1392.0         0.27          4.3 
      1393.0         0.27          5.0 
      1394.0         0.27          4.1 
      1395.0         0.27          3.8 
      1396.0         0.23          4.2 
      1397.0         0.20          3.8 
      1398.0         0.17          3.0 
      1399.0         0.20          3.4 
      1400.0         0.20          4.0 
      1401.0         0.20          4.3 
      1402.0         0.28          4.4 
      1403.0         0.30          4.4 
      1404.0         0.27          5.9 
      1405.0         0.20          6.4 
      1406.0         0.20         14.2 
      1407.0         0.27         13.6 
      1408.0         0.27         13.3 
      1409.0         0.33         11.8 
      1410.0         0.27          9.7 
      1411.0         0.20          8.8 
      1412.0         0.17          7.3 
      1413.0         0.32          5.5 
      1414.0         0.37          4.8 
      1415.0         0.37          5.0 
      1416.0         0.27          5.4 
      1417.0         0.20          5.5 
      1418.0         0.23          5.7 
      1419.0         0.23          5.9 
      1420.0         0.20          5.3 
      1421.0         0.23          5.2 
      1422.0         0.20          4.9 
      1423.0         0.13          4.9 
      1424.0         0.13          4.6 
      1425.0         0.23          5.0 
      1426.0         0.23          4.7 
      1427.0         0.25          4.9 
      1428.0         0.27          4.9 
      1429.0         0.17          4.3 
      1430.0         0.20          5.5 
      1431.0         0.17          6.0 
      1432.0         0.13          5.5 
      1433.0         0.17          5.9 
      1434.0         0.27          5.5 
      1435.0         0.27          5.6 
      1436.0         0.20         12.8 
      1437.0         0.40         10.7 
      1438.0         0.37         10.9 
      1439.0         0.37          9.8 
      1440.0         0.33          6.1 
      1441.0         0.32          4.2 
      1442.0         0.27          4.2 
      1443.0         0.23          4.7 
      1444.0         0.23          5.0 
      1445.0         0.30          4.9 
      1446.0         0.27          6.1 
      1447.0         0.30          6.0 
      1448.0         0.20          5.0 
      1449.0         0.13          4.2 
      1450.0         0.17          4.1 
      1451.0         0.30          4.5 
      1452.0         0.33          3.6 
      1453.0         0.27          3.8 
      1454.0         0.28          4.4 
      1455.0         0.27          5.2 
      1456.0         0.23          5.4 
      1457.0         0.23          5.4 
      1458.0         0.17          5.8 
      1459.0         0.23          5.1 
      1460.0         0.33          5.0 
      1461.0         0.33          4.7 
      1462.0         0.27          4.7 
      1463.0         0.27          4.5 
      1464.0         0.27          5.2 
      1465.0         0.27          6.0 
      1466.0         0.17         13.2 
      1467.0         0.40         15.7 
      1468.0         0.53         13.5 
      1469.0         0.48         10.9 
      1470.0         0.33          9.2 
      1471.0         0.57          6.0 
      1472.0         0.30          4.8 
      1473.0         0.27          4.5 
      1474.0         0.23          4.6 
      1475.0         0.27          4.9 
      1476.0         0.27          4.8 
      1477.0         0.33          5.6 
      1478.0         0.30          4.1 
      1479.0         0.32          3.8 
      1480.0         0.23          4.1 
      1481.0         0.23          4.6 
      1482.0         0.27          4.6 
      1483.0         0.17          4.9 
      1484.0         0.23          4.9 
      1485.0         0.27          5.3 
      1486.0         0.27          5.5 
      1487.0         0.23          5.5 
      1488.0         0.23          5.0 
      1489.0         0.27          4.8 
      1490.0         0.30          4.0 
      1491.0         0.27          4.8 
      1492.0         0.25          5.5 
      1493.0         0.27          5.3 
      1494.0         0.20          5.2 
      1495.0         0.20          5.3 
      1496.0         0.27         11.6 
      1497.0         0.53         18.2 
      1498.0         0.43         16.1 
      1499.0         0.47         13.5 
      1500.0         0.50          8.8 
      1501.0         0.37          5.7 
      1502.0         0.45          5.0 
      1503.0         0.40          4.2 
      1504.0         0.37          5.2 
      1505.0         0.23          5.5 
      1506.0         0.27          4.2 
      1507.0         0.20          4.0 
      1508.0         0.27          5.3 
      1509.0         0.27          4.6 
      1510.0         0.30          3.7 
      1511.0         0.33          4.6 
      1512.0         0.33          4.3 
      1513.0         0.42          5.9 
      1514.0         0.33          5.0 
      1515.0         0.30          3.9 
      1516.0         0.30          3.8 
      1517.0         0.67          5.3 
      1518.0         0.60          5.0 
      1519.0         0.80          6.3 
      1520.0         0.92         14.4 
      1521.0         0.70         10.7 
      1522.0         0.70          9.6 
      1523.0         0.70         10.7 
      1524.0         0.78         11.6 
      1525.0         0.67         11.1 
      1526.0         0.53         12.0 
      1527.0         0.63         12.7 
      1528.0         0.83         13.2 
      1529.0         0.85          9.2 
      1530.0         0.97         15.8 
