~Version Information
VERS.                      2.0: CWLS Log ASCII Standard - VERSION 2.0
WRAP.                       NO: One line per depth step
~Well Information Block
STRT.FT               259.0000: 
STOP.FT              2379.0000: 
STEP.FT                 0.2500: 
NULL.                -999.2500: 
COMP.          Pioneer Natural Resources: COMPANY
WELL.          Foothills 12-36: WELL
FLD.           Purgatoire River: FIELD
LOC.           2450' FNL & 201' FWL: LOCATION
PROV.                 Colorado: PROVINCE
CNTY.               Las Animas: COUNTRY
SRVC.                Patterson: SERVICE COMPANY
DATE.          Thu Apr 21 09:19:57 2005: LOG DATE
UWI.           05 071 08339 00: UNIQUE WELL ID
~Curve Information Block
DEPT.FT            0 000 00 00: Depth
DCAL.in                       : CDL Caliper
RHOB.g/cc                     : CDL Bulk Density
RHOC.g/cc                     : CDL Density Correction
DPOR.pu                       : CDL Density Porosity
GR.GAPI                       : Gamma Ray
NPOR.pu                       : Neutron Porosity
~Parameter Information Block
~A  Depth       DCAL        RHOB        RHOC        DPOR         GR         NPOR    
# ...
  1507.0000      7.7551      2.5836      0.0329      4.0273     90.5096     25.0168
  1507.2500      7.7959      2.5627      0.0487      5.2924     79.5862     24.6961
  1507.5000      7.8325      2.5324     -0.0079      7.1290     90.0630     23.6527
  1507.7500      7.8466      2.5454     -0.0000      6.3409     91.0133     22.7720
  1508.0000      7.8484      2.5261     -0.0034      7.5108     82.8651     24.2066
  1508.2500      7.8196      2.5471     -0.0040      6.2383     72.9579     25.7429
  1508.5000      7.7621      2.6073      0.0879      2.5857     64.5052     24.4903
  1508.7500      7.7204      2.6025      0.1111      2.8783     71.7135     24.5547
  1509.0000      7.7131      2.5360      0.0416      6.9065     74.7150     23.6307
  1509.2500      7.7245      2.5693      0.0881      4.8911     87.1125     23.3375
  1509.5000      7.7298      2.5644     -0.0263      5.1893     87.1785     21.5776
  1509.7500      7.7235      2.5792      0.0949      4.2909     90.0249     23.6442
  1510.0000      7.7238      2.5624      0.0563      5.3096    104.4862     25.0734
  1510.2500      7.7343      2.5122      0.0049      8.3521    117.9230     24.9520
  1510.5000      7.7387      2.4668      0.0186     11.1021    110.1674     28.3440
  1510.7500      7.7345      2.5311      0.0376      7.2058    108.1657     29.6011
  1511.0000      7.7305      2.6970      0.2068     -2.8467     86.8568     26.8073
  1511.2500      7.7310      2.7817      0.2773     -7.9828     90.7961     25.7887
  1511.5000      7.7375      2.6863      0.0607     -2.1990     82.8279     25.9404
  1511.7500      7.7519      2.6310      0.0382      1.1523     73.5518     24.2491
  1512.0000      7.7745      2.5724      0.0018      4.7059     79.7581     24.1255
  1512.2500      7.8017      2.5803      0.0179      4.2268     76.5635     23.3411
  1512.5000      7.8277      2.5563      0.0309      5.6812     82.1238     20.8158
  1512.7500      7.8425      2.5501      0.0229      6.0516     78.4109     21.9396
  1513.0000      7.8423      2.4956     -0.0720      9.3557     89.7797     23.0427
  1513.2500      7.8340      2.4921     -0.0074      9.5688     81.0648     23.2766
  1513.5000      7.8126      2.4767     -0.0198     10.5000     80.2399     24.9641
  1513.7500      7.7758      2.5120      0.0235      8.3635     89.8202     25.0822
  1514.0000      7.7463      2.5002      0.0583      9.0758    114.7133     25.4255
  1514.2500      7.7382      2.4958      0.0553      9.3436    120.2269     24.9316
  1514.5000      7.7407      2.4775     -0.0142     10.4519    132.9353     26.1861
  1514.7500      7.7407      2.5407      0.0951      6.6215    129.8460     26.5707
  1515.0000      7.7394      2.6001      0.0942      3.0242    116.9954     26.1104
  1515.2500      7.7407      2.5880      0.1033      3.7573    116.9997     27.1915
  1515.5000      7.7469      2.5745      0.0777      4.5770    103.2606     29.4232
  1515.7500      7.7579      2.5827      0.0357      4.0779     90.6772     29.1238
  1516.0000      7.7636      2.6018      0.0632      2.9220     76.0793     25.4349
  1516.2500      7.7609      2.6610      0.0869     -0.6676     75.0926     26.4821
  1516.5000      7.7458      2.6146      0.0278      2.1455     89.0495     25.3573
  1516.7500      7.7187      2.5873      0.0445      3.8018     98.1290     25.7659
  1517.0000      7.7037      2.5689      0.1050      4.9151     95.6429     22.8267
  1517.2500      7.7147      2.5417      0.0602      6.5663    100.3003     22.6992
  1517.5000      7.7424      2.4904     -0.0264      9.6720    113.1511     23.4607
  1517.7500      7.7572      2.5153      0.0860      8.1634    122.4972     26.0513
  1518.0000      7.7550      2.4865      0.0555      9.9088     99.0688     23.7636
  1518.2500      7.7474      2.5256      0.0586      7.5378     91.5653     23.3824
  1518.5000      7.7358      2.6008      0.1332      2.9848     85.3140     27.0646
  1518.7500      7.7328      2.6332      0.1735      1.0177     79.2193     24.7026
  1519.0000      7.7593      2.5971      0.0400      3.2066     76.9486     25.0289
  1519.2500      7.7971      2.5839      0.0366      4.0058     69.2765     24.3695
  1519.5000      7.7939      2.5792      0.0833      4.2903     83.7426     25.5721
  1519.7500      7.7542      2.5391      0.0610      6.7196     81.4570     26.5357
  1520.0000      7.7315      2.5200     -0.0012      7.8800     90.0567     24.9637
  1520.2500      7.7314      2.5231      0.0457      7.6906     94.3376     23.0565
  1520.5000      7.7337      2.5978      0.0826      3.1615     90.1718     22.8410
  1520.7500      7.7243      2.6009      0.1324      2.9765     90.8065     24.1275
  1521.0000      7.7094      2.5926      0.1563      3.4795     77.9729     24.4544
  1521.2500      7.7102      2.5446      0.0555      6.3870     83.2901     25.5915
  1521.5000      7.7264      2.5390      0.0566      6.7279     88.4206     24.4677
  1521.7500      7.7362      2.5608      0.0491      5.4064     93.8082     24.2672
  1522.0000      7.7324      2.5492      0.0530      6.1104     86.7427     24.2270
  1522.2500      7.7287      2.5483      0.0426      6.1614     74.5174     25.1386
  1522.5000      7.7367      2.5627      0.0127      5.2927     75.3009     22.5768
  1522.7500      7.7458      2.6029      0.1025      2.8545     69.9027     21.2415
  1523.0000      7.7387      2.6250      0.1043      1.5126     64.2154     23.4546
  1523.2500      7.7339      2.5979      0.1379      3.1556     66.3726     23.3711
  1523.5000      7.7387      2.5280     -0.0129      7.3940     62.5686     23.3009
  1523.7500      7.7372      2.5491      0.0501      6.1175     61.3247     23.1688
  1524.0000      7.7265      2.5897      0.0988      3.6546     74.2017     22.9320
  1524.2500      7.7148      2.5957      0.0835      3.2935     82.5136     22.3385
  1524.5000      7.7140      2.5534      0.0949      5.8569     93.8786     23.8753
  1524.7500      7.7218      2.4762      0.0203     10.5306     99.5510     22.0598
  1525.0000      7.7249      2.4674      0.0309     11.0689     96.7752     21.5865
  1525.2500      7.7242      2.5043      0.0543      8.8289    108.2566     24.7442
  1525.5000      7.7297      2.5388      0.0995      6.7387    120.6085     28.8854
  1525.7500      7.7474      2.5262      0.1176      7.5046    130.9960     29.2973
  1526.0000      7.7812      2.4574      0.0849     11.6755    131.6631     26.8363
  1526.2500      7.8240      2.4172      0.0362     14.1104    130.4481     28.6978
  1526.5000      7.8516      2.4729      0.1380     10.7362    128.3213     28.8128
  1526.7500      7.8621      2.4856      0.1176      9.9643    118.8644     28.6415
  1527.0000      7.8625      2.5352      0.1551      6.9563     98.3684     30.5682
  1527.2500      7.8497      2.6139      0.1688      2.1901     86.4083     29.7143
  1527.5000      7.8309      2.6569      0.1557     -0.4194     76.3029     26.5734
  1527.7500      7.8175      2.6166      0.1555      2.0255     71.0450     27.0848
  1528.0000      7.8300      2.5714      0.0657      4.7626     61.3502     25.0809
  1528.2500      7.8454      2.5437      0.0064      6.4417     48.5471     24.1243
  1528.5000      7.8297      2.5206      0.0192      7.8401     54.8845     21.7148
  1528.7500      7.8089      2.4916     -0.0166      9.6022     58.7594     20.3576
  1529.0000      7.8037      2.4930      0.0120      9.5150     69.2439     18.7059
  1529.2500      7.8065      2.4707     -0.0025     10.8694     73.4968     20.0604
  1529.5000      7.8047      2.4686      0.0433     10.9931     68.9780     23.7262
  1529.7500      7.7955      2.4895      0.0508      9.7287     72.8757     23.2331
  1530.0000      7.7815      2.4841      0.0464     10.0551     62.4608     21.6419
  1530.2500      7.7571      2.4298     -0.0160     13.3427     60.0867     22.0587
  1530.5000      7.7309      2.4698      0.0456     10.9209     71.8575     22.4169
  1530.7500      7.7232      2.5304      0.1079      7.2512     70.7678     21.4832
