~Version Information
 VERS.                                  2.0 : CWLS LAS VERSION
 WRAP.                                   NO : WRAPING MODE
 SWARE .                 MController 2.5.0N : SOFTWARE VERSION
~Well Information
 WELL.                                  N/A : WELL
 COMP.                                  N/A : COMPANY
 FLD.                                   N/A : FIELD
 LOC.                                   N/A : LOCATION
 DATE.                                  N/A : DATE(S) LOGGED
 SRVC.                                  N/A : SERVICE COMPANY
 STAT.                                  N/A : STATE
 CNTY.                                  N/A : COUNTY
 CTRY.                                  N/A : COUNTRY
 API.                                   N/A : API NUMBER
 STRT.FT                             445.00 : START DEPTH
 STOP.FT                            1905.00 : STOP DEPTH
 STEP.FT                               1.00 : DEPTH INCREMENT
 NULL.                                -9999 : NULL VALUE
~Curve information
 DEPTH.FT                                   :
 ROP.MIN/FT                                 :
 GAS.UNITS                                  :
~ASCII Log data
       445.0     -9999.00        -16.1 
       446.0         0.23        -15.8 
       447.0         0.23        -15.9 
       448.0         0.35        -16.1 
       449.0         0.23        -15.9 
       450.0         0.10        -15.9 
       451.0         0.20        -15.7 
       452.0         0.17        -15.7 
       453.0         0.17        -15.7 
       454.0         0.27        -15.7 
       455.0         0.27        -15.9 
       456.0         0.23        -16.0 
       457.0         0.20        -16.1 
       458.0         0.13        -16.4 
       459.0         0.17        -16.8 
       460.0         0.17        -15.9 
       461.0         0.17        -16.3 
       462.0         0.17        -16.3 
       463.0         0.20        -15.6 
       464.0         0.17        -15.8 
       465.0         0.17        -15.8 
       466.0         0.18        -15.2 
       467.0         0.17        -15.5 
       468.0         0.17        -15.4 
       469.0         0.17        -15.3 
       470.0         0.17        -15.3 
       471.0         0.20          2.3 
       472.0         0.17         10.2 
       473.0         0.17         -5.5 
       474.0         0.17        -16.7 
       475.0         0.10        -16.7 
       476.0         2.82        -16.3 
       477.0         0.33        -15.4 
       478.0         0.27        -15.6 
       479.0         0.20        -16.2 
       480.0         0.20        -16.6 
       481.0         0.20        -16.3 
       482.0         0.17        -16.3 
       483.0         0.23        -16.5 
       484.0         0.20        -16.7 
       485.0         0.23        -16.3 
       486.0         0.20        -15.6 
       487.0         0.25        -15.4 
       488.0         0.20        -15.9 
       489.0         0.17        -16.3 
       490.0         0.20        -16.3 
       491.0         0.23        -16.0 
       492.0         0.17        -16.5 
       493.0         0.20        -16.5 
       494.0         0.20        -15.9 
       495.0         0.17        -16.0 
       496.0         0.17        -16.0 
       497.0         0.20        -15.5 
       498.0         0.20        -15.9 
       499.0         0.20        -16.1 
       500.0         0.20         31.2 
       501.0         0.17         31.2 
       502.0         0.20          5.5 
       503.0         0.17        -14.3 
       504.0         0.18        -15.9 
       505.0         0.27        -16.1 
       506.0         1.20        -16.0 
       507.0         0.23        -16.6 
       508.0         0.23        -16.7 
       509.0         0.33        -17.0 
       510.0         0.23        -13.0 
       511.0         0.20        -15.2 
       512.0         0.20        -12.5 
       513.0         0.13        -16.2 
       514.0         0.17        -16.5 
       515.0         0.15        -15.9 
       516.0         0.13        -15.7 
       517.0         0.17        -15.0 
       518.0         0.17        -15.3 
       519.0         0.17        -15.4 
       520.0         0.17        -14.8 
       521.0         0.13        -13.6 
       522.0         0.13        -13.6 
       523.0         0.17        -14.7 
       524.0         0.17        -14.7 
       525.0         0.20        -14.8 
       526.0         0.20         14.1 
       527.0         0.17         -8.2 
       528.0         0.23         -5.6 
       529.0         0.17         -5.6 
       530.0         0.20          2.1 
       531.0         0.17          1.2 
       532.0         0.17          1.8 
       533.0         0.17          5.7 
       534.0         0.17          5.7 
       535.0         0.18          5.6 
       536.0         3.03          3.4 
       537.0         0.28          1.3 
       538.0         0.23          2.1 
       539.0         0.23          2.3 
       540.0         0.20          1.8 
       541.0         0.23          2.1 
       542.0         0.23          1.4 
       543.0         0.23          1.6 
       544.0         0.23          1.8 
       545.0         0.20          2.7 
       546.0         0.23          2.6 
       547.0         0.27          2.2 
       548.0         0.23          2.3 
       549.0         0.23          2.5 
       550.0         0.23          2.7 
       551.0         0.20          3.4 
       552.0         0.22          3.0 
       553.0         0.20          3.1 
       554.0         0.13          3.1 
       555.0         0.17          3.1 
       556.0         0.23          2.8 
       557.0         0.20          2.0 
       558.0         0.20          2.2 
       559.0         0.23          3.0 
       560.0         0.20          2.7 
       561.0         0.20          3.0 
       562.0         0.20          3.5 
       563.0         0.20          2.9 
       564.0         0.20          2.0 
       565.0         0.23          2.7 
       566.0         2.42          3.6 
       567.0         0.33          3.6 
       568.0         0.23          2.3 
       569.0         0.20          2.7 
       570.0         0.23          2.9 
       571.0         0.23          2.8 
       572.0         0.23          4.2 
       573.0         0.22          3.9 
       574.0         0.20          2.9 
       575.0         0.20          3.4 
       576.0         0.20          3.3 
       577.0         0.20          3.2 
       578.0         0.20          2.7 
       579.0         0.17          3.0 
       580.0         0.17          3.0 
       581.0         0.20          3.6 
       582.0         0.20          3.2 
       583.0         0.23          2.7 
       584.0         0.23          3.0 
       585.0         0.20          3.3 
       586.0         0.20          2.7 
       587.0         0.20          2.7 
       588.0         0.23          3.3 
       589.0         0.22          3.6 
       590.0         0.20          3.4 
       591.0         0.23          2.3 
       592.0         0.20          2.8 
       593.0         0.23          3.0 
       594.0         0.23          3.3 
       595.0         0.43          3.8 
       596.0         1.50          3.5 
       597.0         0.42          3.0 
       598.0         0.27          3.3 
       599.0         0.27          3.1 
       600.0         0.30          3.6 
       601.0         0.27          3.7 
       602.0         0.20          4.0 
       603.0         0.30          3.7 
       604.0         0.33          3.0 
       605.0         0.30          3.8 
       606.0         0.20          4.8 
       607.0         0.23          3.8 
       608.0         0.33          3.8 
       609.0         0.17          3.8 
       610.0         0.22          4.1 
       611.0         0.17          3.1 
       612.0         0.17          3.5 
       613.0         0.13          3.5 
       614.0         0.20          4.2 
       615.0         0.20          4.2 
       616.0         0.20          5.6 
       617.0         0.23          4.9 
       618.0         0.20          5.4 
       619.0         0.17          5.4 
       620.0         0.20          4.5 
       621.0         0.20          4.4 
       622.0         0.17          4.4 
       623.0         0.20          2.7 
       624.0         0.20          1.9 
       625.0         0.20          2.2 
       626.0         1.92          4.5 
       627.0         0.37          2.6 
       628.0         0.27          3.3 
       629.0         0.23          4.3 
       630.0         0.17          4.3 
       631.0         0.23          4.0 
       632.0         0.23          3.7 
       633.0         0.23          4.1 
       634.0         0.22          4.0 
       635.0         0.20          3.9 
       636.0         0.20          3.3 
       637.0         0.20          3.3 
       638.0         0.17          3.1 
       639.0         0.20          3.3 
       640.0         0.23          3.7 
       641.0         0.23          3.2 
       642.0         0.27          2.4 
       643.0         0.27          3.5 
       644.0         0.27          3.9 
