~Version Information
 VERS.                                  2.0 : CWLS LAS VERSION
 WRAP.                                   NO : WRAPING MODE
 SWARE .                 MController 2.5.0J : SOFTWARE VERSION
~Well Information
 WELL.                         State 16-41R : WELL
 COMP.                Petrogulf Corporation : COMPANY
 FLD.                      Purgatoire River : FIELD
 LOC.               NE/NE Sec 16 T33S R67W  : LOCATION
 DATE.                          10/17-18/05 : DATE(S) LOGGED
 SRVC.       BLANCO Geological Services LLC : SERVICE COMPANY
 STAT.                                   CO : STATE
 CNTY.                           Las Animas : COUNTY
 CTRY.                                  USA : COUNTRY
 API.                       05-071-08410-00 : API NUMBER
 STRT.FT                              11.00 : START DEPTH
 STOP.FT                            1635.00 : STOP DEPTH
 STEP.FT                               1.00 : DEPTH INCREMENT
 NULL.                                -9999 : NULL VALUE
~Curve information
 DEPTH.FT                                   :
 ROP.MIN/FT                                 :
 GAS.UNITS                                  :
~ASCII Log data
# ...
       211.0         0.10          7.2 
       212.0         0.22          7.1 
       213.0         0.27          7.4 
       214.0         0.27          7.0 
       215.0         0.30          6.8 
       216.0         0.30          7.0 
       217.0         0.30          7.4 
       218.0         0.27          7.1 
       219.0         0.30          7.3 
       220.0         0.27          7.3 
       221.0         0.27          7.5 
       222.0         0.30          7.4 
       223.0         0.27          7.1 
       224.0         0.28          7.2 
       225.0         0.23          6.9 
       226.0         0.27          7.3 
       227.0         0.23          7.0 
       228.0         0.23          7.4 
       229.0         0.27          7.0 
       230.0         0.23          7.4 
       231.0         0.23          6.9 
       232.0         0.27          7.1 
       233.0         0.17          7.4 
       234.0         0.20          7.0 
       235.0         0.17          7.1 
       236.0         0.85          7.0 
       237.0         0.37          6.4 
       238.0         0.20          6.2 
       239.0         0.23          6.8 
       240.0         0.13          6.1 
       241.0         0.23          6.3 
       242.0         0.33          6.4 
       243.0         0.30          6.7 
       244.0         0.37          6.5 
       245.0         0.30          6.3 
       246.0         0.33          6.6 
       247.0         0.32          6.6 
       248.0         0.37          6.7 
       249.0         0.40          6.4 
       250.0         0.27          6.3 
       251.0         0.33          6.4 
       252.0         0.30          6.3 
       253.0         0.27          6.3 
       254.0         0.23          6.0 
       255.0         0.23          6.0 
       256.0         0.30          6.2 
       257.0         0.23          6.4 
       258.0         0.20          5.9 
       259.0         0.13          5.9 
       260.0         0.15          6.5 
       261.0       632.88          7.0 
       262.0         0.27          0.1 
       263.0         0.20          0.0 
       264.0         0.20          0.0 
       265.0         0.23          0.1 
       266.0         0.23          0.2 
       267.0         0.20          0.2 
       268.0         0.13          0.5 
       269.0         0.13          0.3 
       270.0         0.15          0.7 
       271.0         0.17          1.0 
       272.0         0.10          0.7 
       273.0         0.13          1.0 
       274.0         0.23          1.1 
       275.0         0.20          1.3 
       276.0         0.23          1.3 
       277.0         0.20          1.7 
       278.0         0.23          1.9 
       279.0         0.23          1.9 
       280.0         0.20          2.0 
       281.0         0.20          2.2 
       282.0         0.20          2.5 
       283.0         0.20          2.3 
       284.0         0.23          2.3 
       285.0         0.22          2.5 
       286.0         0.23          2.2 
       287.0         0.27          2.4 
       288.0         0.20          2.6 
       289.0         0.20          2.4 
       290.0         0.20          2.7 
       291.0         0.23          2.6 
       292.0         0.20          2.5 
       293.0         0.17          2.5 
       294.0         0.37          2.6 
       295.0         0.30          2.7 
       296.0         0.42          2.7 
       297.0         0.30          2.7 
       298.0         0.27          2.7 
       299.0         0.30          2.9 
       300.0         0.30          2.6 
       301.0         0.30          3.0 
       302.0         0.30          2.6 
       303.0         0.28          2.4 
       304.0         0.27          2.5 
       305.0         0.13          2.5 
       306.0         0.17          2.5 
       307.0         0.10          2.5 
       308.0         0.13          2.5 
       309.0         0.20          2.8 
       310.0         0.23          2.9 
       311.0         0.20          3.1 
       312.0         0.22          3.0 
       313.0         0.20          2.5 
       314.0         0.17          2.5 
       315.0         0.13          2.6 
       316.0         0.13          2.7 
       317.0         0.13          2.8 
       318.0         0.13          2.7 
       319.0         0.20          2.7 
       320.0         0.20          2.8 
       321.0         0.17          2.6 
       322.0         0.20          2.4 
       323.0         0.22          4.0 
       324.0         0.13          4.0 
       325.0         0.27          4.0 
       326.0         2.18        114.4 
       327.0         0.23         65.0 
       328.0         0.20         27.6 
       329.0         0.28         12.7 
       330.0         0.20          3.8 
       331.0         0.27          1.3 
       332.0         0.20          0.2 
       333.0         0.17          0.6 
       334.0         0.20          0.9 
       335.0         0.23          0.8 
       336.0         0.22          0.7 
       337.0         0.23          0.7 
       338.0         0.23          0.6 
       339.0         0.20          0.1 
       340.0         0.23          0.4 
       341.0         0.23          0.6 
       342.0         0.20          0.2 
       343.0         0.23          0.1 
       344.0         0.22          0.3 
       345.0         0.20          0.3 
       346.0         0.17          0.7 
       347.0         0.20          0.7 
       348.0         0.20          0.8 
       349.0         0.23          1.1 
       350.0         0.20          1.5 
       351.0         0.20          1.8 
       352.0         0.22          2.0 
       353.0         0.23          2.1 
       354.0         0.17          2.4 
       355.0         0.23          2.5 
       356.0         1.65          3.2 
       357.0         0.23          3.2 
       358.0         0.20          3.1 
       359.0         0.13          3.1 
       360.0         0.17          3.1 
       361.0         0.30          3.2 
       362.0         0.27          3.2 
       363.0         0.28          3.1 
       364.0         0.30          2.8 
       365.0         0.27          3.0 
       366.0         0.27          2.9 
       367.0         0.27          2.5 
       368.0         0.23          2.5 
       369.0         0.23          2.5 
       370.0         0.23          2.7 
       371.0         0.23          2.5 
       372.0         0.28          2.9 
       373.0         0.20          3.0 
       374.0         0.30          2.6 
       375.0         0.37          2.9 
       376.0         0.38          3.3 
       377.0         0.27          3.1 
       378.0         0.27          3.1 
       379.0         0.30          3.1 
       380.0         0.27          3.2 
       381.0         0.20          3.2 
       382.0         0.17          3.0 
       383.0         0.17          2.7 
       384.0         0.18          3.0 
       385.0         0.20          2.9 
       386.0         2.05         18.3 
       387.0         0.43         15.1 
       388.0         0.33         11.4 
       389.0         0.23          9.9 
       390.0         0.23          9.1 
       391.0         0.33          8.0 
       392.0         0.55          7.0 
       393.0         0.37          5.6 
       394.0         0.17          5.3 
       395.0         0.17          5.3 
       396.0         0.27          5.1 
       397.0         0.20          5.2 
       398.0         0.20          5.1 
       399.0         0.20          5.1 
       400.0         0.20          5.1 
       401.0         0.20          4.9 
       402.0         0.20          5.0 
       403.0         0.20          5.2 
       404.0         0.25          5.3 
       405.0         0.20          5.3 
       406.0         0.20          5.4 
       407.0         0.20          5.3 
       408.0         0.27          5.3 
       409.0         0.23          5.0 
       410.0         0.20          5.0 
