~Version Information
VERS.                      2.0: CWLS Log ASCII Standard - VERSION 2.0
WRAP.                       NO: One line per depth step
~Well Information Block
STRT.FT               930.0000: 
STOP.FT              2783.2000: 
STEP.FT                 0.1000: 
NULL.                -999.2500: 
COMP.          Pioneer Natural Resources: COMPANY
WELL.           Desoto 13-7TR: WELL
FLD.           Purgatoire River: FIELD
LOC.           1404' FSL & 1115' FWL: LOCATION
PROV.                 Colorado: PROVINCE
CNTY.               Las Animas: COUNTRY
SRVC.                Patterson: SERVICE COMPANY
DATE.          Fri Jan 14 14:42:18 2005: LOG DATE
UWI.           05 071 08216 00: UNIQUE WELL ID
~Curve Information Block
DEPT.FT            0 000 00 00: Depth
DCAL.in                       : CDL Caliper
RHOB.g/cc                     : CDL Bulk Density
RHOC.g/cc                     : CDL Density Correction
DPOR.pu                       : CDL Density Porosity
NPOR.pu                       : Neutron Porosity
GR.GAPI                       : Gamma Ray
~Parameter Information Block
~A  Depth       DCAL        RHOB        RHOC        DPOR        NPOR         GR     
# ...
  2149.2000      7.9294      2.2946     -0.0139     21.5416     24.7776     68.2653
  2149.3000      7.9567      2.2847      0.0258     22.1378     24.8713     81.3610
  2149.4000      7.9567      2.2995      0.0925     21.2426     25.4040     93.2729
  2149.5000      7.9689      2.3466      0.1662     18.3871     25.7651    101.4728
  2149.6000      7.9689      2.4257      0.1942     13.5918     25.8358    110.4951
  2149.7000      7.9689      2.5246      0.2092      7.6019     25.8283    119.9906
  2149.8000      7.9703      2.6079      0.2531      2.5528     25.6907    126.0796
  2149.9000      7.9703      2.6405      0.1714      0.5784     25.7861    131.6612
  2150.0000      7.9698      2.6230      0.1268      1.6341     26.2528    138.2340
  2150.1000      7.9698      2.5897      0.0343      3.6558     26.3672    141.7864
  2150.2000      7.9698      2.5787      0.0618      4.3189     25.8502    142.8204
  2150.3000      7.9694      2.6005      0.0628      3.0002     25.4732    144.9319
  2150.4000      7.9694      2.6364      0.0760      0.8232     25.7801    146.3156
  2150.5000      7.9678      2.6572      0.1040     -0.4343     26.4672    144.2782
  2150.6000      7.9678      2.6478      0.0751      0.1324     26.7622    140.7927
  2150.7000      7.9678      2.6220      0.0993      1.6963     26.6778    137.8856
  2150.8000      7.9669      2.5973      0.0470      3.1927     26.7628    136.9332
  2150.9000      7.9669      2.5755      0.0418      4.5134     26.8120    139.4657
  2151.0000      7.9663      2.5572      0.0159      5.6255     26.3696    142.5655
  2151.1000      7.9663      2.5660     -0.0473      5.0905     25.6592    143.2799
  2151.2000      7.9663      2.6189     -0.0030      1.8830     25.0629    143.8979
  2151.3000      7.9661      2.6803      0.1221     -1.8382     24.6013    144.7367
  2151.4000      7.9661      2.7047      0.1087     -3.3126     24.2689    143.8333
  2151.5000      7.9681      2.7017      0.0254     -3.1358     24.1902    140.2923
  2151.6000      7.9681      2.7096      0.0457     -3.6094     24.4720    136.2650
  2151.7000      7.9681      2.7252      0.1206     -4.5598     25.0424    135.9795
  2151.8000      7.9699      2.7229      0.0785     -4.4210     25.8107    139.0091
  2151.9000      7.9699      2.7030      0.0426     -3.2110     26.6235    140.5786
  2152.0000      7.9704      2.6739      0.0121     -1.4466     27.0234    141.6482
  2152.1000      7.9704      2.6432      0.0342      0.4096     26.6781    145.6194
  2152.2000      7.9704      2.6260     -0.0105      1.4556     25.8198    147.8752
  2152.3000      7.9701      2.6240      0.0577      1.5765     24.8469    145.3697
  2152.4000      7.9701      2.6167      0.0492      2.0204     23.9272    140.1227
  2152.5000      7.9698      2.5956     -0.0089      3.2941     23.0812    134.9753
  2152.6000      7.9698      2.5815     -0.0111      4.1505     22.5215    134.3642
  2152.7000      7.9698      2.5891      0.0218      3.6904     22.4480    135.5431
  2152.8000      7.9687      2.6067      0.0425      2.6221     22.8865    131.3452
  2152.9000      7.9687      2.6165      0.0716      2.0330     23.6883    122.5362
  2153.0000      7.9671      2.6214     -0.0112      1.7339     24.2952    116.5182
  2153.1000      7.9671      2.6384      0.0507      0.7024     24.3639    118.4299
  2153.2000      7.9671      2.6652      0.0256     -0.9197     24.3154    127.1724
  2153.3000      7.9661      2.6875      0.0634     -2.2699     24.6216    136.7614
  2153.4000      7.9661      2.6989      0.0679     -2.9634     25.0512    140.9491
  2153.5000      7.9666      2.6955      0.1208     -2.7548     24.9713    141.6235
  2153.6000      7.9666      2.6726      0.0739     -1.3703     24.3597    141.5830
  2153.7000      7.9666      2.6453      0.0020      0.2829     23.7135    136.2524
  2153.8000      7.9661      2.6356      0.0438      0.8728     23.1351    127.2650
  2153.9000      7.9661      2.6444      0.0035      0.3415     22.5213    124.1477
  2154.0000      7.9649      2.6561      0.0329     -0.3701     22.4616    128.8441
  2154.1000      7.9649      2.6522     -0.0122     -0.1310     23.3192    136.9869
  2154.2000      7.9649      2.6209     -0.0040      1.7657     23.9630    145.7299
  2154.3000      7.9655      2.5677     -0.0278      4.9904     23.5116    149.8125
  2154.4000      7.9655      2.5240     -0.0239      7.6333     22.8293    146.4648
  2154.5000      7.9684      2.5154      0.0199      8.1584     22.6770    141.3857
  2154.6000      7.9684      2.5297      0.0518      7.2924     22.5326    140.5843
  2154.7000      7.9684      2.5475      0.0256      6.2109     22.1790    143.2159
  2154.8000      7.9686      2.5620      0.0403      5.3357     21.7891    141.5502
  2154.9000      7.9686      2.5600      0.0657      5.4570     21.2539    131.7617
  2155.0000      7.9670      2.5406     -0.0060      6.6321     20.9020    120.8956
  2155.1000      7.9670      2.5316      0.0026      7.1769     21.2882    115.6080
  2155.2000      7.9670      2.5424      0.0540      6.5234     22.1928    114.6235
  2155.3000      7.9670      2.5543      0.0556      5.8017     22.5891    114.7894
  2155.4000      7.9670      2.5586      0.0284      5.5373     21.8930    113.0210
  2155.5000      7.9668      2.5570      0.0774      5.6375     20.6755    109.7050
  2155.6000      7.9668      2.5533      0.0322      5.8609     19.7986    110.8809
  2155.7000      7.9668      2.5581      0.0484      5.5680     19.6201    119.7558
  2155.8000      7.9657      2.5755      0.0436      4.5172     19.9084    129.1177
  2155.9000      7.9657      2.5959      0.0730      3.2762     20.0160    129.6667
  2156.0000      7.9658      2.6081      0.0855      2.5423     19.7399    125.0929
  2156.1000      7.9658      2.6083      0.0945      2.5249     19.3224    124.1479
  2156.2000      7.9658      2.5970      0.0850      3.2132     18.7715    126.2247
  2156.3000      7.9673      2.5836      0.0469      4.0215     18.3684    127.1859
  2156.4000      7.9673      2.5891      0.0736      3.6938     18.4708    123.8602
  2156.5000      7.9693      2.6180      0.0574      1.9390     18.5976    115.7931
  2156.6000      7.9693      2.6483      0.0886      0.1049     18.2948    108.9029
  2156.7000      7.9693      2.6502      0.1100     -0.0116     17.9839    108.4752
  2156.8000      7.9707      2.6222      0.0731      1.6853     18.0111    112.3219
  2156.9000      7.9707      2.5982      0.0027      3.1398     18.3372    116.2560
  2157.0000      7.9694      2.6050      0.0217      2.7250     19.1167    116.6964
  2157.1000      7.9694      2.6284      0.0756      1.3116     20.1522    112.3737
  2157.2000      7.9694      2.6396      0.0796      0.6274     20.7428    111.5602
  2157.3000      7.9662      2.6373      0.0208      0.7718     20.6547    117.9003
  2157.4000      7.9662      2.6305      0.0833      1.1797     20.3485    122.9488
  2157.5000      7.9665      2.6201      0.0101      1.8132     20.3153    122.0055
  2157.6000      7.9665      2.6106      0.0491      2.3893     20.5021    116.9526
  2157.7000      7.9665      2.6047      0.0248      2.7477     20.8588    110.6076
  2157.8000      7.9675      2.6018      0.0373      2.9217     21.1542    108.3436
  2157.9000      7.9675      2.5974      0.0445      3.1907     20.8001    109.8985
  2158.0000      7.9671      2.5848      0.0392      3.9502     20.4255    109.6844
  2158.1000      7.9671      2.5668      0.0328      5.0395     20.6644    107.2818
  2158.2000      7.9671      2.5545     -0.0278      5.7890     20.6087    107.4844
  2158.3000      7.9671      2.5595      0.0007      5.4843     19.9461    112.3248
  2158.4000      7.9671      2.5814      0.0007      4.1549     19.6419    118.4607
  2158.5000      7.9676      2.6021      0.0868      2.9010     20.1681    124.4312
  2158.6000      7.9676      2.6030      0.0623      2.8487     21.0385    127.4391
  2158.7000      7.9676      2.5900      0.0354      3.6358     21.4291    124.1784
