~Version Information
VERS.                      2.0: CWLS Log ASCII Standard - VERSION 2.0
WRAP.                       NO: One line per depth step
~Well Information Block
STRT.FT                15.0000: 
STOP.FT              1211.0000: 
STEP.FT                 0.2500: 
NULL.                -999.2500: 
COMP.          Pioneer Natural Resources: COMPANY
WELL.          Santa Fe 43-27 Tr: WELL
FLD.           Purgatoire River: FIELD
LOC.           2018' FSL & 534' FEL: LOCATION
PROV.                 Colorado: PROVINCE
CNTY.               Las Animas: COUNTRY
SRVC.                Patterson: SERVICE COMPANY
DATE.          Mon Mar 14 15:43:40 2005: LOG DATE
UWI.           05 071 08303 00: UNIQUE WELL ID
~Curve Information Block
DEPT.FT            0 000 00 00: Depth
GR.GAPI                       : Gamma Ray
CCL.                          : Casing Collar Locator
TT3.usec                      : CBL 3' Travel Time
AMP3.mV                       : CBL 3' Amplitude
AMP5.mV                       : CBL 5' Amplitude
~Parameter Information Block
~A  Depth        GR         CCL         TT3         AMP3        AMP5    
# ...
   575.0000    146.0442      0.0000    812.7598     14.9651      2.8307
   575.2500    143.6887      0.0000    790.9483     14.9832      2.8514
   575.5000    141.0652      0.0000    777.2819     15.0562      2.8600
   575.7500    138.8025      0.0000    770.2920     15.1779      2.8549
   576.0000    137.7572      0.0000    768.1026     15.3181      2.8406
   576.2500    138.1326      0.0000    769.6101     15.4308      2.8232
   576.5000    139.0242      0.0000    774.5194     15.4801      2.8047
   576.7500    139.3140      0.0000    782.5215     15.4645      2.7819
   577.0000    139.0613      0.0000    792.4543     15.4135      2.7515
   577.2500    139.4222      0.0000    802.2857     15.3575      2.7142
   577.5000    140.9706      0.0000    809.8665     15.3004      2.6763
   577.7500    142.7118      0.0000    814.0109     15.2189      2.6464
   578.0000    143.1391      0.0000    815.4610     15.0862      2.6288
   578.2500    141.8311      0.0000    817.0506     14.8999      2.6214
   578.5000    139.6472      0.0000    822.1465     14.6884      2.6169
   578.7500    137.6993      0.0000    831.5952     14.4923      2.6084
   579.0000    136.5858      0.0000    841.5998     14.3375      2.5925
   579.2500    136.4550      0.0000    845.7750     14.2226      2.5711
   579.5000    137.2942      0.0000    840.7785     14.1276      2.5493
   579.7500    138.8293      0.0000    829.5109     14.0334      2.5317
   580.0000    140.2349      0.0000    818.0240     13.9369      2.5187
   580.2500    140.2578      0.0000    810.3072     13.8512      2.5074
   580.5000    137.9442      0.0000    806.6992     13.7947      2.4953
   580.7500    133.6660      0.0000    805.9183     13.7791      2.4823
   581.0000    129.4989      0.0000    807.4274     13.8043      2.4685
   581.2500    127.7450      0.0000    812.5244     13.8576      2.4536
   581.5000    128.4624      0.0000    823.8581     13.9107      2.4388
   581.7500    128.9371      0.0000    842.6907     13.9253      2.4276
   582.0000    126.2153      0.0000    864.8836     13.8772      2.4245
   582.2500    120.0269      0.0000    880.5161     13.7794      2.4321
   582.5000    112.8179      0.0000    880.5786     13.6721      2.4487
   582.7500    107.2845      0.0000    865.2983     13.5880      2.4680
   583.0000    104.6474      0.0000    844.4083     13.5334      2.4803
   583.2500    104.9593      0.0000    829.2132     13.5015      2.4776
   583.5000    107.8111      0.0000    825.3849     13.4899      2.4590
   583.7500    112.4523      0.0000    831.3917     13.4961      2.4326
   584.0000    118.0527      0.0000    840.4662     13.5037      2.4099
   584.2500    124.1069      0.0000    844.6000     13.4893      2.3980
   584.5000    130.2097      0.0000    839.8846     13.4454      2.3958
   584.7500    135.5952      0.0000    828.9928     13.3916      2.3977
   585.0000    139.4629      0.0000    817.7823     13.3565      2.3996
   585.2500    141.5713      0.0000    810.0921     13.3533      2.4010
   585.5000    142.0560      0.0000    806.1812     13.3739      2.4049
   585.7500    140.8842      0.0000    804.5567     13.4025      2.4146
   586.0000    138.0726      0.0000    803.8680     13.4313      2.4301
   586.2500    134.3666      0.0000    803.4432     13.4650      2.4476
   586.5000    131.0526      0.0000    803.0862     13.5161      2.4654
   586.7500    128.7701      0.0000    802.8204     13.5964      2.4892
   587.0000    126.7206      0.0000    802.7006     13.7099      2.5302
   587.2500    123.2937      0.0000    802.7307     13.8549      2.5936
   587.5000    117.5160      0.0000    802.8426     14.0388      2.6708
   587.7500    110.0908      0.0000    802.9434     14.2906      2.7449
   588.0000    103.3123      0.0000    802.9715     14.6462      2.8040
   588.2500     99.8813      0.0000    802.9230     15.1084      2.8497
   588.5000    101.2239      0.0000    802.8372     15.6256      2.8924
   588.7500    106.2976      0.0000    802.7670     16.1182      2.9424
   589.0000    111.9073      0.0000    802.7307     16.5270      3.0033
   589.2500    114.6592      0.0000    802.5995     16.8466      3.0715
   589.5000    113.1386      0.0000    801.8990     17.1259      3.1392
   589.7500    108.4194      0.0000    799.7151     17.4357      3.2006
   590.0000    102.8361      0.0000    795.0891     17.8170      3.2559
   590.2500     98.6603      0.0000    787.9228     18.2563      3.3122
   590.5000     97.5529      0.0000    779.5785     18.7084      3.3795
   590.7500    100.2153      0.0000    772.2847     19.1341      3.4637
   591.0000    105.9747      0.0000    767.8020     19.5106      3.5609
   591.2500    112.9199      0.0000    766.6097     19.8227      3.6571
   591.5000    118.8053      0.0000    767.9348     20.0535      3.7351
   591.7500    122.0753      0.0000    770.1038     20.1823      3.7840
   592.0000    122.3542      0.0000    771.2345     20.1910      3.8040
   592.2500    120.3854      0.0000    770.3541     20.0756      3.8052
   592.5000    117.6110      0.0000    767.9940     19.8569      3.8006
   592.7500    115.3940      0.0000    765.4829     19.5791      3.7975
   593.0000    114.1877      0.0000    763.7648     19.2954      3.7916
   593.2500    113.3658      0.0000    762.9702     19.0455      3.7712
   593.5000    112.0531      0.0000    762.7601     18.8390      3.7269
   593.7500    110.1670      0.0000    762.7551     18.6529      3.6593
   594.0000    108.4555      0.0000    762.7111     18.4475      3.5787
   594.2500    107.6166      0.0000    762.5286     18.1936      3.4987
   594.5000    107.8053      0.0000    762.2297     17.8924      3.4291
   594.7500    108.9102      0.0000    761.9483     17.5728      3.3710
   595.0000    110.5918      0.0000    761.9790     17.2684      3.3166
   595.2500    111.9388      0.0000    762.8854     16.9943      3.2557
   595.5000    111.8765      0.0000    765.5200     16.7409      3.1831
   595.7500    110.3603      0.0000    770.6395     16.4851      3.1012
   596.0000    108.7416      0.0000    778.1323     16.2087      3.0172
   596.2500    108.4829      0.0000    786.6313     15.9101      2.9396
   596.5000    109.6238      0.0000    794.3021     15.6026      2.8742
   596.7500    110.8750      0.0000    800.2835     15.3012      2.8226
   597.0000    111.2051      0.0000    805.2511     15.0118      2.7818
   597.2500    110.8862      0.0000    810.3530     14.7259      2.7460
   597.5000    110.7745      0.0000    815.5140     14.4228      2.7098
   597.7500    110.9616      0.0000    818.9678     14.0860      2.6709
   598.0000    110.4694      0.0000    818.8104     13.7214      2.6284
   598.2500    107.9971      0.0000    815.0176     13.3636      2.5757
   598.5000    102.7310      0.0000    809.6032     13.0664      2.4966
   598.7500     94.7346      0.0000    804.9095     12.8831      2.3749
   599.0000     84.9183      0.0000    802.2645     12.8303      2.2169
   599.2500     74.7266      0.0000    802.3832     12.8393      2.0590
   599.5000     65.6440      0.0000    806.8632     12.7389      1.9364
   599.7500     58.5896      0.0000    819.2755     12.3457      1.8471
   600.0000     53.5744      0.0000    844.2126     11.6308      1.7639
   600.2500     50.0231      0.0000    883.6926     10.7674      1.6774
   600.5000     47.4987      0.0000    932.7012      9.9552      1.6037
   600.7500     46.1725      0.0000    978.4892      9.2423      1.5580
   601.0000     46.8754      0.0000   1006.4879      8.5900      1.5378
   601.2500     50.6890      0.0000   1009.3028      8.0270      1.5320
   601.5000     57.8531      0.0000    990.6402      7.6328      1.5319
   601.7500     66.6837      0.0000    961.7687      7.4197      1.5317
   602.0000     74.2014     -2.8101    936.3160      7.3259      1.5253
   602.2500     78.5697     -3.0000    926.8635      7.3121      1.5081
   602.5000     80.6950      0.0000    940.1980      7.4523      1.4824
   602.7500     82.8856      0.0000    971.3385      7.9340      1.4587
