~Version Information
VERS.                      2.0: CWLS Log ASCII Standard - VERSION 2.0
WRAP.                       NO: One line per depth step
~Well Information Block
STRT.FT               898.0000: 
STOP.FT              2360.0000: 
STEP.FT                 0.2500: 
NULL.                -999.2500: 
COMP.          Pioneer Natural Resources: COMPANY
WELL.             Trimax 44-23: WELL
FLD.           Purgatoire River: FIELD
LOC.           527' FSL & 1064' FEL: LOCATION
PROV.                 Colorado: PROVINCE
CNTY.               Las Animas: COUNTRY
SRVC.                Patterson: SERVICE COMPANY
DATE.          Sun Mar 13 04:57:04 2005: LOG DATE
UWI.           05 071 08326 00: UNIQUE WELL ID
~Curve Information Block
DEPT.FT            0 000 00 00: Depth
SN.Ohm-m                      : IEL Short Normal
SP.mV                         : IEL Spontaneous Potential
DIR.Ohm-m                     : IEL Induction Resistivity
GR.GAPI                       : Gamma Ray
~Parameter Information Block
~A  Depth        SN          SP         DIR          GR     
# ...
  2137.5000     14.8011     16.3358      9.9873     90.7980
  2137.7500     14.7657     16.3748     10.1753     91.3523
  2138.0000     14.7395     16.3660     10.3771     92.0138
  2138.2500     14.7261     16.3204     10.5995     92.1275
  2138.5000     14.7763     16.2561     10.8612     91.4250
  2138.7500     15.0048     16.1897     11.1778     90.0537
  2139.0000     15.5516     16.1251     11.5477     86.3476
  2139.2500     16.5517     16.0491     11.9548     82.9780
  2139.5000     18.0567     15.9375     12.3847     77.2756
  2139.7500     19.8847     15.7689     12.8409     73.3785
  2140.0000     21.6643     15.5358     13.3427     67.8698
  2140.2500     23.1229     15.2468     13.9071     64.8589
  2140.5000     24.2415     14.9212     14.5304     62.3268
  2140.7500     25.1354     14.5796     15.1850     62.3793
  2141.0000     25.8942     14.2394     15.8309     65.0769
  2141.2500     26.5137     13.9150     16.4336     68.2236
  2141.5000     26.9218     13.6201     16.9724     73.8428
  2141.7500     27.0667     13.3655     17.4342     77.4845
  2142.0000     26.9661     13.1557     17.8010     81.9156
  2142.2500     26.6789     12.9869     18.0460     83.9092
  2142.5000     26.2531     12.8471     18.1443     85.1778
  2142.7500     25.7003     12.7176     18.0884     84.8419
  2143.0000     25.0188     12.5773     17.8976     82.9603
  2143.2500     24.2436     12.4129     17.6128     81.2177
  2143.5000     23.4597     12.2296     17.2857     78.6034
  2143.7500     22.7562     12.0535     16.9637     77.1859
  2144.0000     22.1867     11.9217     16.6782     75.8173
  2144.2500     21.7674     11.8650     16.4369     75.3500
  2144.5000     21.4723     11.8934     16.2231     75.0535
  2144.7500     21.2197     11.9920     16.0040     75.0381
  2145.0000     20.9011     12.1305     15.7463     75.1777
  2145.2500     20.4415     12.2768     15.4315     75.1774
  2145.5000     19.8528     12.4074     15.0614     74.4608
  2145.7500     19.2465     12.5102     14.6532     73.3125
  2146.0000     18.7594     12.5803     14.2308     71.2015
  2146.2500     18.4576     12.6148     13.8197     70.4657
  2146.5000     18.3277     12.6118     13.4447     71.8213
  2146.7500     18.3192     12.5724     13.1267     74.4533
  2147.0000     18.3566     12.4988     12.8778     79.8769
  2147.2500     18.3498     12.3881     12.7018     83.6524
  2147.5000     18.2325     12.2287     12.5986     88.5283
  2147.7500     17.9810     12.0043     12.5698     90.7703
  2148.0000     17.6025     11.6994     12.6183     91.6625
  2148.2500     17.1433     11.3012     12.7433     90.0704
  2148.5000     16.7102     10.7972     12.9336     84.0019
  2148.7500     16.4493     10.1756     13.1642     77.7481
  2149.0000     16.4889      9.4329     13.3978     66.2560
  2149.2500     16.9112      8.5840     13.5936     58.1789
  2149.5000     17.7801      7.6654     13.7191     47.1822
  2149.7500     19.1598      6.7267     13.7626     41.4503
  2150.0000     21.0010      5.8225     13.7366     36.3134
  2150.2500     22.9334      5.0095     13.6688     35.5841
  2150.5000     24.2975      4.3418     13.5873     38.7266
  2150.7500     24.5786      3.8560     13.5090     43.4075
  2151.0000     23.7993      3.5583     13.4357     53.1744
  2151.2500     22.4148      3.4252     13.3587     60.5387
  2151.5000     20.9325      3.4181     13.2665     71.2226
  2151.7500     19.6841      3.5002     13.1516     77.4357
  2152.0000     18.8081      3.6402     13.0158     84.7091
  2152.2500     18.3088      3.8015     12.8730     87.9372
  2152.5000     18.1221      3.9415     12.7473     90.2849
  2152.7500     18.1699      4.0301     12.6663     90.5432
  2153.0000     18.3718      4.0706     12.6538     90.0231
  2153.2500     18.6270      4.0980     12.7242     89.4850
  2153.5000     18.8283      4.1672     12.8794     88.1285
  2153.7500     18.9060      4.3456     13.1091     86.2737
  2154.0000     18.8575      4.6964     13.3926     81.1928
  2154.2500     18.7492      5.2492     13.7039     76.2261
  2154.5000     18.6948      5.9804     14.0189     67.3742
  2154.7500     18.8293      6.8316     14.3219     61.6090
  2155.0000     19.2741      7.7463     14.6083     55.1449
  2155.2500     20.0631      8.6918     14.8845     52.9919
  2155.5000     21.0648      9.6548     15.1636     52.9689
  2155.7500     22.0126     10.6263     15.4544     54.5912
  2156.0000     22.6703     11.5903     15.7463     58.4819
  2156.2500     22.9826     12.5238     16.0019     61.5766
  2156.5000     23.0373     13.4017     16.1669     66.4836
  2156.7500     22.9140     14.2028     16.1938     69.7837
  2157.0000     22.5900     14.9163     16.0597     74.3578
  2157.2500     21.9655     15.5470     15.7648     76.6652
  2157.5000     21.0158     16.1109     15.3208     78.1375
  2157.7500     19.8967     16.6244     14.7470     77.6313
  2158.0000     18.7921     17.0981     14.0773     75.2209
  2158.2500     17.7220     17.5417     13.3619     73.1560
  2158.5000     16.6036     17.9708     12.6567     70.4300
  2158.7500     15.4523     18.4030     12.0066     69.2858
  2159.0000     14.4604     18.8476     11.4372     69.0401
  2159.2500     13.9014     19.2989     10.9563     70.0157
  2159.5000     13.9597     19.7388     10.5607     73.1567
  2159.7500     14.5994     20.1440     10.2439     76.0990
  2160.0000     15.5684     20.4927     10.0011     80.8923
  2160.2500     16.5352     20.7674      9.8306     83.6294
  2160.5000     17.2513     20.9578      9.7323     85.8847
  2160.7500     17.6388     21.0674      9.7073     85.8732
  2161.0000     17.7644     21.1183      9.7580     84.2443
  2161.2500     17.7482     21.1473      9.8890     82.9776
  2161.5000     17.6927     21.1916     10.1059     82.2653
  2161.7500     17.6699     21.2715     10.4109     82.8773
  2162.0000     17.7333     21.3830     10.7962     84.7400
  2162.2500     17.9291     21.5058     11.2391     85.8757
  2162.5000     18.3141     21.6225     11.7071     86.5093
  2162.7500     18.9831     21.7340     12.1760     86.1020
  2163.0000     20.0720     21.8572     12.6517     84.3681
  2163.2500     21.7387     22.0118     13.1782     82.3419
  2163.5000     24.1100     22.2097     13.8225     77.3984
  2163.7500     27.1581     22.4518     14.6492     72.7439
  2164.0000     30.5920     22.7306     15.7024     64.7560
  2164.2500     33.9083     23.0364     17.0017     59.8249
  2164.5000     36.5964     23.3651     18.5486     54.6577
  2164.7500     38.4016     23.7180     20.3331     53.2049
  2165.0000     39.4752     24.0962     22.3352     53.7295
  2165.2500     40.2352     24.4926     24.5164     54.9695
  2165.5000     41.0397     24.8903     26.7981     55.9751
  2165.7500     41.9899     25.2672     29.0334     55.0929
  2166.0000     43.0495     25.6042     30.9989     51.0190
  2166.2500     44.2969     25.8943     32.4402     46.8852
  2166.5000     45.9479     26.1480     33.1662     39.7698
  2166.7500     48.1533     26.3909     33.1290     35.0818
  2167.0000     50.8600     26.6546     32.4310     28.9218
  2167.2500     53.7198     26.9638     31.2632     25.6818
  2167.5000     56.0807     27.3256     29.8246     22.4327
  2167.7500     57.2661     27.7279     28.2627     21.4114
  2168.0000     56.9141     28.1491     26.6606     21.4964
  2168.2500     55.0284     28.5689     25.0621     22.5489
  2168.5000     51.7493     28.9779     23.5041     25.7776
  2168.7500     47.1880     29.3792     22.0278     29.3044
  2169.0000     41.6625     29.7853     20.6673     36.8918
  2169.2500     35.9754     30.2091     19.4348     43.1311
  2169.5000     31.0531     30.6546     18.3239     52.7818
  2169.7500     27.3116     31.1104     17.3258     58.4032
  2170.0000     24.6136     31.5474     16.4455     64.5467
  2170.2500     22.6754     31.9242     15.7044     67.1844
  2170.5000     21.2958     32.2011     15.1275     70.0584
  2170.7500     20.3435     32.3584     14.7244     71.9348
