~Version Information
VERS.                      2.0: CWLS Log ASCII Standard - VERSION 2.0
WRAP.                       NO: One line per depth step
~Well Information Block
STRT.FT               555.6000: 
STOP.FT              2132.0000: 
STEP.FT                 0.1000: 
NULL.                -999.2500: 
COMP.          Petrogulf Corporation: COMPANY
WELL.           Montoya 12-41R: WELL
FLD.           Purgatorie River: FIELD
LOC.           1086' FNL & 610' FEL: LOCATION
CNTY.               Las Animas: COUNTY
SRVC.                         : SERVICE COMPANY
DATE.          Thu Nov 18 08:45:51 2004: LOG DATE
UWI.           05 071 08241 00: UNIQUE WELL ID
STAT.                 Colorado: STATE
~Curve Information Block
DEPT.FT            0 000 00 00: Depth
DCAL.in                       : CDL Caliper
RHOB.g/cc                     : CDL Bulk Density
RHOC.g/cc                     : CDL Density Correction
DPOR.pu                       : CDL Density Porosity
GR.GAPI                       : Gamma Ray
NPOR.pu                       : Neutron Porosity
~Parameter Information Block
~A  Depth       DCAL        RHOB        RHOC        DPOR         GR         NPOR    
# ...
   987.6000      8.0547      2.5508      0.0880      6.0123    128.9805     24.5242
   987.7000      8.0547      2.5159      0.0178      8.1293    127.0225     24.6753
   987.8000      8.0522      2.4968      0.0456      9.2838    125.9580     25.0745
   987.9000      8.0522      2.4954      0.0236      9.3672    125.7108     25.4631
   988.0000      8.0504      2.5127      0.0357      8.3222    122.6479     25.4995
   988.1000      8.0504      2.5478      0.0273      6.1922    118.7568     25.2787
   988.2000      8.0504      2.5937      0.0949      3.4125    117.0061     25.2113
   988.3000      8.0497      2.6370      0.1187      0.7859    115.6489     25.3701
   988.4000      8.0497      2.6632      0.1537     -0.8023    114.0727     25.6162
   988.5000      8.0507      2.6679      0.1447     -1.0862    114.0414     25.8622
   988.6000      8.0507      2.6589      0.1330     -0.5412    114.4624     26.1845
   988.7000      8.0507      2.6402      0.1409      0.5967    114.5836     26.7361
   988.8000      8.0487      2.6119      0.0794      2.3110    113.9630     27.2680
   988.9000      8.0487      2.5776      0.0939      4.3870    110.0679     27.4243
   989.0000      8.0422      2.5401      0.0642      6.6631    104.2350     27.1153
   989.1000      8.0422      2.5070      0.0199      8.6655     98.6764     26.4056
   989.2000      8.0422      2.4843      0.0241     10.0416     91.4350     25.4087
   989.3000      8.0414      2.4704     -0.0004     10.8832     83.7714     24.2879
   989.4000      8.0414      2.4660      0.0193     11.1534     80.9354     23.2791
   989.5000      8.0455      2.4696      0.0746     10.9309     83.3013     22.7650
   989.6000      8.0455      2.4851      0.0483      9.9936     85.1883     22.8444
   989.7000      8.0455      2.5249      0.1045      7.5792     86.3186     23.1279
   989.8000      8.0503      2.5879      0.1435      3.7643     91.3421     23.2400
   989.9000      8.0503      2.6486      0.2423      0.0851     99.9308     23.1426
   990.0000      8.0565      2.6791      0.2681     -1.7629    109.6717     22.9611
   990.1000      8.0565      2.6853      0.1943     -2.1424    117.2958     22.8842
   990.2000      8.0565      2.6907      0.2399     -2.4670    119.8826     23.0334
   990.3000      8.0795      2.6950      0.2077     -2.7292    121.2191     23.2783
   990.4000      8.0795      2.6904      0.1773     -2.4494    127.5162     23.6260
   990.5000      8.1200      2.6755      0.1026     -1.5460    135.6100     24.2266
   990.6000      8.1200      2.6466      0.0833      0.2090    140.6319     24.8209
   990.7000      8.1200      2.6090      0.0061      2.4832    145.9152     25.1480
   990.8000      8.1476      2.5811     -0.0046      4.1749    151.9332     25.3515
   990.9000      8.1476      2.5760      0.0013      4.4866    155.4427     25.4849
   991.0000      8.1576      2.5877      0.0322      3.7770    154.7395     25.5397
   991.1000      8.1576      2.5925      0.0919      3.4839    148.8068     25.7955
   991.2000      8.1576      2.5782      0.0329      4.3538    141.0135     26.2619
   991.3000      8.1596      2.5568      0.0294      5.6494    138.9426     26.6257
   991.4000      8.1596      2.5428      0.0089      6.4960    144.3080     26.8348
   991.5000      8.1597      2.5425      0.0006      6.5158    149.0222     27.0125
   991.6000      8.1597      2.5542      0.0090      5.8047    146.8308     27.2196
   991.7000      8.1597      2.5666      0.0292      5.0557    140.3184     27.4390
   991.8000      8.1634      2.5665      0.0406      5.0616    136.7037     27.4865
   991.9000      8.1634      2.5539      0.0414      5.8235    140.1369     27.2996
   992.0000      8.1687      2.5405      0.0175      6.6376    147.8776     27.1100
   992.1000      8.1687      2.5396     -0.0024      6.6904    152.0701     26.9818
   992.2000      8.1687      2.5501      0.0587      6.0570    147.7149     26.7690
   992.3000      8.1705      2.5610      0.0288      5.3916    140.5172     26.4925
   992.4000      8.1705      2.5692      0.0733      4.8998    137.5939     26.4010
   992.5000      8.1688      2.5715      0.0557      4.7578    137.1825     26.5564
   992.6000      8.1688      2.5737      0.0627      4.6220    137.0719     26.8112
   992.7000      8.1688      2.5788      0.1188      4.3121    139.1461     27.1030
   992.8000      8.1661      2.5746      0.1309      4.5681    143.5644     27.3413
   992.9000      8.1661      2.5620      0.1020      5.3349    148.0962     27.4277
   993.0000      8.1627      2.5556      0.0944      5.7210    150.4633     27.5214
   993.1000      8.1627      2.5655      0.0444      5.1234    149.9661     27.8359
   993.2000      8.1627      2.5897      0.1141      3.6574    146.7623     28.1548
   993.3000      8.1638      2.6167      0.0508      2.0156    140.6540     28.2368
   993.4000      8.1638      2.6474      0.0432      0.1570    134.5251     28.1962
   993.5000      8.1652      2.6819      0.1207     -1.9317    131.2039     28.1673
   993.6000      8.1652      2.7082      0.0966     -3.5288    128.5923     28.1097
   993.7000      8.1652      2.7244      0.1274     -4.5081    126.3055     27.7235
   993.8000      8.1625      2.7328      0.1416     -5.0201    128.5359     26.8790
   993.9000      8.1625      2.7270      0.1589     -4.6664    134.0186     26.1329
   994.0000      8.1609      2.7005      0.1890     -3.0584    136.6210     26.1708
   994.1000      8.1609      2.6616      0.1272     -0.7008    135.9887     26.6630
   994.2000      8.1609      2.6275      0.0796      1.3616    134.1845     26.8698
   994.3000      8.1666      2.5985      0.0940      3.1199    133.0266     26.8622
   994.4000      8.1666      2.5675      0.0696      4.9978    135.1201     26.8598
   994.5000      8.1773      2.5460      0.0672      6.3003    141.6170     26.7455
   994.6000      8.1773      2.5447      0.0737      6.3827    151.0215     26.4099
   994.7000      8.1773      2.5556      0.0916      5.7227    160.0901     26.0635
   994.8000      8.1787      2.5685      0.1486      4.9397    164.4001     26.2204
   994.9000      8.1787      2.5797      0.1820      4.2595    159.3842     26.8210
   995.0000      8.1747      2.5849      0.1929      3.9431    147.4671     27.1485
   995.1000      8.1747      2.5784      0.1906      4.3374    137.6639     26.9437
   995.2000      8.1747      2.5661      0.1482      5.0872    135.7833     26.5630
   995.3000      8.1745      2.5593      0.1347      5.4951    139.9936     26.2717
   995.4000      8.1745      2.5586      0.0842      5.5370    144.5399     26.1705
   995.5000      8.1737      2.5648      0.0813      5.1626    147.5588     26.3436
   995.6000      8.1737      2.5764      0.0943      4.4633    149.7800     26.7448
   995.7000      8.1737      2.5789      0.0995      4.3114    149.1429     27.2689
   995.8000      8.1635      2.5698      0.0478      4.8612    145.2464     27.6092
   995.9000      8.1635      2.5617      0.0395      5.3513    142.0130     27.5208
   996.0000      8.1593      2.5568      0.0523      5.6508    143.1801     27.1499
   996.1000      8.1593      2.5493      0.0425      6.1016    146.7384     26.6090
   996.2000      8.1593      2.5404      0.0181      6.6396    148.9331     26.1064
   996.3000      8.1687      2.5340      0.0191      7.0294    148.3772     25.9557
   996.4000      8.1687      2.5268      0.0224      7.4680    145.3508     26.0260
   996.5000      8.1757      2.5134     -0.0040      8.2760    143.5636     25.9678
   996.6000      8.1757      2.4966      0.0428      9.2954    145.4228     25.8733
   996.7000      8.1757      2.4824      0.0360     10.1580    147.0189     26.0975
   996.8000      8.1698      2.4746      0.0556     10.6330    145.2171     26.8634
   996.9000      8.1698      2.4710      0.0817     10.8462    142.0624     27.7337
   997.0000      8.1565      2.4717      0.0276     10.8056    139.4776     27.9262
   997.1000      8.1565      2.4778      0.0496     10.4390    137.9697     27.6022
