~Version Information
VERS.                      2.0: CWLS Log ASCII Standard - VERSION 2.0
WRAP.                       NO: One line per depth step
~Well Information Block
STRT.FT               846.6000: 
STOP.FT              2609.1000: 
STEP.FT                 0.1000: 
NULL.                -999.2500: 
COMP.          Petrogulf Corporation: COMPANY
WELL.            Lavedure 7-44: WELL
FLD.           Purgatoire River: FIELD
LOC.           969' FSL & 501' FEL: LOCATION
PROV.                 Colorado: PROVINCE
CNTY.               Las Animas: COUNTRY
SRVC.                Patterson: SERVICE COMPANY
DATE.          Sun Dec 07 14:55:17 2003: LOG DATE
UWI.                          : UNIQUE WELL ID
~Curve Information Block
DEPT.FT            0 000 00 00: Depth
DCAL.in                       : CDL Caliper
RHOB.g/cc                     : CDL Bulk Density
RHOC.g/cc                     : CDL Density Correction
DPOR.pu                       : CDL Density Porosity
GR.GAPI                       : Gamma Ray
NPOR.pu                       : Neutron Porosity
~Parameter Information Block
~A  Depth       DCAL        RHOB        RHOC        DPOR         GR         NPOR    
# ...
   981.0000      8.0689      2.5665      0.0188      5.0623     51.8981     11.8745
   981.1000      8.0689      2.5611      0.0181      5.3871     51.9341     12.2415
   981.2000      8.0689      2.5556      0.0180      5.7239     52.2710     12.6068
   981.3000      8.0706      2.5499      0.0186      6.0692     52.8927     12.9607
   981.4000      8.0706      2.5441      0.0198      6.4191     53.7631     13.2931
   981.5000      8.0939      2.5383      0.0217      6.7698     54.8283     13.5944
   981.6000      8.0939      2.5326      0.0240      7.1174     56.0184     13.8559
   981.7000      8.0939      2.5269      0.0267      7.4583     57.2540     14.0713
   981.8000      8.1418      2.5215      0.0297      7.7892     58.4558     14.2368
   981.9000      8.1418      2.5162      0.0327      8.1073     59.5499     14.3523
   982.0000      8.1971      2.5112      0.0356      8.4104     60.4813     14.4216
   982.1000      8.1971      2.5065      0.0382      8.6970     61.2225     14.4526
   982.2000      8.1971      2.5021      0.0405      8.9664     61.7771     14.4565
   982.3000      8.2227      2.4979      0.0425      9.2188     62.1804     14.4466
   982.4000      8.2227      2.4940      0.0441      9.4551     62.4907     14.4368
   982.5000      8.2196      2.4903      0.0454      9.6771     62.7803     14.4402
   982.6000      8.2196      2.4869      0.0464      9.8872     63.1217     14.4670
   982.7000      8.2196      2.4835      0.0470     10.0881     63.5738     14.5241
   982.8000      8.2168      2.4803      0.0474     10.2826     64.1675     14.6142
   982.9000      8.2168      2.4772      0.0475     10.4736     64.9029     14.7363
   983.0000      8.2183      2.4741      0.0473     10.6633     65.7456     14.8857
   983.1000      8.2183      2.4709      0.0469     10.8532     66.6350     15.0556
   983.2000      8.2183      2.4678      0.0463     11.0440     67.4931     15.2371
   983.3000      8.2177      2.4646      0.0455     11.2349     68.2393     15.4213
   983.4000      8.2177      2.4615      0.0446     11.4242     68.8057     15.5988
   983.5000      8.2196      2.4585      0.0437     11.6090     69.1465     15.7615
   983.6000      8.2196      2.4555      0.0427     11.7854     69.2462     15.9026
   983.7000      8.2196      2.4528      0.0419     11.9491     69.1242     16.0171
   983.8000      8.2233      2.4504      0.0411     12.0955     68.8292     16.1020
   983.9000      8.2233      2.4484      0.0404     12.2204     68.4339     16.1563
   984.0000      8.2310      2.4467      0.0399     12.3202     68.0210     16.1809
   984.1000      8.2310      2.4455      0.0394     12.3925     67.6737     16.1785
   984.2000      8.2310      2.4448      0.0389     12.4364     67.4589     16.1529
   984.3000      8.2378      2.4445      0.0384     12.4523     67.4184     16.1083
   984.4000      8.2378      2.4447      0.0378     12.4426     67.5573     16.0499
   984.5000      8.2440      2.4452      0.0371     12.4107     67.8456     15.9821
   984.6000      8.2440      2.4460      0.0362     12.3613     68.2206     15.9090
   984.7000      8.2440      2.4471      0.0353     12.2998     68.5981     15.8341
   984.8000      8.2598      2.4482      0.0342     12.2319     68.8873     15.7597
   984.9000      8.2598      2.4493      0.0330     12.1630     69.0046     15.6873
   985.0000      8.2803      2.4504      0.0319     12.0979     68.8926     15.6174
   985.1000      8.2803      2.4513      0.0308     12.0405     68.5270     15.5502
   985.2000      8.2803      2.4521      0.0300     11.9936     67.9220     15.4853
   985.3000      8.3002      2.4527      0.0295     11.9589     67.1300     15.4234
   985.4000      8.3002      2.4530      0.0295     11.9370     66.2321     15.3652
   985.5000      8.3166      2.4532      0.0299     11.9278     65.3274     15.3130
   985.6000      8.3166      2.4532      0.0308     11.9303     64.5202     15.2697
   985.7000      8.3166      2.4529      0.0322     11.9433     63.9087     15.2395
   985.8000      8.3216      2.4526      0.0339     11.9655     63.5724     15.2267
   985.9000      8.3216      2.4521      0.0359     11.9955     63.5670     15.2359
   986.0000      8.3180      2.4515      0.0379     12.0320     63.9184     15.2716
   986.1000      8.3180      2.4508      0.0398     12.0739     64.6184     15.3381
   986.2000      8.3180      2.4500      0.0415     12.1202     65.6286     15.4397
   986.3000      8.3124      2.4492      0.0427     12.1699     66.8868     15.5812
   986.4000      8.3124      2.4483      0.0435     12.2222     68.3109     15.7682
   986.5000      8.2909      2.4474      0.0438     12.2762     69.8155     16.0072
   986.6000      8.2909      2.4465      0.0436     12.3308     71.3211     16.3059
   986.7000      8.2909      2.4456      0.0431     12.3853     72.7664     16.6728
   986.8000      8.2483      2.4448      0.0423     12.4389     74.1217     17.1164
   986.9000      8.2483      2.4439      0.0412     12.4909     75.3926     17.6442
   987.0000      8.2075      2.4431      0.0402     12.5411     76.6206     18.2613
   987.1000      8.2075      2.4423      0.0391     12.5893     77.8799     18.9694
   987.2000      8.2075      2.4415      0.0382     12.6354     79.2678     19.7646
   987.3000      8.1865      2.4408      0.0375     12.6795     80.8960     20.6374
   987.4000      8.1865      2.4401      0.0371     12.7213     82.8741     21.5712
   987.5000      8.1847      2.4395      0.0371     12.7601     85.2994     22.5440
   987.6000      8.1847      2.4389      0.0377     12.7942     88.2449     23.5282
   987.7000      8.1847      2.4385      0.0389     12.8211     91.7485     24.4938
   987.8000      8.1915      2.4382      0.0408     12.8368     95.8063     25.4099
   987.9000      8.1915      2.4382      0.0437     12.8362    100.3706     26.2482
   988.0000      8.1925      2.4386      0.0474     12.8133    105.3489     26.9849
   988.1000      8.1925      2.4394      0.0519     12.7611    110.6136     27.6030
   988.2000      8.1925      2.4409      0.0572     12.6727    116.0114     28.0932
   988.3000      8.1763      2.4431      0.0631     12.5417    121.3810     28.4544
   988.4000      8.1763      2.4460      0.0691     12.3629    126.5679     28.6928
   988.5000      8.1617      2.4498      0.0751     12.1328    131.4424     28.8211
   988.6000      8.1617      2.4545      0.0806     11.8504    135.9109     28.8570
   988.7000      8.1617      2.4600      0.0853     11.5176    139.9199     28.8208
   988.8000      8.1778      2.4662      0.0889     11.1390    143.4543     28.7337
   988.9000      8.1778      2.4731      0.0912     10.7220    146.5289     28.6161
   989.0000      8.2106      2.4804      0.0920     10.2762    149.1804     28.4854
   989.1000      8.2106      2.4881      0.0914      9.8131    151.4500     28.3555
   989.2000      8.2106      2.4958      0.0894      9.3449    153.3799     28.2355
   989.3000      8.2337      2.5034      0.0862      8.8839    155.0059     28.1303
   989.4000      8.2337      2.5107      0.0818      8.4416    156.3531     28.0401
   989.5000      8.2618      2.5175      0.0766      8.0278    157.4487     27.9627
   989.6000      8.2618      2.5238      0.0707      7.6505    158.3215     27.8936
   989.7000      8.2618      2.5293      0.0646      7.3154    159.0074     27.8284
   989.8000      8.2852      2.5341      0.0584      7.0257    159.5518     27.7634
   989.9000      8.2852      2.5381      0.0524      6.7828    160.0036     27.6974
   990.0000      8.2942      2.5413      0.0468      6.5860    160.4093     27.6320
   990.1000      8.2942      2.5438      0.0417      6.4338    160.8049     27.5710
   990.2000      8.2942      2.5457      0.0373      6.3238    161.2077     27.5204
   990.3000      8.2968      2.5468      0.0335      6.2532    161.6140     27.4867
   990.4000      8.2968      2.5474      0.0304      6.2194    162.0031     27.4757
   990.5000      8.2942      2.5474      0.0279      6.2198    162.3469     27.4908
