~Version Information
VERS.                      2.0: CWLS Log ASCII Standard - VERSION 2.0
WRAP.                       NO: One line per depth step
~Well Information Block
STRT.FT               430.0000: 
STOP.FT              2417.0000: 
STEP.FT                 0.2500: 
NULL.                -999.2500: 
COMP.          Evergreen Operating Corporation: COMPANY
WELL.          McCullough 34-32: WELL
FLD.           Purgatorie River: FIELD
LOC.           261' FSL & 2098' FEL: LOCATION
PROV.                 Colorado: PROVINCE
CNTY.               Las Animas: COUNTRY
SRVC.                Patterson: SERVICE COMPANY
DATE.          Sun May 16 02:33:07 2004: LOG DATE
UWI.           05 071 07953 00: UNIQUE WELL ID
~Curve Information Block
DEPT.FT            0 000 00 00: Depth
SN.Ohm-m                      : IEL Short Normal
SP.mV                         : IEL Spontaneous Potential
DIR.Ohm-m                     : IEL Induction Resistivity
GR.GAPI                       : Gamma Ray
~Parameter Information Block
~A  Depth        SN          SP         DIR          GR     
# ...
  1602.5000     18.4918    129.8412     15.3170    139.4032
  1602.7500     19.5083    129.4923     15.8552    129.0858
  1603.0000     21.3334    129.2258     16.4523    114.1050
  1603.2500     24.1346    129.1261     17.1150    106.5946
  1603.5000     27.3815    129.2249     17.8279    100.7352
  1603.7500     30.0380    129.5001     18.5387     99.9991
  1604.0000     31.3348    129.8989     19.1564    101.7551
  1604.2500     31.2486    130.3634     19.5701    104.0421
  1604.5000     30.2638    130.8401     19.6876    109.0895
  1604.7500     28.8863    131.2757     19.4687    113.8421
  1605.0000     27.4109    131.6171     18.9312    122.8389
  1605.2500     25.9394    131.8255     18.1366    129.1909
  1605.5000     24.4886    131.8945     17.1755    137.1720
  1605.7500     23.0821    131.8547     16.1521    140.7542
  1606.0000     21.7227    131.7619     15.1620    143.8666
  1606.2500     20.3225    131.6803     14.2711    145.1767
  1606.5000     18.7561    131.6663     13.5079    147.2322
  1606.7500     17.0063    131.7535     12.8710    149.1388
  1607.0000     15.2308    131.9396     12.3429    153.1325
  1607.2500     13.6812    132.1851     11.9021    156.4689
  1607.5000     12.5693    132.4311     11.5303    161.9854
  1607.7500     12.0048    132.6304     11.2138    165.5886
  1608.0000     11.9911    132.7661     10.9441    170.1362
  1608.2500     12.4232    132.8437     10.7183    172.2159
  1608.5000     13.0919    132.8716     10.5376    173.5075
  1608.7500     13.7472    132.8537     10.4059    173.1942
  1609.0000     14.2215    132.7936     10.3265    171.3971
  1609.2500     14.5086    132.6919     10.3002    169.4308
  1609.5000     14.7116    132.5329     10.3247    165.2163
  1609.7500     14.9030    132.2869     10.3954    161.9064
  1610.0000     15.0437    131.9394     10.5061    158.1126
  1610.2500     15.0837    131.5201     10.6495    157.5407
  1610.5000     15.0835    131.0950     10.8171    159.7135
  1610.7500     15.1462    130.7280     10.9991    162.0118
  1611.0000     15.2865    130.4489     11.1855    164.4765
  1611.2500     15.4199    130.2490     11.3683    165.0409
  1611.5000     15.4165    130.0963     11.5448    165.1643
  1611.7500     15.1350    129.9596     11.7207    165.3521
  1612.0000     14.4922    129.8264     11.9097    165.4125
  1612.2500     13.6156    129.7089     12.1306    164.4687
  1612.5000     12.8799    129.6362     12.4037    160.9379
  1612.7500     12.7079    129.6344     12.7478    157.8560
  1613.0000     13.3864    129.7012     13.1781    154.0284
  1613.2500     14.9993    129.7927     13.7043    152.5246
  1613.5000     17.3062    129.8416     14.3242    151.1585
  1613.7500     19.7221    129.7961     15.0154    149.9292
  1614.0000     21.6765    129.6487     15.7290    146.1113
  1614.2500     23.0131    129.4318     16.3979    141.8838
  1614.5000     23.9490    129.1901     16.9617    133.6883
  1614.7500     24.7548    128.9495     17.3982    127.7547
  1615.0000     25.5427    128.7038     17.7362    119.0091
  1615.2500     26.2366    128.4352     18.0372    113.4439
  1615.5000     26.6820    128.1598     18.3598    105.9454
  1615.7500     26.8422    127.9555     18.7265    102.2309
  1616.0000     26.8610    127.9334     19.1111    100.5179
  1616.2500     26.8551    128.1627     19.4462    102.9671
  1616.5000     26.7153    128.6137     19.6528    112.0853
  1616.7500     26.2253    129.1671     19.6747    120.3918
  1617.0000     25.3251    129.6825     19.4984    132.4293
  1617.2500     24.1646    130.0706     19.1471    138.4973
  1617.5000     22.9528    130.3153     18.6591    144.2242
  1617.7500     21.8374    130.4413     18.0762    146.4923
  1618.0000     20.8869    130.4705     17.4430    148.4969
  1618.2500     20.1051    130.4095     16.8075    148.9449
  1618.5000     19.4542    130.2712     16.2115    148.3997
  1618.7500     18.8984    130.0919     15.6762    147.7159
  1619.0000     18.4342    129.9214     15.1972    147.4773
  1619.2500     18.0627    129.7938     14.7554    148.3947
  1619.5000     17.7470    129.7103     14.3383    151.4880
  1619.7500     17.4296    129.6473     13.9553    154.3050
  1620.0000     17.0833    129.5821     13.6343    158.7797
  1620.2500     16.7212    129.5080     13.4053    161.5007
  1620.5000     16.3770    129.4283     13.2832    164.6296
  1620.7500     16.0877    129.3363     13.2594    165.9720
  1621.0000     15.8947    129.2086     13.3050    167.3247
  1621.2500     15.8349    129.0163     13.3776    168.1546
  1621.5000     15.8481    128.7433     13.4320    169.0287
  1621.7500     15.7191    128.3968     13.4276    168.5510
  1622.0000     15.2303    128.0106     13.3354    164.7211
  1622.2500     14.3784    127.6438     13.1453    159.7930
  1622.5000     13.4198    127.3744     12.8753    149.8838
  1622.7500     12.7719    127.2783     12.5736    142.9911
  1623.0000     12.8442    127.3911     12.3048    135.0017
  1623.2500     13.7775    127.6798     12.1247    132.4034
  1623.5000     15.2676    128.0527     12.0576    132.8772
  1623.7500     16.7403    128.4062     12.0896    135.2985
  1624.0000     17.7340    128.6760     12.1769    139.9401
  1624.2500     18.1050    128.8556     12.2666    142.6868
  1624.5000     17.9757    128.9769     12.3159    145.7176
  1624.7500     17.5823    129.0766     12.3023    147.2301
  1625.0000     17.1326    129.1732     12.2240    149.2218
  1625.2500     16.7282    129.2607     12.0954    150.4667
  1625.5000     16.3739    129.3151     11.9428    152.2228
  1625.7500     16.0446    129.3085     11.7981    153.3677
  1626.0000     15.7473    129.2255     11.6888    155.1916
  1626.2500     15.5236    129.0726     11.6277    156.5061
  1626.5000     15.4149    128.8736     11.6091    158.5066
  1626.7500     15.4410    128.6533     11.6157    159.7380
  1627.0000     15.5621    128.4246     11.6320    161.0838
  1627.2500     15.6480    128.1914     11.6524    161.3541
  1627.5000     15.6015    127.9610     11.6798    160.6246
  1627.7500     15.4844    127.7496     11.7194    159.6787
  1628.0000     15.4082    127.5752     11.7742    158.1879
  1628.2500     15.4004    127.4471     11.8477    157.0397
  1628.5000     15.4365    127.3624     11.9484    154.4327
  1628.7500     15.5092    127.3131     12.0915    152.2859
  1629.0000     15.6308    127.2995     12.2944    150.2001
  1629.2500     15.8002    127.3347     12.5692    150.5740
  1629.5000     15.9994    127.4280     12.9159    153.7730
  1629.7500     16.2181    127.5591     13.3213    156.6369
  1630.0000     16.4568    127.6764     13.7645    159.7621
  1630.2500     16.7110    127.7300     14.2246    159.9958
  1630.5000     16.9796    127.7067     14.6855    156.5195
  1630.7500     17.2691    127.6297     15.1372    151.4197
  1631.0000     17.5654    127.5290     15.5742    139.5933
  1631.2500     17.8658    127.4184     15.9961    129.3319
  1631.5000     18.3344    127.2963     16.4111    112.7363
  1631.7500     19.3515    127.1600     16.8402    103.2335
  1632.0000     21.1893    127.0166     17.3179     95.0078
  1632.2500     23.6200    126.8862     17.8871     94.0677
  1632.5000     26.0647    126.7965     18.5886     97.2984
  1632.7500     28.1215    126.7753     19.4504    100.7985
  1633.0000     29.7395    126.8460     20.4795    106.5358
  1633.2500     30.9908    127.0215     21.6579    110.5018
  1633.5000     31.9249    127.2898     22.9391    115.8545
  1633.7500     32.6134    127.6029     24.2452    117.9526
  1634.0000     33.1765    127.8889     25.4697    117.1857
  1634.2500     33.7670    128.0860     26.4992    113.9566
  1634.5000     34.5929    128.1700     27.2529    106.6486
  1634.7500     35.8601    128.1566     27.7167    101.4790
  1635.0000     37.6222    128.0835     27.9411     94.9237
  1635.2500     39.7733    127.9911     28.0042     91.7720
  1635.5000     42.1488    127.9096     27.9728     88.9136
  1635.7500     44.4835    127.8537     27.8871     87.8411
