~Version Information
VERS.                      2.0: CWLS Log ASCII Standard - VERSION 2.0
WRAP.                       NO: One line per depth step
~Well Information Block
STRT.FT               260.0000: 
STOP.FT              2269.5000: 
STEP.FT                 0.1000: 
NULL.                -999.2500: 
COMP.          Pioneer Natural Resources: COMPANY
WELL.            Moo Moo 31-36: WELL
FLD.           Purgatoire River: FIELD
LOC.           612' FNL & 2326' FEL: LOCATION
PROV.                 Colorado: PROVINCE
CNTY.               Las Animas: COUNTRY
SRVC.                Patterson: SERVICE COMPANY
DATE.          Fri Jun 17 07:04:43 2005: LOG DATE
UWI.           05 071 08395 00: UNIQUE WELL ID
~Curve Information Block
DEPT.FT            0 000 00 00: Depth
DCAL.in                       : CDL Caliper
RHOB.g/cc                     : CDL Bulk Density
RHOC.g/cc                     : CDL Density Correction
DPOR.pu                       : CDL Density Porosity
GR.GAPI                       : Gamma Ray
NPOR.pu                       : Neutron Porosity
~Parameter Information Block
~A  Depth       DCAL        RHOB        RHOC        DPOR         GR         NPOR    
# ...
  1988.0000      7.9991      2.5945      0.1018      3.3612    117.6995     24.0712
  1988.1000      7.9991      2.5989      0.0472      3.0989    116.2501     24.2093
  1988.2000      7.9991      2.5789     -0.0271      4.3097    115.2202     24.5019
  1988.3000      8.0378      2.5505     -0.0041      6.0297    116.6001     24.8544
  1988.4000      8.0378      2.5214      0.0277      7.7924    118.1341     25.1353
  1988.5000      8.0413      2.4944      0.0199      9.4313    115.9250     25.1012
  1988.6000      8.0413      2.4702      0.0265     10.8955    111.2897     25.1133
  1988.7000      8.0413      2.4505     -0.0169     12.0921    110.4874     25.2411
  1988.8000      8.0434      2.4420      0.0197     12.6082    117.8202     24.6126
  1988.9000      8.0434      2.4462      0.0269     12.3490    128.7409     23.3853
  1989.0000      8.0522      2.4530      0.0151     11.9396    135.1913     23.2642
  1989.1000      8.0522      2.4581     -0.0194     11.6274    134.5642     24.8025
  1989.2000      8.0522      2.4780     -0.0059     10.4272    130.5431     26.1648
  1989.3000      8.0449      2.5210      0.0566      7.8195    126.0460     26.2156
  1989.4000      8.0449      2.5663      0.0922      5.0740    120.0915     25.9188
  1989.5000      8.0894      2.5966      0.1099      3.2380    112.3061     25.7668
  1989.6000      8.0894      2.6113      0.1176      2.3468    106.2890     25.5748
  1989.7000      8.0894      2.6081      0.1618      2.5391    104.4147     25.2448
  1989.8000      8.0440      2.5910      0.0944      3.5787    104.8631     24.9348
  1989.9000      8.0440      2.5715      0.0868      4.7563    106.9445     24.7631
  1990.0000      7.9894      2.5586      0.0782      5.5403    111.5682     24.8520
  1990.1000      7.9894      2.5584      0.0960      5.5516    117.4222     25.3491
  1990.2000      7.9894      2.5671      0.1158      5.0252    120.8434     25.6773
  1990.3000      7.9625      2.5727      0.0700      4.6830    120.7266     25.4935
  1990.4000      7.9625      2.5721      0.0984      4.7240    119.3440     25.4924
  1990.5000      7.9608      2.5693      0.0754      4.8929    117.7527     26.2323
  1990.6000      7.9608      2.5631      0.0780      5.2696    118.7783     27.1317
  1990.7000      7.9608      2.5483      0.0552      6.1626    122.8591     27.2779
  1990.8000      7.9760      2.5295      0.0662      7.3055    125.5372     26.6701
  1990.9000      7.9760      2.5200     -0.0232      7.8770    126.4578     25.9589
  1991.0000      7.9771      2.5280      0.0070      7.3962    125.7659     25.5716
  1991.1000      7.9771      2.5433      0.0308      6.4644    121.4086     25.2297
  1991.2000      7.9771      2.5534      0.0552      5.8553    114.2597     24.8294
  1991.3000      7.9755      2.5583      0.0569      5.5555    106.3959     24.9958
  1991.4000      7.9755      2.5586      0.0782      5.5393    100.3533     25.9645
  1991.5000      7.9721      2.5562      0.0681      5.6851     98.5501     26.9790
  1991.6000      7.9721      2.5654      0.0721      5.1254     97.7967     27.2850
  1991.7000      7.9721      2.5925      0.1272      3.4861     92.9616     26.5233
  1991.8000      7.9747      2.6344      0.1136      0.9447     85.8732     25.3805
  1991.9000      7.9747      2.6890      0.1736     -2.3637     79.0797     25.2687
  1992.0000      7.9683      2.7331      0.2143     -5.0351     70.7688     25.9689
  1992.1000      7.9683      2.7405      0.1988     -5.4868     60.2045     26.0465
  1992.2000      7.9683      2.7204      0.1663     -4.2648     50.7684     25.5411
  1992.3000      7.9550      2.7092      0.1451     -3.5852     46.4552     25.2645
  1992.4000      7.9550      2.7295      0.0365     -4.8210     46.0714     24.8763
  1992.5000      7.9548      2.7626      0.0502     -6.8234     45.6926     24.3470
  1992.6000      7.9548      2.7709      0.0427     -7.3245     44.9376     24.1084
  1992.7000      7.9548      2.7488      0.0415     -5.9864     45.0663     23.6568
  1992.8000      7.9595      2.7260     -0.0128     -4.6082     45.1892     22.5196
  1992.9000      7.9595      2.7288      0.0077     -4.7775     44.8236     20.9293
  1993.0000      7.9409      2.7481      0.0738     -5.9481     45.7895     19.6409
  1993.1000      7.9409      2.7641      0.0362     -6.9137     48.7129     19.0512
  1993.2000      7.9409      2.7824      0.0661     -8.0224     49.8389     18.4573
  1993.3000      7.9502      2.8053      0.0256     -9.4108     46.6965     17.4026
  1993.4000      7.9502      2.8202      0.0629    -10.3158     43.3873     16.4489
  1993.5000      7.9590      2.8262      0.0235    -10.6769     43.4407     15.8826
  1993.6000      7.9590      2.8289      0.0600    -10.8421     46.1072     15.7989
  1993.7000      7.9590      2.8303      0.0052    -10.9280     50.8114     16.3124
  1993.8000      7.9640      2.8370      0.0577    -11.3346     55.5238     16.6801
  1993.9000      7.9640      2.8551      0.0127    -12.4308     57.0699     16.0655
  1994.0000      7.9562      2.8848      0.0232    -14.2322     55.9504     14.9792
  1994.1000      7.9562      2.9041      0.1125    -15.4029     53.4521     14.5296
  1994.2000      7.9562      2.8797      0.0723    -13.9225     49.3335     14.8526
  1994.3000      7.9517      2.8240     -0.0267    -10.5427     45.2053     15.1892
  1994.4000      7.9517      2.7825      0.0192     -8.0325     43.3066     15.4181
  1994.5000      7.9500      2.7739      0.0108     -7.5106     43.5037     16.2748
  1994.6000      7.9500      2.7793      0.0551     -7.8379     44.3063     17.5095
  1994.7000      7.9500      2.7735     -0.0043     -7.4822     44.4654     18.2070
  1994.8000      7.9476      2.7536      0.0227     -6.2799     43.9023     18.5124
  1994.9000      7.9476      2.7226     -0.0032     -4.3970     43.3605     18.4275
  1995.0000      7.9491      2.6735     -0.0439     -1.4267     44.9537     17.6531
  1995.1000      7.9491      2.6063     -0.0053      2.6513     48.7045     17.2769
  1995.2000      7.9491      2.5376     -0.0367      6.8147     50.8171     18.3656
  1995.3000      7.9595      2.4817     -0.0611     10.1996     52.2896     20.0406
  1995.4000      7.9595      2.4217     -0.0339     13.8388     59.1551     20.8839
  1995.5000      7.9693      2.3426     -0.0855     18.6287     69.6546     21.3046
  1995.6000      7.9693      2.2739     -0.0916     22.7926     77.4156     22.4490
  1995.7000      7.9693      2.2465     -0.0462     24.4575     83.7779     24.3050
  1995.8000      7.9776      2.2594      0.0061     23.6756     90.5348     26.1311
  1995.9000      7.9776      2.2999      0.0540     21.2156     94.0590     26.9747
  1996.0000      7.9772      2.3598      0.1141     17.5861     94.6544     26.5090
  1996.1000      7.9772      2.4273      0.2085     13.4947     96.6944     25.9316
  1996.2000      7.9772      2.4760      0.2369     10.5484     99.2097     26.2506
  1996.3000      7.9810      2.4802      0.2036     10.2892     99.3740     26.8400
  1996.4000      7.9810      2.4373      0.1172     12.8899     97.1120     26.8982
  1996.5000      7.9871      2.3623      0.1055     17.4375     92.1306     26.4626
  1996.6000      7.9871      2.2773      0.0824     22.5884     84.9606     25.7431
  1996.7000      7.9871      2.2079      0.0663     26.7932     77.7430     25.1514
  1996.8000      7.9907      2.1543      0.1053     30.0438     71.7242     25.1020
  1996.9000      7.9907      2.0875      0.0863     34.0888     66.7502     25.2361
  1997.0000      8.0131      1.9988      0.0620     39.4674     62.8203     25.3182
  1997.1000      8.0131      1.9051      0.0872     45.1459     59.3511     25.8462
  1997.2000      8.0131      1.8197      0.0676     50.3212     56.6597     26.8676
  1997.3000      8.0157      1.7516      0.0558     54.4509     54.9349     27.7152
  1997.4000      8.0157      1.7007      0.0608     57.5356     53.2054     28.1569
  1997.5000      7.9751      1.6597      0.0351     60.0156     51.5739     28.4299
