~Version Information
VERS.                      2.0: CWLS Log ASCII Standard - VERSION 2.0
WRAP.                       NO: One line per depth step
~Well Information Block
STRT.FT               419.7500: 
STOP.FT              1170.0000: 
STEP.FT                 0.2500: 
NULL.                -999.2500: 
COMP.          Evergreen Operating Corporation: COMPANY
WELL.             Bernice 21-3: WELL
FLD.           Purgatoire River: FIELD
LOC.           201' FNL & 2575' FWL: LOCATION
PROV.                 Colorado: PROVINCE
CNTY.               Las Animas: COUNTRY
SRVC.                Patterson: SERVICE COMPANY
DATE.          Mon Jan 26 13:04:04 2004: LOG DATE
UWI.           05 071 07912   : UNIQUE WELL ID
~Curve Information Block
DEPT.FT            0 000 00 00: Depth
SN.Ohm-m                      : IEL Short Normal
SP.mV                         : IEL Spontaneous Potential
DIR.Ohm-m                     : IEL Induction Resistivity
GR.GAPI                       : Gamma Ray
~Parameter Information Block
~A  Depth        SN          SP         DIR          GR     
# ...
  1089.7500     16.8892    -22.1467     16.6919    112.2755
  1090.0000     16.5990    -21.6436     16.4278    112.9548
  1090.2500     16.3946    -21.2281     16.1719    112.3345
  1090.5000     16.2773    -20.9465     16.0118    108.5986
  1090.7500     16.2378    -20.8243     16.0006    104.3010
  1091.0000     16.2791    -20.8370     16.1247     96.5063
  1091.2500     16.3964    -20.9121     16.3173     91.5784
  1091.5000     16.5520    -20.9736     16.4923     86.3178
  1091.7500     16.6974    -20.9920     16.5766     84.6884
  1092.0000     16.8011    -20.9928     16.5304     84.7809
  1092.2500     16.8602    -21.0239     16.3640     86.0313
  1092.5000     16.8930    -21.1117     16.1419     88.7957
  1092.7500     16.9019    -21.2382     15.9615     90.7177
  1093.0000     16.8554    -21.3462     15.9074     92.7774
  1093.2500     16.7459    -21.3631     16.0106     93.2430
  1093.5000     16.6346    -21.2333     16.2366     92.7114
  1093.7500     16.5797    -20.9448     16.5076     91.8662
  1094.0000     16.5705    -20.5364     16.7408     90.1980
  1094.2500     16.5718    -20.0777     16.8807     88.8798
  1094.5000     16.5953    -19.6386     16.9132     86.9281
  1094.7500     16.7063    -19.2673     16.8628     86.0533
  1095.0000     16.9260    -18.9843     16.7763     85.9983
  1095.2500     17.1318    -18.7866     16.6977     86.7684
  1095.5000     17.1774    -18.6577     16.6464     88.2327
  1095.7500     17.0935    -18.5722     16.6203     88.7054
  1096.0000     17.0312    -18.4948     16.6167     87.9883
  1096.2500     17.0777    -18.3814     16.6497     86.7731
  1096.5000     17.1921    -18.1925     16.7406     85.1946
  1096.7500     17.2408    -17.9113     16.8927     85.2649
  1097.0000     17.1362    -17.5577     17.0799     87.8818
  1097.2500     16.9523    -17.1871     17.2632     91.0367
  1097.5000     16.8159    -16.8705     17.4213     96.9036
  1097.7500     16.7625    -16.6616     17.5646    101.1538
  1098.0000     16.7699    -16.5773     17.7166    107.0881
  1098.2500     16.8438    -16.6066     17.8821    109.5178
  1098.5000     17.0204    -16.7280     18.0373    108.3994
  1098.7500     17.3228    -16.9090     18.1506    104.1637
  1099.0000     17.7098    -17.1024     18.2173     95.0025
  1099.2500     18.0604    -17.2641     18.2730     89.0179
  1099.5000     18.2909    -17.3748     18.3697     81.9732
  1099.7500     18.4500    -17.4397     18.5358     78.4978
  1100.0000     18.6031    -17.4720     18.7503     74.6345
  1100.2500     18.7274    -17.4816     18.9484     72.9086
  1100.5000     18.7809    -17.4741     19.0536     71.7291
  1100.7500     18.7835    -17.4545     19.0153     72.0070
  1101.0000     18.7826    -17.4319     18.8351     74.1655
  1101.2500     18.7627    -17.4147     18.5692     76.5449
  1101.5000     18.6397    -17.4037     18.3056     80.3662
  1101.7500     18.3848    -17.3912     18.1237     82.3182
  1102.0000     18.1092    -17.3686     18.0581     83.9328
  1102.2500     17.9505    -17.3305     18.0868     84.4635
  1102.5000     17.8969    -17.2745     18.1463     85.0664
  1102.7500     17.7874    -17.1955     18.1609     85.3554
  1103.0000     17.5414    -17.0787     18.0710     85.2478
  1103.2500     17.2947    -16.8989     17.8552     84.7234
  1103.5000     17.1793    -16.6378     17.5466     83.7114
  1103.7500     17.1153    -16.3087     17.2255     83.3193
  1104.0000     16.9643    -15.9651     16.9820     83.3081
  1104.2500     16.7325    -15.6749     16.8695     83.2257
  1104.5000     16.5168    -15.4716     16.8801     82.1292
  1104.7500     16.3776    -15.3180     16.9565     80.8713
  1105.0000     16.3161    -15.1127     17.0282     79.6150
  1105.2500     16.3120    -14.7490     17.0510     80.0544
  1105.5000     16.3344    -14.1905     17.0234     82.6769
  1105.7500     16.3403    -13.4974     16.9752     84.8459
  1106.0000     16.3126    -12.7788     16.9431     87.1689
  1106.2500     16.2752    -12.1310     16.9507     88.0936
  1106.5000     16.2499    -11.6187     17.0028     90.1053
  1106.7500     16.2334    -11.2807     17.0881     92.6748
  1107.0000     16.2254    -11.1165     17.1843     97.7801
  1107.2500     16.2571    -11.0653     17.2645    100.6007
  1107.5000     16.3831    -11.0211     17.3020    101.6394
  1107.7500     16.6160    -10.8874     17.2730     99.8662
  1108.0000     16.8660    -10.6284     17.1579     94.8305
  1108.2500     17.0464    -10.2760     16.9407     91.2241
  1108.5000     17.2057     -9.8999     16.6176     87.4444
  1108.7500     17.4060     -9.5750     16.2093     86.4985
  1109.0000     17.5707     -9.3573     15.7720     86.8646
  1109.2500     17.6131     -9.2627     15.3893     87.4874
  1109.5000     17.5984     -9.2594     15.1448     87.7232
  1109.7500     17.6488     -9.2908     15.0865     87.1149
  1110.0000     17.7780     -9.3181     15.1980     85.6026
  1110.2500     17.8811     -9.3501     15.3948     84.9922
  1110.5000     17.8379     -9.4352     15.5579     85.8677
  1110.7500     17.5950     -9.6263     15.5983     87.7166
  1111.0000     17.1902     -9.9457     15.5052     91.4734
  1111.2500     16.7429    -10.3679     15.3339     94.0508
  1111.5000     16.3738    -10.8274     15.1512     97.7466
  1111.7500     16.1220    -11.2464     14.9909    100.1860
  1112.0000     15.9637    -11.5696     14.8449    103.6298
  1112.2500     15.8623    -11.7901     14.6853    105.6002
  1112.5000     15.7817    -11.9485     14.5015    108.7566
  1112.7500     15.7130    -12.1080     14.3287    112.0741
  1113.0000     15.6980    -12.3186     14.2417    120.2546
  1113.2500     15.7749    -12.5740     14.3124    127.4590
  1113.5000     15.9248    -12.7756     14.5677    138.3320
  1113.7500     16.1047    -12.7533     14.9734    143.8824
  1114.0000     16.2946    -12.3749     15.4507    147.7984
  1114.2500     16.4970    -11.6688     15.9126    147.4753
  1114.5000     16.7168    -10.8319     16.2957    144.1982
  1114.7500     16.9575    -10.0970     16.5693    141.2858
  1115.0000     17.2183     -9.5895     16.7265    136.9147
  1115.2500     17.4901     -9.3042     16.7742    134.2277
  1115.5000     17.7586     -9.1832     16.7242    130.9490
  1115.7500     17.9648     -9.1825     16.5855    129.3237
  1116.0000     17.9877     -9.2756     16.3585    126.5863
  1116.2500     17.7938     -9.4298     16.0423    123.4344
  1116.5000     17.5239     -9.5996     15.6555    116.0667
  1116.7500     17.3236     -9.7382     15.2482    110.5323
  1117.0000     17.2202     -9.8047     14.8890    104.7633
  1117.2500     17.1495     -9.7610     14.6315    104.0823
  1117.5000     16.9940     -9.5731     14.4816    107.6963
  1117.7500     16.7193     -9.2264     14.3900    111.9009
  1118.0000     16.4354     -8.7418     14.2788    118.4222
  1118.2500     16.1953     -8.1680     14.0932    121.9360
  1118.5000     15.9537     -7.5564     13.8387    125.0150
  1118.7500     15.7291     -6.9466     13.5687    125.4030
  1119.0000     15.5632     -6.3825     13.3375    124.1569
  1119.2500     15.4119     -5.9322     13.1669    123.1346
  1119.5000     15.2105     -5.6764     13.0415    123.0061
  1119.7500     14.9731     -5.6646     12.9234    123.9886
  1120.0000     14.7471     -5.8786     12.7729    125.6072
  1120.2500     14.5390     -6.2348     12.5706    125.6474
  1120.5000     14.3418     -6.6204     12.3285    123.2450
  1120.7500     14.1618     -6.9449     12.0810    120.4645
  1121.0000     13.9709     -7.1746     11.8606    116.6375
  1121.2500     13.6945     -7.3254     11.6806    115.5845
  1121.5000     13.2917     -7.4255     11.5332    116.9352
  1121.7500     12.8018     -7.4907     11.4001    119.1561
  1122.0000     12.3068     -7.5340     11.2649    123.0182
  1122.2500     11.8707     -7.5838     11.1174    125.6411
  1122.5000     11.5003     -7.6775     10.9528    129.6543
  1122.7500     11.1684     -7.8358     10.7691    132.0113
  1123.0000     10.8669     -8.0433     10.5650    133.8753
