~Version Information
 VERS.                                  2.0 : CWLS LAS VERSION
 WRAP.                                   NO : WRAPING MODE
 SWARE .                 MController 2.5.0J : SOFTWARE VERSION
~Well Information
 WELL.                           Ywam 7-23V : WELL
 COMP.                       Petrogulf Corp : COMPANY
 FLD.                      Purgatorie River : FIELD
 LOC.                 NE/SW Sec 7 T33S R67W : LOCATION
 DATE.                          10/29-30/04 : DATE(S) LOGGED
 SRVC.       Blanco Geological Services LLC : SERVICE COMPANY
 STAT.                                   CO : STATE
 CNTY.                           Las Animas : COUNTY
 CTRY.                                  USA : COUNTRY
 API.                       05-071-08227-00 : API NUMBER
 STRT.FT                             634.00 : START DEPTH
 STOP.FT                            2611.00 : STOP DEPTH
 STEP.FT                               1.00 : DEPTH INCREMENT
 NULL.                                -9999 : NULL VALUE
~Curve information
 DEPTH.FT                                   :
 ROP.MIN/FT                                 :
 GAS.UNITS                                  :
~ASCII Log data
# ...
      2434.0         0.50        171.1 
      2435.0         0.72        124.9 
      2436.0         0.60        101.0 
      2437.0         0.57        110.4 
      2438.0         0.60         89.6 
      2439.0         0.60         81.7 
      2440.0         0.58         81.4 
      2441.0         0.53         67.1 
      2442.0         0.57         44.7 
      2443.0         0.60         24.5 
      2444.0         0.63         15.9 
      2445.0         0.80         19.5 
      2446.0         0.65         45.0 
      2447.0         0.63         55.7 
      2448.0         0.53         47.8 
      2449.0         0.57         56.1 
      2450.0         0.53         70.9 
      2451.0         0.62         70.3 
      2452.0         0.47         63.4 
      2453.0         0.43         58.4 
      2454.0         0.43         70.0 
      2455.0         0.47         70.1 
      2456.0         0.53         69.3 
      2457.0         0.60         56.6 
      2458.0         0.68         35.1 
      2459.0         0.70         26.5 
      2460.0         0.77         22.5 
      2461.0         0.70        398.4 
      2462.0         2.22         52.5 
      2463.0         0.37         43.7 
      2464.0         0.37         48.2 
      2465.0         0.65         63.4 
      2466.0         0.57        127.4 
      2467.0         0.67        185.5 
      2468.0         0.73        177.0 
      2469.0         0.67         98.5 
      2470.0         0.62         52.7 
      2471.0         0.53         26.8 
      2472.0         0.73         41.2 
      2473.0         0.70         38.8 
      2474.0         0.53         23.6 
      2475.0         0.57         20.6 
      2476.0         0.38         20.1 
      2477.0         0.57         22.8 
      2478.0         0.60         69.5 
      2479.0         0.57         96.1 
      2480.0         0.40        126.4 
      2481.0         0.30        129.6 
      2482.0         0.37        124.9 
      2483.0         0.30        112.8 
      2484.0         0.38        100.5 
      2485.0         0.43         97.9 
      2486.0         0.43        102.2 
      2487.0         0.40         90.0 
      2488.0         0.40         72.1 
      2489.0         0.47         45.0 
      2490.0         0.47        211.7 
      2491.0         0.37        230.7 
      2492.0         0.48        236.4 
      2493.0         1.10        191.0 
      2494.0         0.82         52.6 
      2495.0         1.47        109.1 
      2496.0         1.55         97.0 
      2497.0         1.13         82.8 
      2498.0         1.40         54.5 
      2499.0         1.25         16.7 
      2500.0         0.93         44.8 
      2501.0         0.87         61.8 
      2502.0         1.08         66.2 
      2503.0         0.67        121.8 
      2504.0         0.33        129.5 
      2505.0         0.43        118.8 
      2506.0         0.67         89.1 
      2507.0         0.77       7279.5 
      2508.0       295.90         41.1 
      2509.0         0.27         41.1 
      2510.0         0.53         41.1 
      2511.0         0.62         37.1 
      2512.0     -9999.00         37.1 
      2513.0         0.53         32.0 
      2514.0         0.70         27.8 
      2515.0         0.77         21.2 
      2516.0         0.58         18.9 
      2517.0         0.70         16.7 
      2518.0         0.63         15.4 
      2519.0         0.53         17.9 
      2520.0         0.47         20.2 
      2521.0         0.53         18.0 
      2522.0         0.55         26.8 
      2523.0         0.50         28.5 
      2524.0         0.50         25.5 
      2525.0         0.50         21.2 
      2526.0         0.33         18.1 
      2527.0         0.40         17.5 
      2528.0         0.30         14.3 
      2529.0         0.33         14.6 
      2530.0         0.82         13.4 
      2531.0         0.43         12.0 
      2532.0         0.53         10.6 
      2533.0         0.53          8.8 
      2534.0         0.63          7.2 
      2535.0         0.85          7.7 
      2536.0         0.67          5.9 
      2537.0         0.70          6.8 
      2538.0         0.97          7.2 
      2539.0         0.40          6.6 
      2540.0         0.40          4.8 
      2541.0         0.65          4.6 
      2542.0         0.43          5.1 
      2543.0         0.50          6.7 
      2544.0         0.63          5.3 
      2545.0         0.47          5.2 
      2546.0         0.47          4.8 
      2547.0         0.45          3.8 
      2548.0         0.57          4.9 
      2549.0         0.60          3.4 
      2550.0         0.67          5.1 
      2551.0         0.80          4.7 
      2552.0         0.50          4.4 
      2553.0         0.48          3.6 
      2554.0         0.57          5.4 
      2555.0         0.60          5.9 
      2556.0         0.57          4.4 
      2557.0         0.43          3.9 
      2558.0         0.57          3.3 
      2559.0         0.72          4.6 
      2560.0         0.63          3.9 
      2561.0         0.50          4.7 
      2562.0         0.60          3.7 
      2563.0         0.57          2.9 
      2564.0         0.55          4.4 
      2565.0         0.50          3.7 
      2566.0         0.50          3.9 
      2567.0         0.47          4.5 
      2568.0         0.57          3.1 
      2569.0         0.80          4.2 
      2570.0         0.55          4.2 
      2571.0         0.53          3.0 
      2572.0         0.60          4.0 
      2573.0         0.73          4.5 
      2574.0         0.80          3.3 
      2575.0         0.82          4.0 
      2576.0         0.53          3.4 
      2577.0         0.57          3.7 
      2578.0         0.43          3.2 
      2579.0         0.47          3.4 
      2580.0         0.50          4.4 
      2581.0         0.52          4.3 
      2582.0         0.53          4.6 
      2583.0         0.47          3.3 
      2584.0         0.47          3.7 
      2585.0         0.47          3.4 
      2586.0         0.50          2.9 
      2587.0         0.57          3.9 
      2588.0         0.48          3.8 
      2589.0         0.47          4.1 
      2590.0         0.40          3.2 
      2591.0         0.50          4.2 
      2592.0         0.47          2.8 
      2593.0         0.60          3.8 
      2594.0         0.50          3.4 
      2595.0         0.42          3.9 
      2596.0         0.40          3.1 
      2597.0         0.47          2.6 
      2598.0         0.50          3.7 
      2599.0         0.43          2.8 
      2600.0         0.40          4.2 
      2601.0         0.40          2.3 
      2602.0         0.52          3.8 
      2603.0         0.60          4.0 
      2604.0         0.47          3.4 
      2605.0         0.43          3.6 
      2606.0         0.53          2.9 
      2607.0         0.47          2.6 
      2608.0         0.82          2.8 
      2609.0         0.80          4.2 
      2610.0         3.15          2.8 
      2611.0         0.30          2.8 
