~Version Information
VERS.                      2.0: CWLS Log ASCII Standard - VERSION 2.0
WRAP.                       NO: One line per depth step
~Well Information Block
STRT.FT               460.5000: 
STOP.FT              2197.0000: 
STEP.FT                 0.2500: 
NULL.                -999.2500: 
COMP.          Petrogulf Corporation: COMPANY
WELL.              Silva 1-43R: WELL
FLD.           Purgatorie River: FIELD
LOC.           1971' FSL & 526' FEL: LOCATION
CNTY.               Las Animas: COUNTY
SRVC.                Patterson: SERVICE COMPANY
DATE.          Sun Jun 18 03:37:26 2006: LOG DATE
UWI.           05 071 08372 00: UNIQUE WELL ID
STAT.                 Colorado: STATE
~Curve Information Block
DEPT.FT            0 000 00 00: Depth
SN.Ohm-m                      : IEL Short Normal
SP.mV                         : IEL Spontaneous Potential
DIR.Ohm-m                     : IEL Induction Resistivity
GR.GAPI                       : Gamma Ray
~Parameter Information Block
~A  Depth        SN          SP         DIR          GR     
# ...
   829.0000   2000.0000   2000.0000     16.6733    112.6973
   829.2500   2000.0000   2000.0000     16.3175    111.0817
   829.5000   2000.0000   2000.0000     15.9725    110.2594
   829.7500   2000.0000   2000.0000     15.6885    110.8800
   830.0000   2000.0000   2000.0000     15.4962    113.0483
   830.2500   2000.0000   2000.0000     15.3916    114.7374
   830.5000   2000.0000   2000.0000     15.3415    116.8371
   830.7500   2000.0000   2000.0000     15.3052    117.7223
   831.0000   2000.0000   2000.0000     15.2539    118.1489
   831.2500   2000.0000   2000.0000     15.1747    117.8672
   831.5000   2000.0000   2000.0000     15.0644    116.8404
   831.7500   2000.0000   2000.0000     14.9260    115.9796
   832.0000   2000.0000   2000.0000     14.7701    114.9486
   832.2500   2000.0000   2000.0000     14.6151    114.8322
   832.5000   2000.0000   2000.0000     14.4804    116.0830
   832.7500   2000.0000   2000.0000     14.3802    117.7829
   833.0000   2000.0000   2000.0000     14.3219    120.4198
   833.2500   2000.0000   2000.0000     14.3093    121.2805
   833.5000   2000.0000   2000.0000     14.3452    120.5929
   833.7500   2000.0000   2000.0000     14.4330    119.4501
   834.0000   2000.0000   2000.0000     14.5748    118.6032
   834.2500   2000.0000   2000.0000     14.7702    119.1123
   834.5000   2000.0000   2000.0000     15.0146    120.1774
   834.7500   2000.0000   2000.0000     15.3001    119.6328
   835.0000   2000.0000   2000.0000     15.6161    115.5250
   835.2500   2000.0000   2000.0000     15.9495    111.0998
   835.5000   2000.0000   2000.0000     16.2848    104.3699
   835.7500   2000.0000   2000.0000     16.6068    101.2205
   836.0000   2000.0000   2000.0000     16.9076     99.6046
   836.2500   2000.0000   2000.0000     17.1947    100.4141
   836.5000   2000.0000   2000.0000     17.4954    103.3985
   836.7500   2000.0000   2000.0000     17.8507    105.9241
   837.0000   2000.0000   2000.0000     18.3006    109.6638
   837.2500   2000.0000   2000.0000     18.8643    111.7757
   837.5000   2000.0000   2000.0000     19.5266    113.9604
   837.7500   2000.0000   2000.0000     20.2444    114.4764
   838.0000   2000.0000   2000.0000     20.9753    112.9620
   838.2500   2000.0000   2000.0000     21.7087    109.8802
   838.5000   2000.0000   2000.0000     22.4697    102.0657
   838.7500   2000.0000   2000.0000     23.2954     95.3535
   839.0000   2000.0000   2000.0000     24.2064     84.6093
   839.2500   2000.0000   2000.0000     25.2004     77.8231
   839.5000   2000.0000   2000.0000     26.2699     69.2725
   839.7500   2000.0000   2000.0000     27.4243     65.0329
   840.0000   2000.0000   2000.0000     28.6951     60.8694
   840.2500   2000.0000   2000.0000     30.1142     59.1993
   840.5000   2000.0000   2000.0000     31.6788     57.5465
   840.7500   2000.0000   2000.0000     33.3267     56.6495
   841.0000   2000.0000   2000.0000     34.9486     55.3088
   841.2500   2000.0000   2000.0000     36.4335     54.4480
   841.5000   2000.0000   2000.0000     37.7085     53.5367
   841.7500   2000.0000   2000.0000     38.7344     53.3128
   842.0000   2000.0000   2000.0000     39.4650     53.2733
   842.2500   2000.0000   2000.0000     39.8149     53.0946
   842.5000   2000.0000   2000.0000     39.6770     52.3467
   842.7500   2000.0000   2000.0000     38.9815     51.8564
   843.0000   2000.0000   2000.0000     37.7523     52.4071
   843.2500   2000.0000   2000.0000     36.1097     54.4187
   843.5000   2000.0000   2000.0000     34.2201     60.5258
   843.7500   2000.0000   2000.0000     32.2374     66.4436
   844.0000   2000.0000   2000.0000     30.2741     77.0551
   844.2500   2000.0000   2000.0000     28.4065     84.5187
   844.5000   2000.0000   2000.0000     26.6870     94.9330
   844.7500   2000.0000   2000.0000     25.1498    100.7131
   845.0000   2000.0000   2000.0000     23.8074    107.2414
   845.2500   2000.0000   2000.0000     22.6471    110.3741
   845.5000   2000.0000   2000.0000     21.6363    113.7901
   845.7500   2000.0000   2000.0000     20.7340    115.3381
   846.0000   2000.0000   2000.0000     19.9049    116.5216
   846.2500   2000.0000   2000.0000     19.1293    116.6426
   846.5000   2000.0000   2000.0000     18.4034    116.3382
   846.7500   2000.0000   2000.0000     17.7322    116.0957
   847.0000   2000.0000   2000.0000     17.1219    115.6960
   847.2500   2000.0000   2000.0000     16.5770    115.2067
   847.5000   2000.0000   2000.0000     16.1034    113.8870
   847.7500   2000.0000   2000.0000     15.7107    112.6428
   848.0000   2000.0000   2000.0000     15.4095    110.5718
   848.2500   2000.0000   2000.0000     15.2041    109.4711
   848.5000   2000.0000   2000.0000     15.0882    109.2326
   848.7500   2000.0000   2000.0000     15.0446    110.3725
   849.0000   2000.0000   2000.0000     15.0510    113.5382
   849.2500   2000.0000   2000.0000     15.0846    115.8121
   849.5000   2000.0000   2000.0000     15.1252    118.2705
   849.7500   2000.0000   2000.0000     15.1554    119.0457
   850.0000   2000.0000   2000.0000     15.1602    118.9505
   850.2500   2000.0000   2000.0000     15.1292    118.0269
   850.5000   2000.0000   2000.0000     15.0611    115.4423
   850.7500   2000.0000   2000.0000     14.9657    113.3210
   851.0000   2000.0000   2000.0000     14.8596    110.8473
   851.2500   2000.0000   2000.0000     14.7593    110.5276
   851.5000   2000.0000   2000.0000     14.6758    112.9716
   851.7500   2000.0000   2000.0000     14.6147    116.4001
   852.0000   2000.0000   2000.0000     14.5782    122.6003
   852.2500   2000.0000   2000.0000     14.5656    126.1084
   852.5000   2000.0000   2000.0000     14.5717    128.9497
   852.7500   2000.0000   2000.0000     14.5849    129.2988
   853.0000   2000.0000   2000.0000     14.5895    128.8086
   853.2500   2000.0000   2000.0000     14.5713    128.6504
   853.5000   2000.0000   2000.0000     14.5229    129.4241
   853.7500   2000.0000   2000.0000     14.4458    130.5389
   854.0000   2000.0000   2000.0000     14.3480    132.2691
   854.2500   2000.0000   2000.0000     14.2423    132.7769
   854.5000   2000.0000   2000.0000     14.1452    131.8120
   854.7500   2000.0000   2000.0000     14.0760    130.2187
   855.0000   2000.0000   2000.0000     14.0536    127.7640
   855.2500   2000.0000   2000.0000     14.0926    126.9220
   855.5000   2000.0000   2000.0000     14.2007    127.4739
   855.7500   2000.0000   2000.0000     14.3778    128.8790
   856.0000   2000.0000   2000.0000     14.6134    131.6055
   856.2500   2000.0000   2000.0000     14.8819    133.0469
   856.5000   2000.0000   2000.0000     15.1411    133.2640
   856.7500   2000.0000   2000.0000     15.3440    131.7086
   857.0000   2000.0000   2000.0000     15.4583    127.5220
   857.2500   2000.0000   2000.0000     15.4828    124.5973
   857.5000   2000.0000   2000.0000     15.4435    121.8729
   857.7500   2000.0000   2000.0000     15.3759    121.6352
   858.0000   2000.0000   2000.0000     15.3086    123.2502
   858.2500   2000.0000   2000.0000     15.2571    124.9940
   858.5000   2000.0000   2000.0000     15.2261    127.4688
   858.7500   2000.0000   2000.0000     15.2141    128.6672
   859.0000   2000.0000   2000.0000     15.2147    129.8265
   859.2500   2000.0000   2000.0000     15.2160    130.3421
   859.5000   2000.0000   2000.0000     15.2030    130.9556
   859.7500   2000.0000   2000.0000     15.1629    131.4901
   860.0000   2000.0000   2000.0000     15.0907    133.2826
   860.2500   2000.0000   2000.0000     14.9906    135.6202
   860.5000   2000.0000   2000.0000     14.8734    140.8670
   860.7500   2000.0000   2000.0000     14.7529    144.8725
   861.0000   2000.0000   2000.0000     14.6449    149.9103
   861.2500   2000.0000   2000.0000     14.5647    151.8308
   861.5000   2000.0000   2000.0000     14.5254    152.3802
   861.7500   2000.0000   2000.0000     14.5362    151.7486
   862.0000   2000.0000   2000.0000     14.6032    150.5603
   862.2500   2000.0000   2000.0000     14.7305    150.0075
