~Version Information
 VERS.                                  2.0 : CWLS LAS VERSION
 WRAP.                                   NO : WRAPING MODE
 SWARE .                 MController 2.5.0J : SOFTWARE VERSION
~Well Information
 WELL.                         Sliva 01-43V : WELL
 COMP.                Petrogulf Corporation : COMPANY
 FLD.                      Purgatoire River : FIELD
 LOC.                 NE/SE Sec 1 T33S R68W : LOCATION
 DATE.                          08/26-27/05 : DATE(S) LOGGED
 SRVC.       BLANCO Geological Services LLC : SERVICE COMPANY
 STAT.                                   CO : STATE
 CNTY.                           Las Animas : COUNTY
 CTRY.                                  USA : COUNTRY
 API.                       05-071-08371-00 : API NUMBER
 STRT.FT                             503.00 : START DEPTH
 STOP.FT                            2764.00 : STOP DEPTH
 STEP.FT                               1.00 : DEPTH INCREMENT
 NULL.                                -9999 : NULL VALUE
~Curve information
 DEPTH.FT                                   :
 ROP.MIN/FT                                 :
 GAS.UNITS                                  :
~ASCII Log data
# ...
       703.0         0.27          8.3 
       704.0         0.20          8.1 
       705.0         0.20          8.6 
       706.0         0.20          8.1 
       707.0         0.13          8.5 
       708.0         0.13          8.5 
       709.0         0.17          8.2 
       710.0         0.23          8.7 
       711.0         0.20          8.5 
       712.0         0.25          8.9 
       713.0         0.13          8.3 
       714.0         0.20          9.8 
       715.0         0.23         18.2 
       716.0         2.10         26.1 
       717.0         0.37          8.5 
       718.0         0.25          8.8 
       719.0         0.20          8.6 
       720.0         0.20          8.4 
       721.0         0.23          8.3 
       722.0         0.23          8.1 
       723.0         0.20          7.8 
       724.0         0.23          7.6 
       725.0         0.27          7.9 
       726.0         0.23          7.9 
       727.0         0.20          7.6 
       728.0         0.20          8.2 
       729.0         0.17          7.9 
       730.0         0.20          7.7 
       731.0         0.17          8.0 
       732.0         0.20          8.0 
       733.0         0.13          7.6 
       734.0         0.18          7.6 
       735.0         0.17          7.4 
       736.0         0.17          7.8 
       737.0         0.20          7.6 
       738.0         0.20          8.0 
       739.0         0.17          7.6 
       740.0         0.13          7.9 
       741.0         0.10          7.5 
       742.0         0.13          8.3 
       743.0         0.20          8.4 
       744.0         0.20         15.7 
       745.0         0.20         44.0 
       746.0         2.55         62.5 
       747.0         0.23          8.1 
       748.0         0.23          7.9 
       749.0         0.40          8.1 
       750.0         0.30          8.0 
       751.0         0.23          7.9 
       752.0         0.23          7.9 
       753.0         0.22          8.4 
       754.0         0.13          8.4 
       755.0         0.20          8.5 
       756.0         0.17          8.6 
       757.0         0.23          8.1 
       758.0         0.13          8.0 
       759.0         0.13          8.0 
       760.0         0.20          7.8 
       761.0         0.17          8.3 
       762.0         0.13          8.5 
       763.0         0.17          8.6 
       764.0         0.27          8.1 
       765.0         0.27          8.1 
       766.0         0.27          8.0 
       767.0         0.53          8.6 
       768.0         0.28          7.8 
       769.0         0.23          8.0 
       770.0         0.20          8.0 
       771.0         0.17         12.2 
       772.0         0.20         41.1 
       773.0         0.20         50.2 
       774.0         0.27         50.1 
       775.0         0.40         39.9 
       776.0         1.48         22.6 
       777.0         0.27          7.3 
       778.0         0.20          7.3 
       779.0         0.20          7.0 
       780.0         0.23          7.1 
       781.0         0.20          7.2 
       782.0         0.20          6.8 
       783.0         0.27          7.2 
       784.0         0.23          7.3 
       785.0         0.23          7.0 
       786.0         0.27          7.2 
       787.0         0.23          7.0 
       788.0         0.23          7.3 
       789.0         0.20          7.2 
       790.0         0.20          7.0 
       791.0         0.18          6.8 
       792.0         0.17          6.8 
       793.0         0.17          6.5 
       794.0         0.20          7.0 
       795.0         0.17          6.7 
       796.0         0.17          6.7 
       797.0         0.13          7.0 
       798.0         0.17          7.1 
       799.0         0.10          7.1 
       800.0         0.13          7.2 
       801.0         0.07          7.1 
       802.0         0.10          7.8 
       803.0         0.10         10.3 
       804.0         0.17         28.9 
       805.0         0.17         51.3 
       806.0         0.27         57.4 
       807.0         0.23         52.8 
       808.0         1.72         41.0 
       809.0         0.23          8.0 
       810.0         0.20          7.4 
       811.0         0.27          7.7 
       812.0         0.23          7.6 
       813.0         0.17          7.4 
       814.0         0.17          7.8 
       815.0         0.17          8.3 
       816.0         0.20          8.2 
       817.0         0.17          8.4 
       818.0         0.13          8.8 
       819.0         0.13          9.0 
       820.0         0.15          9.4 
       821.0         0.20          9.5 
       822.0         0.17          9.5 
       823.0         0.17          9.4 
       824.0         0.20         10.0 
       825.0         0.20          9.6 
       826.0         0.17          8.8 
       827.0         0.20          8.4 
       828.0         0.17          8.2 
       829.0         0.20          7.7 
       830.0         0.33          7.9 
       831.0         0.30          8.1 
       832.0         0.27          7.8 
       833.0         0.20          8.9 
       834.0         0.13          9.5 
       835.0         0.10         15.5 
       836.0         0.17         44.1 
       837.0         0.28         78.4 
       838.0         1.70         80.4 
       839.0         0.23          9.5 
       840.0         0.23          8.1 
       841.0         0.30          7.4 
       842.0         0.23          6.7 
       843.0         0.23          6.6 
       844.0         0.22          6.4 
       845.0         0.20          6.8 
       846.0         0.13          6.4 
       847.0         0.20          6.9 
       848.0         0.20          6.9 
       849.0         0.17          6.7 
       850.0         0.17          6.4 
       851.0         0.17          6.1 
       852.0         0.13          6.3 
       853.0         0.13          6.1 
       854.0         0.10          6.3 
       855.0         0.13          6.5 
       856.0         0.17          6.1 
       857.0         0.17          6.1 
       858.0         0.17          5.8 
       859.0         0.13          6.4 
       860.0         0.17          6.6 
       861.0         0.17          6.8 
       862.0         0.13          6.6 
       863.0         0.17          6.5 
       864.0         0.17          7.2 
       865.0         0.22          7.4 
       866.0         0.27          7.3 
       867.0         0.30          7.9 
       868.0         3.18        117.5 
       869.0         0.30          6.3 
       870.0         0.37          6.5 
       871.0         0.30          6.3 
       872.0         0.23          6.6 
       873.0         0.20          5.9 
       874.0         0.23          6.2 
       875.0         0.23          6.0 
       876.0         0.20          6.3 
       877.0         0.23          6.2 
       878.0         0.20          6.3 
       879.0         0.18          6.1 
       880.0         0.17          6.1 
       881.0         0.20          5.9 
       882.0         0.17          5.7 
       883.0         0.27          5.6 
       884.0         0.30          5.7 
       885.0         0.27          5.8 
       886.0         0.13          5.8 
       887.0         0.20          6.1 
       888.0         0.17          6.2 
       889.0         0.13          6.7 
       890.0         0.13          6.7 
       891.0         0.10          6.0 
       892.0         0.10          5.9 
       893.0         0.10          6.1 
       894.0         0.13          6.5 
       895.0         0.17          7.2 
       896.0         0.27          8.3 
       897.0         0.38         15.4 
       898.0         3.58        180.4 
       899.0         0.20          7.6 
       900.0         0.40          6.4 
       901.0         0.37          5.6 
       902.0         0.30          5.4 
