~Version Information
 VERS.                                  2.0 : CWLS LAS VERSION
 WRAP.                                   NO : WRAPING MODE
 SWARE .                 MController 2.5.0E : SOFTWARE VERSION
~Well Information
 WELL.                  McCullough 34-32 TR : WELL
 COMP.             Evergreen Operating Corp : COMPANY
 FLD.                      Purgatorie River : FIELD
 LOC.                SW/SE Sec 32 T32S R66W : LOCATION
 DATE.                           09/18/2004 : DATE(S) LOGGED
 SRVC.       Blanco Geological Services LLC : SERVICE COMPANY
 STAT.                                   CO : STATE
 CNTY.                            La Animas : COUNTY
 CTRY.                                  USA : COUNTRY
 API.                       05 071 08157-00 : API NUMBER
 STRT.FT                             521.00 : START DEPTH
 STOP.FT                            2000.00 : STOP DEPTH
 STEP.FT                               1.00 : DEPTH INCREMENT
 NULL.                                -9999 : NULL VALUE
~Curve information
 DEPTH.FT                                   :
 ROP.MIN/FT                                 :
 GAS.UNITS                                  :
~ASCII Log data
# ...
     1321.00        0.133         25.4 
     1322.00        0.133         25.4 
     1323.00        0.233         23.6 
     1324.00        0.167         21.2 
     1325.00        0.183         18.5 
     1326.00        0.200         16.9 
     1327.00        0.233         16.5 
     1328.00        0.167         15.3 
     1329.00        0.233         13.6 
     1330.00        0.167         13.6 
     1331.00        0.167         12.2 
     1332.00        0.233         12.6 
     1333.00        0.200         11.7 
     1334.00        0.200         11.6 
     1335.00        0.233         10.8 
     1336.00        0.233         10.8 
     1337.00        0.267          9.1 
     1338.00        0.233          8.4 
     1339.00        0.333          9.5 
     1340.00        0.250         11.5 
     1341.00        0.200         16.4 
     1342.00        0.200         25.6 
     1343.00        0.200         37.3 
     1344.00        0.200         37.3 
     1345.00        0.233         50.7 
     1346.00        2.617         60.8 
     1347.00        0.267         25.5 
     1348.00        0.267         24.3 
     1349.00        0.267         20.3 
     1350.00        0.100         18.3 
     1351.00        0.267         16.7 
     1352.00        0.267         16.3 
     1353.00        0.267         14.9 
     1354.00        0.267         15.8 
     1355.00        0.267         16.6 
     1356.00        0.267         16.3 
     1357.00        0.200         16.3 
     1358.00        0.283         15.5 
     1359.00        0.267         14.1 
     1360.00        0.167         12.6 
     1361.00        0.167         11.5 
     1362.00        0.200          8.7 
     1363.00        0.167          8.7 
     1364.00        0.167          8.2 
     1365.00        0.133          8.0 
     1366.00        0.200         10.6 
     1367.00        0.167         10.6 
     1368.00        0.200         11.4 
     1369.00        0.200         13.3 
     1370.00        0.233         18.7 
     1371.00        0.200         28.8 
     1372.00        0.233         43.9 
     1373.00        0.233         43.9 
     1374.00        0.233         59.0 
     1375.00        0.283         73.9 
     1376.00        2.767         77.2 
     1377.00        0.267         11.5 
     1378.00        0.417         10.9 
     1379.00        0.233         11.5 
     1380.00        0.367         12.1 
     1381.00        0.267         11.7 
     1382.00        0.300         10.6 
     1383.00        0.233         10.7 
     1384.00        0.267         10.9 
     1385.00        0.233         10.8 
     1386.00        0.200         11.6 
     1387.00        0.267         11.3 
     1388.00        0.267         11.5 
     1389.00        0.267         11.8 
     1390.00        0.283         12.6 
     1391.00        0.267         12.2 
     1392.00        0.200         11.3 
     1393.00        0.200          9.6 
     1394.00        0.200          9.6 
     1395.00        0.200          8.1 
     1396.00        0.167          7.1 
     1397.00        0.167          7.8 
     1398.00        0.167          7.8 
     1399.00        0.200         10.1 
     1400.00        0.200         13.4 
     1401.00        0.167         14.3 
     1402.00        0.200         22.6 
     1403.00        0.167         34.9 
     1404.00        0.200         49.3 
     1405.00        0.167         49.3 
     1406.00        4.033        102.0 
     1407.00        0.267          9.3 
     1408.00        0.433          7.9 
     1409.00        0.500          8.7 
     1410.00        0.367          8.0 
     1411.00        0.367          8.2 
     1412.00        0.367          8.7 
     1413.00        0.333          8.0 
     1414.00        0.300          7.5 
     1415.00        0.417          7.2 
     1416.00        0.333          6.8 
     1417.00        0.233          7.8 
     1418.00        0.400          7.9 
     1419.00        0.400          8.5 
     1420.00        0.333          8.9 
     1421.00        0.333          8.2 
     1422.00        0.300          8.1 
     1423.00        0.467         10.1 
     1424.00        0.383          9.5 
     1425.00        0.200          7.9 
     1426.00        0.200          7.8 
     1427.00        0.167          7.1 
     1428.00        0.200          8.2 
     1429.00        0.200         13.9 
     1430.00        0.167         13.9 
     1431.00        0.200         21.9 
     1432.00        0.167         29.5 
     1433.00        0.167         33.9 
     1434.00        0.167         47.3 
     1435.00        0.233         49.7 
     1436.00        2.817         75.1 
     1437.00        0.400          7.8 
     1438.00        0.467          7.5 
     1439.00        0.400          7.2 
     1440.00        0.417          7.4 
     1441.00        0.467          7.2 
     1442.00        0.467          7.8 
     1443.00        0.300          8.3 
     1444.00        0.300          8.7 
     1445.00        0.300          8.2 
     1446.00        0.267          8.2 
     1447.00        0.300          8.4 
     1448.00        0.333          8.4 
     1449.00        0.417          8.5 
     1450.00        0.367          8.7 
     1451.00        0.367          8.2 
     1452.00        0.433          8.8 
     1453.00        0.433          8.3 
     1454.00        0.400         12.4 
     1455.00        0.400         14.3 
     1456.00        0.400         12.8 
     1457.00        0.367         10.9 
     1458.00        0.350          7.4 
     1459.00        0.333          6.9 
     1460.00        0.233          8.3 
     1461.00        0.167          8.3 
     1462.00        0.100          9.3 
     1463.00        0.267         11.7 
     1464.00        0.200         20.2 
     1465.00        0.167         30.5 
     1466.00        4.217         72.5 
     1467.00        0.267          5.8 
     1468.00        0.400          5.7 
     1469.00        0.383          5.3 
     1470.00        0.533          5.9 
     1471.00        0.433          6.5 
     1472.00        0.367          6.6 
     1473.00        0.400          9.0 
     1474.00        0.367         10.9 
     1475.00        0.300         11.5 
     1476.00        0.300         10.7 
     1477.00        0.333         10.1 
     1478.00        0.317          9.1 
     1479.00        0.267          8.2 
     1480.00        0.233          7.5 
     1481.00        0.233          7.2 
     1482.00        0.233          8.6 
     1483.00        0.267          9.2 
     1484.00        0.300          9.3 
     1485.00        0.300          9.0 
     1486.00        0.300          8.3 
     1487.00        0.300          6.6 
     1488.00        0.267          4.9 
     1489.00        0.367          5.1 
     1490.00        0.283          5.3 
     1491.00        0.200          6.7 
     1492.00        0.200          8.7 
     1493.00        0.167         15.2 
     1494.00        0.300         25.8 
     1495.00        0.400         53.4 
     1496.00        3.117         64.3 
     1497.00        0.400          5.4 
     1498.00        0.500          4.7 
     1499.00        0.467          4.1 
     1500.00        0.467          4.8 
     1501.00        0.617          5.8 
     1502.00        0.333          4.8 
     1503.00        0.333          4.9 
     1504.00        0.333          5.5 
     1505.00        0.300          5.4 
     1506.00        0.500          5.0 
     1507.00        0.500          6.0 
     1508.00        0.333          6.6 
     1509.00        0.200          6.7 
     1510.00        0.217          6.5 
     1511.00        0.233          7.6 
     1512.00        0.200          7.6 
     1513.00        0.233          7.8 
     1514.00        0.200          7.1 
     1515.00        0.233          6.0 
     1516.00        0.200          5.6 
     1517.00        0.233          4.0 
     1518.00        0.267          2.9 
     1519.00        0.200          3.9 
     1520.00        0.233          4.4 
