~Version Information
VERS.                      2.0: CWLS Log ASCII Standard - VERSION 2.0
WRAP.                       NO: One line per depth step
~Well Information Block
STRT.FT                -8.2500: 
STOP.FT              2209.7500: 
STEP.FT                 0.2500: 
NULL.                -999.2500: 
COMP.          Petrogulf Corporation: COMPANY
WELL.          Alexander 9-43V: WELL
FLD.           Purgatorie River: FIELD
LOC.                          : LOCATION
CNTY.               Las Animas: COUNTY
SRVC.                         : SERVICE COMPANY
DATE.          Wed May 28 09:25:28 2003: LOG DATE
UWI.           05 071 07727 00: UNIQUE WELL ID
STAT.                 Colorado: STATE
~Curve Information Block
DEPT.FT            0 000 00 00: Depth
CCL.                          : Casing Collar Locator
TT3.usec                      : CBL 3' Travel Time
AMP3.mV                       : CBL 3' Amplitude
GR.GAPI                       : Gamma Ray
~Parameter Information Block
~A  Depth       CCL         TT3         AMP3         GR     
# ...
  2169.2500      0.0000    614.1682      3.8651     71.3924
  2169.5000      0.0000    593.0475      4.1126     71.4466
  2169.7500      0.0000    582.5425      4.3593     70.3927
  2170.0000      0.0000    585.8073      4.4805     69.2135
  2170.2500      0.0000    598.0533      4.4285     69.5614
  2170.5000      0.0000    611.2233      4.2698     72.4031
  2170.7500      0.0000    619.2831      4.1079     77.2908
  2171.0000      0.0000    619.5458      4.0122     82.6313
  2171.2500      0.0000    610.6014      4.0119     86.4548
  2171.5000      0.0000    591.5384      4.0989     87.2138
  2171.7500      0.0000    564.0656      4.2278     84.4937
  2172.0000      0.0000    532.7917      4.3506     79.4294
  2172.2500      0.0000    501.1885      4.4593     74.3388
  2172.5000      0.0000    468.9793      4.5803     71.5217
  2172.7500      0.0000    435.6040      4.7445     71.9641
  2173.0000      0.0000    404.3409      4.9969     74.8203
  2173.2500      0.0000    380.4327      5.4168     78.0206
  2173.5000      0.0000    366.1800      6.0660     79.5573
  2173.7500      0.0000    359.7317      6.8903     78.4952
  2174.0000      0.0000    357.6601      7.7174     75.1881
  2174.2500      0.0000    357.3428      8.3910     70.9892
  2174.5000      0.0000    357.4962      8.8985     67.7466
  2174.7500      0.0000    357.7495      9.3352     67.0945
  2175.0000      0.0000    358.1674      9.7354     69.7486
  2175.2500      0.0000    358.9656      9.9654     75.1485
  2175.5000      0.0000    360.8190      9.8218     81.5475
  2175.7500      0.0000    365.4644      9.2320     86.6172
  2176.0000      0.0000    376.1427      8.3165     88.5428
  2176.2500     -2.6343    397.2052      7.2603     87.1200
  2176.5000     -3.4680    431.3737      6.1814     83.9624
  2176.7500      0.0000    475.4342      5.1454     81.4067
  2177.0000      0.0000    520.0737      4.2571     80.8786
  2177.2500      0.0000    557.1307      3.6787     82.0942
  2177.5000      0.0000    586.4008      3.5295     83.6910
  2177.7500      0.0000    612.5582      3.7681     84.5249
  2178.0000      0.0000    636.5176      4.1777     84.3341
  2178.2500      0.0000    652.3833      4.4851     83.3515
  2178.5000      0.0000    651.4984      4.5231     81.6051
  2178.7500      0.0000    627.8171      4.3034     78.8838
  2179.0000      0.0000    581.7499      3.9568     75.4130
  2179.2500      0.0000    521.8542      3.6292     72.2675
  2179.5000      0.0000    462.1729      3.4209     70.8170
  2179.7500      0.0000    415.1390      3.3581     71.6510
  2180.0000      0.0000    385.5005      3.3756     74.0635
  2180.2500      0.0000    370.4078      3.3520     76.6240
  2180.5000      0.0000    364.0850      3.2160     78.2437
  2180.7500      0.0000    361.9501      3.0249     78.7304
  2181.0000      0.0000    361.7829      2.9194     78.5644
  2181.2500      0.0000    363.1896      3.0000     78.4602
  2181.5000      0.0000    367.0105      3.2507     79.0010
  2181.7500      0.0000    375.0456      3.5671     80.1193
  2182.0000      0.0000    390.0013      3.8429     80.7864
  2182.2500      0.0000    415.3567      4.0342     79.6912
  2182.5000      0.0000    454.0196      4.1573     76.5464
  2182.7500      0.0000    505.0495      4.2435     72.5494
  2183.0000      0.0000    561.0024      4.3099     69.3567
  2183.2500      0.0000    610.2120      4.3664     67.7942
  2183.5000      0.0000    643.2751      4.4303     67.6955
  2183.7500      0.0000    657.5122      4.5113     68.5620
  2184.0000      0.0000    655.3967      4.5797     69.8569
  2184.2500      0.0000    639.6238      4.5589     70.9186
  2184.5000      0.0000    610.8496      4.3697     71.2958
  2184.7500      0.0000    571.1667      4.0025     71.1543
  2185.0000      0.0000    529.0417      3.5564     70.9181
  2185.2500      0.0000    497.6766      3.1954     70.7020
  2185.5000      0.0000    485.6459      3.0561     70.4335
  2185.7500      0.0000    488.7133      3.1793     70.1942
  2186.0000      0.0000    492.1386      3.4983     70.0584
  2186.2500      0.0000    482.6357      3.8728     69.8767
  2186.5000      0.0000    458.9122      4.1623     69.4772
  2186.7500      0.0000    430.6865      4.3008     68.8368
  2187.0000      0.0000    408.5753      4.3156     67.9920
  2187.2500      0.0000    396.1772      4.2861     67.1101
  2187.5000      0.0000    390.5436      4.2972     66.6543
  2187.7500      0.0000    387.3514      4.4098     67.0805
  2188.0000      0.0000    384.3943      4.6305     68.2703
  2188.2500      0.0000    381.4476      4.8902     69.5516
  2188.5000      0.0000    378.6988      5.0651     70.2959
  2188.7500      0.0000    376.0007      5.0385     70.3380
  2189.0000      0.0000    373.1362      4.7640     69.9906
  2189.2500      0.0000    370.1529      4.2986     69.8396
  2189.5000      0.0000    367.3374      3.7867     70.3940
  2189.7500      0.0000    365.0210      3.3894     71.6443
  2190.0000      0.0000    363.4406      3.1978     72.8236
  2190.2500      0.0000    362.6529      3.1994     72.8703
  2190.5000      0.0000    362.4881      3.3123     71.4131
  2190.7500      0.0000    362.6090      3.4419     69.2097
  2191.0000      0.0000    362.7215      3.5167     67.4715
  2191.2500      0.0000    362.8385      3.5017     66.8826
  2191.5000      0.0000    363.4429      3.4062     67.3139
  2191.7500      0.0000    365.6008      3.2913     68.3005
  2192.0000      0.0000    371.1073      3.2572     69.6691
  2192.2500      0.0000    382.5152      3.3858     71.6481
  2192.5000      0.0000    402.4910      3.6655     74.2458
  2192.7500      0.0000    432.0656      3.9721     76.5801
  2193.0000      0.0000    468.5541      4.1485     77.1027
  2193.2500      0.0000    505.4331      4.1273     74.6576
  2193.5000      0.0000    535.6318      3.9855     69.5684
  2193.7500      0.0000    556.0084      3.8737     63.8624
  2194.0000      0.0000    568.7975      3.8734     60.0069
  2194.2500      0.0000    578.8029      3.9296     58.8749
  2194.5000      0.0000    589.2597      3.9339     59.1666
  2194.7500      0.0000    599.8638      3.8579     59.1876
  2195.0000      0.0000    608.0407      3.7719     58.6583
  2195.2500      0.0000    611.7426      3.7374     58.2431
  2195.5000      0.0000    611.0879      3.7270     57.8355
  2195.7500      0.0000    607.8878      3.6756     56.0721
  2196.0000      0.0000    604.2913      3.5760     51.4183
  2196.2500      0.0000    601.9744      3.4834     43.3389
  2196.5000      0.0000    601.8572      3.4410     32.6857
  2196.7500      0.0000    603.8648      3.4401     21.4495
  2197.0000      0.0000    606.9860      3.4539     11.9181
  2197.2500      0.0000    609.9841      3.4731      5.4768
  2197.5000      0.0000    612.3337      3.5021      2.0445
  2197.7500      0.0000    614.4790      3.5398      0.6119
  2198.0000      0.0000    617.0181      3.5699      0.1451
  2198.2500      0.0000    619.7339      3.5663      0.0270
  2198.5000      0.0000    621.6371      3.5150      0.0036
  2198.7500      0.0000    621.6146      3.4406      0.0000
  2199.0000      0.0000    618.7094      3.4024   -999.2500
  2199.2500      0.0000    612.2664      3.4502   -999.2500
  2199.5000      0.0000    602.6158      3.5764   -999.2500
  2199.7500      0.0000    591.6827      3.7123   -999.2500
  2200.0000      0.0000    582.3296      3.7715   -999.2500
  2200.2500      0.0000    576.8408      3.7053   -999.2500
  2200.5000      0.0000    575.6119      3.5343   -999.2500
  2200.7500      0.0000    575.7679      3.3291   -999.2500
  2201.0000      0.0000    568.8057      3.1478   -999.2500
  2201.2500      0.0000    539.8651      2.9885   -999.2500
  2201.5000      0.0000    474.2494      2.8152   -999.2500
  2201.7500      0.0000    370.7593      2.6205   -999.2500
  2202.0000      0.0000    249.2155      2.4416   -999.2500
  2202.2500      0.0000    140.1888      2.3176   -999.2500
  2202.5000      0.0000     64.6910      2.2539   -999.2500
