~Version Information
VERS.                      2.0: CWLS Log ASCII Standard - VERSION 2.0
WRAP.                       NO: One line per depth step
~Well Information Block
STRT.FT               582.2500: 
STOP.FT              2642.5000: 
STEP.FT                 0.2500: 
NULL.                -999.2500: 
COMP.          Petrogulf Corporation: COMPANY
WELL.           Montoya 12-41V: WELL
FLD.           Purgatorie River: FIELD
LOC.           1081' FNL & 605' FEL: LOCATION
CNTY.               Las Animas: COUNTY
SRVC.                         : SERVICE COMPANY
DATE.          Tue Aug 10 10:59:28 2004: LOG DATE
UWI.           05 071 08094 00: UNIQUE WELL ID
STAT.                 Colorado: STATE
~Curve Information Block
DEPT.FT            0 000 00 00: Depth
SP.mV                         : DIL Spontaneous Potential
RILD.Ohm-m                    : DIL Deep Resistivity
RILM.Ohm-m                    : DIL Medium Resistivity
RLL3.Ohm-m                    : DIL Shallow Resistivity
GR.GAPI                       : Gamma Ray
~Parameter Information Block
~A  Depth        SP         RILD        RILM        RLL3         GR     
# ...
  1142.2500    -62.1379     16.6356     20.6238     42.7870    113.1299
  1142.5000    -62.4645     17.1079     20.7741     42.7468    111.0780
  1142.7500    -62.7506     17.7840     21.0027     40.7705    112.3554
  1143.0000    -62.8675     18.6331     21.3675     37.5788    117.0013
  1143.2500    -62.7018     19.6050     21.9229     34.2245    120.8749
  1143.5000    -62.1830     20.6406     22.7178     31.7727    126.7740
  1143.7500    -61.3062     21.6797     23.7925     31.0228    130.3645
  1144.0000    -60.1436     22.6637     25.1757     32.3676    133.5909
  1144.2500    -58.8501     23.5391     26.8805     35.7908    132.8974
  1144.5000    -57.6350     24.2726     28.8968     40.9505    126.4181
  1144.7500    -56.7155     24.8803     31.1881     47.2803    119.0937
  1145.0000    -56.2564     25.4417     33.6915     54.0788    105.9031
  1145.2500    -56.3136     26.0831     36.3276     60.5990     97.0090
  1145.5000    -56.8150     26.9329     39.0204     66.1604     85.7227
  1145.7500    -57.5760     28.0827     41.7196     70.2863     80.7402
  1146.0000    -58.3540     29.5727     44.4129     72.8263     77.9774
  1146.2500    -58.9153     31.4075     47.1248     74.0014     78.6723
  1146.5000    -59.0923     33.5988     49.8985     74.3329     81.0033
  1146.7500    -58.8168     36.2026     52.7655     74.4687     81.9537
  1147.0000    -58.1250     39.3268     55.7198     74.9762     81.3056
  1147.2500    -57.1304     43.0720     58.6975     76.1927     79.6753
  1147.5000    -55.9886     47.4171     61.5785     78.1924     76.5529
  1147.7500    -54.8542     52.0606     64.2114     80.8751     74.7338
  1148.0000    -53.8529     56.3170     66.4618     84.1182     73.2630
  1148.2500    -53.0724     59.2604     68.2624     87.9050     73.2384
  1148.5000    -52.5722     60.1989     69.6307     92.3473     74.0983
  1148.7500    -52.4008     59.1632     70.6444     97.5825     74.7865
  1149.0000    -52.6001     56.8978     71.4005    103.5993     75.5500
  1149.2500    -53.1999     54.3712     71.9756    110.0963     75.8670
  1149.5000    -54.2026     52.3527     72.4189    116.4647     76.0010
  1149.7500    -55.5689     51.2890     72.7740    121.9168     75.7988
  1150.0000    -57.2116     51.3810     73.1111    125.7103     75.2315
  1150.2500    -59.0095     52.6582     73.5466    127.3685     74.8764
  1150.5000    -60.8200     54.9797     74.2142    126.8168     74.3343
  1150.7500    -62.4985     57.9559     75.2206    124.3920     73.6851
  1151.0000    -63.9154     60.8903     76.5861    120.7308     71.9807
  1151.2500    -64.9715     62.9610     78.1936    116.5793     70.5220
  1151.5000    -65.6088     63.7064     79.7929    112.5881     68.3472
  1151.7500    -65.8217     63.4074     81.0731    109.1743     66.9906
  1152.0000    -65.6532     62.8929     81.7987    106.4956     64.9281
  1152.2500    -65.1850     62.9830     81.9564    104.5296     63.5643
  1152.5000    -64.5160     64.1166     81.7829    103.1882     61.8768
  1152.7500    -63.7384     66.2405     81.6947    102.3924     61.0743
  1153.0000    -62.9215     68.8547     82.1295    102.0736     60.0673
  1153.2500    -62.1037     71.1489     83.4285    102.1332     59.3514
  1153.5000    -61.3004     72.3152     85.7582    102.4177     58.3869
  1153.7500    -60.5266     71.9393     89.0696    102.7441     58.1727
  1154.0000    -59.8138     70.2159     93.0493    102.9613     59.0661
  1154.2500    -59.2182     67.7897     97.1280    103.0004     60.5182
  1154.5000    -58.8141     65.3871    100.5420    102.8814     63.5085
  1154.7500    -58.6698     63.5140    102.5565    102.6750     65.6261
  1155.0000    -58.8226     62.3187    102.7554    102.4517     68.4417
  1155.2500    -59.2570     61.5740    101.1780    102.2558     69.9763
  1155.5000    -59.8982     60.7556     98.2173    102.1165     71.9205
  1155.7500    -60.6229     59.2395     94.3303    102.0762     73.1038
  1156.0000    -61.2867     56.6208     89.7924    102.1988     74.6866
  1156.2500    -61.7603     52.9489     84.6313    102.5156     75.4451
  1156.5000    -61.9606     48.6868     78.7420    102.9077     75.8999
  1156.7500    -61.8659     44.4297     72.0908    102.9773     75.8471
  1157.0000    -61.5193     40.6452     64.8764    102.0118     75.9177
  1157.2500    -61.0103     37.5880     57.5315     99.1313     76.6880
  1157.5000    -60.4500     35.3312     50.5617     93.6177     80.1354
  1157.7500    -59.9424     33.8356     44.3669     85.2885     84.4521
  1158.0000    -59.5576     33.0041     39.1532     74.7007     93.7692
  1158.2500    -59.3127     32.7098     34.9553     63.0415    101.2104
  1158.5000    -59.1647     32.7990     31.7015     51.7448    113.1443
  1158.7500    -59.0269     33.0797     29.2735     42.0462    121.2981
  1159.0000    -58.7975     33.3245     27.5433     34.7003    132.7823
  1159.2500    -58.4000     33.3160     26.3922     29.9604    138.5669
  1159.5000    -57.8128     32.9356     25.7141     27.7419    141.9871
  1159.7500    -57.0825     32.2243     25.4144     27.8121    140.5113
  1160.0000    -56.3069     31.3546     25.4070     29.8835    134.7421
  1160.2500    -55.6025     30.5309     25.6135     33.5886    130.2211
  1160.5000    -55.0654     29.9065     25.9619     38.4036    124.1129
  1160.7500    -54.7412     29.5582     26.3892     43.6096    120.5228
  1161.0000    -54.6178     29.5049     26.8405     48.3548    115.4742
  1161.2500    -54.6442     29.7337     27.2683     51.8165    112.5195
  1161.5000    -54.7600     30.2133     27.6308     53.4012    109.6633
  1161.7500    -54.9292     30.8945     27.8925     52.8933    109.2446
  1162.0000    -55.1509     31.7067     28.0280     50.4844    110.9077
  1162.2500    -55.4466     32.5671     28.0300     46.6788    113.2621
  1162.5000    -55.8259     33.4060     27.9153     42.1327    117.7685
  1162.7500    -56.2576     34.1814     27.7240     37.5036    120.8525
  1163.0000    -56.6615     34.8746     27.5107     33.3641    125.3136
  1163.2500    -56.9340     35.4661     27.3317     30.1788    128.5365
  1163.5000    -56.9956     35.9160     27.2322     28.3100    134.1425
  1163.7500    -56.8342     36.1653     27.2383     28.0077    137.8681
  1164.0000    -56.5188     36.1536     27.3539     29.3640    141.6491
  1164.2500    -56.1693     35.8375     27.5623     32.2486    142.1365
  1164.5000    -55.9086     35.2060     27.8290     36.2657    139.4339
  1164.7500    -55.8094     34.2922     28.1072     40.7788    135.6148
  1165.0000    -55.8763     33.1779     28.3432     45.0238    127.9010
  1165.2500    -56.0595     31.9766     28.4837     48.2916    122.3354
  1165.5000    -56.2989     30.7978     28.4799     50.1108    115.2075
  1165.7500    -56.5573     29.7081     28.2958     50.3524    112.2399
  1166.0000    -56.8316     28.7117     27.9121     49.2054    111.2875
  1166.2500    -57.1469     27.7547     27.3322     47.0468    112.8875
  1166.5000    -57.5352     26.7512     26.5806     44.2772    117.8675
  1166.7500    -58.0240     25.6263     25.7007     41.2077    122.2233
  1167.0000    -58.6261     24.3578     24.7466     38.0347    128.8003
  1167.2500    -59.3417     22.9944     23.7742     34.8811    132.4420
  1167.5000    -60.1504     21.6336     22.8304     31.8505    136.5390
  1167.7500    -61.0151     20.3783     21.9499     29.0528    138.8618
  1168.0000    -61.8842     19.3000     21.1511     26.5933    142.6295
  1168.2500    -62.7097     18.4248     20.4375     24.5467    145.2987
  1168.5000    -63.4645     17.7386     19.8006     22.9384    148.4981
  1168.7500    -64.1506     17.2003     19.2246     21.7478    149.4130
  1169.0000    -64.7884     16.7603     18.6904     20.9259    148.5860
  1169.2500    -65.3966     16.3764     18.1800     20.4159    146.9325
  1169.5000    -65.9706     16.0256     17.6805     20.1629    143.9969
  1169.7500    -66.4788     15.7059     17.1862     20.1066    142.3888
  1170.0000    -66.8709     15.4297     16.6996     20.1658    140.9683
