~Version Information
VERS.                      2.0: CWLS Log ASCII Standard - VERSION 2.0
WRAP.                       NO: One line per depth step
~Well Information Block
STRT.FT               -12.3000: 
STOP.FT              1768.7000: 
STEP.FT                 0.1000: 
NULL.                -999.2500: 
COMP.          Petrogulf Corporation: COMPANY
WELL.          Alexander 9-43R: WELL
FLD.           Purgatorie River: FIELD
LOC.           1652' FSL & 1049' FEL--: LOCATION
CNTY.               Las Animas: COUNTY
SRVC.                         : SERVICE COMPANY
DATE.          Tue Sep 28 14:27:54 2004: LOG DATE
UWI.                          : UNIQUE WELL ID
STAT.                       CO: STATE
~Curve Information Block
DEPT.FT            0 000 00 00: Depth
GR.GAPI                       : Gamma Ray
CCL.                          : Casing Collar Locator
TT3.usec                      : CBL 3' Travel Time
AMP3.mV                       : CBL 3' Amplitude
~Parameter Information Block
~A  Depth        GR         CCL         TT3         AMP3    
# ...
  1394.7000    162.3632      0.0000    648.1624      6.9299
  1394.8000    162.9216      0.0000    667.8473      7.1124
  1394.9000    162.9216      0.0000    667.8473      7.1124
  1395.0000    162.1554      0.0000    695.9330      7.3201
  1395.1000    162.1554      0.0000    695.9330      7.3201
  1395.2000    162.1554      0.0000    695.9330      7.3201
  1395.3000    158.7832      0.0000    719.7120      7.5458
  1395.4000    158.7832      0.0000    719.7120      7.5458
  1395.5000    152.9930      0.0000    732.3503      7.7753
  1395.6000    152.9930      0.0000    732.3503      7.7753
  1395.7000    152.9930      0.0000    732.3503      7.7753
  1395.8000    146.3542      0.0000    733.6611      7.9872
  1395.9000    146.3542      0.0000    733.6611      7.9872
  1396.0000    140.9807      0.0000    727.0157      8.1611
  1396.1000    140.9807      0.0000    727.0157      8.1611
  1396.2000    140.9807      0.0000    727.0157      8.1611
  1396.3000    138.1646      0.0000    717.4205      8.2944
  1396.4000    138.1646      0.0000    717.4205      8.2944
  1396.5000    137.4895      0.0000    710.0377      8.4114
  1396.6000    137.4895      0.0000    710.0377      8.4114
  1396.7000    137.4895      0.0000    710.0377      8.4114
  1396.8000    137.4795      0.0000    707.6865      8.5490
  1396.9000    137.4795      0.0000    707.6865      8.5490
  1397.0000    137.1701      0.0000    709.7059      8.7289
  1397.1000    137.1701      0.0000    709.7059      8.7289
  1397.2000    137.1701      0.0000    709.7059      8.7289
  1397.3000    137.0091      0.0000    713.4685      8.9407
  1397.4000    137.0091      0.0000    713.4685      8.9407
  1397.5000    138.1712      0.0000    715.7181      9.1492
  1397.6000    138.1712      0.0000    715.7181      9.1492
  1397.7000    138.1712      0.0000    715.7181      9.1492
  1397.8000    140.8406      0.0000    713.2581      9.3168
  1397.9000    140.8406      0.0000    713.2581      9.3168
  1398.0000    143.2612      0.0000    704.9208      9.4197
  1398.1000    143.2612      0.0000    704.9208      9.4197
  1398.2000    143.2612      0.0000    704.9208      9.4197
  1398.3000    142.9895      0.0000    693.1414      9.4454
  1398.4000    142.9895      0.0000    693.1414      9.4454
  1398.5000    139.4128      0.0000    681.6791      9.3876
  1398.6000    139.4128      0.0000    681.6791      9.3876
  1398.7000    139.4128      0.0000    681.6791      9.3876
  1398.8000    134.5498      0.0000    671.5726      9.2536
  1398.9000    134.5498      0.0000    671.5726      9.2536
  1399.0000    130.8375      0.0000    660.4337      9.0793
  1399.1000    130.8375      0.0000    660.4337      9.0793
  1399.2000    130.8375      0.0000    660.4337      9.0793
  1399.3000    128.5200      0.0000    645.6693      8.9268
  1399.4000    128.5200      0.0000    645.6693      8.9268
  1399.5000    126.0859      0.0000    627.8340      8.8557
  1399.6000    126.0859      0.0000    627.8340      8.8557
  1399.7000    126.0859      0.0000    627.8340      8.8557
  1399.8000    123.0875      0.0000    611.0410      8.8943
  1399.9000    123.0875      0.0000    611.0410      8.8943
  1400.0000    121.1486      0.0000    600.5873      9.0335
  1400.1000    121.1486      0.0000    600.5873      9.0335
  1400.2000    121.1486      0.0000    600.5873      9.0335
  1400.3000    121.7524      0.0000    600.1321      9.2428
  1400.4000    121.7524      0.0000    600.1321      9.2428
  1400.5000    124.2561      0.0000    609.8403      9.4854
  1400.6000    124.2561      0.0000    609.8403      9.4854
  1400.7000    124.2561      0.0000    609.8403      9.4854
  1400.8000    126.7958      0.0000    624.7031      9.7277
  1400.9000    126.7958      0.0000    624.7031      9.7277
  1401.0000    128.2055      0.0000    633.9828      9.9479
  1401.1000    128.2055      0.0000    633.9828      9.9479
  1401.2000    128.2055      0.0000    633.9828      9.9479
  1401.3000    128.3831      0.0000    625.0652     10.1404
  1401.4000    128.3831      0.0000    625.0652     10.1404
  1401.5000    127.3910      0.0000    591.4018     10.3074
  1401.6000    127.3910      0.0000    591.4018     10.3074
  1401.7000    127.3910      0.0000    591.4018     10.3074
  1401.8000    124.9886      0.0000    538.1993     10.4465
  1401.9000    124.9886      0.0000    538.1993     10.4465
  1402.0000    121.1151      0.0000    480.2939     10.5419
  1402.1000    121.1151      0.0000    480.2939     10.5419
  1402.2000    121.1151      0.0000    480.2939     10.5419
  1402.3000    116.3393      0.0000    434.4588     10.5621
  1402.4000    116.3393      0.0000    434.4588     10.5621
  1402.5000    111.4443      0.0000    412.5027     10.4737
  1402.6000    111.4443      0.0000    412.5027     10.4737
  1402.7000    111.4443      0.0000    412.5027     10.4737
  1402.8000    106.7386      0.0000    418.7359     10.2712
  1402.9000    106.7386      0.0000    418.7359     10.2712
  1403.0000    102.1252      0.0000    450.8474      9.9920
  1403.1000    102.1252      0.0000    450.8474      9.9920
  1403.2000    102.1252      0.0000    450.8474      9.9920
  1403.3000     97.6245      0.0000    501.5987      9.6914
  1403.4000     97.6245      0.0000    501.5987      9.6914
  1403.5000     93.3430      0.0000    560.0089      9.4065
  1403.6000     93.3430      0.0000    560.0089      9.4065
  1403.7000     93.3430      0.0000    560.0089      9.4065
  1403.8000     89.0232      0.0000    612.9612      9.1457
  1403.9000     89.0232      0.0000    612.9612      9.1457
  1404.0000     84.2674      0.0000    648.8912      8.9047
  1404.1000     84.2674      0.0000    648.8912      8.9047
  1404.2000     84.2674      0.0000    648.8912      8.9047
  1404.3000     79.3736      0.0000    662.7418      8.6817
  1404.4000     79.3736      0.0000    662.7418      8.6817
  1404.5000     75.3947      0.0000    658.9481      8.4814
  1404.6000     75.3947      0.0000    658.9481      8.4814
  1404.7000     75.3947      0.0000    658.9481      8.4814
  1404.8000     73.0421      0.0000    649.5523      8.3142
  1404.9000     73.0421      0.0000    649.5523      8.3142
  1405.0000     71.9143      0.0000    647.5107      8.1932
  1405.1000     71.9143      0.0000    647.5107      8.1932
  1405.2000     71.9143      0.0000    647.5107      8.1932
  1405.3000     71.1436      0.0000    658.9504      8.1284
  1405.4000     71.1436      0.0000    658.9504      8.1284
  1405.5000     70.3347      0.0000    680.2540      8.1195
  1405.6000     70.3347      0.0000    680.2540      8.1195
  1405.7000     70.3347      0.0000    680.2540      8.1195
  1405.8000     69.3124      0.0000    702.3566      8.1591
  1405.9000     69.3124      0.0000    702.3566      8.1591
  1406.0000     67.4088      0.0000    717.8963      8.2453
  1406.1000     67.4088      0.0000    717.8963      8.2453
  1406.2000     67.4088      0.0000    717.8963      8.2453
  1406.3000     63.9411      0.0000    725.0583      8.3910
  1406.4000     63.9411      0.0000    725.0583      8.3910
  1406.5000     59.4323      0.0000    726.4305      8.6208
  1406.6000     59.4323      0.0000    726.4305      8.6208
  1406.7000     59.4323      0.0000    726.4305      8.6208
  1406.8000     55.6612      0.0000    725.6988      8.9588
  1406.9000     55.6612      0.0000    725.6988      8.9588
  1407.0000     54.3315      0.0000    725.3795      9.4052
  1407.1000     54.3315      0.0000    725.3795      9.4052
  1407.2000     54.3315      0.0000    725.3795      9.4052
  1407.3000     56.0088      0.0000    726.5734      9.9026
  1407.4000     56.0088      0.0000    726.5734      9.9026
  1407.5000     60.3154      0.0000    729.3939     10.3209
  1407.6000     60.3154      0.0000    729.3939     10.3209
  1407.7000     60.3154      0.0000    729.3939     10.3209
  1407.8000     66.5760      0.0000    732.9501     10.5113
  1407.9000     66.5760      0.0000    732.9501     10.5113
  1408.0000     73.8951      0.0000    735.7133     10.4274
