~Version Information
VERS.                      2.0: CWLS Log ASCII Standard - VERSION 2.0
WRAP.                       NO: One line per depth step
~Well Information Block
STRT.FT               425.0000: 
STOP.FT              2461.0000: 
STEP.FT                 0.2500: 
NULL.                -999.2500: 
COMP.          Evergreen Operating Corporation: COMPANY
WELL.              Nomad 32-10: WELL
FLD.           Purgatorie River: FIELD
LOC.           2281' FNL & 1585' FEL: LOCATION
PROV.                 Colorado: PROVINCE
CNTY.               Las Animas: COUNTRY
SRVC.                Patterson: SERVICE COMPANY
DATE.          Thu Aug 12 02:01:07 2004: LOG DATE
UWI.           05 071 08127 00: UNIQUE WELL ID
~Curve Information Block
DEPT.FT            0 000 00 00: Depth
SN.Ohm-m                      : IEL Short Normal
SP.mV                         : IEL Spontaneous Potential
DIR.Ohm-m                     : IEL Induction Resistivity
GR.GAPI                       : Gamma Ray
~Parameter Information Block
~A  Depth        SN          SP         DIR          GR     
# ...
  1363.0000     12.8272     71.2884     11.6206    112.0408
  1363.2500     13.1448     71.3201     11.3892    112.7287
  1363.5000     13.3147     71.3425     11.0670    113.6131
  1363.7500     13.3795     71.3528     10.6572    113.7280
  1364.0000     13.3335     71.3564     10.1997    112.4237
  1364.2500     13.1350     71.3648      9.7654    110.3536
  1364.5000     12.7774     71.3904      9.4381    106.2483
  1364.7500     12.3463     71.4394      9.3044    103.9231
  1365.0000     11.9920     71.5118      9.4609    102.9520
  1365.2500     11.8439     71.6061     10.0450    104.6129
  1365.5000     11.9353     71.7174     11.3016    110.3898
  1365.7500     12.1917     71.8306     13.7458    115.6680
  1366.0000     12.5039     71.9208     18.6768    123.9695
  1366.2500     12.8147     71.9688     30.4413    129.0012
  1366.5000     13.1129     71.9765     75.8745    135.9122
  1366.7500     13.3669     71.9696 100000.0000    141.2200
  1367.0000     13.5094     71.9804 100000.0000    152.7711
  1367.2500     13.4711     72.0254 100000.0000    163.1688
  1367.5000     13.1919     72.0969 100000.0000    179.1348
  1367.7500     12.6512     72.1720    875.0684    186.0533
  1368.0000     11.9410     72.2275     66.4982    185.1741
  1368.2500     11.2868     72.2481     35.2161    176.6805
  1368.5000     10.9759     72.2272     25.4387    156.9753
  1368.7500     11.2117     72.1667     20.8713    143.5503
  1369.0000     11.9412     72.0736     18.1703    128.7832
  1369.2500     12.8283     71.9574     16.6387    123.6816
  1369.5000     13.4826     71.8272     16.7390    121.7082
  1369.7500     13.7032     71.6865     20.7806    122.4043
  1370.0000     13.5087     71.5253     51.9863    123.8399
  1370.2500     13.0557     71.3198 100000.0000    124.2887
  1370.5000     12.5294     71.0466 100000.0000    124.0002
  1370.7500     12.0397     70.6998 100000.0000    123.3677
  1371.0000     11.6226     70.2888 100000.0000    122.1727
  1371.2500     11.3126     69.8154 100000.0000    121.3758
  1371.5000     11.1517     69.2590 100000.0000    120.2846
  1371.7500     11.1435     68.5825 100000.0000    119.6336
  1372.0000     11.2344     67.7443 100000.0000    118.9125
  1372.2500     11.3459     66.6955      9.4008    118.7878
  1372.5000     11.4152     65.3696      2.1357    119.2929
  1372.7500     11.4092     63.6738      1.0659    119.9526
  1373.0000     11.3024     61.4783      0.6843    121.1386
  1373.2500     11.0459     58.5899      0.5187    122.1166
  1373.5000     10.5589     54.7113      0.4638    124.1591
  1373.7500      9.7199     49.3965      0.5012    125.9090
  1374.0000      8.3730     42.0349      0.6707    128.6140
  1374.2500      6.4660     31.9328      1.1657    129.9630
  1374.5000      4.2696     18.5802      3.4051    130.1835
  1374.7500      2.3229      2.1223 100000.0000    128.3407
  1375.0000      1.0283    -16.1563 100000.0000    121.4038
  1375.2500      0.3967    -33.7584 100000.0000    113.8601
  1375.5000      0.1891    -47.6336 100000.0000     99.3223
  1375.7500      0.1621    -55.3153 100000.0000     88.6690
  1376.0000      0.1766    -55.8138 100000.0000     73.2301
  1376.2500      0.1834    -49.7863 100000.0000     64.1740
  1376.5000      0.1792    -39.1150 100000.0000     53.4764
  1376.7500      0.1740    -26.2510 100000.0000     48.6133
  1377.0000      0.1829    -13.5397 100000.0000     44.7610
  1377.2500      0.2553     -2.6767 100000.0000     44.1826
  1377.5000      0.5051      5.5286 100000.0000     45.4457
  1377.7500      1.1136     11.0406 100000.0000     47.1761
  1378.0000      2.2739     14.2783 100000.0000     50.4127
  1378.2500      3.9518     15.7917      9.2236     52.8364
  1378.5000      5.5548     16.0552      2.0265     56.9518
  1378.7500      6.1155     15.4069      0.8592     60.1080
  1379.0000      5.1946     14.0919      0.4362     65.3795
  1379.2500      3.4230     12.3582      0.2349     69.0392
  1379.5000      1.8329     10.5899      0.1318     74.6225
  1379.7500      0.9077      9.4620      0.0806     78.8697
  1380.0000      0.5017      9.9697      0.0555     87.3671
  1380.2500      0.3635     13.0906      0.0428     94.6540
  1380.5000      0.5087     19.1231      0.0358    106.4446
  1380.7500      1.2264     27.2776      0.0318    113.4912
  1381.0000      2.7919     36.0575      0.0300    121.6763
  1381.2500      5.0814     44.1392      0.0312    125.8797
  1381.5000      7.5123     50.9177      0.0377    131.3854
  1381.7500      9.4557     56.3874      0.0547    134.7419
  1382.0000     10.6629     60.7513      0.0951    139.0669
  1382.2500     11.2901     64.1874      0.1862    141.3950
  1382.5000     11.6207     66.8215      0.3772    144.0223
  1382.7500     11.8351     68.7800      0.7900    144.9694
  1383.0000     11.9792     70.2301      1.9775    144.4709
  1383.2500     12.0332     71.3717     10.8875    142.6121
  1383.5000     11.9789     72.3710 100000.0000    137.9775
  1383.7500     11.8304     73.2792 100000.0000    134.4328
  1384.0000     11.6444     74.0239 100000.0000    130.0600
  1384.2500     11.4968     74.5101 100000.0000    128.4422
  1384.5000     11.4358     74.7396 100000.0000    128.0477
  1384.7500     11.4583     74.8272 100000.0000    128.6016
  1385.0000     11.5069     74.9128 100000.0000    129.4463
  1385.2500     11.4888     75.0777 100000.0000    129.5654
  1385.5000     11.3371     75.3266 100000.0000    128.8191
  1385.7500     11.0951     75.6127 100000.0000    127.7377
  1386.0000     10.9296     75.8684 100000.0000    125.8240
  1386.2500     10.9971     76.0363 100000.0000    125.0256
  1386.5000     11.3123     76.0976 100000.0000    125.4349
  1386.7500     11.7804     76.0783 100000.0000    126.7051
  1387.0000     12.2860     76.0279 100000.0000    129.1374
  1387.2500     12.7228     75.9880 100000.0000    130.4845
  1387.5000     13.0194     75.9751 100000.0000    131.7548
  1387.7500     13.1724     75.9838 100000.0000    132.5576
  1388.0000     13.2228     76.0051 100000.0000    134.7980
  1388.2500     13.2083     76.0437 100000.0000    136.8962
  1388.5000     13.1454     76.1189 100000.0000    139.2031
  1388.7500     13.0264     76.2472 100000.0000    139.2515
  1389.0000     12.8316     76.4267     40.0177    137.4902
  1389.2500     12.5583     76.6368     16.1980    136.2314
  1389.5000     12.2357     76.8480     11.0010    135.6622
  1389.7500     11.9161     77.0289      8.9980    136.0632
  1390.0000     11.6563     77.1525      8.1160    136.8765
  1390.2500     11.4992     77.2097      7.7548    137.3829
  1390.5000     11.4654     77.2189      7.6791    138.4982
  1390.7500     11.5570     77.2160      7.7889    139.4486
  1391.0000     11.7576     77.2295      8.0462    140.4256
  1391.2500     12.0211     77.2678      8.4399    140.5955
  1391.5000     12.2812     77.3206      8.9621    140.8763
  1391.7500     12.4992     77.3676      9.5933    141.6393
  1392.0000     12.6925     77.3953     10.2987    143.8185
  1392.2500     12.9165     77.4178     11.0368    145.5500
  1392.5000     13.2336     77.4783     11.7733    147.3271
  1392.7500     13.7006     77.6142     12.4910    147.1875
  1393.0000     14.3610     77.8176     13.1905    144.2099
  1393.2500     15.2138     78.0337     13.8839    140.4765
  1393.5000     16.2007     78.1954     14.5898    133.0231
  1393.7500     17.2634     78.2563     15.3319    127.1536
  1394.0000     18.4082     78.2025     16.1379    117.0257
  1394.2500     19.6978     78.0527     17.0352    109.4501
  1394.5000     21.1978     77.8553     18.0453     98.0530
  1394.7500     22.9263     77.6719     19.1773     91.8459
  1395.0000     24.7967     77.5500     20.4246     86.8072
  1395.2500     26.6087     77.5020     21.7637     86.3787
  1395.5000     28.1815     77.5071     23.1578     87.8164
  1395.7500     29.5177     77.5325     24.5624     88.3172
  1396.0000     30.7640     77.5529     25.9278     86.4964
  1396.2500     31.9965     77.5576     27.1959     83.6059
