~Version Information
VERS.                      2.0: CWLS Log ASCII Standard - VERSION 2.0
WRAP.                       NO: One line per depth step
~Well Information Block
STRT.FT                -7.5000: 
STOP.FT              1877.2500: 
STEP.FT                 0.2500: 
NULL.                -999.2500: 
COMP.          Pioneer Natural Resources: COMPANY
WELL.            Nova 11-14 Tr: WELL
FLD.           Purgatorie River: FIELD
LOC.           706' FNL & 1109' FWL--: LOCATION
PROV.                       CO: PROVINCE
CNTY.               Las Animas: COUNTRY
SRVC.          Patterson Wireline: SERVICE COMPANY
DATE.          Tue Jul 26 15:08:01 2005: LOG DATE
UWI.           05 071 08434 00: UNIQUE WELL ID
~Curve Information Block
DEPT.FT            0 000 00 00: Depth
CCL.                          : Casing Collar Locator
TT3.usec                      : CBL 3' Travel Time
AMP3.mV                       : CBL 3' Amplitude
GR.GAPI                       : Gamma Ray
~Parameter Information Block
~A  Depth       CCL         TT3         AMP3         GR     
# ...
  1232.0000      0.0000    779.6403      7.3566    100.3190
  1232.2500      0.0000    770.6697      7.3854    104.0527
  1232.5000      0.0000    758.8929      7.4416    105.8863
  1232.7500      0.0000    748.4398      7.5291    106.3278
  1233.0000      0.0000    740.3033      7.6391    104.9799
  1233.2500      0.0000    731.0627      7.7569    100.6205
  1233.5000      0.0000    716.0527      7.8692     92.9012
  1233.7500      0.0000    693.5030      7.9629     83.3532
  1234.0000      0.0000    666.7300      8.0201     74.5420
  1234.2500      0.0000    643.5613      8.0202     68.5711
  1234.5000      0.0000    631.7151      7.9540     66.3543
  1234.7500      0.0000    632.4709      7.8396     67.5935
  1235.0000      0.0000    639.9781      7.7216     70.8726
  1235.2500      0.0000    646.6705      7.6573     74.1303
  1235.5000      0.0000    647.3486      7.6933     75.8600
  1235.7500      0.0000    640.6459      7.8337     76.2526
  1236.0000      0.0000    631.5129      8.0227     77.1316
  1236.2500      0.0000    630.2355      8.1758     80.5686
  1236.5000      0.0000    643.8300      8.2445     87.1929
  1236.7500      0.0000    668.6912      8.2459     95.6050
  1237.0000      0.0000    693.3858      8.2304    103.5916
  1237.2500      0.0000    706.2999      8.2325    109.9663
  1237.5000      0.0000    699.6727      8.2525    114.8621
  1237.7500      0.0000    671.5653      8.2727    118.3293
  1238.0000      0.0000    629.2190      8.2782    119.5832
  1238.2500      0.0000    589.4124      8.2660    118.0999
  1238.5000      0.0000    570.0171      8.2424    114.8426
  1238.7500      0.0000    576.5690      8.2177    111.8308
  1239.0000      0.0000    596.1525      8.2032    110.6982
  1239.2500      0.0000    605.8743      8.2086    111.7832
  1239.5000      0.0000    589.6746      8.2373    114.1034
  1239.7500      0.0000    548.8498      8.2826    115.9198
  1240.0000      0.0000    498.0548      8.3311    115.7552
  1240.2500      0.0000    453.1937      8.3723    113.3117
  1240.5000      0.0000    423.3880      8.4037    109.4555
  1240.7500      0.0000    410.8600      8.4280    105.3886
  1241.0000      0.0000    414.2917      8.4478    101.9267
  1241.2500      0.0000    431.2133      8.4642     99.3107
  1241.5000      0.0000    457.7531      8.4757     97.2721
  1241.7500      0.0000    486.6004      8.4762     95.2349
  1242.0000      0.0000    507.5752      8.4565     92.7635
  1242.2500      0.0000    514.4819      8.4150     90.0932
  1242.5000      0.0000    512.9695      8.3646     88.1849
  1242.7500      0.0000    518.2931      8.3248     88.0783
  1243.0000      0.0000    541.9249      8.3050     90.1254
  1243.2500      0.0000    580.6495      8.2963     93.8386
  1243.5000      0.0000    620.1466      8.2831     98.4437
  1243.7500      0.0000    648.2491      8.2573    103.4220
  1244.0000      0.0000    663.1946      8.2221    108.3542
  1244.2500      0.0000    670.8642      8.1830    112.3808
  1244.5000      0.0000    678.1155      8.1436    114.5232
  1244.7500      0.0000    689.3510      8.1088    114.8875
  1245.0000      0.0000    705.7427      8.0852    114.9072
  1245.2500      0.0000    724.5009      8.0743    115.9798
  1245.5000      0.0000    739.6155      8.0692    118.4895
  1245.7500      0.0000    746.1487      8.0610    122.2592
  1246.0000      0.0000    744.8632      8.0468    126.9855
  1246.2500      0.0000    740.9868      8.0296    131.7764
  1246.5000      0.0000    737.4134      8.0128    134.8604
  1246.7500      0.0000    730.8612      7.9962    134.3956
  1247.0000      0.0000    715.7604      7.9758    129.9052
  1247.2500      0.0000    689.7617      7.9463    123.1211
  1247.5000      0.0000    654.4064      7.9043    117.2120
  1247.7500      0.0000    613.1949      7.8496    114.7090
  1248.0000      0.0000    571.0389      7.7838    115.9444
  1248.2500      0.0000    533.8077      7.7112    119.2957
  1248.5000      0.0000    506.1377      7.6401    122.7915
  1248.7500      0.0000    489.5103      7.5812    125.6402
  1249.0000      0.0000    482.6928      7.5404    128.4116
  1249.2500      0.0000    483.3941      7.5148    131.8415
  1249.5000      0.0000    489.2923      7.4997    135.7479
  1249.7500      0.0000    498.3706      7.4964    139.2640
  1250.0000      0.0000    509.3336      7.5089    141.6665
  1250.2500      0.0000    521.6208      7.5344    142.3735
  1250.5000      0.0000    534.2304      7.5645    140.5409
  1250.7500      0.0000    544.8699      7.5927    135.6858
  1251.0000      0.0000    551.5507      7.6152    128.8459
  1251.2500      0.0000    555.2557      7.6259    122.4737
  1251.5000      0.0000    559.8800      7.6165    118.8023
  1251.7500      0.0000    569.5638      7.5828    118.2762
  1252.0000      0.0000    587.2094      7.5279    119.5593
  1252.2500      0.0000    614.6722      7.4616    121.0397
  1252.5000      0.0000    651.3906      7.3991    122.1856
  1252.7500      0.0000    691.9924      7.3559    123.3765
  1253.0000      0.0000    727.7523      7.3399    124.8682
  1253.2500      0.0000    752.3298      7.3456    126.3968
  1253.5000      0.0000    765.8288      7.3582    127.5255
  1253.7500      0.0000    773.1076      7.3616    127.8865
  1254.0000      0.0000    778.8510      7.3445    127.2938
  1254.2500      0.0000    784.5504      7.3028    126.2334
  1254.5000      0.0000    789.3407      7.2367    126.0761
  1254.7500      0.0000    792.3479      7.1476    128.1828
  1255.0000      0.0000    793.7018      7.0432    132.6318
  1255.2500      0.0000    794.0786      6.9443    137.7060
  1255.5000      0.0000    794.0626      6.8823    140.3724
  1255.7500      0.0000    793.9917      6.8793    137.8128
  1256.0000      0.0000    794.0225      6.9308    129.4547
  1256.2500      0.0000    794.1853      7.0092    117.6033
  1256.5000      0.0000    794.4233      7.0835    105.8495
  1256.7500      0.0000    794.6412      7.1368     97.1247
  1257.0000      0.0000    794.7369      7.1667     92.8367
  1257.2500      0.0000    794.4803      7.1762     92.4277
  1257.5000      0.0000    793.2566      7.1663     93.5724
  1257.7500      0.0000    789.9210      7.1395     93.9665
  1258.0000      0.0000    783.2220      7.1100     93.2672
  1258.2500      0.0000    772.8177      7.1012     92.9865
  1258.5000      0.0000    759.5160      7.1272     94.9378
  1258.7500      0.0000    743.4505      7.1786    100.1597
  1259.0000      0.0000    722.5287      7.2302    108.4871
  1259.2500      0.0000    695.2914      7.2617    118.2163
  1259.5000      0.0000    666.3600      7.2707    126.4242
  1259.7500      0.0000    646.4139      7.2688    130.6113
  1260.0000      0.0000    644.1475      7.2673    130.5336
  1260.2500      0.0000    658.0278      7.2679    128.2367
  1260.5000      0.0000    676.8735      7.2642    126.2449
  1260.7500      0.0000    689.3690      7.2478    125.7960
  1261.0000      0.0000    693.0766      7.2084    126.5147
  1261.2500      0.0000    693.3517      7.1323    127.3175
  1261.5000      0.0000    694.2579      7.0133    127.4315
  1261.7500      0.0000    693.7800      6.8710    126.7443
  1262.0000      0.0000    689.2637      6.7445    125.6282
  1262.2500      0.0000    684.2740      6.6477    124.6836
  1262.5000      0.0000    686.4597      6.5468    124.3870
  1262.7500      0.0000    699.2029      6.4082    124.7187
  1263.0000      0.0000    717.8742      6.2541    125.2262
  1263.2500      0.0000    734.2306      6.1392    125.4063
  1263.5000      0.0000    742.6368      6.0888    124.7918
  1263.7500      0.0000    742.4032      6.0859    123.0338
  1264.0000      2.0000    736.5408      6.1076    120.3939
  1264.2500      0.0000    729.0107      6.1617    117.8404
  1264.5000      0.0000    721.8320      6.2902    116.2072
  1264.7500      0.0000    713.9338      6.5279    115.4470
  1265.0000      0.0000    703.4252      6.8386    114.8825
  1265.2500      0.0000    690.9826      7.1163    113.8380
