~Version Information
VERS.                      2.0: CWLS Log ASCII Standard - VERSION 2.0
WRAP.                       NO: One line per depth step
~Well Information Block
STRT.FT               472.0000: 
STOP.FT              2428.5000: 
STEP.FT                 0.1000: 
NULL.                -999.2500: 
COMP.          Pioneer Natural Resources: COMPANY
WELL.          Flying Horse 12-11: WELL
FLD.           Purgatoire River: FIELD
LOC.           2428' FNL & 308' FWL: LOCATION
PROV.                 Colorado: PROVINCE
CNTY.               Las Animas: COUNTRY
SRVC.                Patterson: SERVICE COMPANY
DATE.          Mon May 30 06:06:20 2005: LOG DATE
UWI.           05 071 08378 00: UNIQUE WELL ID
~Curve Information Block
DEPT.FT            0 000 00 00: Depth
DCAL.in                       : CDL Caliper
RHOB.g/cc                     : CDL Bulk Density
RHOC.g/cc                     : CDL Density Correction
DPOR.pu                       : CDL Density Porosity
GR.GAPI                       : Gamma Ray
NPOR.pu                       : Neutron Porosity
~Parameter Information Block
~A  Depth       DCAL        RHOB        RHOC        DPOR         GR         NPOR    
# ...
   856.0000      8.1265      2.5645      0.0661      5.1834    133.7677     25.7355
   856.1000      8.1265      2.5496      0.0946      6.0868    140.5579     26.2349
   856.2000      8.1265      2.5337      0.0676      7.0497    145.3763     26.6847
   856.3000      8.1377      2.5195      0.0704      7.9118    140.6760     26.9375
   856.4000      8.1377      2.5156      0.0720      8.1426    131.0686     26.9015
   856.5000      8.1353      2.5291      0.0046      7.3285    125.1445     26.5513
   856.6000      8.1353      2.5530      0.0164      5.8775    123.4636     25.9513
   856.7000      8.1353      2.5728      0.0364      4.6781    121.4120     25.3890
   856.8000      8.1199      2.5785      0.1109      4.3353    116.0408     24.9444
   856.9000      8.1199      2.5670      0.0081      5.0309    108.8113     24.5759
   857.0000      8.1369      2.5482      0.0474      6.1696     99.2793     24.4443
   857.1000      8.1369      2.5261      0.0049      7.5073     88.9904     24.4042
   857.2000      8.1369      2.4898      0.0226      9.7071     87.0002     24.0249
   857.3000      8.1422      2.4426     -0.0430     12.5675     95.2046     23.4286
   857.4000      8.1422      2.4130     -0.0631     14.3646    103.2461     22.9875
   857.5000      8.1607      2.4148     -0.0287     14.2567    105.8860     22.6232
   857.6000      8.1607      2.4300     -0.0167     13.3305    109.2689     22.3551
   857.7000      8.1607      2.4326      0.0096     13.1735    113.4632     22.4622
   857.8000      8.2026      2.4112      0.0183     14.4726    113.0255     23.0972
   857.9000      8.2026      2.3869     -0.0822     15.9469    111.6551     24.1093
   858.0000      8.2151      2.3924      0.0090     15.6095    113.6887     24.8999
   858.1000      8.2151      2.4303      0.0666     13.3161    117.9869     25.1000
   858.2000      8.2151      2.4798      0.1493     10.3135    121.3059     24.9409
   858.3000      8.1970      2.5227      0.2140      7.7172    121.4730     24.9672
   858.4000      8.1970      2.5566      0.2012      5.6607    119.4218     25.4786
   858.5000      8.1205      2.5919      0.2278      3.5237    117.5429     25.9833
   858.6000      8.1205      2.6239      0.2760      1.5840    118.7709     26.0559
   858.7000      8.1205      2.6420      0.1970      0.4822    121.5231     25.7584
   858.8000      8.1149      2.6537      0.1640     -0.2234    119.9719     25.3320
   858.9000      8.1149      2.6583      0.1795     -0.5048    113.0663     24.9999
   859.0000      8.1147      2.6446      0.1510      0.3291    104.1603     24.7455
   859.1000      8.1147      2.6238      0.0893      1.5871     97.7099     24.2425
   859.2000      8.1147      2.6164      0.1005      2.0358     96.5760     23.4516
   859.3000      8.1404      2.6210      0.1050      1.7549     96.0432     22.8551
   859.4000      8.1404      2.6205      0.1051      1.7900     93.0417     22.6194
   859.5000      8.1970      2.6073      0.0826      2.5870     93.2504     22.6556
   859.6000      8.1970      2.5950      0.0303      3.3323     97.4755     22.8535
   859.7000      8.1970      2.5846      0.1017      3.9614     97.4676     22.9184
   859.8000      8.1296      2.5634      0.0288      5.2494     90.3093     22.8502
   859.9000      8.1296      2.5473      0.0124      6.2225     83.3648     22.9435
   860.0000      8.1249      2.5537      0.0552      5.8393     82.5380     23.2517
   860.1000      8.1249      2.5688      0.0320      4.9231     87.1534     23.5858
   860.2000      8.1249      2.5688      0.0916      4.9242     93.1807     23.7160
   860.3000      8.1279      2.5496     -0.0316      6.0845     95.9185     23.5826
   860.4000      8.1279      2.5383     -0.0057      6.7671     96.3876     23.3594
   860.5000      8.1520      2.5515      0.0449      5.9672     96.9869     23.1759
   860.6000      8.1520      2.5740      0.0292      4.6038     96.3679     23.0529
   860.7000      8.1520      2.5899      0.0309      3.6398     95.1150     23.1187
   860.8000      8.1979      2.6000      0.0581      3.0305     96.1839     23.5346
   860.9000      8.1979      2.6052      0.0569      2.7151     97.7080     24.1188
   861.0000      8.1353      2.5932      0.0646      3.4441     96.6091     24.5128
   861.1000      8.1353      2.5574      0.0366      5.6148     97.1468     24.4380
   861.2000      8.1353      2.5161     -0.0321      8.1127    100.2395     23.9315
   861.3000      8.1226      2.4984     -0.0428      9.1877    100.9847     23.6050
   861.4000      8.1226      2.5079      0.0302      8.6150    101.1026     23.9722
   861.5000      8.1457      2.5220      0.0182      7.7594    105.9526     24.8253
   861.6000      8.1457      2.5286      0.0352      7.3546    113.7649     25.6779
   861.7000      8.1457      2.5357      0.0295      6.9302    119.5854     26.2764
   861.8000      8.1513      2.5538      0.0098      5.8286    123.1605     26.5454
   861.9000      8.1513      2.5806      0.0024      4.2082    123.9165     26.4550
   862.0000      8.1663      2.5948      0.0538      3.3431    120.0364     26.1556
   862.1000      8.1663      2.5773      0.0230      4.4059    117.2269     26.1511
   862.2000      8.1663      2.5363      0.0005      6.8912    121.4103     26.6468
   862.3000      8.1752      2.4995      0.0142      9.1228    127.2530     27.2825
   862.4000      8.1752      2.4895     -0.0158      9.7262    128.8113     27.8943
   862.5000      8.1828      2.5083     -0.0376      8.5909    130.2899     28.2208
   862.6000      8.1828      2.5350      0.0119      6.9721    137.0378     27.9492
   862.7000      8.1828      2.5494      0.0056      6.0959    145.7079     27.6120
   862.8000      8.1845      2.5501     -0.0051      6.0529    151.1420     27.7483
   862.9000      8.1845      2.5468     -0.0320      6.2574    152.1288     28.0170
   863.0000      8.2076      2.5478      0.0096      6.1943    148.4305     27.9232
   863.1000      8.2076      2.5485      0.0155      6.1527    141.4995     27.7338
   863.2000      8.2076      2.5450     -0.0330      6.3650    135.1158     27.8662
   863.3000      8.2170      2.5469     -0.0104      6.2484    131.2846     28.0385
   863.4000      8.2170      2.5481      0.0609      6.1788    128.8551     27.9313
   863.5000      8.2071      2.5313     -0.0069      7.1964    126.6913     27.8144
   863.6000      8.2071      2.5087     -0.0440      8.5639    125.2553     28.0103
   863.7000      8.2071      2.5036     -0.0211      8.8754    123.8556     28.2135
   863.8000      8.1638      2.5179      0.0049      8.0047    122.1008     28.0201
   863.9000      8.1638      2.5393      0.0735      6.7090    119.7799     27.4845
   864.0000      8.1520      2.5546      0.0357      5.7808    115.9511     26.8890
   864.1000      8.1520      2.5660      0.0797      5.0923    115.4348     26.4765
   864.2000      8.1520      2.5782      0.0658      4.3510    121.6118     26.1687
   864.3000      8.1225      2.5901      0.0573      3.6326    126.7170     25.8325
   864.4000      8.1225      2.6102      0.0777      2.4097    124.8221     25.7099
   864.5000      8.1064      2.6395      0.1302      0.6392    118.0936     26.0349
   864.6000      8.1064      2.6608      0.1225     -0.6574    110.3452     26.4055
   864.7000      8.1064      2.6723      0.0761     -1.3540    106.8443     26.2469
   864.8000      8.0956      2.6843      0.1096     -2.0801    110.1120     25.9016
   864.9000      8.0956      2.6939      0.0913     -2.6620    114.0911     26.0254
   865.0000      8.0804      2.6905      0.1181     -2.4518    111.9491     26.2328
   865.1000      8.0804      2.6707      0.0918     -1.2541    105.3828     25.8944
   865.2000      8.0804      2.6489      0.0478      0.0649    101.3905     25.2363
   865.3000      8.0697      2.6335      0.0879      0.9970    104.8766     24.7406
   865.4000      8.0697      2.6112      0.0805      2.3519    111.2051     24.7012
   865.5000      8.0578      2.5768      0.0108      4.4339    110.0145     25.1919
