~Version Information
VERS.                      2.0: CWLS Log ASCII Standard - VERSION 2.0
WRAP.                       NO: One line per depth step
~Well Information Block
STRT.FT               395.0000: 
STOP.FT              1998.0000: 
STEP.FT                 0.2500: 
NULL.                -999.2500: 
COMP.          Pioneer Natural Resources: COMPANY
WELL.          Easton 12-30 Tr: WELL
FLD.           Purgatoire River: FIELD
LOC.           549' FWL & 2416' FNL--: LOCATION
PROV.                 Colorado: PROVINCE
CNTY.               Las Animas: COUNTRY
SRVC.                Patterson: SERVICE COMPANY
DATE.          Wed Jun 01 17:36:02 2005: LOG DATE
UWI.           05 071 08379 00: UNIQUE WELL ID
~Curve Information Block
DEPT.FT            0 000 00 00: Depth
SN.Ohm-m                      : IEL Short Normal
SP.mV                         : IEL Spontaneous Potential
DIR.Ohm-m                     : IEL Induction Resistivity
GR.GAPI                       : Gamma Ray
~Parameter Information Block
~A  Depth        SN          SP         DIR          GR     
# ...
   931.0000   2000.0000   -999.2500     23.5728    105.1196
   931.2500   2000.0000   -999.2500     23.7419    103.6387
   931.5000   2000.0000   -999.2500     23.6269    100.7741
   931.7500   2000.0000   -999.2500     23.1852     98.3721
   932.0000   2000.0000   -999.2500     22.4468     93.8366
   932.2500   2000.0000   -999.2500     21.5020     90.2738
   932.5000   2000.0000   -999.2500     20.4629     84.8056
   932.7500   2000.0000   -999.2500     19.4256     81.6997
   933.0000   2000.0000   -999.2500     18.4520     79.1484
   933.2500   2000.0000   -999.2500     17.5686     79.6482
   933.5000   2000.0000   -999.2500     16.7748     84.5007
   933.7500   2000.0000   -999.2500     16.0525     90.2013
   934.0000   2000.0000   -999.2500     15.3760    100.6908
   934.2500   2000.0000   -999.2500     14.7216    107.6112
   934.5000   2000.0000   -999.2500     14.0774    115.9379
   934.7500   2000.0000   -999.2500     13.4482    119.5432
   935.0000   2000.0000   -999.2500     12.8550    122.0362
   935.2500   2000.0000   -999.2500     12.3269    122.1174
   935.5000   2000.0000   -999.2500     11.8912    120.9097
   935.7500   2000.0000   -999.2500     11.5668    120.1118
   936.0000   2000.0000   -999.2500     11.3615    120.5379
   936.2500   2000.0000   -999.2500     11.2736    122.3771
   936.5000   2000.0000   -999.2500     11.2949    127.0893
   936.7500   2000.0000   -999.2500     11.4125    130.8681
   937.0000   2000.0000   -999.2500     11.6101    135.9335
   937.2500   2000.0000   -999.2500     11.8683    137.8355
   937.5000   2000.0000   -999.2500     12.1661    137.1698
   937.7500   2000.0000   -999.2500     12.4843    134.4821
   938.0000   2000.0000   -999.2500     12.8098    128.5622
   938.2500   2000.0000   -999.2500     13.1380    124.2599
   938.5000   2000.0000   -999.2500     13.4722    117.8891
   938.7500   2000.0000   -999.2500     13.8204    113.6010
   939.0000   2000.0000   -999.2500     14.1901    107.0707
   939.2500   2000.0000   -999.2500     14.5821    103.0588
   939.5000   2000.0000   -999.2500     14.9853     98.6436
   939.7500   2000.0000   -999.2500     15.3722     97.1515
   940.0000   2000.0000   -999.2500     15.7010     97.0031
   940.2500   2000.0000   -999.2500     15.9242     98.0504
   940.5000   2000.0000   -999.2500     16.0034    100.8716
   940.7500   2000.0000   -999.2500     15.9209    103.2180
   941.0000   2000.0000   -999.2500     15.6804    106.7154
   941.2500   2000.0000   -999.2500     15.3007    108.8279
   941.5000   2000.0000   -999.2500     14.8081    111.9774
   941.7500   2000.0000   -999.2500     14.2338    114.4135
   942.0000   2000.0000   -999.2500     13.6116    118.7977
   942.2500   2000.0000   -999.2500     12.9752    122.0007
   942.5000   2000.0000   -999.2500     12.3531    126.5613
   942.7500   2000.0000   -999.2500     11.7671    129.0688
   943.0000   2000.0000   -999.2500     11.2324    131.7037
   943.2500   2000.0000   -999.2500     10.7591    132.8042
   943.5000   2000.0000   -999.2500     10.3535    134.0060
   943.7500   2000.0000   -999.2500     10.0186    134.7178
   944.0000   2000.0000   -999.2500      9.7530    135.3289
   944.2500   2000.0000   -999.2500      9.5497    135.0268
   944.5000   2000.0000   -999.2500      9.3974    133.3631
   944.7500   2000.0000   -999.2500      9.2819    131.9087
   945.0000   2000.0000   -999.2500      9.1893    130.3765
   945.2500   2000.0000   -999.2500      9.1090    130.1802
   945.5000   2000.0000   -999.2500      9.0343    130.7666
   945.7500   2000.0000   -999.2500      8.9642    131.0889
   946.0000   2000.0000   -999.2500      8.9036    130.5477
   946.2500   2000.0000   -999.2500      8.8623    129.5850
   946.5000   2000.0000   -999.2500      8.8517    128.4459
   946.7500   2000.0000   -999.2500      8.8809    128.6812
   947.0000   2000.0000   -999.2500      8.9546    130.7574
   947.2500   2000.0000   -999.2500      9.0715    132.5651
   947.5000   2000.0000   -999.2500      9.2239    134.2574
   947.7500   2000.0000   -999.2500      9.3985    134.2930
   948.0000   2000.0000   -999.2500      9.5805    133.2229
   948.2500   2000.0000   -999.2500      9.7566    132.3771
   948.5000   2000.0000   -999.2500      9.9196    131.8340
   948.7500   2000.0000   -999.2500     10.0682    132.2211
   949.0000   2000.0000   -999.2500     10.2059    133.6402
   949.2500   2000.0000   -999.2500     10.3394    134.5891
   949.5000   2000.0000   -999.2500     10.4773    134.9927
   949.7500   2000.0000   -999.2500     10.6290    134.3159
   950.0000   2000.0000   -999.2500     10.8033    132.2701
   950.2500   2000.0000   -999.2500     11.0069    130.7573
   950.5000   2000.0000   -999.2500     11.2411    128.9179
   950.7500   2000.0000   -999.2500     11.4997    127.8623
   951.0000   2000.0000   -999.2500     11.7710    125.7076
   951.2500   2000.0000   -999.2500     12.0420    123.5526
   951.5000   2000.0000   -999.2500     12.3017    119.6288
   951.7500   2000.0000   -999.2500     12.5424    117.2602
   952.0000   2000.0000   -999.2500     12.7564    115.3959
   952.2500   2000.0000   -999.2500     12.9342    115.7099
   952.5000   2000.0000   -999.2500     13.0648    118.2877
   952.7500   2000.0000   -999.2500     13.1393    120.8170
   953.0000   2000.0000   -999.2500     13.1541    124.6730
   953.2500   2000.0000   -999.2500     13.1137    126.8466
   953.5000   2000.0000   -999.2500     13.0299    129.2311
   953.7500   2000.0000   -999.2500     12.9198    130.2549
   954.0000   2000.0000   -999.2500     12.8021    131.2077
   954.2500   2000.0000   -999.2500     12.6935    131.6516
   954.5000   2000.0000   -999.2500     12.6067    132.0609
   954.7500   2000.0000   -999.2500     12.5471    131.9494
   955.0000   2000.0000   -999.2500     12.5128    131.0770
   955.2500   2000.0000   -999.2500     12.4961    130.4384
   955.5000   2000.0000   -999.2500     12.4872    130.5331
   955.7500   2000.0000   -999.2500     12.4797    131.5929
   956.0000   2000.0000   -999.2500     12.4718    133.9818
   956.2500   2000.0000   -999.2500     12.4658    135.3072
   956.5000   2000.0000   -999.2500     12.4639    135.9299
   956.7500   2000.0000   -999.2500     12.4659    135.4401
   957.0000   2000.0000   -999.2500     12.4691    133.9490
   957.2500   2000.0000   -999.2500     12.4690    132.5924
   957.5000   2000.0000   -999.2500     12.4624    129.4527
   957.7500   2000.0000   -999.2500     12.4506    126.2901
   958.0000   2000.0000   -999.2500     12.4419    120.5235
   958.2500   2000.0000   -999.2500     12.4504    116.9877
   958.5000   2000.0000   -999.2500     12.4920    113.6919
   958.7500   2000.0000   -999.2500     12.5779    113.0472
   959.0000   2000.0000   -999.2500     12.7092    113.6062
   959.2500   2000.0000   -999.2500     12.8755    114.3135
   959.5000   2000.0000   -999.2500     13.0568    115.2233
   959.7500   2000.0000   -999.2500     13.2296    115.7398
   960.0000   2000.0000   -999.2500     13.3770    116.4346
   960.2500   2000.0000   -999.2500     13.4951    116.5373
   960.5000   2000.0000   -999.2500     13.5936    115.1550
   960.7500   2000.0000   -999.2500     13.6888    112.7694
   961.0000   2000.0000   -999.2500     13.7929    107.1875
   961.2500   2000.0000   -999.2500     13.9077    102.9049
   961.5000   2000.0000   -999.2500     14.0241     97.5553
   961.7500   2000.0000   -999.2500     14.1280     95.5419
   962.0000   2000.0000   -999.2500     14.2061     95.0219
   962.2500   2000.0000   -999.2500     14.2483     95.8827
   962.5000   2000.0000   -999.2500     14.2439     98.0086
   962.7500   2000.0000   -999.2500     14.1795     99.4670
   963.0000   2000.0000   -999.2500     14.0418    101.0524
   963.2500   2000.0000   -999.2500     13.8263    101.6957
   963.5000   2000.0000   -999.2500     13.5445    102.8736
   963.7500   2000.0000   -999.2500     13.2228    104.4236
   964.0000   2000.0000   -999.2500     12.8933    108.2767
   964.2500   2000.0000   -999.2500     12.5843    111.5614
