~Version Information
VERS.                      2.0: CWLS Log ASCII Standard - VERSION 2.0
WRAP.                       NO: One line per depth step
~Well Information Block
STRT.FT               475.0000: 
STOP.FT              2336.7500: 
STEP.FT                 0.2500: 
NULL.                -999.2500: 
COMP.          Pioneer Natural Resources: COMPANY
WELL.              Bobsy 34-11: WELL
FLD.           Purgatoire River: FIELD
LOC.           1937' FEL & 451' FSL----: LOCATION
PROV.                 Colorado: PROVINCE
CNTY.               Las Animas: COUNTRY
SRVC.                Patterson: SERVICE COMPANY
DATE.          Fri Apr 08 05:21:25 2005: LOG DATE
UWI.           05 071 08330 00: UNIQUE WELL ID
~Curve Information Block
DEPT.FT            0 000 00 00: Depth
SN.Ohm-m                      : IEL Short Normal
SP.mV                         : IEL Spontaneous Potential
DIR.Ohm-m                     : IEL Induction Resistivity
GR.GAPI                       : Gamma Ray
~Parameter Information Block
~A  Depth        SN          SP         DIR          GR     
# ...
  1346.0000     13.0323   -165.5981     12.0142    125.7122
  1346.2500     13.3194   -165.5448     13.7566    128.4727
  1346.5000     13.6091   -165.4221     15.6616    134.4561
  1346.7500     13.8934   -165.2248     19.6262    137.6883
  1347.0000     14.1654   -164.9807     32.7707    138.5760
  1347.2500     14.4201   -164.7360    245.8759    136.0560
  1347.5000     14.6499   -164.5363 100000.0000    128.7724
  1347.7500     14.8452   -164.4120 100000.0000    122.8444
  1348.0000     15.0051   -164.3728 100000.0000    114.6778
  1348.2500     15.1521   -164.4109 100000.0000    110.9262
  1348.5000     15.3305   -164.5098 100000.0000    109.0927
  1348.7500     15.5792   -164.6552     49.8193    110.4209
  1349.0000     15.8992   -164.8420     20.6571    115.2298
  1349.2500     16.2455   -165.0770     14.3672    119.3643
  1349.5000     16.5513   -165.3780     12.2557    125.2503
  1349.7500     16.7667   -165.7688     11.7020    128.3090
  1350.0000     16.8895   -166.2733     11.9437    131.4726
  1350.2500     16.9727   -166.9089     12.6531    132.8683
  1350.5000     17.1007   -167.6772     13.6268    134.1115
  1350.7500     17.3432   -168.5578     14.7032    134.3696
  1351.0000     17.7119   -169.5018     15.7596    133.9194
  1351.2500     18.1493   -170.4321     16.7312    132.9958
  1351.5000     18.5542   -171.2514     17.6102    130.1560
  1351.7500     18.8201   -171.8576     18.4130    126.8972
  1352.0000     18.8719   -172.1643     19.1438    119.9343
  1352.2500     18.6972   -172.1226     19.7759    114.6153
  1352.5000     18.3649   -171.7340     20.2626    107.7900
  1352.7500     18.0122   -171.0544     20.5651    105.2479
  1353.0000     17.7946   -170.1833     20.6780    105.5445
  1353.2500     17.8147   -169.2445     20.6336    108.3295
  1353.5000     18.0716   -168.3606     20.4851    114.8649
  1353.7500     18.4645   -167.6300     20.2789    119.4204
  1354.0000     18.8461   -167.1116     20.0348    124.1970
  1354.2500     19.0886   -166.8195     19.7437    125.1646
  1354.5000     19.1292   -166.7283     19.3833    123.3395
  1354.7500     18.9806   -166.7854     18.9427    120.8130
  1355.0000     18.7141   -166.9270     18.4383    117.2208
  1355.2500     18.4240   -167.0930     17.9109    116.0133
  1355.5000     18.1905   -167.2374     17.4103    116.7225
  1355.7500     18.0526   -167.3340     16.9798    118.6116
  1356.0000     18.0008   -167.3756     16.6482    122.2416
  1356.2500     17.9889   -167.3699     16.4252    124.3526
  1356.5000     17.9594   -167.3332     16.2987    126.4816
  1356.7500     17.8718   -167.2851     16.2367    127.4211
  1357.0000     17.7182   -167.2431     16.1991    128.5057
  1357.2500     17.5232   -167.2212     16.1574    129.0123
  1357.5000     17.3312   -167.2287     16.1094    129.5905
  1357.7500     17.1871   -167.2708     16.0780    130.2375
  1358.0000     17.1162   -167.3490     16.0936    132.2810
  1358.2500     17.1169   -167.4622     16.1749    134.2839
  1358.5000     17.1769   -167.6074     16.3198    136.8907
  1358.7500     17.3011   -167.7809     16.5123    137.1819
  1359.0000     17.5313   -167.9785     16.7388    134.2972
  1359.2500     17.9456   -168.1976     17.0034    130.6088
  1359.5000     18.6354   -168.4378     17.3304    124.5429
  1359.7500     19.6643   -168.7022     17.7536    121.2380
  1360.0000     21.0240   -168.9974     18.3023    117.8935
  1360.2500     22.6232   -169.3328     18.9921    116.3510
  1360.5000     24.3311   -169.7185     19.8251    114.2269
  1360.7500     26.0532   -170.1623     20.7955    112.6934
  1361.0000     27.7805   -170.6666     21.8959    109.9777
  1361.2500     29.5806   -171.2264     23.1224    107.5995
  1361.5000     31.5445   -171.8283     24.4781    102.7110
  1361.7500     33.7259   -172.4522     25.9719     98.7331
  1362.0000     36.0990   -173.0751     27.6081     92.8795
  1362.2500     38.5473   -173.6748     29.3701     89.9123
  1362.5000     40.8856   -174.2340     31.2083     87.7065
  1362.7500     42.9130   -174.7421     33.0421     87.5766
  1363.0000     44.4767   -175.1957     34.7761     88.0770
  1363.2500     45.5137   -175.5966     36.3184     87.8865
  1363.5000     46.0520   -175.9502     37.5874     85.8290
  1363.7500     46.1784   -176.2625     38.5152     83.4767
  1364.0000     46.0004   -176.5386     39.0597     79.8125
  1364.2500     45.6199   -176.7811     39.2271     78.1209
  1364.5000     45.1186   -176.9885     39.0830     77.5903
  1364.7500     44.5435   -177.1540     38.7345     78.6765
  1365.0000     43.8974   -177.2651     38.2926     81.9417
  1365.2500     43.1517   -177.3055     37.8322     84.5954
  1365.5000     42.2821   -177.2593     37.3695     88.2502
  1365.7500     41.2977   -177.1178     36.8659     90.0847
  1366.0000     40.2416   -176.8862     36.2617     91.4804
  1366.2500     39.1744   -176.5880     35.5245     91.3718
  1366.5000     38.1642   -176.2641     34.6800     90.4111
  1366.7500     37.2800   -175.9659     33.8038     90.3462
  1367.0000     36.5661   -175.7438     32.9838     92.6507
  1367.2500     36.0159   -175.6359     32.2868     95.5944
  1367.5000     35.5745   -175.6587     31.7442    100.1976
  1367.7500     35.1701   -175.8041     31.3514    102.2941
  1368.0000     34.7470   -176.0440     31.0718    103.2834
  1368.2500     34.2822   -176.3381     30.8449    102.6273
  1368.5000     33.7914   -176.6443     30.6070    100.0900
  1368.7500     33.3267   -176.9279     30.3217     97.6947
  1369.0000     32.9606   -177.1659     29.9979     94.0388
  1369.2500     32.7555   -177.3490     29.6765     92.2767
  1369.5000     32.7314   -177.4789     29.3879     91.4251
  1369.7500     32.8542   -177.5652     29.1040     91.9217
  1370.0000     33.0555   -177.6213     28.7116     93.0772
  1370.2500     33.2723   -177.6602     28.0269     93.3199
  1370.5000     33.4790   -177.6929     26.8627     92.4101
  1370.7500     33.6946   -177.7269     25.1346     91.3534
  1371.0000     33.9632   -177.7653     22.9490     90.1373
  1371.2500     34.3232   -177.8079     20.5890     89.8386
  1371.5000     34.7811   -177.8517     18.3979     89.7290
  1371.7500     35.3072   -177.8919     16.6666     89.2576
  1372.0000     35.8522   -177.9231     15.6276     86.7927
  1372.2500     36.3670   -177.9393     15.5832     83.7382
  1372.5000     36.8078   -177.9341     17.2818     78.0138
  1372.7500     37.1245   -177.9005     23.5681     74.5147
  1373.0000     37.2455   -177.8307     59.9242     71.1127
  1373.2500     37.0825   -177.7169 100000.0000     70.1956
  1373.5000     36.5579   -177.5523 100000.0000     70.2246
  1373.7500     35.6419   -177.3327 100000.0000     70.7563
  1374.0000     34.3747   -177.0579 100000.0000     71.9468
  1374.2500     32.8601   -176.7326 100000.0000     73.0153
  1374.5000     31.2254   -176.3662 100000.0000     75.4399
  1374.7500     29.5671   -175.9724 100000.0000     78.0741
  1375.0000     27.9221   -175.5675 100000.0000     84.4299
  1375.2500     26.2839   -175.1696 100000.0000     90.4162
  1375.5000     24.6463   -174.7973 100000.0000    101.0172
  1375.7500     23.0363   -174.4697     75.3614    108.0313
  1376.0000     21.5136   -174.2054     37.6035    116.8995
  1376.2500     20.1418   -174.0237     27.7006    121.6275
  1376.5000     18.9575   -173.9449     21.7535    128.0695
  1376.7500     17.9602   -173.9908     17.0410    132.7486
  1377.0000     17.1244   -174.1857     14.1035    141.1114
  1377.2500     16.4175   -174.5548     13.9565    147.2946
  1377.5000     15.8102   -175.1229     21.5611    155.4995
  1377.7500     15.2743   -175.9116 100000.0000    158.7560
  1378.0000     14.7747   -176.9368 100000.0000    158.8647
  1378.2500     14.2668   -178.2073 100000.0000    156.0068
  1378.5000     13.6971   -179.7258 100000.0000    149.1997
  1378.7500     13.0057   -181.4916 100000.0000    144.4227
  1379.0000     12.1326   -183.5048 100000.0000    139.0194
  1379.2500     11.0373   -185.7677      9.2461    137.2659
