~Version Information
VERS.                      2.0: CWLS Log ASCII Standard - VERSION 2.0
WRAP.                       NO: One line per depth step
~Well Information Block
STRT.FT                15.0000: 
STOP.FT              1891.7500: 
STEP.FT                 0.2500: 
NULL.                -999.2500: 
COMP.          Pioneer Natural Resources: COMPANY
WELL.          Oink Oink 14-36 Tr: WELL
FLD.           Purgatoire River: FIELD
LOC.           236' FSL & 164' FWL: LOCATION
PROV.                 Colorado: PROVINCE
CNTY.               Las Animas: COUNTRY
SRVC.                Patterson: SERVICE COMPANY
DATE.          Wed Jun 22 11:40:13 2005: LOG DATE
UWI.           05 071 08393 00: UNIQUE WELL ID
~Curve Information Block
DEPT.FT            0 000 00 00: Depth
GR.GAPI                       : Gamma Ray
CCL.                          : Casing Collar Locator
TT3.usec                      : CBL 3' Travel Time
AMP3.mV                       : CBL 3' Amplitude
~Parameter Information Block
~A  Depth        GR         CCL         TT3         AMP3    
# ...
   249.5000     94.7346      0.0000    536.8474      3.0855
   249.7500     94.2012      0.0000    587.8488      3.0953
   250.0000     94.4525      0.0000    630.3746      3.1368
   250.2500     94.9105      0.0000    660.0651      3.2151
   250.5000     94.8837      0.0000    679.6736      3.3263
   250.7500     94.4286      0.0000    693.3180      3.4578
   251.0000     94.3244      0.0000    700.3092      3.5941
   251.2500     94.9836      0.0000    696.4430      3.7276
   251.5000     95.8582      0.0000    680.5722      3.8599
   251.7500     96.2932      0.0000    658.4696      3.9887
   252.0000     96.5381      0.0000    640.5646      4.0932
   252.2500     97.4268      0.0000    636.4978      4.1460
   252.5000     99.2804      0.0000    650.4777      4.1474
   252.7500    101.5772      0.0000    679.0020      4.1349
   253.0000    103.6173      0.0000    711.7375      4.1478
   253.2500    105.1377      0.0000    736.6682      4.1925
   253.5000    106.3035      1.6580    747.0420      4.2475
   253.7500    107.5966      3.0000    743.5422      4.2944
   254.0000    109.9107      3.0000    729.7034      4.3404
   254.2500    114.2031      0.0000    707.4421      4.4225
   254.5000    120.4848      0.0000    677.8171      4.5948
   254.7500    127.4360      0.0000    643.4390      4.8930
   255.0000    133.4745      0.0000    608.3541      5.2985
   255.2500    137.7978      0.0000    576.9565      5.7385
   255.5000    140.0110      0.0000    554.1634      6.1267
   255.7500    139.5242      0.0000    545.0852      6.4072
   256.0000    136.0551      0.0000    552.2522      6.5709
   256.2500    130.3714      0.0000    572.6620      6.6450
   256.5000    124.1864      0.0000    598.4855      6.6713
   256.7500    119.4323      0.0000    621.6464      6.6864
   257.0000    117.2044      0.0000    638.2698      6.7100
   257.2500    116.8514      0.0000    649.0070      6.7450
   257.5000    116.5244      0.0000    655.8845      6.7852
   257.7500    115.1552      0.0000    659.2134      6.8245
   258.0000    113.4812      0.0000    657.2438      6.8615
   258.2500    112.9038      0.0000    648.4948      6.8968
   258.5000    114.0724      0.0000    634.8386      6.9285
   258.7500    116.9210      0.0000    622.3760      6.9521
   259.0000    121.1251      0.0000    618.3828      6.9637
   259.2500    125.7705      0.0000    626.4203      6.9603
   259.5000    129.1838      0.0000    643.7936      6.9377
   259.7500    129.9500      0.0000    663.4583      6.8925
   260.0000    128.0060      0.0000    678.6261      6.8267
   260.2500    124.5058      0.0000    685.9302      6.7474
   260.5000    120.9334      0.0000    685.0656      6.6608
   260.7500    118.4664      0.0000    677.2556      6.5670
   261.0000    117.6690      0.0000    665.2104      6.4621
   261.2500    118.3889      0.0000    653.3961      6.3440
   261.5000    120.0148      0.0000    646.1596      6.2194
   261.7500    121.9694      0.0000    644.6357      6.1039
   262.0000    123.9335      0.0000    645.9201      6.0155
   262.2500    125.5449      0.0000    644.9795      5.9640
   262.5000    126.1670      0.0000    636.9622      5.9431
   262.7500    125.5617      0.0000    618.9718      5.9332
   263.0000    124.7240      0.0000    592.1028      5.9130
   263.2500    125.1557      0.0000    562.5591      5.8743
   263.5000    126.8662      0.0000    539.4174      5.8262
   263.7500    127.7837      0.0000    530.1295      5.7861
   264.0000    125.8378      0.0000    537.6747      5.7650
   264.2500    121.3444      0.0000    560.5098      5.7603
   264.5000    116.7426      0.0000    593.3460      5.7612
   264.7500    114.1901      0.0000    628.2610      5.7583
   265.0000    113.9065      0.0000    657.4778      5.7454
   265.2500    114.5360      0.0000    676.8581      5.7200
   265.5000    114.4773      0.0000    686.9210      5.6871
   265.7500    113.0278      0.0000    690.6112      5.6649
   266.0000    110.8059      0.0000    690.6423      5.6815
   266.2500    109.2157      0.0000    688.7859      5.7602
   266.5000    109.3964      0.0000    686.5720      5.9062
   266.7500    111.5372      0.0000    685.5016      6.1068
   267.0000    114.8106      0.0000    686.2459      6.3421
   267.2500    117.8593      0.0000    688.0752      6.5978
   267.5000    119.7374      0.0000    689.4013      6.8698
   267.7500    120.5184      0.0000    688.6536      7.1625
   268.0000    120.9042      0.0000    684.5771      7.4848
   268.2500    121.5240      0.0000    676.4697      7.8433
   268.5000    122.7213      0.0000    665.0828      8.2310
   268.7500    124.3884      0.0000    653.2855      8.6232
   269.0000    125.6025      0.0000    645.0051      8.9882
   269.2500    124.8387      0.0000    642.8903      9.3051
   269.5000    121.0047      0.0000    646.8250      9.5692
   269.7500    114.2826      0.0000    654.2358      9.7812
   270.0000    106.0232      0.0000    661.4618      9.9381
   270.2500     98.0244      0.0000    665.5172     10.0378
   270.5000     91.7114      0.0000    665.6575     10.0893
   270.7500     87.4686      0.0000    663.5153     10.1094
   271.0000     84.5127      0.0000    661.5565     10.1113
   271.2500     81.7148      0.0000    661.3943     10.1007
   271.5000     78.8128      0.0000    663.2360     10.0833
   271.7500     76.6418      0.0000    666.3082     10.0706
   272.0000     76.0149      0.0000    669.7405     10.0728
   272.2500     76.6273      0.0000    673.3333     10.0855
   272.5000     77.4206      0.0000    677.4424     10.0873
   272.7500     77.8194      0.0000    682.0533     10.0542
   273.0000     78.0947      0.0000    686.3447      9.9794
   273.2500     78.4927      0.0000    689.2922      9.8763
   273.5000     78.7143      0.0000    690.2913      9.7618
   273.7500     78.6443      0.0000    689.0947      9.6395
   274.0000     78.9311      0.0000    685.6992      9.5009
   274.2500     80.1599      0.0000    680.8168      9.3395
   274.5000     81.7650      0.0000    676.3025      9.1589
   274.7500     82.3183      0.0000    674.4368      8.9709
   275.0000     80.9239      0.0000    676.3029      8.7901
   275.2500     78.1629      0.0000    680.9009      8.6311
   275.5000     75.5957      0.0000    686.0206      8.5045
   275.7500     74.3280      0.0000    689.9052      8.4111
   276.0000     74.2028      0.0000    692.0670      8.3376
   276.2500     74.4084      0.0000    692.9141      8.2632
   276.5000     74.5344      0.0000    693.0472      8.1721
   276.7500     74.7854      0.0000    692.9050      8.0636
   277.0000     75.4240      0.0000    692.7259      7.9505
   277.2500     76.3102      0.0000    692.5991      7.8491
   277.5000     76.9453      0.0000    692.5202      7.7700
   277.7500     76.7807      0.0000    692.4615      7.7153
   278.0000     75.5388      0.0000    692.4218      7.6814
   278.2500     73.5219      0.0000    692.4225      7.6618
   278.5000     71.6915      0.0000    692.4672      7.6505
   278.7500     71.0924      0.0000    692.5170      7.6442
   279.0000     71.9810      0.0000    692.5078      7.6417
   279.2500     73.6778      0.0000    692.3885      7.6419
   279.5000     75.2578      0.0000    692.1579      7.6402
   279.7500     76.0408      0.0000    691.8770      7.6288
   280.0000     75.5428      0.0000    691.6466      7.5989
   280.2500     73.6457      0.0000    691.5489      7.5461
   280.5000     71.0439      0.0000    691.5917      7.4717
   280.7500     68.9903      0.0000    691.7068      7.3795
   281.0000     68.2219      0.0000    691.8060      7.2716
   281.2500     68.3227      0.0000    691.8381      7.1501
   281.5000     68.2819      0.0000    691.8029      7.0216
   281.7500     67.5189      0.0000    691.7258      6.8966
   282.0000     66.3016      0.0000    691.6237      6.7868
   282.2500     65.3363      0.0000    691.4926      6.7023
   282.5000     65.2419      0.0000    691.3340      6.6499
   282.7500     66.5796      0.0000    691.1938      6.6320
