~Version Information
VERS.                      2.0: CWLS Log ASCII Standard - VERSION 2.0
WRAP.                       NO: One line per depth step
~Well Information Block
STRT.FT               890.0000: 
STOP.FT              1589.0000: 
STEP.FT                 0.2500: 
NULL.                -999.2500: 
COMP.          Evergreen Operating Corporation: COMPANY
WELL.            Tomahawk 44-9: WELL
FLD.           Purgatorie River: FIELD
LOC.           434' FSL & 491' FEL: LOCATION
PROV.                 Colorado: PROVINCE
CNTY.               Las Animas: COUNTRY
SRVC.                         : SERVICE COMPANY
DATE.          Sat Sep 11 23:05:26 2004: LOG DATE
UWI.           05 071 08133 00: UNIQUE WELL ID
~Curve Information Block
DEPT.FT            0 000 00 00: Depth
LTEN.lb                       : Surface Line Tension
SN.Ohm-m                      : IEL Short Normal
SP.mV                         : IEL Spontaneous Potential
DIR.Ohm-m                     : IEL Induction Resistivity
GR.GAPI                       : Gamma Ray
~Parameter Information Block
~A  Depth       LTEN         SN          SP         DIR          GR     
# ...
  1058.0000    866.2567   2000.0000   2040.0000      8.9433    180.3467
  1058.2500    864.9372   2000.0000   2040.0000      8.9353    183.5713
  1058.5000    864.8281   2000.0000   2040.0000      8.9636    188.3960
  1058.7500    867.1824   2000.0000   2040.0000      9.0025    190.5835
  1059.0000    871.5861   2000.0000   2040.0000      9.0336    191.8808
  1059.2500    876.2109   2000.0000   2040.0000      9.0543    192.0278
  1059.5000    879.5930   2000.0000   2040.0000      9.0717    192.2063
  1059.7500    881.6246   2000.0000   2040.0000      9.0847    192.0315
  1060.0000    882.8563   2000.0000   2040.0000      9.0733    189.6631
  1060.2500    883.5918   2000.0000   2040.0000      9.0100    186.0595
  1060.5000    883.9407   2000.0000   2040.0000      8.8883    178.6306
  1060.7500    884.0777   2000.0000   2040.0000      8.7394    173.8607
  1061.0000    883.8599   2000.0000   2040.0000      8.6183    169.4070
  1061.2500    882.4902   2000.0000   2040.0000      8.5692    168.8284
  1061.5000    879.2358   2000.0000   2040.0000      8.6013    171.2730
  1061.7500    874.5456   2000.0000   2040.0000      8.6859    174.6166
  1062.0000    870.0146   2000.0000   2040.0000      8.7723    181.0620
  1062.2500    867.0834   2000.0000   2040.0000      8.8147    185.3941
  1062.5000    865.9139   2000.0000   2040.0000      8.7952    190.0508
  1062.7500    865.4440   2000.0000   2040.0000      8.7282    191.0404
  1063.0000    864.2978   2000.0000   2040.0000      8.6464    189.1617
  1063.2500    861.6934   2000.0000   2040.0000      8.5817    186.4662
  1063.5000    857.9282   2000.0000   2040.0000      8.5547    182.2579
  1063.7500    854.2900   2000.0000   2040.0000      8.5750    180.2534
  1064.0000    852.4720   2000.0000   2040.0000      8.6470    179.2804
  1064.2500    853.7695   2000.0000   2040.0000      8.7723    180.1290
  1064.5000    858.2754   2000.0000   2040.0000      8.9478    183.0334
  1064.7500    864.5406   2000.0000   2040.0000      9.1615    184.9950
  1065.0000    870.3442   2000.0000   2040.0000      9.3945    185.4895
  1065.2500    874.3323   2000.0000   2040.0000      9.6310    183.2380
  1065.5000    876.9308   2000.0000   2040.0000      9.8716    176.5217
  1065.7500    879.3044   2000.0000   2040.0000     10.1389    171.0569
  1066.0000    881.5934   2000.0000   2040.0000     10.4660    163.1462
  1066.2500    882.8788   2000.0000   2040.0000     10.8772    158.3310
  1066.5000    882.8102   2000.0000   2040.0000     11.3751    151.6268
  1066.7500    882.1171   2000.0000   2040.0000     11.9456    147.5590
  1067.0000    881.2076   2000.0000   2040.0000     12.5778    142.5388
  1067.2500    879.4078   2000.0000   2040.0000     13.2826    140.1686
  1067.5000    876.2032   2000.0000   2040.0000     14.0860    138.0661
  1067.7500    872.5586   2000.0000   2040.0000     14.9909    137.2797
  1068.0000    870.3868   2000.0000   2040.0000     15.9251    135.9985
  1068.2500    870.6459   2000.0000   2040.0000     16.7190    134.5040
  1068.5000    872.1995   2000.0000   2040.0000     17.1686    131.0671
  1068.7500    872.8102   2000.0000   2040.0000     17.1757    128.4836
  1069.0000    871.2347   2000.0000   2040.0000     16.8377    125.4816
  1069.2500    868.2590   2000.0000   2040.0000     16.3736    124.4139
  1069.5000    865.8782   2000.0000   2040.0000     15.9781    123.7067
  1069.7500    865.5657   2000.0000   2040.0000     15.7402    123.3906
  1070.0000    867.0320   2000.0000   2040.0000     15.6435    123.1320
  1070.2500    868.4124   2000.0000   2040.0000     15.6080    123.4865
  1070.5000    867.9647   2000.0000   2040.0000     15.5440    125.4857
  1070.7500    865.9541   2000.0000   2040.0000     15.4044    127.9422
  1071.0000    864.5593   2000.0000   2040.0000     15.2040    132.9565
  1071.2500    865.4722   2000.0000   2040.0000     14.9895    136.6900
  1071.5000    867.9258   2000.0000   2040.0000     14.7822    142.0128
  1071.7500    869.7451   2000.0000   2040.0000     14.5469    145.0075
  1072.0000    870.2296   2000.0000   2040.0000     14.2208    147.9001
  1072.2500    871.3576   2000.0000   2040.0000     13.7783    148.1335
  1072.5000    875.7396   2000.0000   2040.0000     13.2667    145.3298
  1072.7500    883.4384   2000.0000   2040.0000     12.7731    141.8540
  1073.0000    891.1796   2000.0000   2040.0000     12.3601    136.4711
  1073.2500    895.0477   2000.0000   2040.0000     12.0314    134.1108
  1073.5000    893.7479   2000.0000   2040.0000     11.7449    133.1728
  1073.7500    888.9231   2000.0000   2040.0000     11.4528    133.6474
  1074.0000    882.7867   2000.0000   2040.0000     11.1346    134.3370
  1074.2500    876.4267   2000.0000   2040.0000     10.8005    134.3486
  1074.5000    870.4301   2000.0000   2040.0000     10.4708    134.3193
  1074.7500    866.0151   2000.0000   2040.0000     10.1597    134.9692
  1075.0000    864.5198   2000.0000   2040.0000      9.8754    137.7792
  1075.2500    865.8731   2000.0000   2040.0000      9.6253    141.0705
  1075.5000    868.1812   2000.0000   2040.0000      9.4161    148.2200
  1075.7500    869.1459   2000.0000   2040.0000      9.2488    154.2911
  1076.0000    867.8580   2000.0000   2040.0000      9.1158    164.1741
  1076.2500    865.1917   2000.0000   2040.0000      9.0028    170.0696
  1076.5000    862.7680   2000.0000   2040.0000      8.8942    175.8456
  1076.7500    861.8708   2000.0000   2040.0000      8.7838    177.1394
  1077.0000    863.0438   2000.0000   2040.0000      8.6808    175.9728
  1077.2500    866.0026   2000.0000   2040.0000      8.6040    174.2296
  1077.5000    869.8382   2000.0000   2040.0000      8.5664    172.1801
  1077.7500    873.7822   2000.0000   2040.0000      8.5628    171.8090
  1078.0000    877.7692   2000.0000   2040.0000      8.5697    172.2183
  1078.2500    881.8111   2000.0000   2040.0000      8.5581    172.1615
  1078.5000    884.9935   2000.0000   2040.0000      8.5079    170.1231
  1078.7500    885.9016   2000.0000   2040.0000      8.4173    167.2455
  1079.0000    884.1215   2000.0000   2040.0000      8.3070    161.2032
  1079.2500    880.5729   2000.0000   2040.0000      8.2178    156.6691
  1079.5000    876.2513   2000.0000   2040.0000      8.1988    150.8952
  1079.7500    871.4672   2000.0000   2040.0000      8.2906    149.0192
  1080.0000    866.5930   2000.0000   2040.0000      8.5095    150.4490
  1080.2500    862.7025   2000.0000   2040.0000      8.8388    153.7550
  1080.5000    860.8524   2000.0000   2040.0000      9.2345    159.4574
  1080.7500    861.2920   2000.0000   2040.0000      9.6443    161.7525
  1081.0000    863.8779   2000.0000   2040.0000     10.0341    160.9274
  1081.2500    868.6035   2000.0000   2040.0000     10.4005    157.9372
  1081.5000    874.9731   2000.0000   2040.0000     10.7641    152.3279
  1081.7500    881.1006   2000.0000   2040.0000     11.1555    149.0221
  1082.0000    884.1744   2000.0000   2040.0000     11.6074    144.7950
  1082.2500    882.3794   2000.0000   2040.0000     12.1495    141.8118
  1082.5000    876.7103   2000.0000   2040.0000     12.8015    136.2427
  1082.7500    870.7776   2000.0000   2040.0000     13.5673    131.8371
  1083.0000    868.2392   2000.0000   2040.0000     14.4394    125.0218
  1083.2500    869.9562   2000.0000   2040.0000     15.4113    120.9549
  1083.5000    873.7026   2000.0000   2040.0000     16.4795    116.0000
  1083.7500    876.5848   2000.0000   2040.0000     17.6272    113.0543
  1084.0000    877.3640   2000.0000   2040.0000     18.8066    107.7536
  1084.2500    876.5184   2000.0000   2040.0000     19.9494    103.1072
  1084.5000    874.9525   2000.0000   2040.0000     21.0005     95.2388
  1084.7500    873.4507   2000.0000   2040.0000     21.9266     90.6225
  1085.0000    872.8593   2000.0000   2040.0000     22.6763     86.3553
  1085.2500    873.6580   2000.0000   2040.0000     23.1490     85.4194
  1085.5000    875.3093   2000.0000   2040.0000     23.2357     86.1772
  1085.7500    876.8394   2000.0000   2040.0000     22.9082     87.7353
