~Version Information
VERS.                      2.0: CWLS Log ASCII Standard - VERSION 2.0
WRAP.                       NO: One line per depth step
~Well Information Block
STRT.FT               425.0000: 
STOP.FT              2461.0000: 
STEP.FT                 0.2500: 
NULL.                -999.2500: 
COMP.          Evergreen Operating Corporation: COMPANY
WELL.              Nomad 32-10: WELL
FLD.           Purgatorie River: FIELD
LOC.           2281' FNL & 1585' FEL: LOCATION
PROV.                 Colorado: PROVINCE
CNTY.               Las Animas: COUNTRY
SRVC.                Patterson: SERVICE COMPANY
DATE.          Thu Aug 12 02:01:07 2004: LOG DATE
UWI.           05 071 08127 00: UNIQUE WELL ID
~Curve Information Block
DEPT.FT            0 000 00 00: Depth
SN.Ohm-m                      : IEL Short Normal
SP.mV                         : IEL Spontaneous Potential
DIR.Ohm-m                     : IEL Induction Resistivity
GR.GAPI                       : Gamma Ray
~Parameter Information Block
~A  Depth        SN          SP         DIR          GR     
# ...
   559.0000   2000.0000   2000.0000     46.7142     85.8515
   559.2500   2000.0000   2000.0000     47.1304     85.1144
   559.5000   2000.0000   2000.0000     47.3612     84.5738
   559.7500   2000.0000   2000.0000     47.3822     84.2704
   560.0000   2000.0000   2000.0000     47.1884     83.8598
   560.2500   2000.0000   2000.0000     46.7931     83.6119
   560.5000   2000.0000   2000.0000     46.2356     82.9171
   560.7500   2000.0000   2000.0000     45.5957     81.9537
   561.0000   2000.0000   2000.0000     44.9784     79.7654
   561.2500   2000.0000   2000.0000     44.4693     78.2309
   561.5000   2000.0000   2000.0000     44.0742     76.6027
   561.7500   2000.0000   2000.0000     43.6818     76.0036
   562.0000   2000.0000   2000.0000     43.1034     75.1718
   562.2500   2000.0000   2000.0000     42.2086     74.3154
   562.5000   2000.0000   2000.0000     41.0800     72.6845
   562.7500   2000.0000   2000.0000     40.0208     71.7170
   563.0000   2000.0000   2000.0000     39.3803     70.9055
   563.2500   2000.0000   2000.0000     39.3517     70.7920
   563.5000   2000.0000   2000.0000     39.8863     70.9269
   563.7500   2000.0000   2000.0000     40.7310     71.0118
   564.0000   2000.0000   2000.0000     41.5446     71.0316
   564.2500   2000.0000   2000.0000     42.0340     71.0900
   564.5000   2000.0000   2000.0000     42.0531     71.5913
   564.7500   2000.0000   2000.0000     41.6403     72.3352
   565.0000   2000.0000   2000.0000     41.0038     73.8181
   565.2500   2000.0000   2000.0000     40.4555     74.5534
   565.5000   2000.0000   2000.0000     40.3002     74.4504
   565.7500   2000.0000   2000.0000     40.7186     73.6502
   566.0000   2000.0000   2000.0000     41.6897     72.4600
   566.2500   2000.0000   2000.0000     42.9774     72.2350
   566.5000   2000.0000   2000.0000     44.2019     72.5725
   566.7500   2000.0000   2000.0000     44.9935     72.7013
   567.0000   2000.0000   2000.0000     45.1384     72.2144
   567.2500   2000.0000   2000.0000     44.6275     71.6252
   567.5000   2000.0000   2000.0000     43.6328     71.0099
   567.7500   2000.0000   2000.0000     42.4631     70.9913
   568.0000   2000.0000   2000.0000     41.4839     71.4308
   568.2500   2000.0000   2000.0000     40.9977     71.8219
   568.5000   2000.0000   2000.0000     41.1456     72.2553
   568.7500   2000.0000   2000.0000     41.8801     72.4063
   569.0000   2000.0000   2000.0000     43.0069     72.5275
   569.2500   2000.0000   2000.0000     44.2701     72.5364
   569.5000   2000.0000   2000.0000     45.4382     72.1677
   569.7500   2000.0000   2000.0000     46.3517     71.4848
   570.0000   2000.0000   2000.0000     46.9298     69.9057
   570.2500   2000.0000   2000.0000     47.1648     68.8943
   570.5000   2000.0000   2000.0000     47.1109     68.3380
   570.7500   2000.0000   2000.0000     46.8675     68.8151
   571.0000   2000.0000   2000.0000     46.5510     70.2053
   571.2500   2000.0000   2000.0000     46.2541     70.9507
   571.5000   2000.0000   2000.0000     45.9994     71.1375
   571.7500   2000.0000   2000.0000     45.7081     70.7382
   572.0000   2000.0000   2000.0000     45.2311     70.0468
   572.2500   2000.0000   2000.0000     44.4548     69.8712
   572.5000   2000.0000   2000.0000     43.4108     70.0994
   572.7500   2000.0000   2000.0000     42.2794     70.3731
   573.0000   2000.0000   2000.0000     41.2803     70.7190
   573.2500   2000.0000   2000.0000     40.5563     71.0436
   573.5000   2000.0000   2000.0000     40.1268     72.5234
   573.7500   2000.0000   2000.0000     39.9107     74.9252
   574.0000   2000.0000   2000.0000     39.7747     81.7684
   574.2500   2000.0000   2000.0000     39.5833     88.5132
   574.5000   2000.0000   2000.0000     39.2412    100.2387
   574.7500   2000.0000   2000.0000     38.7195    107.3811
   575.0000   2000.0000   2000.0000     38.0526    114.1404
   575.2500   2000.0000   2000.0000     37.3097    115.0629
   575.5000   2000.0000   2000.0000     36.5671    111.2198
   575.7500   2000.0000   2000.0000     35.9049    106.0236
   576.0000   2000.0000   2000.0000     35.4129     96.2302
   576.2500   2000.0000   2000.0000     35.1802     89.4513
   576.5000   2000.0000   2000.0000     35.2540     80.3150
   576.7500   2000.0000   2000.0000     35.5995     75.4532
   577.0000   2000.0000   2000.0000     36.0795     70.5737
   577.2500   2000.0000   2000.0000     36.4752     69.0142
   577.5000   2000.0000   2000.0000     36.5669     68.7402
   577.7500   2000.0000   2000.0000     36.2642     69.3852
   578.0000   2000.0000   2000.0000     35.6950     70.6945
   578.2500   2000.0000   2000.0000     35.1538     71.4694
   578.5000   2000.0000   2000.0000     34.9323     72.1595
   578.7500   2000.0000   2000.0000     35.1642     72.1720
   579.0000   2000.0000   2000.0000     35.7667     71.4082
   579.2500   2000.0000   2000.0000     36.4880     70.4276
   579.5000   2000.0000   2000.0000     37.0469     68.5751
   579.7500   2000.0000   2000.0000     37.2973     67.3621
   580.0000   2000.0000   2000.0000     37.2959     65.9928
   580.2500   2000.0000   2000.0000     37.2254     65.5378
   580.5000   2000.0000   2000.0000     37.2640     65.7145
   580.7500   2000.0000   2000.0000     37.5047     66.3686
   581.0000   2000.0000   2000.0000     37.9363     67.5342
   581.2500   2000.0000   2000.0000     38.4522     67.9029
   581.5000   2000.0000   2000.0000     38.8715     67.6004
   581.7500   2000.0000   2000.0000     39.0032     67.2930
   582.0000   2000.0000   2000.0000     38.7413     67.4878
   582.2500   2000.0000   2000.0000     38.1310     67.8826
   582.5000   2000.0000   2000.0000     37.3298     67.8065
   582.7500   2000.0000   2000.0000     36.5056     67.0479
   583.0000   2000.0000   2000.0000     35.7594     65.7001
   583.2500   2000.0000   2000.0000     35.1069     65.4210
   583.5000   2000.0000   2000.0000     34.5019     66.4428
   583.7500   2000.0000   2000.0000     33.8720     67.8805
   584.0000   2000.0000   2000.0000     33.1518     70.9870
   584.2500   2000.0000   2000.0000     32.3085     74.0098
   584.5000   2000.0000   2000.0000     31.3595     80.3613
   584.7500   2000.0000   2000.0000     30.3815     85.2187
   585.0000   2000.0000   2000.0000     29.4956     91.3037
   585.2500   2000.0000   2000.0000     28.8236     93.6907
   585.5000   2000.0000   2000.0000     28.4366     95.3886
   585.7500   2000.0000   2000.0000     28.3299     96.5623
   586.0000   2000.0000   2000.0000     28.4293    100.2812
   586.2500   2000.0000   2000.0000     28.6172    104.1395
   586.5000   2000.0000   2000.0000     28.7616    110.5414
   586.7500   2000.0000   2000.0000     28.7465    114.2691
   587.0000   2000.0000   2000.0000     28.5066    118.4217
   587.2500   2000.0000   2000.0000     28.0512    120.3163
   587.5000   2000.0000   2000.0000     27.4553    121.8105
   587.7500   2000.0000   2000.0000     26.8195    121.6078
   588.0000   2000.0000   2000.0000     26.2245    119.0603
   588.2500   2000.0000   2000.0000     25.7064    116.0504
   588.5000   2000.0000   2000.0000     25.2591    110.9692
   588.7500   2000.0000   2000.0000     24.8525    108.4732
   589.0000   2000.0000   2000.0000     24.4556    107.9461
   589.2500   2000.0000   2000.0000     24.0502    110.0882
   589.5000   2000.0000   2000.0000     23.6295    116.2949
   589.7500   2000.0000   2000.0000     23.1891    121.6108
   590.0000   2000.0000   2000.0000     22.7203    129.8618
   590.2500   2000.0000   2000.0000     22.2141    134.6866
   590.5000   2000.0000   2000.0000     21.6699    139.5996
   590.7500   2000.0000   2000.0000     21.1019    140.9248
   591.0000   2000.0000   2000.0000     20.5348    140.3941
   591.2500   2000.0000   2000.0000     19.9939    139.1992
   591.5000   2000.0000   2000.0000     19.4981    137.9230
   591.7500   2000.0000   2000.0000     19.0616    138.1444
   592.0000   2000.0000   2000.0000     18.7005    140.1599
   592.2500   2000.0000   2000.0000     18.4336    141.9865
