~Version Information
VERS.                      2.0: CWLS Log ASCII Standard - VERSION 2.0
WRAP.                       NO: One line per depth step
~Well Information Block
STRT.FT               720.0000: 
STOP.FT              2730.2000: 
STEP.FT                 0.1000: 
NULL.                -999.2500: 
COMP.          Evergreen Operating Corporation: COMPANY
WELL.            Rangely 22-28: WELL
FLD.           Purgatoire River: FIELD
LOC.           1741' FNL & 2335' FWL: LOCATION
PROV.                 Colorado: PROVINCE
CNTY.               Las Animas: COUNTRY
SRVC.                Patterson: SERVICE COMPANY
DATE.          Thu Sep 16 15:10:36 2004: LOG DATE
UWI.           05 071 08044 00: UNIQUE WELL ID
~Curve Information Block
DEPT.FT            0 000 00 00: Depth
DCAL.in                       : CDL Caliper
DPOR.pu                       : CDL Density Porosity
NPOR.pu                       : Neutron Porosity
RHOB.g/cc                     : CDL Bulk Density
RHOC.g/cc                     : CDL Density Correction
GR.GAPI                       : Gamma Ray
~Parameter Information Block
~A  Depth       DCAL        DPOR        NPOR        RHOB        RHOC         GR     
# ...
  2073.6000     13.6436     87.4590     39.5426      1.2069      0.0429    110.7402
  2073.7000     13.6436     85.8805     39.6970      1.2330      0.0587    116.8558
  2073.8000     13.0872     81.7748     39.6073      1.3007      0.0998    105.3337
  2073.9000     13.0872     76.9118     39.4461      1.3810      0.1168     96.1637
  2074.0000     13.0472     73.1674     39.0989      1.4427      0.1509     99.4823
  2074.1000     13.0472     71.1795     38.3086      1.4755      0.1446    108.4316
  2074.2000     13.0472     70.6612     36.8666      1.4841      0.1334    113.4027
  2074.3000     14.0540     71.1702     35.0709      1.4757      0.1132    110.8618
  2074.4000     14.0540     72.2142     33.8091      1.4585      0.0835    102.4847
  2074.5000     14.8997     73.0536     33.2854      1.4446      0.0272    100.9924
  2074.6000     14.8997     72.9291     32.8363      1.4467      0.0029    117.7866
  2074.7000     14.8997     71.5970     32.0094      1.4686     -0.0069    136.8625
  2074.8000     13.9823     69.4935     30.9998      1.5034     -0.0171    141.4317
  2074.9000     13.9823     67.0240     30.3821      1.5441      0.0127    138.3248
  2075.0000     11.4408     63.7747     30.4001      1.5977     -0.0049    137.3218
  2075.1000     11.4408     59.0063     30.5590      1.6764      0.0132    140.1461
  2075.2000     11.4408     53.1628     30.1371      1.7728      0.0633    144.8703
  2075.3000      9.0753     48.0054     29.2175      1.8579      0.1384    148.3366
  2075.4000      9.0753     44.1803     28.6255      1.9210      0.0975    144.6533
  2075.5000      7.4219     39.7081     28.5559      1.9948      0.1030    134.0484
  2075.6000      7.4219     32.5757     28.5088      2.1125      0.1661    127.9336
  2075.7000      7.4219     23.7835     28.1621      2.2576      0.3180    130.9109
  2075.8000      6.5172     16.3941     27.7061      2.3795      0.3885    138.0522
  2075.9000      6.5172     12.3449     27.3906      2.4463      0.3887    140.0093
  2076.0000      6.1315     11.3797     27.2461      2.4622      0.3641    131.3997
  2076.1000      6.1315     12.3742     27.1782      2.4458      0.3376    125.9510
  2076.2000      6.1315     14.2085     26.9376      2.4156      0.2531    133.8936
  2076.3000      6.0029     15.8149     26.6272      2.3891      0.1909    146.3997
  2076.4000      6.0029     16.6638     26.7361      2.3750      0.1869    151.6193
  2076.5000      6.0252     16.7725     27.2227      2.3733      0.1649    145.9425
  2076.6000      6.0252     16.3376     27.6609      2.3804      0.1914    141.0893
  2076.7000      6.0252     15.7911     27.8818      2.3894      0.1921    150.6467
  2076.8000      6.1063     15.4432     27.9686      2.3952      0.1945    173.4338
  2076.9000      6.1063     15.1494     28.1313      2.4000      0.1772    200.1802
  2077.0000      6.1878     14.5169     28.2802      2.4105      0.1988    213.7175
  2077.1000      6.1878     13.6909     27.9930      2.4241      0.2080    201.6363
  2077.2000      6.1878     13.1451     27.4762      2.4331      0.1814    172.4575
  2077.3000      6.2723     13.0238     27.2186      2.4351      0.1779    144.2870
  2077.4000      6.2723     13.5584     26.9983      2.4263      0.1894    132.5744
  2077.5000      6.3813     14.7583     26.5660      2.4065      0.1596    141.6333
  2077.6000      6.3813     15.9587     26.1732      2.3867      0.1420    154.7194
  2077.7000      6.3813     16.7536     25.8606      2.3736      0.1452    156.3116
  2077.8000      6.4731     17.3005     25.4024      2.3645      0.1503    152.3520
  2077.9000      6.4731     17.8235     24.9434      2.3559      0.1538    148.9412
  2078.0000      6.5208     18.2444     24.6642      2.3490      0.1389    144.1172
  2078.1000      6.5208     18.2578     24.4942      2.3487      0.1246    143.6653
  2078.2000      6.5208     17.6756     24.4736      2.3584      0.1510    155.1267
  2078.3000      6.5429     16.8444     24.5505      2.3721      0.1840    165.6957
  2078.4000      6.5429     16.4023     24.7752      2.3794      0.1870    156.4785
  2078.5000      6.5566     16.2536     25.3947      2.3818      0.1402    134.2257
  2078.6000      6.5566     16.0143     25.9895      2.3858      0.1823    118.6830
  2078.7000      6.5566     16.0300     25.8682      2.3855      0.1594    115.1948
  2078.8000      6.5723     16.3609     25.1700      2.3800      0.1244    113.5801
  2078.9000      6.5723     16.2557     24.5475      2.3818      0.0983    109.3654
  2079.0000      6.6050     15.4275     24.3854      2.3954      0.1452    106.9531
  2079.1000      6.6050     14.5370     24.7062      2.4101      0.1464    113.6153
  2079.2000      6.6050     13.8863     24.9611      2.4209      0.1538    133.3430
  2079.3000      6.6635     13.2793     24.4173      2.4309      0.1510    151.0689
  2079.4000      6.6635     12.7604     23.3685      2.4395      0.1491    146.0253
  2079.5000      6.7372     12.5247     22.6946      2.4433      0.1518    128.3412
  2079.6000      6.7372     12.3729     22.5450      2.4458      0.1359    123.7748
  2079.7000      6.7372     11.9191     22.5221      2.4533      0.1491    132.3717
  2079.8000      6.8025     11.4119     22.6113      2.4617      0.1303    137.4228
  2079.9000      6.8025     11.4345     22.9155      2.4613      0.1616    134.5859
  2080.0000      6.8453     12.2376     22.9263      2.4481      0.1492    130.9825
  2080.1000      6.8453     13.0638     22.3642      2.4344      0.1165    131.1825
  2080.2000      6.8453     12.6308     21.7753      2.4416      0.1077    136.1751
  2080.3000      6.8717     11.0540     21.7177      2.4676      0.1598    132.9600
  2080.4000      6.8717      9.7078     22.1346      2.4898      0.1475    113.7773
  2080.5000      6.8967      9.4172     22.5052      2.4946      0.1817    100.5307
  2080.6000      6.8967      9.9549     22.4764      2.4857      0.1559    108.7204
  2080.7000      6.8967     10.1522     22.1172      2.4825      0.1258    122.7139
  2080.8000      6.9278      9.1170     21.6942      2.4996      0.1443    127.7470
  2080.9000      6.9278      7.4168     21.3966      2.5276      0.1471    125.9371
  2081.0000      6.9632      6.3626     21.3263      2.5450      0.1484    122.9848
  2081.1000      6.9632      6.8562     21.2167      2.5369      0.1576    119.5332
  2081.2000      6.9632      8.6173     20.9270      2.5078      0.0977    109.1300
  2081.3000      6.9981     10.1556     20.5744      2.4824      0.0766     89.0798
  2081.4000      6.9981     10.2784     20.0765      2.4804      0.0769     79.8267
  2081.5000      7.0191      9.1002     19.7713      2.4998      0.0726     91.2990
  2081.6000      7.0191      7.6483     20.1163      2.5238      0.1182    101.1977
  2081.7000      7.0191      6.9054     20.7537      2.5361      0.1580     98.2460
  2081.8000      7.0311      6.6723     20.9147      2.5399      0.1063     89.0782
  2081.9000      7.0311      6.1210     20.6636      2.5490      0.1515     79.2278
  2082.0000      7.0495      5.5472     20.5386      2.5585      0.1785     71.4969
  2082.1000      7.0495      5.7727     20.7563      2.5548      0.1270     66.2379
  2082.2000      7.0495      6.6919     21.1042      2.5396      0.1291     67.5396
  2082.3000      7.0729      7.7668     21.1965      2.5218      0.1226     75.4827
  2082.4000      7.0729      8.6854     20.9642      2.5067      0.0894     77.0136
  2082.5000      7.0971      9.5216     20.5808      2.4929      0.0878     66.2163
  2082.6000      7.0971     10.4403     20.1771      2.4777      0.0787     54.8740
  2082.7000      7.0971     10.9665     19.8617      2.4691      0.0678     48.9066
  2082.8000      7.1274     10.5451     19.6592      2.4760      0.0538     44.8088
  2082.9000      7.1274      9.5030     19.4431      2.4932      0.0638     40.8098
  2083.0000      7.1698      8.5308     19.1502      2.5092      0.0924     37.6441
  2083.1000      7.1698      7.8612     18.9893      2.5203      0.1138     36.2766
