~Version Information
VERS.                      2.0: CWLS Log ASCII Standard - VERSION 2.0
WRAP.                       NO: One line per depth step
~Well Information Block
STRT.FT               583.0000: 
STOP.FT              1701.5000: 
STEP.FT                 0.2500: 
NULL.                -999.2500: 
COMP.          Pioneer Natural Resources: COMPANY
WELL.          Scott Canyon 11-18 Tr: WELL
FLD.           Purgatoire River: FIELD
LOC.           411' FNL & 580' FWL: LOCATION
PROV.                 Colorado: PROVINCE
CNTY.               Las Animas: COUNTRY
SRVC.                Patterson: SERVICE COMPANY
DATE.          Thu Feb 17 02:07:21 2005: LOG DATE
UWI.           05 071 08286 00: UNIQUE WELL ID
~Curve Information Block
DEPT.FT            0 000 00 00: Depth
SN.Ohm-m                      : IEL Short Normal
SP.mV                         : IEL Spontaneous Potential
DIR.Ohm-m                     : IEL Induction Resistivity
GR.GAPI                       : Gamma Ray
~Parameter Information Block
~A  Depth        SN          SP         DIR          GR     
# ...
  1588.0000      9.7566     57.3800      9.9206    108.2388
  1588.2500      9.7880     57.4461      9.9048    108.3156
  1588.5000      9.8296     57.5110      9.9270    108.7039
  1588.7500      9.8626     57.5656      9.9884    108.7292
  1589.0000      9.8786     57.6047     10.0822    107.7874
  1589.2500      9.8918     57.6301     10.1971    106.3603
  1589.5000      9.9339     57.6463     10.3208    103.4162
  1589.7500     10.0305     57.6513     10.4421    101.5137
  1590.0000     10.1857     57.6324     10.5519     99.8502
  1590.2500     10.3798     57.5725     10.6446     99.8109
  1590.5000     10.5850     57.4639     10.7214    100.8612
  1590.7500     10.7863     57.3187     10.7912    101.6531
  1591.0000     10.9849     57.1658     10.8679    102.0365
  1591.2500     11.1808     57.0378     10.9628    101.6459
  1591.5000     11.3527     56.9575     11.0795    100.7717
  1591.7500     11.4614     56.9319     11.2122    100.6390
  1592.0000     11.4839     56.9550     11.3507    101.8160
  1592.2500     11.4428     57.0107     11.4862    103.4136
  1592.5000     11.3879     57.0742     11.6132    106.1590
  1592.7500     11.3539     57.1209     11.7273    107.6594
  1593.0000     11.3419     57.1426     11.8222    108.9369
  1593.2500     11.3478     57.1545     11.8885    109.2246
  1593.5000     11.3875     57.1825     11.9185    109.0799
  1593.7500     11.4662     57.2419     11.9105    108.4275
  1594.0000     11.5453     57.3309     11.8713    105.8092
  1594.2500     11.5821     57.4394     11.8140    102.7889
  1594.5000     11.5759     57.5579     11.7523     97.4160
  1594.7500     11.5582     57.6767     11.6956     94.4918
  1595.0000     11.5676     57.7831     11.6446     92.8062
  1595.2500     11.6144     57.8671     11.5904     93.6410
  1595.5000     11.6571     57.9324     11.5192     96.7701
  1595.7500     11.6361     57.9939     11.4180     99.2939
  1596.0000     11.5149     58.0597     11.2797    102.8298
  1596.2500     11.3040     58.1203     11.1016    104.7440
  1596.5000     11.0596     58.1626     10.8829    106.5805
  1596.7500     10.8196     58.1863     10.6232    107.0100
  1597.0000     10.5588     58.1982     10.3247    106.8956
  1597.2500     10.2453     58.1994      9.9955    106.9789
  1597.5000      9.8821     58.1864      9.6503    108.5759
  1597.7500      9.4876     58.1583      9.3093    110.9109
  1598.0000      9.0861     58.1147      8.9918    115.8383
  1598.2500      8.7079     58.0488      8.7102    119.5687
  1598.5000      8.3771     57.9485      8.4660    125.3375
  1598.7500      8.1068     57.8077      8.2519    129.2450
  1599.0000      7.8998     57.6347      8.0580    134.9390
  1599.2500      7.7421     57.4526      7.8784    138.2551
  1599.5000      7.6131     57.2924      7.7133    141.9931
  1599.7500      7.4994     57.1813      7.5654    143.6435
  1600.0000      7.3889     57.1290      7.4370    144.9392
  1600.2500      7.2709     57.1193      7.3274    144.8677
  1600.5000      7.1481     57.1147      7.2342    143.0381
  1600.7500      7.0297     57.0779      7.1550    140.8977
  1601.0000      6.9129     57.0004      7.0881    137.6492
  1601.2500      6.7804     56.9132      7.0333    136.2635
  1601.5000      6.6271     56.8669      6.9905    135.5475
  1601.7500      6.4876     56.8980      6.9599    135.4516
  1602.0000      6.3959     57.0086      6.9407    135.1499
  1602.2500      6.3487     57.1682      6.9307    134.8556
  1602.5000      6.3480     57.3306      6.9265    134.4143
  1602.7500      6.4154     57.4540      6.9257    133.9516
  1603.0000      6.5425     57.5164      6.9272    132.6039
  1603.2500      6.6866     57.5220      6.9323    131.2902
  1603.5000      6.8109     57.4954      6.9425    129.2142
  1603.7500      6.8958     57.4655      6.9589    128.1580
  1604.0000      6.9351     57.4494      6.9807    127.6426
  1604.2500      6.9398     57.4458      7.0055    128.1519
  1604.5000      6.9263     57.4426      7.0294    129.7759
  1604.7500      6.9056     57.4283      7.0488    130.8101
  1605.0000      6.8866     57.3979      7.0624    131.2998
  1605.2500      6.8725     57.3535      7.0718    130.8393
  1605.5000      6.8611     57.3012      7.0802    129.7192
  1605.7500      6.8579     57.2446      7.0914    129.1953
  1606.0000      6.8738     57.1786      7.1080    128.9788
  1606.2500      6.9093     57.0879      7.1311    129.0060
  1606.5000      6.9503     56.9594      7.1603    128.9112
  1606.7500      6.9855     56.8024      7.1943    128.6571
  1607.0000      7.0219     56.6513      7.2320    128.0926
  1607.2500      7.0732     56.5440      7.2737    127.9253
  1607.5000      7.1431     56.4941      7.3226    128.8583
  1607.7500      7.2268     56.4844      7.3842    130.4237
  1608.0000      7.3174     56.4835      7.4631    133.1005
  1608.2500      7.4060     56.4679      7.5614    134.0351
  1608.5000      7.4873     56.4338      7.6773    132.9327
  1608.7500      7.5697     56.3941      7.8067    130.5331
  1609.0000      7.6703     56.3680      7.9465    125.5814
  1609.2500      7.8029     56.3700      8.0977    122.3975
  1609.5000      7.9738     56.3997      8.2663    119.1176
  1609.7500      8.1859     56.4378      8.4625    117.9608
  1610.0000      8.4461     56.4544      8.6991    116.7604
  1610.2500      8.7699     56.4271      8.9906    115.6777
  1610.5000      9.1686     56.3475      9.3516    113.0387
  1610.7500      9.6401     56.2106      9.7910    110.4264
  1611.0000     10.1808     56.0034     10.3027    105.0267
  1611.2500     10.8053     55.7085     10.8625    100.5614
  1611.5000     11.5577     55.3137     11.4378     93.3270
  1611.7500     12.4853     54.8137     12.0072     88.5964
  1612.0000     13.5835     54.2032     12.5730     81.8218
  1612.2500     14.7793     53.4772     13.1552     77.3587
  1612.5000     15.9686     52.6409     13.7714     70.6241
  1612.7500     17.0795     51.7230     14.4216     66.3635
  1613.0000     18.1154     50.7779     15.0839     61.2506
  1613.2500     19.1099     49.8722     15.7232     59.1900
  1613.5000     20.0276     49.0651     16.3061     58.0114
  1613.7500     20.7555     48.3937     16.8135     57.7514
  1614.0000     21.2026     47.8700     17.2458     56.5232
  1614.2500     21.3658     47.4899     17.6138     54.6850
  1614.5000     21.3129     47.2441     17.9259     51.1516
  1614.7500     21.1388     47.1213     18.1805     49.3652
  1615.0000     20.9232     47.1078     18.3718     49.1993
  1615.2500     20.6973     47.1904     18.5007     51.0585
  1615.5000     20.4459     47.3633     18.5776     56.2392
  1615.7500     20.1473     47.6298     18.6140     60.6770
  1616.0000     19.8076     47.9911     18.6105     67.4395
  1616.2500     19.4596     48.4241     18.5548     70.9670
  1616.5000     19.1510     48.8673     18.4320     73.0418
  1616.7500     18.9372     49.2333     18.2401     71.8464
  1617.0000     18.8433     49.4479     17.9970     66.9936
  1617.2500     18.8177     49.4898     17.7344     62.8298
  1617.5000     18.7788     49.4025     17.4879     57.0315
  1617.7500     18.7077     49.2735     17.2879     54.0096
  1618.0000     18.6268     49.1927     17.1557     50.8060
  1618.2500     18.5250     49.2105     17.1027     49.4619
  1618.5000     18.3532     49.3170     17.1299     48.6518
  1618.7500     18.0658     49.4577     17.2226     48.9326
  1619.0000     17.6502     49.5837     17.3423     50.2901
  1619.2500     17.1399     49.6946     17.4259     51.3951
  1619.5000     16.6275     49.8323     17.4100     52.3834
  1619.7500     16.2598     50.0307     17.2710     52.1549
  1620.0000     16.1637     50.2760     17.0445     50.3866
  1620.2500     16.3527     50.5112     16.7993     48.6109
  1620.5000     16.7294     50.6772     16.5933     46.0077
  1620.7500     17.1638     50.7562     16.4500     44.7959
  1621.0000     17.5578     50.7805     16.3654     44.0095
  1621.2500     17.8513     50.8039     16.3265     43.9239
