~Version Information
VERS.                      2.0: CWLS Log ASCII Standard - VERSION 2.0
WRAP.                       NO: One line per depth step
~Well Information Block
STRT.FT                 0.0000: 
STOP.FT              2430.7500: 
STEP.FT                 0.2500: 
NULL.                -999.2500: 
COMP.          Petrogulf Corporation: COMPANY
WELL.             Leier 17-42V: WELL
FLD.           Purgatorie River: FIELD
LOC.           2309' FNL & 1062' FEL: LOCATION
PROV.                 Colorado: PROVINCE
CNTY.               Las Animas: COUNTRY
SRVC.                Patterson: SERVICE COMPANY
DATE.          Thu Oct 06 10:18:00 2005: LOG DATE
UWI.                          : UNIQUE WELL ID
~Curve Information Block
DEPT.FT            0 000 00 00: Depth
CCL.                          : Casing Collar Locator
TT3.usec                      : CBL 3' Travel Time
AMP3.mV                       : CBL 3' Amplitude
GR.GAPI                       : Gamma Ray
~Parameter Information Block
~A  Depth       CCL         TT3         AMP3         GR     
# ...
  1775.5000      0.0000    895.4444      2.6672    134.6570
  1775.7500      0.0000    936.9553      2.8509    139.2380
  1776.0000      0.0000    935.7957      3.0871    144.3468
  1776.2500      0.0000    891.7696      3.3995    148.9592
  1776.5000      0.0000    863.4921      3.8074    151.6735
  1776.7500      0.0000    872.6611      4.3157    151.4719
  1777.0000      0.0000    876.8919      4.9024    148.4928
  1777.2500      0.0000    847.3045      5.5189    143.8353
  1777.5000      0.0000    806.1949      6.1419    138.5987
  1777.7500      0.0000    784.6049      6.8320    133.2678
  1778.0000      0.0000    786.8046      7.7024    128.0688
  1778.2500      0.0000    796.2957      8.8250    123.7373
  1778.5000      0.0000    796.8237     10.1989    121.5127
  1778.7500      0.0000    786.5665     11.8010    122.0676
  1779.0000      0.0000    773.9307     13.5799    124.5882
  1779.2500      0.0000    758.0941     15.3828    127.2159
  1779.5000      0.0000    720.4773     16.9522    128.4690
  1779.7500      0.0000    652.6968     18.0094    128.3007
  1780.0000      0.0000    593.1246     18.3865    128.0029
  1780.2500      0.0000    597.4276     18.1814    129.0881
  1780.5000      0.0000    661.9719     17.7293    132.0717
  1780.7500      0.0000    727.4768     17.3070    136.1087
  1781.0000      0.0000    758.5641     16.9156    139.5449
  1781.2500      0.0000    768.8176     16.3808    140.9092
  1781.5000      0.0000    778.7624     15.6106    139.9760
  1781.7500      0.0000    788.5623     14.6888    138.0290
  1782.0000      0.0000    790.4025     13.7271    136.6024
  1782.2500      0.0000    784.3249     12.7690    135.9362
  1782.5000      0.0000    778.1875     11.9057    135.0392
  1782.7500      0.0000    782.5967     11.3486    133.0310
  1783.0000      0.0000    797.9072     11.2833    130.0773
  1783.2500      0.0000    804.9968     11.6802    127.2380
  1783.5000      0.0000    792.5754     12.2613    125.2543
  1783.7500      0.0000    779.5211     12.6846    123.0701
  1784.0000      0.0000    782.5928     12.7878    117.9464
  1784.2500      0.0000    791.0057     12.6158    107.7787
  1784.5000      0.0000    788.0323     12.2820     93.2623
  1784.7500      0.0000    774.1125     11.8795     77.3464
  1785.0000      0.0000    763.3478     11.4656     62.9012
  1785.2500      0.0000    768.4662     11.0559     51.4051
  1785.5000      0.0000    791.2816     10.6146     43.2758
  1785.7500      0.0000    818.0581     10.0631     38.3884
  1786.0000      0.0000    831.1953      9.3335     36.1515
  1786.2500      0.0000    831.9929      8.4300     35.6283
  1786.5000      0.0000    834.5585      7.4471     35.9675
  1786.7500      0.0000    841.0256      6.5538     36.8752
  1787.0000      0.0000    844.7425      5.9061     38.8134
  1787.2500      0.0000    846.7394      5.5416     42.8753
  1787.5000      0.0000    852.6757      5.3980     50.4050
  1787.7500      0.0000    861.1550      5.4107     62.3185
  1788.0000      0.0000    858.9991      5.5588     78.1845
  1788.2500      0.0000    838.0373      5.8511     95.7529
  1788.5000      0.0000    811.3410      6.3014    111.7945
  1788.7500      0.0000    795.0887      6.9076    123.8434
  1789.0000      0.0000    790.2189      7.6185    131.4190
  1789.2500      0.0000    790.0739      8.3324    135.8324
  1789.5000      0.0000    790.4764      8.9704    138.9182
  1789.7500      0.0000    790.4872      9.5365    141.7684
  1790.0000      0.0000    790.4037     10.0752    144.3968
  1790.2500      0.0000    790.4452     10.5876    146.2334
  1790.5000      0.0000    789.8962     11.0213    146.7277
  1790.7500      0.0000    786.3865     11.3171    145.7411
  1791.0000      0.0000    776.5217     11.4336    143.6918
  1791.2500      0.0000    760.5823     11.3530    141.3076
  1791.5000      0.0000    745.7696     11.0835    139.3378
  1791.7500      0.0000    738.3696     10.6360    138.5769
  1792.0000      0.0000    737.7283     10.0011    139.6541
  1792.2500      0.0000    742.4929      9.1720    142.1878
  1792.5000      0.0000    751.6547      8.1717    144.3894
  1792.7500      0.0000    759.6653      7.0742    144.2221
  1793.0000      0.0000    760.9926      6.0229    141.2781
  1793.2500      0.0000    759.9586      5.1708    137.3404
  1793.5000      0.0000    769.4933      4.5711    134.9589
  1793.7500      0.0000    798.2704      4.1662    135.3659
  1794.0000      0.0000    840.2675      3.8869    137.4815
  1794.2500      0.0000    872.0935      3.7077    138.7820
  1794.5000      0.0000    866.6888      3.6153    137.4751
  1794.7500      0.0000    824.9669      3.5866    134.0868
  1795.0000      0.0000    779.5082      3.5914    130.6804
  1795.2500      0.0000    756.5400      3.5969    128.6306
  1795.5000      0.0000    755.7178      3.6203    127.7829
  1795.7500      0.0000    761.9069      3.7621    127.5404
  1796.0000      0.0000    762.9871      4.1018    127.8816
  1796.2500      0.0000    761.9299      4.5985    129.2433
  1796.5000      0.0000    769.6220      5.1718    131.9688
  1796.7500      0.0000    788.4188      5.8285    135.7887
  1797.0000     -2.0000    807.5464      6.6348    139.5935
  1797.2500      0.0000    813.6158      7.5690    141.8196
  1797.5000      0.0000    802.6440      8.4892    141.1390
  1797.7500      0.0000    781.3537      9.3541    137.0197
  1798.0000      0.0000    760.8088     10.3342    130.1541
  1798.2500      0.0000    744.7104     11.5292    122.3577
  1798.5000      0.0000    724.8272     12.9110    115.3715
  1798.7500      0.0000    697.8777     14.5368    109.3140
  1799.0000      0.0000    675.7307     16.3625    102.5874
  1799.2500      0.0000    669.7997     18.0503     93.6067
  1799.5000      0.0000    681.3691     19.1349     82.4199
  1799.7500      0.0000    703.5616     19.2115     70.6302
  1800.0000      0.0000    720.4918     18.1125     60.2055
  1800.2500      0.0000    720.7090     16.0900     52.5036
  1800.5000      0.0000    717.0448     13.7006     47.9602
  1800.7500      0.0000    732.4758     11.4149     46.2225
  1801.0000      0.0000    767.1567      9.4673     46.6274
  1801.2500      0.0000    799.9684      7.9718     48.7115
  1801.5000      0.0000    824.0157      6.9269     52.1999
  1801.7500      0.0000    864.6678      6.1784     56.5396
  1802.0000      0.0000    951.3062      5.5593     60.7817
  1802.2500      0.0000   1068.2769      5.0355     64.2012
  1802.5000      0.0000   1145.4913      4.6537     67.0045
  1802.7500      0.0000   1122.6904      4.4439     70.2979
  1803.0000      0.0000   1019.6587      4.4256     75.3840
  1803.2500      0.0000    909.0060      4.6082     83.0672
  1803.5000      0.0000    834.4811      4.9551     93.2836
  1803.7500      0.0000    796.4711      5.4176    105.0909
  1804.0000      0.0000    785.3644      5.9964    117.1658
  1804.2500      0.0000    790.5014      6.7040    128.6198
  1804.5000      0.0000    797.0583      7.5090    139.2067
  1804.7500      0.0000    792.8112      8.3672    148.4738
  1805.0000      0.0000    776.5026      9.2628    155.0586
  1805.2500      0.0000    757.8645     10.1812    157.6069
  1805.5000      0.0000    748.3061     11.0877    156.5324
  1805.7500      0.0000    751.1260     12.0038    154.1395
  1806.0000      0.0000    759.8745     13.0504    152.5653
  1806.2500      0.0000    765.2280     14.3273    151.9708
  1806.5000      0.0000    759.7106     15.8058    150.8789
  1806.7500      0.0000    735.7653     17.3929    147.7594
  1807.0000      0.0000    699.0925     19.0164    142.1891
  1807.2500      0.0000    681.5029     20.5690    135.0438
  1807.5000      0.0000    701.4277     21.8066    127.9344
  1807.7500      0.0000    729.6320     22.4408    122.3857
  1808.0000      0.0000    732.6436     22.4006    119.2818
  1808.2500      0.0000    713.0423     21.9247    118.5735
  1808.5000      0.0000    685.0909     21.3401    119.1807
  1808.7500      0.0000    653.0147     20.7874    119.5717
