~Version Information
 VERS.                      2.0: CWLS Log ASCII Standard - VERSION 2.0
 WRAP.                       NO: One line per depth step
 ~Well Information Block
 STRT.FT               886.1000: 
 STOP.FT              2599.0000: 
 STEP.FT                 0.1000: 
 NULL.                -999.2500: 
 COMP.          Petrogulf Corporation: COMPANY
 WELL.               YWAM 7-23V: WELL
 FLD.           Purgatorie River: FIELD
 LOC.           230' FSL & 225' FWL: LOCATION
 CNTY.               Las Animas: COUNTY
 SRVC.                         : SERVICE COMPANY
 DATE.          Sat Oct 30 10:42:52 2004: LOG DATE
 UWI.           05 071 08227 00: UNIQUE WELL ID
 STAT.                 Colorado: STATE
 PROV.                         :Province
 ~Curve Information Block
 DEPT.FT            0 000 00 00: Depth
 DCAL.in                       : CDL Caliper
 RHOB.g/cc                     : CDL Bulk Density
 RHOC.g/cc                     : CDL Density Correction
 DPOR.pu                       : CDL Density Porosity
 GR.GAPI                       : Gamma Ray
 NPOR.pu                       : Neutron Porosity
 ~Parameter Information Block
 ~A  Depth       DCAL        RHOB        RHOC        DPOR         GR         NPOR    
# ...
  1913.3000      8.1766      2.5725      0.0578      4.6968    108.2544     24.0639
  1913.4000      8.1766      2.5846      0.0953      3.9619    109.8983     23.3190
  1913.5000      8.1562      2.5879      0.0866      3.7656    112.2188     24.0186
  1913.6000      8.1562      2.5841      0.0620      3.9962    109.2276     25.0996
  1913.7000      8.1562      2.5802      0.1023      4.2327     98.1890     25.5382
  1913.8000      8.1445      2.5814      0.1044      4.1592     88.1942     25.2044
  1913.9000      8.1445      2.5892      0.0356      3.6854     87.2880     24.4190
  1914.0000      8.1313      2.5989      0.0644      3.0966     90.9802     23.2653
  1914.1000      8.1313      2.6051      0.0756      2.7192     89.3223     21.9141
  1914.2000      8.1313      2.6102      0.0901      2.4140     81.5818     20.8536
  1914.3000      8.1305      2.6200      0.0903      1.8202     74.8403     20.1068
  1914.4000      8.1305      2.6303      0.1207      1.1951     72.3788     19.3601
  1914.5000      8.1273      2.6252      0.0921      1.5056     72.7312     19.3709
  1914.6000      8.1273      2.6045      0.0703      2.7602     74.1654     20.5117
  1914.7000      8.1273      2.5915      0.0334      3.5435     75.5994     21.6495
  1914.8000      8.1297      2.5962      0.0658      3.2624     76.3253     21.9296
  1914.9000      8.1297      2.6044      0.0701      2.7648     74.4588     21.2902
  1915.0000      8.1306      2.5962      0.0799      3.2611     68.5020     20.4729
  1915.1000      8.1306      2.5589      0.0784      5.5185     60.8817     20.1629
  1915.2000      8.1306      2.5088      0.0089      8.5603     54.8944     20.3444
  1915.3000      8.1269      2.4748      0.0353     10.6169     50.1464     20.7096
  1915.4000      8.1269      2.4586      0.0461     11.6004     44.9393     20.3677
  1915.5000      8.1271      2.4464     -0.0060     12.3372     39.6647     19.4324
  1915.6000      8.1271      2.4348     -0.0189     13.0427     36.4939     19.1048
  1915.7000      8.1271      2.4231      0.0193     13.7506     35.3216     19.4793
  1915.8000      8.1284      2.4162      0.0086     14.1706     34.2779     20.1005
  1915.9000      8.1284      2.4192      0.0239     13.9876     33.9547     20.7316
  1916.0000      8.1271      2.4222      0.0334     13.8069     36.9402     20.7379
  1916.1000      8.1271      2.4213      0.0100     13.8596     41.3137     19.9901
  1916.2000      8.1271      2.4318      0.0132     13.2247     41.0461     19.3954
  1916.3000      8.1273      2.4532      0.0751     11.9279     36.7332     19.2028
  1916.4000      8.1273      2.4636      0.0640     11.2960     34.5783     18.7536
  1916.5000      8.1300      2.4599      0.0489     11.5192     36.1772     17.7680
  1916.6000      8.1300      2.4541      0.0760     11.8747     38.7510     16.6575
  1916.7000      8.1300      2.4459      0.0745     12.3712     39.3097     16.0464
  1916.8000      8.1286      2.4307      0.0559     13.2937     36.2080     15.9824
  1916.9000      8.1286      2.4136      0.0385     14.3277     32.3947     16.3904
  1917.0000      8.1299      2.4044      0.0239     14.8842     32.0226     17.0495
  1917.1000      8.1299      2.3996      0.0686     15.1750     33.7265     17.4397
  1917.2000      8.1299      2.3919      0.0197     15.6449     33.4708     17.6991
  1917.3000      8.1305      2.3869      0.0520     15.9460     31.9738     17.9819
  1917.4000      8.1305      2.3862      0.0627     15.9849     31.3917     18.0579
  1917.5000      8.1310      2.3884      0.0248     15.8526     30.2060     17.9238
  1917.6000      8.1310      2.3987      0.0156     15.2284     29.2295     17.8223
  1917.7000      8.1310      2.4136      0.0835     14.3281     31.9875     17.8178
  1917.8000      8.1393      2.4182      0.0999     14.0513     37.8194     17.3417
  1917.9000      8.1393      2.4088      0.0629     14.6177     42.0081     15.8594
  1918.0000      8.1489      2.3949      0.0715     15.4602     41.4592     14.0271
  1918.1000      8.1489      2.3832      0.0953     16.1681     38.0465     13.3267
  1918.2000      8.1489      2.3764      0.0571     16.5846     33.9628     14.0063
  1918.3000      8.1507      2.3771      0.0346     16.5392     30.4152     14.7625
  1918.4000      8.1507      2.3812      0.0571     16.2930     29.7571     14.8578
  1918.5000      8.1557      2.3772      0.0297     16.5340     31.0862     14.7073
  1918.6000      8.1557      2.3636      0.0486     17.3565     31.7208     14.7168
  1918.7000      8.1557      2.3508      0.0391     18.1358     31.3608     14.9418
  1918.8000      8.1300      2.3498      0.0208     18.1955     31.6976     15.1867
  1918.9000      8.1300      2.3596      0.0601     17.6013     34.2531     15.0577
  1919.0000      8.1227      2.3643      0.0620     17.3178     36.3245     14.4352
  1919.1000      8.1227      2.3592      0.0248     17.6245     34.1586     13.7621
  1919.2000      8.1227      2.3582      0.0627     17.6850     30.0377     13.8069
  1919.3000      8.1222      2.3665      0.0551     17.1791     27.7121     14.8801
  1919.4000      8.1222      2.3768      0.0503     16.5598     26.9931     16.2077
  1919.5000      8.1195      2.3780      0.0793     16.4822     26.4180     16.7434
  1919.6000      8.1195      2.3663      0.0487     17.1916     25.1172     16.3661
  1919.7000      8.1195      2.3573      0.0403     17.7392     23.6061     15.5574
  1919.8000      8.1200      2.3666      0.0447     17.1786     23.6421     15.0630
  1919.9000      8.1200      2.3814      0.0913     16.2797     25.2115     15.4365
  1920.0000      8.1231      2.3833      0.0481     16.1645     27.1787     16.1649
  1920.1000      8.1231      2.3804      0.0051     16.3381     30.5420     16.0013
  1920.2000      8.1231      2.3820      0.0750     16.2395     34.7584     15.1090
  1920.3000      8.1223      2.3779      0.0615     16.4915     36.0708     15.0764
  1920.4000      8.1223      2.3631      0.0613     17.3878     34.5426     16.0184
  1920.5000      8.1289      2.3501      0.0168     18.1749     33.5231     16.5574
  1920.6000      8.1289      2.3511      0.0390     18.1137     35.0017     16.4960
  1920.7000      8.1289      2.3578      0.0691     17.7080     38.5272     16.3232
  1920.8000      8.1211      2.3565      0.0012     17.7857     41.9634     15.8302
  1920.9000      8.1211      2.3528     -0.0072     18.0142     42.9117     15.2148
  1921.0000      8.1185      2.3601      0.0106     17.5711     40.8606     15.3052
  1921.1000      8.1185      2.3819      0.0391     16.2460     37.0826     16.7753
  1921.2000      8.1185      2.4085      0.0860     14.6376     32.8599     18.9637
  1921.3000      8.1212      2.4277      0.0917     13.4740     30.2561     20.0455
  1921.4000      8.1212      2.4369      0.1150     12.9145     30.1096     19.6847
  1921.5000      8.1227      2.4403      0.0871     12.7085     30.9078     18.8881
  1921.6000      8.1227      2.4431      0.1101     12.5387     31.9644     17.9784
  1921.7000      8.1227      2.4479      0.0718     12.2510     33.1055     16.8239
  1921.8000      8.1244      2.4568      0.0594     11.7070     32.5181     15.6888
  1921.9000      8.1244      2.4666      0.1086     11.1153     29.1707     15.1574
  1922.0000      8.1258      2.4667      0.0888     11.1102     25.2684     15.6739
  1922.1000      8.1258      2.4569      0.1248     11.7058     24.8179     17.1293
  1922.2000      8.1258      2.4493      0.0289     12.1642     28.6727     18.3236
  1922.3000      8.1282      2.4509      0.0885     12.0664     32.7362     18.3347
  1922.4000      8.1282      2.4518      0.0615     12.0137     34.0680     18.2411
  1922.5000      8.1340      2.4390      0.0772     12.7883     34.7276     18.5880
  1922.6000      8.1340      2.4178     -0.0043     14.0750     34.7798     18.5959
  1922.7000      8.1340      2.4081      0.0091     14.6597     31.7492     18.0736
  1922.8000      8.1324      2.4120      0.0677     14.4272     27.8000     17.1526
