~Version Information
VERS.                      2.0: CWLS Log ASCII Standard - VERSION 2.0
WRAP.                       NO: One line per depth step
~Well Information Block
STRT.FT                -8.5000: 
STOP.FT              1968.0000: 
STEP.FT                 0.2500: 
NULL.                -999.2500: 
COMP.          Pioneer Natural Resources: COMPANY
WELL.           Firehawk 34-26: WELL
FLD.           Purgatorie River: FIELD
LOC.           1196' FSL & 1595' FEL--: LOCATION
STAT.                       CO: State
CNTY.               Las Animas: COUNTY
CTRY. USA : Country
SECT. 26 : Section
TOWN. 32S : Township
RANG. 66W : Range 
SRVC.          Patterson Wireline: SERVICE COMPANY
DATE.          Tue Oct 25 14:45:07 2005: LOG DATE
API.           05 071 08389 00: UNIQUE WELL ID
~Curve Information Block
DEPT.FT            0 000 00 00: Depth
CCL.                          : Casing Collar Locator
TT3.usec                      : CBL 3' Travel Time
AMP3.mV                       : CBL 3' Amplitude
GR.GAPI                       : Gamma Ray
~Parameter Information Block
~A  Depth       CCL         TT3         AMP3         GR     
# ...
  1666.5000      0.0000    611.6595      7.8923    113.8717
  1666.7500      0.0000    585.5560      7.6777    117.0960
  1667.0000      0.0000    551.2847      7.4781    119.2499
  1667.2500      0.0000    509.5706      7.3938    119.5136
  1667.5000      0.0000    467.9895      7.4582    117.3009
  1667.7500      0.0000    435.1420      7.6250    112.1262
  1668.0000      0.0000    414.2704      7.8176    104.4685
  1668.2500      0.0000    403.1003      7.9822     96.4128
  1668.5000      0.0000    397.6634      8.1018     90.9255
  1668.7500      0.0000    395.0904      8.1763     90.1608
  1669.0000      0.0000    394.0231      8.1996     94.1937
  1669.2500      0.0000    394.0389      8.1547    101.1328
  1669.5000      0.0000    395.1521      8.0277    108.2936
  1669.7500      0.0000    397.8012      7.8222    113.4110
  1670.0000      0.0000    403.2964      7.5620    115.4307
  1670.2500      0.0000    414.4996      7.2886    114.9423
  1670.5000      0.0000    435.7046      7.0612    113.8646
  1670.7500      0.0000    470.3610      6.9452    114.0531
  1671.0000      0.0000    517.0904      6.9802    115.8036
  1671.2500      0.0000    567.5330      7.1528    117.9592
  1671.5000      0.0000    609.0271      7.4081    119.4960
  1671.7500      0.0000    630.5251      7.6899    120.2675
  1672.0000      0.0000    628.2715      7.9622    120.0693
  1672.2500      0.0000    609.2485      8.1979    118.0527
  1672.5000      0.0000    589.4097      8.3621    113.6181
  1672.7500      0.0000    583.8583      8.4129    107.2025
  1673.0000      0.0000    595.0591      8.3201     99.8135
  1673.2500      0.0000    611.3181      8.0910     92.3383
  1673.5000      0.0000    617.4654      7.7873     85.5979
  1673.7500      0.0000    605.9565      7.5016     80.4763
  1674.0000      0.0000    578.7620      7.2973     77.5396
  1674.2500      0.0000    542.7953      7.1702     76.7283
  1674.5000      0.0000    505.9183      7.0749     77.6907
  1674.7500      0.0000    475.0925      6.9826     80.1671
  1675.0000      0.0000    454.6974      6.9075     83.8302
  1675.2500      0.0000    446.3966      6.8829     88.0636
  1675.5000      0.0000    451.9543      6.9163     92.1646
  1675.7500      0.0000    473.8489      6.9754     95.5289
  1676.0000      0.0000    509.5422      7.0165     97.5183
  1676.2500      0.0000    546.4565      7.0208     97.4862
  1676.5000      0.0000    567.1729      6.9958     95.1878
  1676.7500      0.0000    561.0891      6.9486     91.1936
  1677.0000      0.0000    531.0150      6.8738     86.8356
  1677.2500      0.0000    490.7700      6.7659     83.5788
  1677.5000      0.0000    458.1883      6.6367     82.2524
  1677.7500      0.0000    447.7351      6.5135     82.8858
  1678.0000      0.0000    464.6262      6.4223     85.1333
  1678.2500      0.0000    501.4153      6.3699     88.4630
  1678.5000      0.0000    539.3359      6.3424     92.1828
  1678.7500      0.0000    557.5582      6.3223     96.0600
  1679.0000      0.0000    546.7003      6.3090    100.8647
  1679.2500      0.0000    514.7423      6.3171    107.2532
  1679.5000      0.0000    478.8902      6.3580    113.9483
  1679.7500      0.0000    452.0752      6.4313    118.1100
  1680.0000      0.0000    437.0501      6.5348    117.9403
  1680.2500      0.0000    429.8760      6.6716    114.2493
  1680.5000      0.0000    425.7068      6.8397    109.3613
  1680.7500      0.0000    421.8367      7.0199    105.0778
  1681.0000      0.0000    418.0970      7.1780    101.7466
  1681.2500      0.0000    416.0145      7.2814     98.8284
  1681.5000      0.0000    417.9579      7.3172     96.0154
  1681.7500      0.0000    426.2062      7.2991     93.6618
  1682.0000      0.0000    440.8774      7.2593     92.1735
  1682.2500      0.0000    457.8330      7.2327     91.3507
  1682.5000      0.0000    470.3241      7.2425     90.7852
  1682.7500      0.0000    474.1360      7.2919     90.7183
  1683.0000      0.0000    469.8462      7.3684     91.7874
  1683.2500      0.0000    460.1471      7.4529     93.9210
  1683.5000      0.0000    448.2754      7.5240     96.1709
  1683.7500      0.0000    439.8234      7.5589     97.6349
  1684.0000      0.0000    442.3817      7.5396     98.1180
  1684.2500      0.0000    459.8676      7.4592     98.1229
  1684.5000      0.0000    486.1061      7.3221     98.6004
  1684.7500      0.0000    505.5584      7.1378    100.4658
  1685.0000      0.0000    504.2160      6.9157    103.7921
  1685.2500      0.0000    481.7816      6.6690    107.3428
  1685.5000      0.0000    452.0951      6.4272    109.2930
  1685.7500      0.0000    432.2885      6.2375    108.7763
  1686.0000      0.0000    433.2454      6.1359    106.5685
  1686.2500      0.0000    456.8617      6.1147    104.1190
  1686.5000      0.0000    495.1396      6.1287    102.3309
  1686.7500      0.0000    530.8657      6.1393    101.5529
  1687.0000      0.0000    546.1044      6.1447    102.1456
  1687.2500      0.0000    536.4808      6.1668    104.3583
  1687.5000      0.0000    517.1577      6.2188    107.8956
  1687.7500      0.0000    511.6332      6.2934    112.0384
  1688.0000      0.0000    532.5110      6.3801    115.9807
  1688.2500      0.0000    571.9820      6.4837    118.8371
  1688.5000      0.0000    608.9476      6.6182    119.7721
  1688.7500      0.0000    623.4979      6.7857    118.6095
  1689.0000      0.0000    606.7100      6.9719    116.1236
  1689.2500      0.0000    563.0424      7.1626    113.3743
  1689.5000      0.0000    507.7551      7.3506    110.9926
  1689.7500      0.0000    459.8529      7.5128    109.3683
  1690.0000      0.0000    432.9958      7.5938    108.8739
  1690.2500      0.0000    430.1085      7.5384    109.3053
  1690.5000      0.0000    443.6194      7.3538    109.4566
  1690.7500      0.0000    459.2870      7.1245    107.8165
  1691.0000      0.0000    463.3233      6.9565    103.7588
  1691.2500      0.0000    451.2987      6.9079     97.9494
  1691.5000      0.0000    431.3599      6.9689     91.7209
  1691.7500      0.0000    417.7571      7.0836     86.2813
  1692.0000      0.0000    421.1616      7.1809     82.4133
  1692.2500      0.0000    443.0673      7.2031     80.4614
  1692.5000      0.0000    475.1288      7.1297     80.3911
  1692.7500      0.0000    504.2178      6.9806     81.9695
  1693.0000      0.0000    522.9583      6.7994     84.7709
  1693.2500      0.0000    536.3054      6.6403     87.8071
  1693.5000      0.0000    554.3585      6.5594     89.5234
  1693.7500      0.0000    579.0015      6.5950     88.8341
  1694.0000      0.0000    601.3250      6.7430     86.1680
  1694.2500      0.0000    611.6362      6.9522     82.9454
  1694.5000      0.0000    608.8502      7.1510     79.9102
  1694.7500      0.0000    600.8355      7.2856     76.3923
  1695.0000      0.0000    597.9031      7.3441     71.2963
  1695.2500      0.0000    605.0900      7.3509     64.5527
  1695.5000      0.0000    619.2847      7.3415     57.5093
  1695.7500      0.0000    633.7568      7.3388     51.9359
  1696.0000      0.0000    644.8105      7.3455     48.6333
  1696.2500      0.0000    653.7580      7.3461     47.0297
  1696.5000      0.0000    663.8715      7.3192     46.0258
  1696.7500      0.0000    676.4796      7.2597     45.0675
  1697.0000      0.0000    689.3818      7.1941     44.3456
  1697.2500      0.0000    698.3960      7.1674     44.2569
  1697.5000      0.0000    700.5753      7.2145     45.1304
  1697.7500      0.0000    696.2971      7.3430     47.5039
  1698.0000      0.0000    688.2329      7.5309     52.1164
  1698.2500      0.0000    678.2985      7.7309     59.2434
  1698.5000      0.0000    666.0291      7.8782     68.2270
  1698.7500      0.0000    650.5363      7.9079     77.8511
  1699.0000      0.0000    633.8371      7.7765     87.0633
  1699.2500      0.0000    621.3845      7.4716     95.3158
  1699.5000      0.0000    618.6849      7.0031    102.3023
  1699.7500      0.0000    626.9184      6.3976    107.3043
