~Version Information
VERS.                      2.0: CWLS Log ASCII Standard - VERSION 2.0
WRAP.                       NO: One line per depth step
~Well Information Block
STRT.FT               742.0000: 
STOP.FT              2582.0000: 
STEP.FT                 0.2500: 
NULL.                -999.2500: 
COMP.          Petrogulf Corporation: COMPANY
WELL.            Montoya 7-12V: WELL
FLD.           Purgatorie River: FIELD
LOC.           728' FWL & 1764' FNL: LOCATION
CNTY.               Las Animas: COUNTY
SRVC.                         : SERVICE COMPANY
DATE.          Thu Feb 19 20:58:32 2004: LOG DATE
UWI.           05-071-07887-00: UNIQUE WELL ID
STAT.                 Colorado: STATE
~Curve Information Block
DEPT.FT            0 000 00 00: Depth
SP.mV                         : DIL Spontaneous Potential
RILD.Ohm-m                    : DIL Deep Resistivity
RILM.Ohm-m                    : DIL Medium Resistivity
RLL3.Ohm-m                    : DIL Shallow Resistivity
GR.GAPI                       : Gamma Ray
~Parameter Information Block
~A  Depth        SP         RILD        RILM        RLL3         GR     
# ...
  1974.0000    -18.9422     30.8492     38.4001     55.7324    103.1159
  1974.2500    -17.5740     28.6712     35.6675     59.9265     95.0782
  1974.5000    -16.0904     26.6301     32.2024     60.9794     86.4498
  1974.7500    -14.5556     24.8087     28.5109     57.9779     84.5450
  1975.0000    -13.0587     23.2302     25.0455     50.8029     88.1624
  1975.2500    -11.7057     21.8707     22.0724     40.7201     94.7757
  1975.5000    -10.5945     20.6845     19.6728     30.2010    110.2196
  1975.7500     -9.7791     19.6258     17.8081     21.6401    123.0574
  1976.0000     -9.2504     18.6610     16.3869     16.0938    143.1141
  1976.2500     -8.9493     17.7693     15.3084     13.1816    155.4724
  1976.5000     -8.8044     16.9411     14.4853     11.9120    171.6034
  1976.7500     -8.7622     16.1770     13.8531     11.4503    181.0732
  1977.0000     -8.7954     15.4876     13.3702     11.3537    193.6193
  1977.2500     -8.8919     14.8892     13.0127     11.4590    200.2269
  1977.5000     -9.0413     14.3973     12.7662     11.7240    205.6514
  1977.7500     -9.2271     14.0189     12.6172     12.1336    205.6834
  1978.0000     -9.4300     13.7510     12.5483     12.6583    200.8559
  1978.2500     -9.6340     13.5833     12.5371     13.2360    195.2687
  1978.5000     -9.8324     13.5029     12.5601     13.7735    185.5596
  1978.7500    -10.0289     13.4986     12.6000     14.1705    179.8111
  1979.0000    -10.2351     13.5613     12.6498     14.3596    174.2698
  1979.2500    -10.4692     13.6825     12.7139     14.3403    172.5286
  1979.5000    -10.7570     13.8514     12.8028     14.1874    170.8739
  1979.7500    -11.1330     14.0564     12.9262     14.0290    169.3109
  1980.0000    -11.6365     14.2888     13.0890     13.9924    166.0090
  1980.2500    -12.3038     14.5473     13.2917     14.1389    163.8396
  1980.5000    -13.1595     14.8377     13.5321     14.4329    161.7970
  1980.7500    -14.2125     15.1698     13.8099     14.7737    161.3343
  1981.0000    -15.4538     15.5511     14.1278     15.0732    161.2238
  1981.2500    -16.8536     15.9826     14.4921     15.3216    160.9549
  1981.5000    -18.3633     16.4573     14.9127     15.6002    159.4121
  1981.7500    -19.9246     16.9607     15.4018     16.0393    157.2917
  1982.0000    -21.4847     17.4749     15.9723     16.7559    152.4909
  1982.2500    -23.0063     17.9845     16.6346     17.8150    148.6743
  1982.5000    -24.4674     18.4825     17.3904     19.2367    143.1256
  1982.7500    -25.8557     18.9720     18.2266     21.0097    139.9646
  1983.0000    -27.1630     19.4639     19.1139     23.0616    135.9790
  1983.2500    -28.3836     19.9706     20.0128     25.2064    133.3363
  1983.5000    -29.5162     20.5003     20.8822     27.1534    128.0522
  1983.7500    -30.5678     21.0551     21.6844     28.6010    122.9184
  1984.0000    -31.5549     21.6325     22.3842     29.3515    112.5031
  1984.2500    -32.5002     22.2279     22.9515     29.3860    104.3823
  1984.5000    -33.4277     22.8327     23.3699     28.8872     92.4048
  1984.7500    -34.3571     23.4297     23.6459     28.1753     85.5331
  1985.0000    -35.2987     23.9952     23.8089     27.5403     77.3403
  1985.2500    -36.2481     24.5076     23.9025     27.0829     72.9686
  1985.5000    -37.1835     24.9593     23.9716     26.7201     67.5116
  1985.7500    -38.0697     25.3584     24.0516     26.3384     64.5671
  1986.0000    -38.8668     25.7207     24.1633     25.9218     61.0919
  1986.2500    -39.5411     26.0599     24.3152     25.5530     59.0362
  1986.5000    -40.0729     26.3863     24.5083     25.3459     55.6043
  1986.7500    -40.4611     26.7138     24.7419     25.3885     53.0097
  1987.0000    -40.7193     27.0636     25.0164     25.7052     49.2283
  1987.2500    -40.8680     27.4580     25.3349     26.2333     47.2039
  1987.5000    -40.9257     27.9074     25.7049     26.8479     45.2361
  1987.7500    -40.9045     28.4045     26.1382     27.4426     44.4758
  1988.0000    -40.8122     28.9373     26.6489     28.0056     43.5642
  1988.2500    -40.6575     29.5107     27.2499     28.6237     42.9030
  1988.5000    -40.4530     30.1557     27.9529     29.4281     41.9630
  1988.7500    -40.2145     30.9098     28.7706     30.5362     41.5395
  1989.0000    -39.9546     31.7847     29.7168     32.0086     41.4251
  1989.2500    -39.6776     32.7434     30.7995     33.8180     41.8807
  1989.5000    -39.3788     33.7097     32.0067     35.8478     43.7467
  1989.7500    -39.0489     34.6014     33.2920     37.9290     45.8293
  1990.0000    -38.6800     35.3680     34.5722     39.8813     49.8654
  1990.2500    -38.2682     36.0052     35.7446     41.5436     52.8386
  1990.5000    -37.8130     36.5436     36.7173     42.8002     57.0263
  1990.7500    -37.3158     37.0278     37.4371     43.6059     59.1436
  1991.0000    -36.7800     37.4987     37.8996     43.9906     60.6431
  1991.2500    -36.2109     37.9810     38.1416     44.0208     60.4505
  1991.5000    -35.6139     38.4703     38.2232     43.7240     58.6865
  1991.7500    -34.9927     38.9184     38.2075     43.0491     56.8078
  1992.0000    -34.3478     39.2346     38.1467     41.9631     53.5567
  1992.2500    -33.6764     39.3178     38.0788     40.6449     51.5733
  1992.5000    -32.9719     39.1111     38.0274     39.5561     49.5621
  1992.7500    -32.2237     38.6350     37.9921     39.2333     48.9837
  1993.0000    -31.4168     37.9714     37.9270     39.9368     49.1072
  1993.2500    -30.5339     37.2146     37.7265     41.4538     49.8543
  1993.5000    -29.5604     36.4335     37.2464     43.1699     52.4398
  1993.7500    -28.4950     35.6630     36.3728     44.2708     55.6472
  1994.0000    -27.3607     34.9184     35.1018     43.9573     63.8596
  1994.2500    -26.2093     34.2134     33.5613     41.7282     72.2700
  1994.5000    -25.1134     33.5700     31.9558     37.7140     89.3622
  1994.7500    -24.1472     33.0144     30.4811     32.7883    102.7148
  1995.0000    -23.3656     32.5665     29.2738     28.2141    122.6208
  1995.2500    -22.7887     32.2308     28.4057     25.0201    134.0694
  1995.5000    -22.4015     31.9940     27.9020     23.6276    146.5709
  1995.7500    -22.1688     31.8287     27.7559     23.9739    151.1926
  1996.0000    -22.0516     31.7015     27.9297     25.8054    152.0519
  1996.2500    -22.0155     31.5851     28.3500     28.7210    148.7218
  1996.5000    -22.0301     31.4675     28.9112     32.0519    139.1936
  1996.7500    -22.0675     31.3577     29.4965     34.9923    130.9060
  1997.0000    -22.1048     31.2833     30.0097     37.0118    117.0259
  1997.2500    -22.1267     31.2864     30.4004     38.1087    107.2716
  1997.5000    -22.1283     31.4145     30.6715     38.6295     92.3977
  1997.7500    -22.1139     31.7062     30.8698     38.9026     82.7307
  1998.0000    -22.0924     32.1773     31.0627     39.0468     69.9647
  1998.2500    -22.0727     32.8116     31.3083     39.0170     63.7357
  1998.5000    -22.0627     33.5627     31.6311     38.7274     59.4200
  1998.7500    -22.0716     34.3636     32.0159     38.1247     60.0807
  1999.0000    -22.1125     35.1398     32.4215     37.2094     64.9859
  1999.2500    -22.2019     35.8223     32.8045     36.0480     69.2193
  1999.5000    -22.3555     36.3603     33.1381     34.8008     73.8948
  1999.7500    -22.5852     36.7322     33.4182     33.7403     74.7479
  2000.0000    -22.8972     36.9464     33.6570     33.1980     72.6492
  2000.2500    -23.2916     37.0281     33.8695     33.4104     69.8093
  2000.5000    -23.7579     37.0020     34.0588     34.3436     64.8798
  2000.7500    -24.2713     36.8884     34.2091     35.6515     61.7634
  2001.0000    -24.7931     36.7120     34.2894     36.8223     58.0556
  2001.2500    -25.2808     36.5086     34.2699     37.4135     56.4012
  2001.5000    -25.6987     36.3180     34.1380     37.2455     54.8243
  2001.7500    -26.0254     36.1688     33.9041     36.4746     53.9931
