~Version Information
VERS.                      2.0: CWLS Log ASCII Standard - VERSION 2.0
WRAP.                       NO: One line per depth step
~Well Information Block
STRT.FT               265.0000: 
STOP.FT              1214.0000: 
STEP.FT                 0.2500: 
NULL.                -999.2500: 
COMP.          Pioneer Natural Resources: COMPANY
WELL.          Pacheco 33-27 Tr: WELL
FLD.           Purgatoire River: FIELD
LOC.           2251' FSL & 2342' FEL: LOCATION
PROV.                 Colorado: PROVINCE
CNTY.               Las Animas: COUNTRY
SRVC.                Patterson: SERVICE COMPANY
DATE.          Fri Jun 10 13:29:04 2005: LOG DATE
UWI.           05 071 08384 00: UNIQUE WELL ID
~Curve Information Block
DEPT.FT            0 000 00 00: Depth
SN.Ohm-m                      : IEL Short Normal
SP.mV                         : IEL Spontaneous Potential
DIR.Ohm-m                     : IEL Induction Resistivity
GR.GAPI                       : Gamma Ray
~Parameter Information Block
~A  Depth        SN          SP         DIR          GR     
# ...
   734.0000     14.6771    -21.6912     13.1300    127.3774
   734.2500     15.0727    -21.3997     13.3939    121.2919
   734.5000     15.3114    -21.1583     13.6852    112.7524
   734.7500     15.5273    -20.9518     14.0220    108.9044
   735.0000     15.8512    -20.7561     14.4271    107.5100
   735.2500     16.2796    -20.5599     14.9209    109.3705
   735.5000     16.7047    -20.3707     15.5094    114.2440
   735.7500     17.0380    -20.1995     16.1738    117.1516
   736.0000     17.2933    -20.0472     16.8692    118.7085
   736.2500     17.5385    -19.9061     17.5396    117.4969
   736.5000     17.8299    -19.7686     18.1429    113.1821
   736.7500     18.2190    -19.6325     18.6683    109.5087
   737.0000     18.7578    -19.5014     19.1358    103.8543
   737.2500     19.4858    -19.3806     19.5833    100.0721
   737.5000     20.4504    -19.2697     20.0579     93.8143
   737.7500     21.7073    -19.1613     20.6118     88.9853
   738.0000     23.2292    -19.0511     21.2943     81.2090
   738.2500     24.8556    -18.9472     22.1364     76.3890
   738.5000     26.3892    -18.8667     23.1344     70.8204
   738.7500     27.7072    -18.8240     24.2365     68.4376
   739.0000     28.7928    -18.8241     25.3411     66.5093
   739.2500     29.7035    -18.8623     26.3137     65.8822
   739.5000     30.4809    -18.9289     27.0295     65.1994
   739.7500     31.0707    -19.0168     27.4199     64.7188
   740.0000     31.3523    -19.1289     27.4826     64.2000
   740.2500     31.2787    -19.2803     27.2544     64.3366
   740.5000     30.9375    -19.4846     26.7803     65.7427
   740.7500     30.3915    -19.7374     26.1085     67.5810
   741.0000     29.5680    -20.0115     25.2961     71.8065
   741.2500     28.3876    -20.2725     24.4027     75.7300
   741.5000     26.9049    -20.5029     23.4755     83.2958
   741.7500     25.3243    -20.7151     22.5465     89.0483
   742.0000     23.8775    -20.9419     21.6443     97.0908
   742.2500     22.6482    -21.2079     20.8044    100.8687
   742.5000     21.5883    -21.5018     20.0615    103.0520
   742.7500     20.6428    -21.7746     19.4303    102.6760
   743.0000     19.7711    -21.9668     18.8925    101.8208
   743.2500     18.9568    -22.0444     18.4059    102.5229
   743.5000     18.2232    -22.0128     17.9322    106.4057
   743.7500     17.6043    -21.9056     17.4634    110.2386
   744.0000     17.1326    -21.7643     17.0200    115.4810
   744.2500     16.8177    -21.6227     16.6255    117.2769
   744.5000     16.6042    -21.4949     16.2808    116.6791
   744.7500     16.3882    -21.3722     15.9614    114.9969
   745.0000     16.1384    -21.2319     15.6351    113.4643
   745.2500     15.9480    -21.0550     15.2825    114.4173
   745.5000     15.8714    -20.8402     14.9054    118.9276
   745.7500     15.8015    -20.5994     14.5201    123.0849
   746.0000     15.5801    -20.3432     14.1439    129.4142
   746.2500     15.1482    -20.0751     13.7844    133.2286
   746.5000     14.6147    -19.8009     13.4362    138.1890
   746.7500     14.1579    -19.5378     13.0872    140.9921
   747.0000     13.8135    -19.3050     12.7287    144.4121
   747.2500     13.5048    -19.1085     12.3638    146.1667
   747.5000     13.2151    -18.9364     12.0083    148.0903
   747.7500     12.9750    -18.7648     11.6857    148.9768
   748.0000     12.7769    -18.5684     11.4208    149.7794
   748.2500     12.5826    -18.3310     11.2337    149.9672
   748.5000     12.3905    -18.0533     11.1375    149.8939
   748.7500     12.2722    -17.7513     11.1372    149.8725
   749.0000     12.3125    -17.4442     11.2298    150.2260
   749.2500     12.4945    -17.1455     11.4056    150.4646
   749.5000     12.7132    -16.8651     11.6506    149.3632
   749.7500     12.9313    -16.6122     11.9498    146.6025
   750.0000     13.2297    -16.3845     12.2933    138.6166
   750.2500     13.6835    -16.1590     12.6813    131.3480
   750.5000     14.2837    -15.9004     13.1278    120.0961
   750.7500     15.0110    -15.5846     13.6573    113.9617
   751.0000     15.9497    -15.2180     14.2970    108.3369
   751.2500     17.2423    -14.8387     15.0687    106.8826
   751.5000     18.8500    -14.4976     15.9867    106.8643
   751.7500     20.4759    -14.2270     17.0589    107.5290
   752.0000     21.8348    -14.0237     18.2809    108.8467
   752.2500     22.8486    -13.8573     19.6116    109.5522
   752.5000     23.5460    -13.6912     20.9410    109.0663
   752.7500     23.9518    -13.4964     22.0810    107.0932
   753.0000     24.0549    -13.2551     22.8196    102.3841
   753.2500     23.8298    -12.9660     23.0206     99.5067
   753.5000     23.3596    -12.6532     22.6908     97.8572
   753.7500     22.8466    -12.3671     21.9570     98.9114
   754.0000     22.3884    -12.1668     20.9910    102.9324
   754.2500     21.8558    -12.0867     19.9475    106.5398
   754.5000     21.0771    -12.1102     18.9350    112.3681
   754.7500     20.0683    -12.1738     18.0102    116.1221
   755.0000     18.9992    -12.2010     17.1857    121.0669
   755.2500     17.9949    -12.1439     16.4450    123.7357
   755.5000     17.0710    -12.0076     15.7600    126.7656
   755.7500     16.2100    -11.8444     15.1063    128.3235
   756.0000     15.4046    -11.7160     14.4714    130.5245
   756.2500     14.6507    -11.6524     13.8557    132.1181
   756.5000     13.9659    -11.6459     13.2676    134.6198
   756.7500     13.3921    -11.6809     12.7171    136.1911
   757.0000     12.9502    -11.7617     12.2125    138.2660
   757.2500     12.6190    -11.9021     11.7591    139.4756
   757.5000     12.3592    -12.0950     11.3592    141.0889
   757.7500     12.1273    -12.3044     11.0139    142.0569
   758.0000     11.8736    -12.4922     10.7232    143.2826
   758.2500     11.5736    -12.6439     10.4869    143.8408
   758.5000     11.2765    -12.7622     10.3045    144.2447
   758.7500     11.0818    -12.8430     10.1758    144.3502
   759.0000     11.0278    -12.8751     10.1019    144.5395
   759.2500     11.0548    -12.8677     10.0834    144.8103
   759.5000     11.0914    -12.8613     10.1185    145.5132
   759.7500     11.1041    -12.8964     10.2018    146.0451
   760.0000     11.1058    -12.9712     10.3242    146.3959
   760.2500     11.1799    -13.0358     10.4751    146.0616
   760.5000     11.3996    -13.0322     10.6434    144.6889
   760.7500     11.7058    -12.9377     10.8176    143.3901
   761.0000     11.9968    -12.7764     10.9836    141.1120
   761.2500     12.2250    -12.5994     11.1242    139.2198
   761.5000     12.3155    -12.4551     11.2241    135.0730
   761.7500     12.2360    -12.3674     11.2799    131.1967
   762.0000     12.0925    -12.3322     11.3056    124.6900
   762.2500     11.9633    -12.3263     11.3308    121.1949
   762.5000     11.8381    -12.3217     11.3898    119.0795
   762.7500     11.7814    -12.2984     11.5118    119.7983
   763.0000     11.9326    -12.2517     11.7150    122.6848
   763.2500     12.3138    -12.1904     12.0050    125.0742
   763.5000     12.7814    -12.1304     12.3749    129.0553
   763.7500     13.1895    -12.0923     12.8036    131.8470
   764.0000     13.5130    -12.1003     13.2563    134.8766
   764.2500     13.8077    -12.1693     13.6879    134.8286
   764.5000     14.1248    -12.2827     14.0514    130.2560
   764.7500     14.4672    -12.3916     14.3114    124.5450
   765.0000     14.8403    -12.4433     14.4537    114.0715
   765.2500     15.3285    -12.4122     14.4866    107.1593
   765.5000     15.9960    -12.2994     14.4339     98.6863
   765.7500     16.7502    -12.1112     14.3271     95.1539
   766.0000     17.4287    -11.8487     14.2014     94.2761
   766.2500     17.9378    -11.5145     14.0901     96.9686
   766.5000     18.2125    -11.1235     14.0168    105.2103
   766.7500     18.1369    -10.7028     13.9874    112.4156
   767.0000     17.6342    -10.2823     13.9865    123.7858
   767.2500     16.8174     -9.8869     13.9823    130.9817
