~Version Information
VERS.                      2.0: CWLS Log ASCII Standard - VERSION 2.0
WRAP.                       NO: One line per depth step
~Well Information Block
STRT.FT               -12.2500: 
STOP.FT              1948.2500: 
STEP.FT                 0.2500: 
NULL.                -999.2500: 
COMP.          Petrogulf Corporation: COMPANY
WELL.            Torcom 17-33R: WELL
FLD.           Purgatorie River: FIELD
LOC.           1483' FSL & 1804' FEL--: LOCATION
PROV.                       CO: PROVINCE
CNTY.               Las Animas: COUNTRY
SRVC.          Patterson Wireline: SERVICE COMPANY
DATE.          Fri Sep 30 10:11:43 2005: LOG DATE
UWI.           05 071 08096 00: UNIQUE WELL ID
~Curve Information Block
DEPT.FT            0 000 00 00: Depth
CCL.                          : Casing Collar Locator
TT3.usec                      : CBL 3' Travel Time
AMP3.mV                       : CBL 3' Amplitude
GR.GAPI                       : Gamma Ray
~Parameter Information Block
~A  Depth       CCL         TT3         AMP3         GR     
# ...
   892.2500      0.0000    590.4334      9.9518     88.8457
   892.5000      0.0000    616.6178      9.8094     89.5585
   892.7500      0.0000    625.5181      9.6657     90.6576
   893.0000      0.0000    616.0256      9.5353     90.8178
   893.2500      0.0000    594.6400      9.4271     89.5624
   893.5000      0.0000    573.2175      9.3445     87.8559
   893.7500      0.0000    563.1912      9.2909     87.0545
   894.0000      0.0000    569.0256      9.2726     87.4124
   894.2500      0.0000    585.8004      9.2970     87.8626
   894.5000      0.0000    603.3005      9.3716     87.1701
   894.7500      0.0000    612.7704      9.5036     85.0377
   895.0000      0.0000    610.9946      9.6855     82.0533
   895.2500      0.0000    600.9742      9.8616     78.8700
   895.5000      0.0000    590.8000      9.9232     75.8095
   895.7500      0.0000    589.6179      9.7885     73.0459
   896.0000      0.0000    600.7955      9.5154     70.6371
   896.2500      0.0000    618.2230      9.3100     68.2967
   896.5000      0.0000    630.8453      9.3749     65.4051
   896.7500      0.0000    631.7228      9.7292     61.4436
   897.0000      0.0000    623.5947     10.1854     56.5236
   897.2500      2.0000    615.8782     10.5119     51.4755
   897.5000      0.0000    615.4406     10.6049     47.3364
   897.7500      0.0000    621.2432     10.4873     44.7459
   898.0000      0.0000    628.9573     10.1826     43.8873
   898.2500      0.0000    637.5309      9.6714     44.8882
   898.5000      0.0000    648.2891      8.9995     47.8823
   898.7500      0.0000    660.2876      8.3618     52.5366
   899.0000      0.0000    670.1666      7.9873     57.9412
   899.2500      0.0000    675.5846      7.9323     63.2962
   899.5000      0.0000    676.7228      8.0386     68.4245
   899.7500      0.0000    675.2433      8.1082     73.3976
   900.0000      0.0000    673.2039      8.0764     78.0079
   900.2500      0.0000    672.4492      8.0137     82.0366
   900.5000      0.0000    673.9252      8.0123     85.7704
   900.7500      0.0000    677.1241      8.1058     89.6167
   901.0000      0.0000    680.4019      8.2679     93.1300
   901.2500      0.0000    682.1053      8.4472     95.0046
   901.5000      0.0000    681.7704      8.5935     94.2835
   901.7500      0.0000    680.4691      8.6668     91.2329
   902.0000      0.0000    679.9661      8.6362     87.0370
   902.2500      0.0000    681.2700      8.4815     83.1375
   902.5000      0.0000    683.9269      8.2074     80.7739
   902.7500      0.0000    686.7162      7.8581     80.4909
   903.0000      0.0000    688.7791      7.5064     81.8160
   903.2500      0.0000    690.0016      7.2167     83.6642
   903.5000      0.0000    690.6533      7.0162     85.2862
   903.7500      0.0000    690.9896      6.8986     86.8015
   904.0000      0.0000    691.1302      6.8465     88.6755
   904.2500      0.0000    691.1079      6.8421     90.7978
   904.5000      0.0000    690.9323      6.8653     92.2810
   904.7500      0.0000    690.6332      6.8920     92.1564
   905.0000      0.0000    690.2747      6.9039     90.1917
   905.2500      0.0000    689.9437      6.8976     87.1211
   905.5000      0.0000    689.7130      6.8824     84.3134
   905.7500      0.0000    689.6033      6.8686     83.3921
   906.0000      0.0000    689.5695      6.8588     85.8419
   906.2500      0.0000    689.5181      6.8516     91.9945
   906.5000      0.0000    689.3596      6.8482     99.9076
   906.7500      0.0000    689.0734      6.8507    106.0348
   907.0000      0.0000    688.7344      6.8536    107.9227
   907.2500      0.0000    688.4692      6.8408    106.0935
   907.5000      0.0000    688.3788      6.7962    102.8859
   907.7500      0.0000    688.4805      6.7149    100.0152
   908.0000      0.0000    688.6982      6.6044     97.7961
   908.2500      0.0000    688.9039      6.4812     95.9702
   908.5000      0.0000    688.9860      6.3675     94.2863
   908.7500      0.0000    688.8690      6.2839     92.4928
   909.0000      0.0000    688.4181      6.2381     90.4076
   909.2500      0.0000    687.2267      6.2193     87.9844
   909.5000      0.0000    684.4458      6.2013     85.1903
   909.7500      0.0000    679.0002      6.1480     82.0303
   910.0000      0.0000    670.4202      6.0265     78.6437
   910.2500      0.0000    659.9255      5.8281     75.0927
   910.5000      0.0000    650.7286      5.5823     71.3021
   910.7500      0.0000    646.5921      5.3494     67.5426
   911.0000      0.0000    649.1671      5.1943     64.6255
   911.2500      0.0000    656.5070      5.1549     63.2886
   911.5000      0.0000    664.5854      5.2210     63.5873
   911.7500      0.0000    670.1270      5.3418     65.0024
   912.0000      0.0000    671.7653      5.4628     66.9319
   912.2500      0.0000    669.7334      5.5603     69.1737
   912.5000      0.0000    665.9935      5.6506     72.1703
   912.7500      0.0000    664.0208      5.7724     76.5766
   913.0000      0.0000    666.5496      5.9534     82.4001
   913.2500      0.0000    673.0996      6.1778     88.8020
   913.5000      0.0000    680.4401      6.3848     94.6525
   913.7500      0.0000    685.3123      6.5145     98.9330
   914.0000      0.0000    686.0711      6.5594    100.8628
   914.2500      0.0000    682.3141      6.5613    100.1158
   914.5000      0.0000    674.5237      6.5627     96.9443
   914.7500      0.0000    664.8475      6.5758     92.1194
   915.0000      0.0000    656.9583      6.5952     86.7872
   915.2500      0.0000    652.9186      6.6215     82.0246
   915.5000      0.0000    649.2037      6.6639     78.1296
   915.7500      0.0000    636.8136      6.7238     74.4899
   916.0000      0.0000    607.1093      6.7835     70.4358
   916.2500      0.0000    559.2402      6.8218     66.2104
   916.5000      0.0000    502.6672      6.8432     63.0105
   916.7500      0.0000    451.5698      6.8804     62.1550
   917.0000      0.0000    415.5400      6.9576     64.1169
   917.2500      0.0000    395.0159      7.0617     68.0144
   917.5000      0.0000    384.2503      7.1595     71.9905
   917.7500      0.0000    376.9854      7.2361     74.5126
   918.0000      0.0000    369.8219      7.3004     75.5175
   918.2500      0.0000    362.4898      7.3578     76.0790
   918.5000      0.0000    356.4209      7.3934     77.0205
   918.7500      0.0000    353.1347      7.3826     78.3744
   919.0000      0.0000    353.3903      7.3095     80.1168
   919.2500      0.0000    357.0283      7.1787     82.4714
   919.5000      0.0000    362.7553      7.0194     85.0769
   919.7500      0.0000    368.1052      6.8772     86.6771
   920.0000      0.0000    370.4786      6.7870     86.2999
   920.2500      0.0000    369.1021      6.7504     84.4219
   920.5000      0.0000    366.3238      6.7343     82.5785
   920.7500      0.0000    367.1404      6.6880     81.9926
   921.0000      0.0000    377.3261      6.5652     82.7721
   921.2500      0.0000    400.8706      6.3439     84.3250
   921.5000      0.0000    437.4993      6.0415     86.1957
   921.7500      0.0000    482.2158      5.7107     88.1819
   922.0000      0.0000    528.4267      5.4132     89.5941
   922.2500      0.0000    572.3971      5.1837     88.8146
   922.5000      0.0000    614.4732      5.0132     84.3747
   922.7500      0.0000    655.9787      4.8633     76.8564
   923.0000      0.0000    695.4531      4.6988     69.3478
   923.2500      0.0000    728.0291      4.5118     65.5365
   923.5000      0.0000    748.2369      4.3203     67.1132
   923.7500      0.0000    753.7056      4.1457     72.7499
   924.0000      0.0000    747.0457      3.9904     79.2655
   924.2500      0.0000    734.6603      3.8342     83.8376
   924.5000      0.0000    723.0889      3.6533     85.5737
   924.7500      0.0000    715.3870      3.4448     85.4666
   925.0000      0.0000    710.5298      3.2336     85.0250
   925.2500      0.0000    706.2295      3.0580     84.8676
   925.5000      0.0000    702.4261      2.9487     84.3959
