~Version Information
VERS.                      2.0: CWLS Log ASCII Standard - VERSION 2.0
WRAP.                       NO: One line per depth step
~Well Information Block
STRT.FT                15.0000: 
STOP.FT              2565.5000: 
STEP.FT                 0.2500: 
NULL.                -999.2500: 
COMP.          Pioneer Natural Resources: COMPANY
WELL.           Costello 44-24: WELL
FLD.           Purgatoire River: FIELD
LOC.           327' FSL & 378' FEL: LOCATION
PROV.                 Colorado: PROVINCE
CNTY.               Las Animas: COUNTRY
SRVC.                Patterson: SERVICE COMPANY
DATE.          Mon Jul 25 10:15:19 2005: LOG DATE
UWI.           05 071 08413 00: UNIQUE WELL ID
~Curve Information Block
DEPT.FT            0 000 00 00: Depth
GR.GAPI                       : Gamma Ray
CCL.                          : Casing Collar Locator
TT3.usec                      : CBL 3' Travel Time
AMP3.mV                       : CBL 3' Amplitude
~Parameter Information Block
~A  Depth        GR         CCL         TT3         AMP3    
# ...
  1020.0000    117.5762      0.0000    645.6326      5.8102
  1020.2500    119.8195      0.0000    629.6556      5.8113
  1020.5000    122.7322      0.0000    613.3610      5.7986
  1020.7500    125.3352      0.0000    600.5143      5.7843
  1021.0000    127.6621      0.0000    591.8788      5.7821
  1021.2500    130.6576      0.0000    585.3037      5.7899
  1021.5000    134.9112      0.0000    577.7499      5.7896
  1021.7500    139.8408      0.0000    568.0602      5.7601
  1022.0000    144.1051      0.0000    558.8403      5.6930
  1022.2500    146.3103      0.0000    555.6696      5.6016
  1022.5000    145.1628      0.0000    563.4206      5.5172
  1022.7500    139.5279      0.0000    582.3667      5.4743
  1023.0000    129.0613      0.0000    607.4240      5.4889
  1023.2500    114.9422      0.0000    630.8986      5.5493
  1023.5000     99.6840      0.0000    646.5514      5.6244
  1023.7500     85.9525      0.0000    652.7514      5.6843
  1024.0000     75.4149      0.0000    653.0580      5.7180
  1024.2500     68.5043      0.0000    653.3317      5.7380
  1024.5000     64.8777      0.0000    657.1282      5.7669
  1024.7500     63.7809      0.0000    663.5932      5.8152
  1025.0000     64.1129      0.0000    669.6592      5.8700
  1025.2500     64.6550      0.0000    673.3865      5.9045
  1025.5000     64.6338      0.0000    674.8959      5.8996
  1025.7500     64.1161      0.0000    675.2015      5.8561
  1026.0000     63.7909      0.0000    675.0850      5.7902
  1026.2500     64.3409      0.0000    674.8712      5.7217
  1026.5000     65.9438      0.0000    674.6401      5.6667
  1026.7500     68.1396      0.0000    674.4072      5.6332
  1027.0000     70.0553      0.0000    674.1962      5.6190
  1027.2500     71.0739      0.0000    674.0359      5.6143
  1027.5000     71.6159      0.0000    673.9507      5.6115
  1027.7500     73.0750      0.0000    673.9452      5.6127
  1028.0000     76.6414      0.0000    673.9994      5.6256
  1028.2500     82.0980      0.0000    674.0815      5.6519
  1028.5000     87.6961      0.0000    674.1721      5.6830
  1028.7500     91.1981      0.0000    674.2760      5.7085
  1029.0000     91.4284      0.0000    674.4095      5.7273
  1029.2500     89.1468      0.0000    674.5753      5.7480
  1029.5000     86.3353      0.0000    674.7524      5.7797
  1029.7500     84.6579      0.0000    674.9104      5.8217
  1030.0000     84.7180      0.0000    675.0295      5.8637
  1030.2500     86.3298      0.0000    675.1035      5.8948
  1030.5000     88.7990      0.0000    675.1329      5.9124
  1030.7500     90.9488      0.0000    675.1306      5.9205
  1031.0000     91.5377      0.0000    675.1294      5.9213
  1031.2500     90.0881      0.0000    675.1638      5.9088
  1031.5000     87.2210      0.0000    675.2313      5.8738
  1031.7500     83.9995      0.0000    675.2842      5.8140
  1032.0000     80.9385      0.0000    675.2667      5.7406
  1032.2500     77.7684      0.0000    675.1609      5.6748
  1032.5000     74.1890      0.0000    675.0000      5.6367
  1032.7500     70.6800      0.0000    674.8349      5.6315
  1033.0000     68.3833      0.0000    674.6859      5.6447
  1033.2500     68.2034      0.0000    674.5271      5.6528
  1033.5000     70.0695      0.0000    674.3284      5.6426
  1033.7500     72.9157      0.0000    674.1067      5.6212
  1034.0000     75.3099      0.0000    673.9184      5.6083
  1034.2500     76.3152      0.0000    673.8044      5.6173
  1034.5000     75.9393      0.0000    673.7675      5.6451
  1034.7500     74.9487      0.0000    673.8033      5.6797
  1035.0000     74.3972      0.0000    673.9206      5.7152
  1035.2500     74.9987      0.0000    674.1053      5.7538
  1035.5000     76.4656      0.0000    674.2751      5.7945
  1035.7500     77.6500      0.0000    674.2376      5.8254
  1036.0000     77.7397      0.0000    673.5793      5.8318
  1036.2500     77.0482      0.0000    671.4595      5.8156
  1036.5000     76.3207      0.0000    666.6682      5.8001
  1036.7500     75.7305      0.0000    658.6261      5.8126
  1037.0000     74.9244      0.0000    649.0547      5.8592
  1037.2500     73.6752      0.0000    642.1957      5.9198
  1037.5000     72.1907      0.0000    641.9576      5.9679
  1037.7500     70.9966      0.0000    648.3665      5.9911
  1038.0000     70.5956      0.0000    657.5618      5.9924
  1038.2500     70.9706      0.0000    665.3489      5.9768
  1038.5000     71.3764      0.0000    670.0524      5.9444
  1038.7500     70.8885      0.0000    672.2768      5.8916
  1039.0000     69.2981      0.0000    673.2114      5.8143
  1039.2500     67.3497      0.0000    673.6307      5.7115
  1039.5000     65.9922      0.0000    673.8525      5.5910
  1039.7500     65.5311      0.0000    673.9667      5.4707
  1040.0000     65.6435      0.0000    673.9860      5.3755
  1040.2500     66.0565      0.0000    673.9177      5.3287
  1040.5000     66.9457      0.0000    673.7883      5.3414
  1040.7500     68.6323      0.0000    673.6298      5.4082
  1041.0000     71.0002      0.0000    673.4579      5.5124
  1041.2500     73.3416      0.0000    673.2888      5.6352
  1041.5000     74.9328      0.0000    673.1717      5.7601
  1041.7500     75.8220      0.0000    673.1926      5.8736
  1042.0000     76.9370      0.0000    673.4628      5.9648
  1042.2500     79.3658      0.0000    674.1326      6.0238
  1042.5000     83.5837      0.0000    675.4346      6.0446
  1042.7500     89.1895      0.0000    677.5821      6.0306
  1043.0000     94.9456      0.0000    680.3724      5.9989
  1043.2500     99.1369      0.0000    682.8275      5.9741
  1043.5000    100.6354      0.0000    683.7175      5.9775
  1043.7500    100.0125      0.0000    683.0626      6.0174
  1044.0000     99.1567      0.0000    683.1015      6.0855
  1044.2500     99.4168      0.0000    686.9086      6.1603
  1044.5000    100.3546      0.0000    695.2705      6.2170
  1044.7500    100.6493      0.0000    705.1007      6.2358
  1045.0000    100.1301      0.0000    711.7481      6.2041
  1045.2500    100.5100      0.0000    712.9397      6.1185
  1045.5000    103.8301      0.0000    709.8785      5.9896
  1045.7500    110.3497      0.0000    704.9078      5.8447
  1046.0000    118.2630      0.0000    699.3373      5.7186
  1046.2500    125.3500      0.0000    693.4516      5.6392
  1046.5000    130.5783      0.0000    687.4186      5.6142
  1046.7500    134.3255      0.0000    681.7406      5.6311
  1047.0000    137.5894      0.0000    677.1902      5.6710
  1047.2500    141.1064      0.0000    674.4319      5.7268
  1047.5000    144.8869      0.0000    673.6993      5.8126
  1047.7500    148.3133      0.0000    674.7694      5.9606
  1048.0000    150.4924      0.0000    676.9746      6.2024
  1048.2500    150.5464      0.0000    679.0305      6.5358
  1048.5000    148.0641      0.0000    679.3265      6.9021
  1048.7500    143.7005      0.0000    677.0979      7.2151
  1049.0000    138.9881      0.0000    673.5641      7.4380
  1049.2500    135.1633      0.0000    671.8038      7.6144
  1049.5000    132.4109      0.0000    675.3453      7.7879
  1049.7500    130.2558      0.0000    686.3174      7.9145
  1050.0000    128.2247      0.0000    703.9932      7.9154
  1050.2500    126.1773      0.0000    724.9209      7.7965
  1050.5000    124.4708      0.0000    745.2521      7.6536
  1050.7500    123.8113      0.0000    763.2228      7.5759
  1051.0000    124.6080      3.0000    778.8305      7.5891
  1051.2500    126.5624      0.0000    791.2692      7.6675
  1051.5000    129.1095      0.0000    797.6740      7.7674
  1051.7500    132.0209      0.0000    794.6266      7.8709
  1052.0000    135.1976      0.0000    780.9163      8.0142
  1052.2500    138.1732      0.0000    759.4924      8.2444
  1052.5000    140.3432      0.0000    736.6216      8.5380
  1052.7500    141.6224      0.0000    717.8756      8.8002
  1053.0000    142.3895      0.0000    704.7563      8.9477
  1053.2500    142.8027      0.0000    695.7892      8.9625
