~Version Information
VERS.                      2.0: CWLS Log ASCII Standard - VERSION 2.0
WRAP.                       NO: One line per depth step
~Well Information Block
STRT.FT               860.0000: 
STOP.FT              2733.7000: 
STEP.FT                 0.1000: 
NULL.                -999.2500: 
COMP.          Pioneer Natural Resources: COMPANY
WELL.          Beacon 11-18 Tr: WELL
FLD.           Purgatoire River: FIELD
LOC.           409' FNL & 203' FWL: LOCATION
PROV.                 Colorado: PROVINCE
CNTY.               Las Animas: COUNTRY
SRVC.                Patterson: SERVICE COMPANY
DATE.          Mon Jan 17 07:36:09 2005: LOG DATE
UWI.           05 071 08251 00: UNIQUE WELL ID
~Curve Information Block
DEPT.FT            0 000 00 00: Depth
DCAL.in                       : CDL Caliper
RHOB.g/cc                     : CDL Bulk Density
RHOC.g/cc                     : CDL Density Correction
DPOR.pu                       : CDL Density Porosity
NPOR.pu                       : Neutron Porosity
GR.GAPI                       : Gamma Ray
~Parameter Information Block
~A  Depth       DCAL        RHOB        RHOC        DPOR        NPOR         GR     
# ...
  2578.4000      8.8839      2.3405      0.2506     18.7560     30.6492    169.7104
  2578.5000      8.8703      2.3207      0.2057     19.9550     30.6623    166.1371
  2578.6000      8.8703      2.3133      0.1730     20.4083     30.5933    165.6985
  2578.7000      8.8703      2.3310      0.2402     19.3346     30.6329    163.5481
  2578.8000      8.8641      2.3645      0.3342     17.3022     30.6533    158.4945
  2578.9000      8.8641      2.3904      0.3496     15.7358     30.8220    158.4482
  2579.0000      8.8655      2.3908      0.3810     15.7102     31.2537    163.9297
  2579.1000      8.8655      2.3579      0.3788     17.7016     31.7337    168.3637
  2579.2000      8.8655      2.3012      0.2792     21.1369     31.8678    170.2113
  2579.3000      8.8944      2.2391      0.2517     24.9014     31.3853    170.3600
  2579.4000      8.8944      2.1781      0.2148     28.6004     30.6148    168.5687
  2579.5000      9.0011      2.1268      0.1292     31.7094     30.1703    165.1503
  2579.6000      9.0011      2.1098      0.1143     32.7376     30.2310    160.0166
  2579.7000      9.0011      2.1354      0.2180     31.1862     30.5918    153.4393
  2579.8000      9.2094      2.1836      0.2497     28.2679     30.8340    145.4322
  2579.9000      9.2094      2.2507      0.2489     24.1977     30.7008    138.0105
  2580.0000      9.4274      2.3520      0.3696     18.0584     30.5660    137.8392
  2580.1000      9.4274      2.4734      0.4951     10.7018     30.7634    144.8563
  2580.2000      9.4274      2.5700      0.5245      4.8480     31.2993    151.6666
  2580.3000      9.5344      2.6143      0.4797      2.1639     32.0492    156.2323
  2580.4000      9.5344      2.6143      0.4472      2.1667     32.5290    160.0135
  2580.5000      9.5404      2.5838      0.3888      4.0121     32.2883    159.9264
  2580.6000      9.5404      2.5370      0.3178      6.8460     31.6323    154.0627
  2580.7000      9.5404      2.4988      0.2116      9.1666     31.1751    149.5942
  2580.8000      9.4617      2.4847      0.2113     10.0200     31.1490    151.2924
  2580.9000      9.4617      2.4871      0.1962      9.8748     31.4995    153.9540
  2581.0000      9.1999      2.4984      0.1311      9.1869     31.8512    153.8624
  2581.1000      9.1999      2.5207      0.1651      7.8379     31.8087    151.0310
  2581.2000      9.1999      2.5450      0.1853      6.3640     31.4099    147.4276
  2581.3000      8.7693      2.5580      0.1530      5.5758     30.8226    148.6385
  2581.4000      8.7693      2.5660      0.1241      5.0918     30.2417    153.4180
  2581.5000      8.4039      2.5856      0.1553      3.9053     29.9198    153.0463
  2581.6000      8.4039      2.6152      0.1449      2.1096     29.7962    148.2097
  2581.7000      8.4039      2.6309      0.1469      1.1605     29.4589    143.5393
  2581.8000      8.2098      2.6091      0.1415      2.4763     29.0056    137.0570
  2581.9000      8.2098      2.5643      0.0784      5.1952     28.6463    130.4538
  2582.0000      8.1430      2.5413      0.0100      6.5897     28.3053    128.2605
  2582.1000      8.1430      2.5584      0.0498      5.5489     28.0284    127.9031
  2582.2000      8.1430      2.5883      0.1022      3.7409     27.7799    126.4758
  2582.3000      8.1292      2.6064      0.1075      2.6441     27.5099    126.5463
  2582.4000      8.1292      2.6182      0.0732      1.9302     27.8172    130.8057
  2582.5000      8.1256      2.6316      0.1401      1.1155     28.7000    138.3927
  2582.6000      8.1256      2.6405      0.1313      0.5743     29.1904    147.0789
  2582.7000      8.1256      2.6408      0.1108      0.5559     29.1288    152.8861
  2582.8000      8.1264      2.6365      0.1151      0.8202     29.0445    152.1591
  2582.9000      8.1264      2.6314      0.1197      1.1258     29.0970    146.6972
  2583.0000      8.1294      2.6315      0.0996      1.1225     29.4957    142.4414
  2583.1000      8.1294      2.6352      0.1252      0.8950     29.9831    140.4866
  2583.2000      8.1294      2.6290      0.0866      1.2738     29.8542    137.6513
  2583.3000      8.1320      2.6062      0.0752      2.6573     28.9741    132.7731
  2583.4000      8.1320      2.5804     -0.0028      4.2209     27.5942    127.5519
  2583.5000      8.1332      2.5733      0.0313      4.6485     26.4514    124.8349
  2583.6000      8.1332      2.5873      0.0286      3.8021     26.4503    125.4976
  2583.7000      8.1332      2.6065      0.0441      2.6370     27.2837    127.9551
  2583.8000      8.1324      2.6165      0.0258      2.0325     27.7438    128.2848
  2583.9000      8.1324      2.6152      0.0646      2.1089     27.4625    126.1230
  2584.0000      8.1314      2.6064      0.0563      2.6418     27.2151    127.5874
  2584.1000      8.1314      2.5982      0.0135      3.1381     27.3912    133.9143
  2584.2000      8.1314      2.5982      0.0611      3.1407     27.4379    139.8880
  2584.3000      8.1295      2.6026      0.0391      2.8704     26.9038    143.7583
  2584.4000      8.1295      2.6023      0.0914      2.8906     25.9903    145.0702
  2584.5000      8.1288      2.5987      0.0050      3.1067     25.2408    141.7235
  2584.6000      8.1288      2.6091      0.0304      2.4796     25.1621    136.9516
  2584.7000      8.1288      2.6270      0.0794      1.3957     25.6922    136.1664
  2584.8000      8.1297      2.6243      0.0775      1.5604     26.2546    136.5641
  2584.9000      8.1297      2.6097      0.0225      2.4422     26.4211    132.5400
  2585.0000      8.1289      2.6156      0.0381      2.0822     26.2850    128.9770
  2585.1000      8.1289      2.6422      0.0607      0.4705     26.1801    133.8772
  2585.2000      8.1289      2.6653      0.1090     -0.9298     26.1991    145.4860
  2585.3000      8.1258      2.6676      0.1199     -1.0650     26.2262    154.4508
  2585.4000      8.1258      2.6509      0.0608     -0.0523     26.3666    155.5268
  2585.5000      8.1232      2.6257      0.0586      1.4713     26.8713    151.5679
  2585.6000      8.1232      2.5842      0.0887      3.9868     27.9078    143.8497
  2585.7000      8.1232      2.5171     -0.0102      8.0572     29.4196    133.4231
  2585.8000      8.1226      2.4281      0.0248     13.4515     30.9153    126.2864
  2585.9000      8.1226      2.3073      0.0136     20.7727     31.9275    124.7068
  2586.0000      8.1257      2.1567     -0.0892     29.8979     32.1835    123.9944
  2586.1000      8.1257      2.0172     -0.1249     38.3525     31.7374    123.2165
  2586.2000      8.1257      1.9232     -0.1188     44.0504     31.3060    123.6684
  2586.3000      8.1282      1.8726     -0.1243     47.1135     31.1958    123.6709
  2586.4000      8.1282      1.8476     -0.0824     48.6309     31.0292    122.3942
  2586.5000      8.1329      1.8403     -0.0544     49.0741     30.6652    119.6188
  2586.6000      8.1329      1.8607      0.0068     47.8352     30.2505    116.5264
  2586.7000      8.1329      1.9180      0.0596     44.3631     29.8478    112.7342
  2586.8000      8.1508      2.0015      0.1861     39.3011     29.6403    108.4978
  2586.9000      8.1508      2.0905      0.2339     33.9072     29.6521    110.0696
  2587.0000      8.1674      2.1760      0.2622     28.7250     29.4050    120.4379
  2587.1000      8.1674      2.2594      0.2783     23.6750     29.0126    130.4282
  2587.2000      8.1674      2.3416      0.1540     18.6938     28.7785    133.0755
  2587.3000      8.1313      2.4109      0.1514     14.4907     28.5684    134.7522
  2587.4000      8.1313      2.4453      0.0952     12.4060     28.7078    139.7589
  2587.5000      8.0459      2.4474      0.0808     12.2806     29.1458    145.1382
  2587.6000      8.0459      2.4393      0.0439     12.7709     29.0231    152.2603
  2587.7000      8.0459      2.4348      0.0008     13.0409     28.2075    159.3665
  2587.8000      7.9869      2.4345      0.0621     13.0600     27.5246    159.6665
  2587.9000      7.9869      2.4244      0.0994     13.6732     27.5506    155.2869
