~Version Information
VERS.                      2.0: CWLS Log ASCII Standard - VERSION 2.0
WRAP.                       NO: One line per depth step
~Well Information Block
STRT.FT                -9.2500: 
STOP.FT              1945.2500: 
STEP.FT                 0.2500: 
NULL.                -999.2500: 
COMP.          Pioneer Natural Resources: COMPANY
WELL.          Titan Federal 34-17: WELL
FLD.           Purgatorie River: FIELD
LOC.           321' FSL & 1911' FEL: LOCATION
STAT.                       CO: State
CNTY.               Las Animas: COUNTY
CTRY. USA : Country
SECT. 17 : Section
TOWN. 32S : Township
RANG. 65W : Range
SRVC.          Patterson Wireline: SERVICE COMPANY
DATE.          Tue Oct 11 10:22:27 2005: LOG DATE
API.           05 071 08272 00: UNIQUE WELL ID
~Curve Information Block
DEPT.FT            0 000 00 00: Depth
CCL.                          : Casing Collar Locator
TT3.usec                      : CBL 3' Travel Time
AMP3.mV                       : CBL 3' Amplitude
GR.GAPI                       : Gamma Ray
~Parameter Information Block
~A  Depth       CCL         TT3         AMP3         GR     
# ...
  1397.7500      0.0000    770.4325      6.9018    107.7973
  1398.0000      0.0000    762.4134      6.6034    113.6468
  1398.2500      0.0000    753.2241      6.3783    120.3995
  1398.5000      0.0000    741.7264      6.2112    125.8083
  1398.7500      0.0000    728.6736      6.0837    128.7709
  1399.0000      0.0000    716.5494      5.9821    129.1989
  1399.2500      0.0000    708.1829      5.9013    127.4228
  1399.5000      0.0000    705.5779      5.8436    123.6891
  1399.7500      0.0000    709.4973      5.8146    118.3399
  1400.0000      0.0000    719.4225      5.8173    112.3993
  1400.2500      0.0000    733.4785      5.8468    107.4751
  1400.5000      0.0000    748.2435      5.8858    104.7366
  1400.7500      0.0000    759.2534      5.9075    104.0364
  1401.0000      0.0000    763.1251      5.8926    104.1000
  1401.2500      0.0000    760.2375      5.8457    103.6424
  1401.5000      0.0000    755.1387      5.7923    102.3767
  1401.7500      0.0000    753.7959      5.7585    100.8092
  1402.0000      0.0000    760.2482      5.7574     99.1569
  1402.2500      0.0000    775.1420      5.7939     96.9371
  1402.5000      0.0000    795.4628      5.8760     93.8794
  1402.7500      0.0000    815.0914      6.0206     90.8573
  1403.0000      0.0000    827.7196      6.2498     89.3688
  1403.2500      0.0000    831.3884      6.5799     90.2656
  1403.5000      0.0000    830.2250      7.0083     93.4432
  1403.7500      0.0000    830.5905      7.5090     98.4812
  1404.0000      0.0000    834.1569      8.0407    104.7966
  1404.2500      0.0000    834.7488      8.5634    111.2236
  1404.5000      0.0000    823.6852      9.0624    116.2077
  1404.7500      0.0000    798.6987      9.5576    118.6434
  1405.0000      0.0000    766.3998     10.0758    118.2458
  1405.2500      0.0000    736.6694     10.6003    115.2592
  1405.5000      0.0000    716.5273     11.0496    110.3359
  1405.7500      0.0000    708.5327     11.3105    104.7191
  1406.0000      0.0000    711.8806     11.2927     99.9272
  1406.2500      0.0000    723.3728     10.9675     96.8719
  1406.5000      0.0000    737.9007     10.3794     95.5221
  1406.7500      0.0000    749.4401      9.6290     95.4908
  1407.0000      0.0000    753.1283      8.8292     96.4209
  1407.2500      0.0000    747.8423      8.0646     97.6661
  1407.5000      0.0000    737.1274      7.3818     98.1785
  1407.7500      0.0000    727.1871      6.8081     97.1411
  1408.0000      0.0000    723.4132      6.3678     94.6633
  1408.2500      0.0000    728.0261      6.0819     91.9056
  1408.5000      0.0000    739.5633      5.9594     90.5975
  1408.7500      0.0000    753.8297      5.9872     92.1860
  1409.0000      0.0000    766.2244      6.1193     96.9928
  1409.2500      0.0000    774.4069      6.2793    103.9240
  1409.5000      0.0000    779.0523      6.3907    111.0414
  1409.7500      0.0000    782.1478      6.4224    116.5235
  1410.0000      0.0000    785.2324      6.4054    119.0379
  1410.2500      0.0000    789.5271      6.4022    117.7157
  1410.5000      0.0000    797.1849      6.4610    112.7106
  1410.7500      0.0000    810.9551      6.5947    105.7351
  1411.0000      0.0000    830.7280      6.7876     99.1360
  1411.2500      0.0000    849.9660      7.0066     94.2986
  1411.5000      0.0000    858.3292      7.2099     91.2020
  1411.7500      0.0000    850.6339      7.3608     89.0135
  1412.0000      0.0000    831.6979      7.4564     86.6058
  1412.2500      0.0000    810.3445      7.5360     83.0846
  1412.5000      0.0000    791.0259      7.6246     78.6413
  1412.7500      0.0000    773.6412      7.6558     74.7391
  1413.0000      0.0000    758.8602      7.5093     72.9428
  1413.2500      0.0000    750.0452      7.1624     73.6190
  1413.5000      0.0000    750.1404      6.7541     75.9912
  1413.7500      0.0000    758.2364      6.4684     79.2131
  1414.0000      0.0000    769.0748      6.3985     82.8027
  1414.2500     -2.0000    775.7224      6.5343     86.0982
  1414.5000      0.0000    774.1732      6.8165     87.9664
  1414.7500      0.0000    766.4876      7.1863     87.4816
  1415.0000      0.0000    759.1165      7.6236     84.9163
  1415.2500      0.0000    757.4181      8.1510     82.0076
  1415.5000      0.0000    761.2608      8.7888     81.0615
  1415.7500      0.0000    765.5313      9.5480     83.4976
  1416.0000      0.0000    764.6456     10.4980     89.0293
  1416.2500      0.0000    756.5318     11.7542     96.0321
  1416.5000      0.0000    742.5556     13.3058    102.4643
  1416.7500      0.0000    725.0552     14.9099    106.5243
  1417.0000      0.0000    706.4222     16.2309    106.9803
  1417.2500      0.0000    689.6287     17.0573    103.5899
  1417.5000      0.0000    677.4233     17.3666     97.5488
  1417.7500      0.0000    670.5826     17.2428     91.2033
  1418.0000      0.0000    667.7662     16.7861     86.7097
  1418.2500      0.0000    667.0150     16.0906     84.7208
  1418.5000      0.0000    666.9828     15.2572     84.3261
  1418.7500      0.0000    667.1152     14.3963     84.1670
  1419.0000      0.0000    667.2786     13.5989     83.4755
  1419.2500      0.0000    667.4571     12.9065     82.2439
  1419.5000      0.0000    667.6252     12.3109     80.8598
  1419.7500      0.0000    667.7694     11.7809     79.7861
  1420.0000      0.0000    667.9169     11.2911     79.4686
  1420.2500      0.0000    668.2178     10.8334     80.1799
  1420.5000      0.0000    669.1472     10.4095     81.6634
  1420.7500      0.0000    671.7994     10.0215     83.3092
  1421.0000      0.0000    677.8452      9.6704     85.0405
  1421.2500      0.0000    688.4052      9.3624     87.4938
  1421.5000      0.0000    702.0952      9.1077     90.9315
  1421.7500      0.0000    714.4291      8.9104     94.4810
  1422.0000      0.0000    720.4594      8.7583     96.6745
  1422.2500      0.0000    718.7076      8.6274     96.2591
  1422.5000      0.0000    712.0845      8.4992     92.6189
  1422.7500      0.0000    704.8480      8.3723     86.3427
  1423.0000      0.0000    699.3581      8.2596     79.5859
  1423.2500      0.0000    695.9755      8.1763     75.1555
  1423.5000      0.0000    694.9396      8.1342     74.7352
  1423.7500      0.0000    696.9664      8.1415     77.8176
  1424.0000      0.0000    702.1378      8.1998     82.0633
  1424.2500      0.0000    709.5770      8.2973     84.8777
  1424.5000      0.0000    718.7010      8.4052     85.1525
  1424.7500      0.0000    729.8203      8.4883     83.5569
  1425.0000      0.0000    742.6910      8.5234     81.2113
  1425.2500      0.0000    754.8262      8.5104     78.6046
  1425.5000      0.0000    762.1060      8.4680     75.9158
  1425.7500      0.0000    761.7028      8.4191     73.7183
  1426.0000      0.0000    754.6789      8.3829     72.9066
  1426.2500      0.0000    745.3300      8.3733     74.0140
  1426.5000      0.0000    737.2816      8.3986     76.6799
  1426.7500      0.0000    730.5616      8.4624     79.7095
  1427.0000      0.0000    723.2137      8.5656     81.8776
  1427.2500      0.0000    714.7689      8.7036     82.9180
  1427.5000      0.0000    706.6119      8.8587     83.5686
  1427.7500      0.0000    699.6184      9.0040     84.5202
  1428.0000      0.0000    693.3132      9.1212     85.5769
  1428.2500      0.0000    687.6641      9.2137     86.0510
  1428.5000      0.0000    684.6269      9.2992     85.6798
  1428.7500      0.0000    687.3340      9.3891     84.8457
  1429.0000      0.0000    697.4863      9.4764     84.1427
  1429.2500      0.0000    712.8328      9.5385     84.0632
  1429.5000      0.0000    727.1868      9.5518     85.0024
  1429.7500      0.0000    734.4789      9.5103     87.3364
  1430.0000      0.0000    733.7602      9.4324     91.4081
  1430.2500      0.0000    729.6078      9.3516     97.3681
  1430.5000      0.0000    727.2803      9.3004    105.0188
  1430.7500      0.0000    728.0702      9.2978    113.8855
  1431.0000      0.0000    729.0719      9.3422    123.4741
