~Version Information
VERS.                      2.0: CWLS Log ASCII Standard - VERSION 2.0
WRAP.                       NO: One line per depth step
~Well Information Block
STRT.FT                 5.0000: 
STOP.FT              1874.2500: 
STEP.FT                 0.2500: 
NULL.                -999.2500: 
COMP.          Pioneer Natural Resources: COMPANY
WELL.           Stampede 42-18: WELL
FLD.           Purgatoire River: FIELD
LOC.           2479' FNL & 160' FEL--: LOCATION
CNTY.               Las Animas: COUNTY
SRVC.          Superior Well Services: SERVICE COMPANY
DATE.          Mon Jun 25 12:19:16 2007: LOG DATE
UWI.                          : UNIQUE WELL ID
STAT.                 Colorado: STATE
~Curve Information Block
DEPT.FT            0 000 00 00: Depth
GR.GAPI                       : Gamma Ray
CCL.                          : Casing Collar Locator
TT3.usec                      : CBL 3' Travel Time
AMP3.mV                       : CBL 3' Amplitude
AMP5.mV                       : CBL 5' Amplitude
~Parameter Information Block
~A  Depth        GR         CCL         TT3         AMP3        AMP5    
# ...
  1853.0000    111.9659      0.0000    696.9900      4.9880      2.6146
  1853.2500    106.7142      0.0000    707.0266      4.9857      2.6035
  1853.5000    101.3166      0.0000    712.0931      4.9853      2.5906
  1853.7500     96.4637      0.0000    710.8190      4.9818      2.5740
  1854.0000     91.6199      0.0000    705.2566      4.9805      2.5467
  1854.2500     86.9843      0.0000    697.8617      4.9814      2.5073
  1854.5000     84.7021      0.0000    689.5579      4.9796      2.4649
  1854.7500     87.8320      0.0000    680.3124      4.9753      2.4314
  1855.0000     97.7672      0.0000    670.5692      4.9715      2.4099
  1855.2500    112.5385      0.0000    661.8105      4.9606      2.3955
  1855.5000    127.9335      0.0000    655.7747      4.9259      2.3873
  1855.7500    140.7452      0.0000    653.1357      4.8609      2.3923
  1856.0000    151.0869      0.0000    653.3375      4.7803      2.4152
  1856.2500    161.1479      0.0000    655.8173      4.7034      2.4493
  1856.5000    171.3114      0.0000    660.0483      4.6328      2.4808
  1856.7500    178.1015      0.0000    663.8107      4.5570      2.5012
  1857.0000    177.0207      0.0000    662.7182      4.4701      2.5117
  1857.2500    167.3716      0.0000    653.0428      4.3804      2.5168
  1857.5000    153.4807      0.0000    635.9104      4.3022      2.5173
  1857.7500    141.1142      0.0000    619.0096      4.2440      2.5107
  1858.0000    133.0207      0.0000    612.4088      4.2040      2.4967
  1858.2500    127.6749      0.0000    619.9835      4.1754      2.4783
  1858.5000    121.7118      0.0000    634.9755      4.1545      2.4589
  1858.7500    113.4055      0.0000    645.1700      4.1435      2.4392
  1859.0000    103.9953      0.0000    641.8942      4.1461      2.4192
  1859.2500     96.0882      0.0000    624.5030      4.1657      2.3980
  1859.5000     91.3404      0.0000    598.7106      4.2063      2.3675
  1859.7500     89.8040      0.0000    571.0228      4.2715      2.3069
  1860.0000     90.7772      0.0000    542.9073      4.3544      2.1919
  1860.2500     93.5377      0.0000    510.1766      4.4272      2.0194
  1860.5000     97.4364      0.0000    467.5718      4.4352      1.8214
  1860.7500    101.7877      0.0000    411.6380      4.3048      1.6469
  1861.0000    105.7318      0.0000    340.3097      3.9747      1.5280
  1861.2500    108.3992      0.0000    255.5557      3.4510      1.4652
  1861.5000    109.6542      0.0000    167.9035      2.8373      1.4394
  1861.7500    110.3676      0.0000     93.3650      2.2866      1.4311
  1862.0000    111.3186      0.0000     42.8542      1.9043      1.4290
  1862.2500    112.0507      0.0000     15.9524      1.6984      1.4286
  1862.5000    111.3204      0.0000      4.7577      1.6122   -999.2500
  1862.7500    108.4145      0.0000      1.1268      1.5841   -999.2500
  1863.0000    103.6387      0.0000      0.2086      1.5770   -999.2500
  1863.2500     97.9162      0.0000      0.0277      1.5756   -999.2500
  1863.5000     92.4072      0.0000   -999.2500   -999.2500   -999.2500
  1863.7500     88.3183      0.0000   -999.2500   -999.2500   -999.2500
  1864.0000     86.4880      0.0000   -999.2500   -999.2500   -999.2500
  1864.2500     86.8933      0.0000   -999.2500   -999.2500   -999.2500
  1864.5000     88.7010      0.0000   -999.2500   -999.2500   -999.2500
  1864.7500     90.9615      0.0000   -999.2500   -999.2500   -999.2500
  1865.0000     93.1445      0.0000   -999.2500   -999.2500   -999.2500
  1865.2500     94.9650      0.0000   -999.2500   -999.2500   -999.2500
  1865.5000     96.2004      0.0000   -999.2500   -999.2500   -999.2500
  1865.7500     97.1530      0.0000   -999.2500   -999.2500   -999.2500
  1866.0000     98.9756      0.0000   -999.2500   -999.2500   -999.2500
  1866.2500    102.8464      0.0000   -999.2500   -999.2500   -999.2500
  1866.5000    108.5534      0.0000   -999.2500   -999.2500   -999.2500
  1866.7500    114.0923      0.0000   -999.2500   -999.2500   -999.2500
  1867.0000    116.9666      0.0000   -999.2500   -999.2500   -999.2500
  1867.2500    116.0746      0.0000   -999.2500   -999.2500   -999.2500
  1867.5000    112.4520      0.0000   -999.2500   -999.2500   -999.2500
  1867.7500    108.3101      0.0000   -999.2500   -999.2500   -999.2500
  1868.0000    105.4770      0.0000   -999.2500   -999.2500   -999.2500
  1868.2500    104.5995      0.0000   -999.2500   -999.2500   -999.2500
  1868.5000    105.2609      0.0000   -999.2500   -999.2500   -999.2500
  1868.7500    106.4116      0.0000   -999.2500   -999.2500   -999.2500
  1869.0000    107.0538   -999.2500   -999.2500   -999.2500   -999.2500
  1869.2500    107.2138   -999.2500   -999.2500   -999.2500   -999.2500
  1869.5000    108.0858   -999.2500   -999.2500   -999.2500   -999.2500
  1869.7500    110.5017   -999.2500   -999.2500   -999.2500   -999.2500
  1870.0000    113.5103   -999.2500   -999.2500   -999.2500   -999.2500
  1870.2500    115.2415   -999.2500   -999.2500   -999.2500   -999.2500
  1870.5000    114.9653   -999.2500   -999.2500   -999.2500   -999.2500
  1870.7500    113.4689   -999.2500   -999.2500   -999.2500   -999.2500
  1871.0000    111.3363   -999.2500   -999.2500   -999.2500   -999.2500
  1871.2500    107.3983   -999.2500   -999.2500   -999.2500   -999.2500
  1871.5000     99.1028   -999.2500   -999.2500   -999.2500   -999.2500
  1871.7500     84.4802   -999.2500   -999.2500   -999.2500   -999.2500
  1872.0000     64.2343   -999.2500   -999.2500   -999.2500   -999.2500
  1872.2500     42.2102   -999.2500   -999.2500   -999.2500   -999.2500
  1872.5000     23.3495   -999.2500   -999.2500   -999.2500   -999.2500
  1872.7500     10.6501   -999.2500   -999.2500   -999.2500   -999.2500
  1873.0000      3.9437   -999.2500   -999.2500   -999.2500   -999.2500
  1873.2500      1.1715   -999.2500   -999.2500   -999.2500   -999.2500
  1873.5000      0.2766   -999.2500   -999.2500   -999.2500   -999.2500
  1873.7500      0.0509   -999.2500   -999.2500   -999.2500   -999.2500
  1874.0000      0.0068   -999.2500   -999.2500   -999.2500   -999.2500
  1874.2500      0.0000   -999.2500   -999.2500   -999.2500   -999.2500
