~Version Information
VERS.                      2.0: CWLS Log ASCII Standard - VERSION 2.0
WRAP.                       NO: One line per depth step
~Well Information Block
STRT.FT               390.0000: 
STOP.FT              2770.2500: 
STEP.FT                 0.2500: 
NULL.                -999.2500: 
COMP.          Pioneer Natural Resources: COMPANY
WELL.              Lynch 43-30: WELL
FLD.           Purgatoire River: FIELD
LOC.           1438' FSL & 429' FEL: LOCATION
PROV.                 Colorado: PROVINCE
CNTY.               Las Animas: COUNTRY
SRVC.                Patterson: SERVICE COMPANY
DATE.          Wed Oct 27 08:06:51 2004: LOG DATE
UWI.           05 071 08170 00: UNIQUE WELL ID
~Curve Information Block
DEPT.FT            0 000 00 00: Depth
DIR.Ohm-m                     : IEL Induction Resistivity
SN.Ohm-m                      : IEL Short Normal
SP.mV                         : IEL Spontaneous Potential
GR.GAPI                       : Gamma Ray
~Parameter Information Block
~A  Depth       DIR          SN          SP          GR     
# ...
  1629.5000     18.2148     18.1910    123.5876    110.5534
  1629.7500     18.0340     17.7777    123.7821    109.6540
  1630.0000     17.8365     17.5040    123.9875    107.5725
  1630.2500     17.6353     17.3752    124.1755    106.4932
  1630.5000     17.4434     17.3554    124.3289    106.3561
  1630.7500     17.2628     17.3713    124.4432    107.0970
  1631.0000     17.0826     17.3338    124.5234    108.3092
  1631.2500     16.8913     17.1711    124.5787    108.6719
  1631.5000     16.6911     16.8599    124.6172    108.4746
  1631.7500     16.4997     16.4354    124.6429    108.1041
  1632.0000     16.3362     15.9710    124.6554    107.7477
  1632.2500     16.2052     15.5385    124.6529    107.9439
  1632.5000     16.0942     15.1789    124.6349    109.2069
  1632.7500     15.9833     14.9036    124.6049    110.6608
  1633.0000     15.8564     14.7120    124.5697    113.3197
  1633.2500     15.7051     14.5978    124.5370    115.1004
  1633.5000     15.5272     14.5441    124.5118    117.6110
  1633.7500     15.3260     14.5243    124.4949    119.3044
  1634.0000     15.1104     14.5106    124.4829    121.9919
  1634.2500     14.8915     14.4863    124.4715    123.6278
  1634.5000     14.6770     14.4493    124.4576    124.8807
  1634.7500     14.4696     14.4061    124.4410    124.3156
  1635.0000     14.2724     14.3584    124.4239    120.9475
  1635.2500     14.0973     14.2972    124.4092    117.2801
  1635.5000     13.9655     14.2081    124.4000    110.6818
  1635.7500     13.8981     14.0821    124.4000    106.2782
  1636.0000     13.9014     13.9222    124.4147    100.9205
  1636.2500     13.9575     13.7433    124.4524     98.8835
  1636.5000     14.0262     13.5670    124.5235     99.0840
  1636.7500     14.0575     13.4060    124.6375    101.4965
  1637.0000     14.0083     13.2484    124.7988    107.2710
  1637.2500     13.8556     13.0585    125.0038    111.1248
  1637.5000     13.6004     12.7980    125.2411    114.9049
  1637.7500     13.2654     12.4506    125.4942    116.0230
  1638.0000     12.8865     12.0330    125.7468    117.1225
  1638.2500     12.5015     11.5849    125.9870    118.4058
  1638.5000     12.1372     11.1463    126.2094    121.5607
  1638.7500     11.8040     10.7382    126.4137    124.0510
  1639.0000     11.5003     10.3603    126.6022    127.1652
  1639.2500     11.2239     10.0036    126.7768    128.1861
  1639.5000     10.9799      9.6655    126.9378    127.7002
  1639.7500     10.7801      9.3542    127.0837    126.4479
  1640.0000     10.6337      9.0844    127.2125    124.7982
  1640.2500     10.5392      8.8680    127.3222    124.6274
  1640.5000     10.4839      8.7057    127.4114    125.6974
  1640.7500     10.4503      8.5830    127.4804    126.6933
  1641.0000     10.4245      8.4798    127.5312    128.0259
  1641.2500     10.4006      8.3839    127.5682    128.9321
  1641.5000     10.3771      8.2965    127.5973    130.1156
  1641.7500     10.3523      8.2226    127.6257    129.9667
  1642.0000     10.3207      8.1588    127.6604    126.9656
  1642.2500     10.2749      8.0946    127.7075    123.4191
  1642.5000     10.2087      8.0240    127.7710    118.3609
  1642.7500     10.1196      7.9569    127.8523    116.8256
  1643.0000     10.0087      7.9183    127.9495    118.4255
  1643.2500      9.8793      7.9333    128.0570    121.4551
  1643.5000      9.7371      8.0050    128.1667    126.4721
  1643.7500      9.5917      8.1021    128.2686    128.8134
  1644.0000      9.4574      8.1721    128.3533    130.2576
  1644.2500      9.3483      8.1683    128.4145    130.4788
  1644.5000      9.2708      8.0700    128.4506    130.9734
  1644.7500      9.2187      7.8841    128.4657    131.6539
  1645.0000      9.1776      7.6404    128.4685    132.9984
  1645.2500      9.1331      7.3882    128.4685    133.9632
  1645.5000      9.0781      7.1891    128.4726    135.1684
  1645.7500      9.0138      7.0985    128.4811    135.4576
  1646.0000      8.9481      7.1454    128.4872    134.7327
  1646.2500      8.8913      7.3262    128.4790    133.7428
  1646.5000      8.8543      7.6091    128.4439    132.7215
  1646.7500      8.8469      7.9436    128.3722    132.9837
  1647.0000      8.8799      8.2789    128.2590    134.6518
  1647.2500      8.9688      8.5961    128.1041    135.6485
  1647.5000      9.1358      8.9403    127.9092    134.7114
  1647.7500      9.4088      9.4254    127.6740    131.5995
  1648.0000      9.8170     10.2014    127.3938    123.1698
  1648.2500     10.3846     11.3997    127.0608    115.6103
  1648.5000     11.1256     13.0954    126.6672    102.7056
  1648.7500     12.0421     15.3120    126.2130     94.0262
  1649.0000     13.1266     18.0569    125.7112     82.9146
  1649.2500     14.3674     21.3297    125.1901     77.9099
  1649.5000     15.7503     25.0571    124.6881     75.0190
  1649.7500     17.2517     28.9991    124.2441     75.9843
  1650.0000     18.8185     32.7490    123.8873     80.3661
  1650.2500     20.3416     35.8764    123.6297     84.1308
  1650.5000     21.6477     38.1063    123.4653     89.4201
  1650.7500     22.5477     39.3907    123.3727     92.3089
  1651.0000     22.9351     39.8564    123.3202     95.9536
  1651.2500     22.8596     39.7185    123.2690     98.1717
  1651.5000     22.5026     39.2190    123.1765    100.9110
  1651.7500     22.0801     38.5895    122.9989    101.7653
  1652.0000     21.7576     38.0228    122.6977    100.3577
  1652.2500     21.6125     37.6574    122.2486     96.9961
  1652.5000     21.6387     37.5884    121.6525     87.8219
  1652.7500     21.7768     37.8926    120.9432     79.3803
  1653.0000     21.9535     38.6214    120.1872     65.5035
  1653.2500     22.1059     39.7295    119.4707     57.2097
  1653.5000     22.1710     40.9813    118.8786     48.5536
  1653.7500     22.0590     41.9318    118.4719     45.9433
  1654.0000     21.6550     42.0499    118.2734     47.0567
  1654.2500     20.8740     40.9470    118.2681     51.1096
  1654.5000     19.7282     38.5696    118.4155     61.5590
  1654.7500     18.3399     35.2195    118.6669     70.6496
  1655.0000     16.8809     31.3898    118.9791     85.6845
  1655.2500     15.4944     27.5495    119.3198     95.6444
  1655.5000     14.2561     24.0126    119.6667    108.9706
  1655.7500     13.1812     20.9184    120.0026    115.9030
  1656.0000     12.2536     18.2756    120.3130    122.2051
  1656.2500     11.4533     16.0262    120.5853    123.6588
  1656.5000     10.7712     14.1080    120.8111    123.2873
  1656.7500     10.2084     12.4931    120.9882    122.8283
  1657.0000      9.7668     11.1884    121.1216    124.0544
  1657.2500      9.4391     10.2049    121.2224    126.7671
  1657.5000      9.2051      9.5219    121.3050    133.7069
  1657.7500      9.0335      9.0727    121.3836    140.0100
  1658.0000      8.8896      8.7649    121.4680    151.1948
  1658.2500      8.7440      8.5225    121.5620    158.7422
  1658.5000      8.5791      8.3191    121.6629    167.1374
  1658.7500      8.3904      8.1768    121.7639    168.9321
  1659.0000      8.1833      8.1305    121.8586    164.5130
  1659.2500      7.9665      8.1846    121.9444    157.5806
  1659.5000      7.7492      8.3008    122.0232    144.5267
  1659.7500      7.5405      8.4279    122.0972    136.2264
  1660.0000      7.3517      8.5489    122.1651    126.8196
  1660.2500      7.1974      8.7024    122.2194    122.7892
  1660.5000      7.0935      8.9495    122.2482    118.6978
  1660.7500      7.0544      9.3126    122.2397    116.2204
  1661.0000      7.0904      9.7362    122.1872    112.3181
  1661.2500      7.2054     10.1083    122.0911    110.1828
  1661.5000      7.3963     10.3173    121.9596    108.9517
  1661.7500      7.6549     10.3005    121.8091    109.5287
  1662.0000      7.9721     10.0628    121.6630    111.3082
  1662.2500      8.3426      9.6791    121.5482    112.1726
  1662.5000      8.7665      9.2913    121.4876    111.9102
  1662.7500      9.2436      9.0843    121.4915    110.5122
