~Version Information
VERS.                      2.0: CWLS Log ASCII Standard - VERSION 2.0
WRAP.                       NO: One line per depth step
~Well Information Block
STRT.FT                -7.0000: 
STOP.FT              1656.2500: 
STEP.FT                 0.2500: 
NULL.                -999.2500: 
COMP.          Pioneer Natural Resources: COMPANY
WELL.               Elmo 14-21: WELL
FLD.           Purgatorie River: FIELD
LOC.           623' FSL & 450' FWL--: LOCATION
PROV.                       CO: PROVINCE
CNTY.               Las Animas: COUNTRY
SRVC.          Patterson Wireline: SERVICE COMPANY
DATE.          Mon Jun 27 15:45:41 2005: LOG DATE
UWI.           05 071 08360 00: UNIQUE WELL ID
~Curve Information Block
DEPT.FT            0 000 00 00: Depth
CCL.                          : Casing Collar Locator
TT3.usec                      : CBL 3' Travel Time
AMP3.mV                       : CBL 3' Amplitude
GR.GAPI                       : Gamma Ray
~Parameter Information Block
~A  Depth       CCL         TT3         AMP3         GR     
# ...
  1299.5000      0.0000    659.6885      4.6128     93.9013
  1299.7500      0.0000    627.9293      4.4429     91.8249
  1300.0000      0.0000    580.6385      4.3941     87.6492
  1300.2500      0.0000    530.8087      4.4603     81.6949
  1300.5000      0.0000    494.1481      4.5298     75.1025
  1300.7500      0.0000    478.6690      4.5266     68.8554
  1301.0000      0.0000    479.3171      4.4784     63.3536
  1301.2500      0.0000    484.1320      4.4514     58.8909
  1301.5000      0.0000    486.6711      4.4481     56.0805
  1301.7500      0.0000    490.3542      4.3932     55.4944
  1302.0000      0.0000    499.2638      4.2257     57.0135
  1302.2500      0.0000    508.2474      3.9926     59.7479
  1302.5000      0.0000    506.4934      3.8300     62.5070
  1302.7500      0.0000    489.6979      3.8376     64.2377
  1303.0000      0.0000    465.2068      3.9763     64.3301
  1303.2500      0.0000    446.3334      4.0894     62.8234
  1303.5000      2.0000    444.8965      4.0234     60.2850
  1303.7500      2.0000    467.1254      3.7451     57.4760
  1304.0000      0.0000    510.5974      3.3683     55.1579
  1304.2500      0.0000    563.1675      3.0821     53.9512
  1304.5000      0.0000    607.9869      3.0268     54.2477
  1304.7500      0.0000    632.7480      3.1995     56.3236
  1305.0000      0.0000    635.7989      3.4560     60.2073
  1305.2500      0.0000    625.0665      3.6218     65.1844
  1305.5000      0.0000    611.5590      3.6315     69.8354
  1305.7500      0.0000    602.4983      3.5787     72.9909
  1306.0000      0.0000    599.7604      3.6316     74.3815
  1306.2500      0.0000    603.1896      3.8884     74.2166
  1306.5000      0.0000    612.5239      4.2942     72.7926
  1306.7500      0.0000    626.2903      4.6907     70.7807
  1307.0000      0.0000    641.2406      4.9530     69.1162
  1307.2500      0.0000    652.6208      5.0741     68.0257
  1307.5000      0.0000    653.9873      5.1176     66.7330
  1307.7500      0.0000    639.0959      5.1125     64.6824
  1308.0000      0.0000    606.9890      5.0272     62.5318
  1308.2500      0.0000    565.7454      4.8384     61.3212
  1308.5000      0.0000    529.8920      4.6033     61.0914
  1308.7500      0.0000    511.7580      4.4463     61.0349
  1309.0000      0.0000    512.8299      4.4657     60.8378
  1309.2500      0.0000    522.6896      4.6391     61.0910
  1309.5000      0.0000    527.1467      4.8274     62.1209
  1309.7500      0.0000    517.7914      4.8841     63.0503
  1310.0000      0.0000    495.0684      4.7711     62.6135
  1310.2500      0.0000    465.5745      4.5822     60.6030
  1310.5000      0.0000    437.8072      4.4549     57.9422
  1310.7500      0.0000    417.7397      4.4453     55.5671
  1311.0000      0.0000    406.0220      4.4856     53.8731
  1311.2500      0.0000    399.6084      4.4715     53.1092
  1311.5000      0.0000    396.0497      4.3783     53.6147
  1311.7500      0.0000    395.4160      4.2746     55.4270
  1312.0000      0.0000    398.4255      4.2347     57.9425
  1312.2500      0.0000    404.1817      4.2623     60.1507
  1312.5000      0.0000    410.3918      4.2991     61.2336
  1312.7500      0.0000    415.1557      4.2968     61.0427
  1313.0000      0.0000    418.0270      4.2698     60.0482
  1313.2500      0.0000    419.5744      4.2671     58.6994
  1313.5000      0.0000    420.5144      4.3007     56.8287
  1313.7500      0.0000    421.3286      4.3233     53.9474
  1314.0000      0.0000    422.5468      4.2900     50.1390
  1314.2500      0.0000    425.5237      4.2205     46.2588
  1314.5000      0.0000    433.4500      4.1715     43.1147
  1314.7500      0.0000    451.2958      4.1478     40.7578
  1315.0000      0.0000    482.4660      4.0857     38.8087
  1315.2500      0.0000    522.5398      3.9536     37.2274
  1315.5000      0.0000    556.6370      3.8312     36.4481
  1315.7500      0.0000    567.2584      3.8348     36.9113
  1316.0000      0.0000    548.2679      3.9769     38.7823
  1316.2500      0.0000    511.1866      4.1548     41.9839
  1316.5000      0.0000    477.4564      4.2811     46.1014
  1316.7500      0.0000    464.8275      4.3659     50.2017
  1317.0000      0.0000    477.9919      4.4489     53.0621
  1317.2500      0.0000    506.3445      4.5112     53.8451
  1317.5000      0.0000    529.5424      4.5106     52.7495
  1317.7500      0.0000    530.7307      4.4709     51.1226
  1318.0000      0.0000    508.7518      4.4629     50.6498
  1318.2500      0.0000    477.2043      4.5031     52.0325
  1318.5000      0.0000    452.1462      4.5369     54.5344
  1318.7500      0.0000    443.0139      4.5405     56.8993
  1319.0000      0.0000    453.2684      4.5728     58.3742
  1319.2500      0.0000    482.7631      4.6844     58.7362
  1319.5000      0.0000    524.6417      4.8168     57.8977
  1319.7500      0.0000    562.3479      4.8477     56.0610
  1320.0000      0.0000    577.0074      4.7317     54.2382
  1320.2500      0.0000    563.1368      4.5576     54.1884
  1320.5000      0.0000    536.4473      4.4544     57.5310
  1320.7500      0.0000    522.3985      4.4567     64.7634
  1321.0000      0.0000    535.1260      4.4904     74.9412
  1321.2500      0.0000    567.4985      4.4849     86.0728
  1321.5000      0.0000    599.7272      4.4534     95.7881
  1321.7500      0.0000    614.4079      4.4444    102.1451
  1322.0000      0.0000    604.4594      4.4589    104.4998
  1322.2500      0.0000    573.2834      4.4673    103.7782
  1322.5000      0.0000    531.8380      4.4768    101.5851
  1322.7500      0.0000    493.2640      4.5169     99.0236
  1323.0000      0.0000    466.0970      4.5690     96.5664
  1323.2500      0.0000    451.2470      4.5747     94.7170
  1323.5000      0.0000    444.7708      4.5233     94.1021
  1323.7500      0.0000    442.3669      4.4783     94.7714
  1324.0000      0.0000    441.4800      4.4937     95.9025
  1324.2500      0.0000    441.0565      4.5442     96.5733
  1324.5000      0.0000    440.7410      4.5735     96.7437
  1324.7500      0.0000    440.4043      4.5843     97.2636
  1325.0000      0.0000    439.9049      4.6285     98.9888
  1325.2500      0.0000    438.9263      4.7055    101.9266
  1325.5000      0.0000    437.0330      4.7264    105.0037
  1325.7500      0.0000    434.1291      4.6133    106.6801
  1326.0000      0.0000    430.9039      4.4097    106.1885
  1326.2500      0.0000    428.5066      4.2522    104.2330
  1326.5000      0.0000    427.4844      4.2275    102.0466
  1326.7500      0.0000    427.2066      4.2835     99.7474
  1327.0000      0.0000    426.5328      4.2954     96.1243
  1327.2500      0.0000    424.8335      4.2064     90.1914
  1327.5000      0.0000    422.1610      4.0883     82.5326
  1327.7500      0.0000    418.9767      4.0580     74.9277
  1328.0000      0.0000    416.4457      4.1423     69.0837
  1328.2500      0.0000    417.1487      4.2485     65.8968
  1328.5000      0.0000    424.3076      4.2828     65.3422
  1328.7500      0.0000    438.3878      4.2710     66.4483
  1329.0000      0.0000    454.2535      4.3245     67.5675
  1329.2500      0.0000    464.1146      4.4968     67.3278
  1329.5000      0.0000    465.6925      4.7108     65.6531
  1329.7500      0.0000    466.0668      4.8426     63.7369
  1330.0000      0.0000    475.0959      4.8602     62.8354
  1330.2500      0.0000    495.2953      4.8511     63.1673
  1330.5000      0.0000    519.6035      4.9075     64.1549
  1330.7500      0.0000    537.8948      5.0141     65.3788
  1331.0000      0.0000    543.3397      5.0702     66.6115
  1331.2500      0.0000    533.3701      5.0092     67.1597
  1331.5000      0.0000    509.2064      4.8733     66.2356
  1331.7500      0.0000    477.7899      4.7725     64.2137
  1332.0000      0.0000    452.2943      4.7800     62.7692
  1332.2500      0.0000    446.3914      4.8665     63.2631
  1332.5000      0.0000    464.6389      4.9325     65.1522
  1332.7500      0.0000    496.7247      4.9058     66.3780
