~Version Information
VERS.                      2.0: CWLS Log ASCII Standard - VERSION 2.0
WRAP.                       NO: One line per depth step
~Well Information Block
STRT.FT                -7.7500: 
STOP.FT              2394.2500: 
STEP.FT                 0.2500: 
NULL.                -999.2500: 
COMP.      PIONEER NATURAL RESOURCES  : COMPANY
WELL.         NOMAD 32-10  : WELL
FLD.                          : FIELD
LOC.      SWNE 10 32S 66W 6PM : LOCATION
PROV.                         : PROVINCE
CNTY.                         : COUNTRY
SRVC.                         : SERVICE COMPANY
DATE.          Thu Aug 26 13:45:47 2004: LOG DATE
UWI.      005 071 08127  : UNIQUE WELL ID
~Curve Information Block
DEPT.FT            0 000 00 00: Depth
CCL.                          : Casing Collar Locator
TT3.usec                      : CBL 3' Travel Time
AMP3.mV                       : CBL 3' Amplitude
GR.GAPI                       : Gamma Ray
~Parameter Information Block
~A  Depth       CCL         TT3         AMP3         GR     
# ...
  1265.2500      0.0000    736.2951      5.7297    119.8890
  1265.5000      0.0000    727.0699      5.6112    132.4248
  1265.7500      0.0000    719.1331      5.4694    142.2568
  1266.0000      0.0000    713.9618      5.2701    147.2894
  1266.2500      0.0000    711.9747      5.0791    146.9859
  1266.5000      0.0000    713.2647      4.9625    143.0065
  1266.7500      0.0000    717.4258      4.8780    138.0920
  1267.0000      0.0000    723.1116      4.7122    133.9142
  1267.2500      0.0000    728.3743      4.4240    130.1013
  1267.5000      0.0000    731.6718      4.1118    125.2920
  1267.7500      0.0000    732.4994      3.9140    119.0494
  1268.0000      0.0000    731.1250      3.8606    113.0781
  1268.2500      0.0000    727.9833      3.8531    110.8141
  1268.5000      0.0000    723.4628      3.7900    115.2743
  1268.7500      0.0000    718.2333      3.6795    126.3413
  1269.0000      0.0000    713.7902      3.6131    139.8685
  1269.2500      0.0000    712.3810      3.6458    149.9905
  1269.5000      0.0000    715.6639      3.7309    152.8348
  1269.7500      0.0000    723.0773      3.7856    148.3649
  1270.0000      0.0000    732.0732      3.8043    139.4519
  1270.2500      0.0000    740.1139      3.8833    129.9701
  1270.5000      0.0000    745.5260      4.1153    123.3846
  1270.7500      0.0000    746.1793      4.4673    121.7220
  1271.0000      0.0000    738.6691      4.7805    124.9003
  1271.2500      0.0000    720.0816      4.9060    130.8699
  1271.5000      0.0000    690.9612      4.8364    136.7254
  1271.7500      0.0000    656.4548      4.7024    140.3980
  1272.0000      0.0000    624.1948      4.6428    141.9177
  1272.2500      0.0000    600.7761      4.6772    143.0072
  1272.5000      0.0000    590.0023      4.7080    145.0827
  1272.7500      0.0000    593.0760      4.6424    147.7614
  1273.0000      0.0000    608.4777      4.5043    149.5733
  1273.2500      0.0000    631.4305      4.4140    149.7841
  1273.5000      0.0000    655.2255      4.4559    149.1160
  1273.7500      0.0000    673.8603      4.5791    148.8050
  1274.0000      0.0000    683.1589      4.6431    149.3016
  1274.2500      0.0000    680.4402      4.5610    150.0724
  1274.5000      0.0000    665.2576      4.3910    150.5524
  1274.7500      0.0000    640.8121      4.2757    150.8220
  1275.0000      0.0000    613.7045      4.2961    151.1942
  1275.2500      0.0000    591.4733      4.3929    151.6730
  1275.5000      0.0000    578.6820      4.4319    152.1454
  1275.7500      0.0000    573.5231      4.3414    152.6285
  1276.0000      0.0000    569.1078      4.1872    152.9646
  1276.2500      0.0000    560.1196      4.1114    152.5017
  1276.5000      0.0000    548.0126      4.1912    150.5322
  1276.7500      0.0000    539.0292      4.3601    147.3288
  1277.0000      0.0000    538.4674      4.4714    144.5432
  1277.2500      0.0000    547.2755      4.4425    144.0964
  1277.5000      0.0000    562.3358      4.3329    146.4856
  1277.7500      0.0000    578.9764      4.2830    150.3273
  1278.0000      0.0000    594.3133      4.3826    153.6508
  1278.2500      0.0000    608.8653      4.5952    155.5860
  1278.5000      0.0000    624.2921      4.7920    156.7059
  1278.7500      0.0000    639.1831      4.8452    157.6851
  1279.0000      0.0000    647.9108      4.7148    157.9443
  1279.2500      0.0000    644.6938      4.4810    156.1752
  1279.5000      0.0000    629.1610      4.2989    152.0534
  1279.7500      0.0000    607.7430      4.2906    146.8325
  1280.0000      0.0000    589.5707      4.4500    142.2190
  1280.2500      0.0000    580.7222      4.6433    138.9804
  1280.5000      0.0000    581.2994      4.7104    136.6305
  1280.7500      0.0000    586.7355      4.5922    134.1751
  1281.0000      0.0000    591.3215      4.3841    131.1520
  1281.2500      0.0000    591.0493      4.2665    128.2259
  1281.5000      0.0000    584.7474      4.3602    126.9221
  1281.7500      0.0000    574.1006      4.6291    128.4555
  1282.0000      0.0000    562.5500      4.9163    132.3688
  1282.2500      0.0000    552.8736      5.0727    136.3223
  1282.5000      0.0000    545.3051      5.0518    137.7166
  1282.7500      0.0000    538.4349      4.9107    135.9293
  1283.0000      0.0000    531.6728      4.7634    132.8151
  1283.2500      0.0000    526.1697      4.7301    130.9876
  1283.5000      0.0000    523.6634      4.8697    131.9098
  1283.7500      0.0000    525.2161      5.1211    135.4755
  1284.0000      0.0000    530.8196      5.3227    140.7142
  1284.2500      0.0000    539.1995      5.3185    146.6298
  1284.5000      0.0000    547.7643      5.0617    152.5813
  1284.7500      0.0000    553.5692      4.6398    157.8595
  1285.0000      0.0000    554.9665      4.2210    161.1674
  1285.2500      0.0000    552.3491      3.9676    161.1872
  1285.5000      0.0000    547.4776      3.9605    158.0331
  1285.7500      0.0000    542.7604      4.1707    153.8068
  1286.0000      0.0000    541.1394      4.4855    151.2784
  1286.2500      0.0000    545.7943      4.7659    151.7241
  1286.5000      0.0000    559.0409      4.8975    153.8484
  1286.7500      0.0000    580.9855      4.8215    154.7344
  1287.0000      0.0000    609.0261      4.5512    151.8627
  1287.2500      0.0000    639.0892      4.1757    144.5022
  1287.5000      0.0000    667.8859      3.8362    133.7396
  1287.7500      0.0000    693.8979      3.6701    121.6524
  1288.0000      0.0000    716.0127      3.7467    110.2533
  1288.2500      0.0000    731.9058      4.0403    100.5219
  1288.5000      0.0000    738.4750      4.4472     92.0098
  1288.7500      0.0000    734.4849      4.8121     83.6483
  1289.0000      0.0000    723.4899      4.9619     75.1941
  1289.2500      0.0000    713.7991      4.7928     67.5954
  1289.5000      0.0000    713.1545      4.3730     61.8113
  1289.7500      0.0000    721.7122      3.9328     57.6710
  1290.0000      0.0000    731.6641      3.7160     54.1059
  1290.2500      0.0000    735.6334      3.8277     50.1749
  1290.5000     -2.0000    734.1107      4.1988     45.7569
  1290.7500     -2.0000    733.2986      4.6494     41.5019
  1291.0000      0.0000    737.4539      4.9929     38.1398
  1291.2500      0.0000    745.0871      5.1289     35.8243
  1291.5000      0.0000    751.2736      5.0676     34.2885
  1291.7500      0.0000    751.7904      4.8661     33.4372
  1292.0000      0.0000    745.4164      4.5573     33.3707
  1292.2500      0.0000    733.9955      4.1638     33.9636
  1292.5000      0.0000    721.0979      3.7570     34.9267
  1292.7500      0.0000    710.5128      3.4552     36.4958
  1293.0000      0.0000    705.2725      3.3523     39.6770
  1293.2500      0.0000    707.1888      3.4610     45.2649
  1293.5000      0.0000    716.5162      3.7198     52.5854
  1293.7500      0.0000    731.7131      4.0378     59.7443
  1294.0000      0.0000    749.4101      4.3338     65.3644
  1294.2500      0.0000    764.7585      4.5522     69.8201
  1294.5000      0.0000    772.3739      4.6574     74.8261
  1294.7500      0.0000    767.9636      4.6272     82.1359
  1295.0000      0.0000    750.5717      4.4575     92.3307
  1295.2500      0.0000    724.7875      4.1724    104.3418
  1295.5000      0.0000    700.6578      3.8267    116.2039
  1295.7500      0.0000    688.6538      3.4967    126.3389
  1296.0000      0.0000    691.6121      3.2605    133.9229
  1296.2500      0.0000    701.0547      3.1741    138.5390
  1296.5000      0.0000    702.7220      3.2526    140.3690
  1296.7500      0.0000    686.8115      3.4737    140.5111
  1297.0000      0.0000    654.1027      3.7951    140.2665
  1297.2500      0.0000    614.1863      4.1651    140.1825
  1297.5000      0.0000    578.9437      4.5206    140.1084
  1297.7500      0.0000    556.7423      4.7946    139.6001
  1298.0000      0.0000    550.5900      4.9359    138.1089
  1298.2500      0.0000    559.4120      4.9245    135.5551
  1298.5000      0.0000    579.5972      4.7694    132.8478
