~Version Information
 VERS.                      2.0: CWLS Log ASCII Standard - VERSION 2.0
 WRAP.                       NO: One line per depth step
 ~Well Information Block
 STRT.FT               887.5000: 
 STOP.FT              2605.5000: 
 STEP.FT                 0.2500: 
 NULL.                -999.2500: 
 COMP.          Petrogulf Corporation: COMPANY
 WELL.               YWAM 7-23V: WELL
 FLD.           Purgatorie River: FIELD
 LOC.           230' FSL & 225' FWL: LOCATION
 CNTY.               Las Animas: COUNTY
 SRVC.                         : SERVICE COMPANY
 DATE.          Sat Oct 30 08:34:45 2004: LOG DATE
 UWI.           05 071 08227 00: UNIQUE WELL ID
 STAT.                 Colorado: STATE
 PROV.                         :Province
 ~Curve Information Block
 DEPT.FT            0 000 00 00: Depth
 SP.mV                         : DIL Spontaneous Potential
 RILD.Ohm-m                    : DIL Deep Resistivity
 RILM.Ohm-m                    : DIL Medium Resistivity
 RLL3.Ohm-m                    : DIL Shallow Resistivity
 GR.GAPI                       : Gamma Ray
 ~Parameter Information Block
 ~A  Depth        SP         RILD        RILM        RLL3         GR     
# ...
  1363.5000   -168.2681     13.6173     14.1497     18.2283    143.9907
  1363.7500   -166.5492     14.0682     14.6804     19.3975    144.8276
  1364.0000   -164.9227     14.5467     15.2825     21.2653    144.0159
  1364.2500   -163.4419     15.0595     15.9749     23.9254    141.4926
  1364.5000   -162.1504     15.6125     16.7705     27.3628    134.3278
  1364.7500   -161.0860     16.2103     17.6756     31.4276    127.5057
  1365.0000   -160.2905     16.8553     18.6877     35.8459    115.2912
  1365.2500   -159.8108     17.5473     19.7976     40.2716    106.8687
  1365.5000   -159.6843     18.2830     20.9896     44.3660     95.6017
  1365.7500   -159.9300     19.0560     22.2462     47.8764     89.5051
  1366.0000   -160.5230     19.8575     23.5517     50.6869     82.2789
  1366.2500   -161.3963     20.6755     24.8954     52.8291     78.3838
  1366.5000   -162.4402     21.4957     26.2716     54.4598     73.5786
  1366.7500   -163.5190     22.2974     27.6772     55.8257     71.1621
  1367.0000   -164.4961     23.0529     29.1039     57.2287     69.1111
  1367.2500   -165.2614     23.7220     30.5297     58.9946     68.8024
  1367.5000   -165.7481     24.2540     31.9095     61.4330     69.3448
  1367.7500   -165.9474     24.5911     33.1678     64.7754     69.9658
  1368.0000   -165.8977     24.6788     34.1976     69.0915     70.8002
  1368.2500   -165.6726     24.4812     34.8695     74.2010     70.9729
  1368.5000   -165.3627     23.9937     35.0543     79.6214     69.9685
  1368.7500   -165.0579     23.2473     34.6545     84.5902     68.3370
  1369.0000   -164.8371     22.3019     33.6382     88.1832     65.2472
  1369.2500   -164.7721     21.2308     32.0569     89.5130     63.5529
  1369.5000   -164.9262     20.1051     30.0380     87.9558     62.6038
  1369.7500   -165.3530     18.9823     27.7531     83.3304     63.3557
  1370.0000   -166.0852     17.9013     25.3773     75.9672     67.0898
  1370.2500   -167.1109     16.8840     23.0564     66.6386     71.7402
  1370.5000   -168.3568     15.9389     20.8919     56.3725     82.5251
  1370.7500   -169.6747     15.0666     18.9402     46.2148     92.1955
  1371.0000   -170.8650     14.2636     17.2227     37.0186    109.2375
  1371.2500   -171.7148     13.5259     15.7371     29.3171    120.9674
  1371.5000   -172.0506     12.8504     14.4674     23.3018    136.4913
  1371.7500   -171.7964     12.2365     13.3920     18.8863    144.3433
  1372.0000   -170.9924     11.6851     12.4885     15.8136    151.8711
  1372.2500   -169.7883     11.1982     11.7360     13.7636    154.4563
  1372.5000   -168.4116     10.7783     11.1170     12.4310    155.8784
  1372.7500   -167.1047     10.4271     10.6172     11.5691    155.8418
  1373.0000   -166.0804     10.1453     10.2252     11.0014    155.0714
  1373.2500   -165.4763      9.9319      9.9325     10.6175    154.3517
  1373.5000   -165.3415      9.7844      9.7324     10.3598    153.2661
  1373.7500   -165.6431      9.6983      9.6193     10.2094    152.6433
  1374.0000   -166.2930      9.6675      9.5885     10.1704    151.8717
  1374.2500   -167.1834      9.6845      9.6352     10.2557    151.2741
  1374.5000   -168.2143      9.7409      9.7542     10.4729    149.5676
  1374.7500   -169.3178      9.8278      9.9394     10.8149    147.5993
  1375.0000   -170.4501      9.9371     10.1832     11.2574    143.8566
  1375.2500   -171.5759     10.0621     10.4763     11.7636    141.5475
  1375.5000   -172.6482     10.1980     10.8078     12.2957    139.2506
  1375.7500   -173.5950     10.3424     11.1648     12.8264    138.4520
  1376.0000   -174.3244     10.4946     11.5333     13.3456    137.8211
  1376.2500   -174.7574     10.6546     11.8981     13.8569    137.7581
  1376.5000   -174.8620     10.8219     12.2442     14.3655    138.7129
  1376.7500   -174.6792     10.9940     12.5572     14.8612    140.0008
  1377.0000   -174.3334     11.1659     12.8249     15.3074    141.3251
  1377.2500   -174.0036     11.3299     13.0379     15.6429    140.6152
  1377.5000   -173.8779     11.4753     13.1901     15.7982    136.9609
  1377.7500   -174.0931     11.5902     13.2787     15.7223    134.1412
  1378.0000   -174.6895     11.6623     13.3041     15.4063    132.2525
  1378.2500   -175.5950     11.6812     13.2687     14.8938    133.2732
  1378.5000   -176.6427     11.6396     13.1765     14.2702    137.1633
  1378.7500   -177.6210     11.5350     13.0322     13.6371    140.1870
  1379.0000   -178.3438     11.3703     12.8404     13.0815    144.1898
  1379.2500   -178.6994     11.1533     12.6059     12.6546    146.3796
  1379.5000   -178.6866     10.8960     12.3336     12.3661    148.7681
  1379.7500   -178.4115     10.6123     12.0284     12.1936    149.4745
  1380.0000   -178.0431     10.3167     11.6960     12.0986    149.2533
  1380.2500   -177.7552     10.0222     11.3426     12.0409    148.9695
  1380.5000   -177.6749      9.7393     10.9751     11.9855    150.0017
  1380.7500   -177.8389      9.4756     10.6009     11.9052    152.0806
  1381.0000   -178.1904      9.2354     10.2277     11.7801    156.5282
  1381.2500   -178.5943      9.0206      9.8631     11.5986    159.4572
  1381.5000   -178.8843      8.8310      9.5142     11.3596    162.3768
  1381.7500   -178.9026      8.6651      9.1871     11.0721    162.8982
  1382.0000   -178.5425      8.5210      8.8873     10.7533    161.5399
  1382.2500   -177.7673      8.3966      8.6190     10.4241    159.6111
  1382.5000   -176.6047      8.2902      8.3857     10.1060    156.3461
  1382.7500   -175.1284      8.2008      8.1895      9.8195    154.4645
  1383.0000   -173.4276      8.1280      8.0318      9.5844    151.8064
  1383.2500   -171.5867      8.0716      7.9130      9.4205    149.2631
  1383.5000   -169.6745      8.0316      7.8325      9.3441    142.8574
  1383.7500   -167.7542      8.0074      7.7888      9.3638    136.8547
  1384.0000   -165.9052      7.9980      7.7791      9.4747    126.8981
  1384.2500   -164.2323      8.0013      7.7995      9.6564    121.0313
  1384.5000   -162.8725      8.0150      7.8451      9.8755    115.2854
  1384.7500   -161.9768      8.0364      7.9103     10.0937    113.8614
  1385.0000   -161.6810      8.0632      7.9890     10.2760    114.5949
  1385.2500   -162.0715      8.0940      8.0754     10.3987    116.0666
  1385.5000   -163.1619      8.1287      8.1651     10.4527    118.3377
  1385.7500   -164.8795      8.1686      8.2551     10.4440    119.5856
  1386.0000   -167.0824      8.2162      8.3447     10.3905    121.3058
  1386.2500   -169.5822      8.2748      8.4352     10.3176    122.5279
  1386.5000   -172.1729      8.3477      8.5291     10.2536    124.1868
  1386.7500   -174.6585      8.4381      8.6301     10.2259    124.7727
  1387.0000   -176.8658      8.5486      8.7422     10.2562    124.5859
  1387.2500   -178.6557      8.6810      8.8696     10.3561    124.0009
  1387.5000   -179.9217      8.8370      9.0169     10.5249    122.8665
  1387.7500   -180.5887      9.0178      9.1892     10.7503    121.7306
  1388.0000   -180.6146      9.2248      9.3931     11.0153    118.4548
  1388.2500   -179.9940      9.4601      9.6368     11.3104    114.8867
  1388.5000   -178.7676      9.7265      9.9303     11.6469    108.3757
  1388.7500   -177.0235     10.0270     10.2854     12.0668    104.4873
  1389.0000   -174.8988     10.3649     10.7147     12.6417    100.9649
  1389.2500   -172.5772     10.7426     11.2313     13.4573    100.2240
  1389.5000   -170.2720     11.1606     11.8471     14.5906    100.7260
  1389.7500   -168.2108     11.6162     12.5722     16.0870    101.8043
  1390.0000   -166.6100     12.1021     13.4124     17.9489    104.4928
  1390.2500   -165.6477     12.6063     14.3683     20.1380    106.9280
  1390.5000   -165.4339     13.1115     15.4322     22.5922    110.7188
  1390.7500   -165.9893     13.5977     16.5862     25.2434    112.4857
  1391.0000   -167.2320     14.0447     17.7994     28.0259    112.6811
  1391.2500   -168.9802     14.4357     19.0246     30.8711    110.9748
