~Version Information
VERS.                      2.0: CWLS Log ASCII Standard - VERSION 2.0
WRAP.                       NO: One line per depth step
~Well Information Block
STRT.FT               318.1000: 
STOP.FT              2688.0000: 
STEP.FT                 0.1000: 
NULL.                -999.2500: 
COMP.          Petrogulf Corporation: COMPANY
WELL.            Montoya 1-24V: WELL
FLD.           Purgatorie River: FIELD
LOC.           605' FSL & 2557' FWL: LOCATION
CNTY.               Las Animas: COUNTY
SRVC.                         : SERVICE COMPANY
DATE.          Wed Oct 20 14:56:37 2004: LOG DATE
UWI.           05 071 08194 00: UNIQUE WELL ID
STAT.                 Colorado: STATE
~Curve Information Block
DEPT.FT            0 000 00 00: Depth
DCAL.in                       : CDL Caliper
RHOB.g/cc                     : CDL Bulk Density
RHOC.g/cc                     : CDL Density Correction
DPOR.pu                       : CDL Density Porosity
GR.GAPI                       : Gamma Ray
NPOR.pu                       : Neutron Porosity
~Parameter Information Block
~A  Depth       DCAL        RHOB        RHOC        DPOR         GR         NPOR    
# ...
  1892.5000      7.8199      2.6841      0.1942     -2.0687     86.0344     26.5323
  1892.6000      7.8199      2.6786      0.1980     -1.7331     86.2618     25.7679
  1892.7000      7.8199      2.6599      0.1391     -0.6010     86.6422     25.2545
  1892.8000      7.7996      2.6429      0.1449      0.4317     83.9803     25.2252
  1892.9000      7.7996      2.6279      0.1043      1.3365     75.4369     25.2395
  1893.0000      7.8222      2.6213      0.0327      1.7395     66.6647     25.4096
  1893.1000      7.8222      2.6296      0.0795      1.2379     62.7290     26.1487
  1893.2000      7.8222      2.6367      0.0786      0.8087     61.9274     26.7395
  1893.3000      7.8066      2.6285      0.0396      1.3036     63.7675     26.4396
  1893.4000      7.8066      2.6142      0.0309      2.1712     67.6347     25.6630
  1893.5000      7.8617      2.6099      0.0184      2.4274     70.9358     24.7272
  1893.6000      7.8617      2.6222      0.0486      1.6870     73.2601     23.9227
  1893.7000      7.8617      2.6390      0.0858      0.6688     76.2552     23.7772
  1893.8000      7.9012      2.6439      0.1266      0.3684     80.1832     24.1651
  1893.9000      7.9012      2.6395      0.1407      0.6376     85.2678     24.7970
  1894.0000      7.8776      2.6332      0.1385      1.0180     88.5488     25.7891
  1894.1000      7.8776      2.6270      0.1058      1.3928     87.3803     26.8042
  1894.2000      7.8776      2.6228      0.0598      1.6471     86.4866     27.0264
  1894.3000      7.9136      2.6094      0.1295      2.4620     88.6935     26.7222
  1894.4000      7.9136      2.5786      0.0531      4.3300     89.4245     26.6673
  1894.5000      7.8746      2.5490      0.0425      6.1186     86.6029     26.5489
  1894.6000      7.8746      2.5359      0.0024      6.9159     82.9270     26.1299
  1894.7000      7.8746      2.5368      0.0814      6.8610     82.0513     25.8662
  1894.8000      7.9008      2.5450      0.0775      6.3628     87.5789     25.7613
  1894.9000      7.9008      2.5580      0.0742      5.5731     95.9105     25.9575
  1895.0000      7.8837      2.5786      0.1104      4.3258     98.6364     26.6432
  1895.1000      7.8837      2.6131      0.1404      2.2371     93.2480     27.2251
  1895.2000      7.8837      2.6567      0.1984     -0.4053     84.7591     27.0070
  1895.3000      7.9044      2.6866      0.2317     -2.2169     82.8181     26.2785
  1895.4000      7.9044      2.6875      0.1936     -2.2701     91.0279     25.8928
  1895.5000      7.9242      2.6647      0.1595     -0.8893    102.4994     26.2056
  1895.6000      7.9242      2.6378      0.0817      0.7377    110.4373     27.3697
  1895.7000      7.9242      2.6258      0.1239      1.4654    110.8680     28.9563
  1895.8000      7.9195      2.6237      0.1560      1.5951    102.3659     29.9097
  1895.9000      7.9195      2.6184      0.0978      1.9170     91.3186     30.0034
  1896.0000      7.9140      2.6084      0.0874      2.5213     87.0067     29.5248
  1896.1000      7.9140      2.5943      0.0771      3.3782     91.9935     28.6635
  1896.2000      7.9140      2.5779      0.0777      4.3724    100.1706     27.6583
  1896.3000      7.9302      2.5642      0.0486      5.2002    105.0716     26.8900
  1896.4000      7.9302      2.5513      0.0489      5.9796    107.7963     26.9014
  1896.5000      7.9436      2.5267      0.0909      7.4721    111.4401     27.4965
  1896.6000      7.9436      2.4823      0.0626     10.1620    115.8683     28.0251
  1896.7000      7.9436      2.4297      0.0490     13.3523    123.3509     28.2511
  1896.8000      7.9440      2.3791      0.0159     16.4183    134.2459     28.4554
  1896.9000      7.9440      2.3323      0.0138     19.2563    140.4316     28.9610
  1897.0000      8.0254      2.3007     -0.0078     21.1700    138.1421     29.2831
  1897.1000      8.0254      2.3000      0.0503     21.2098    135.7304     28.9020
  1897.2000      8.0254      2.3253      0.1241     19.6772    138.5672     28.4732
  1897.3000      8.0689      2.3546      0.1271     17.9049    141.0631     28.6271
  1897.4000      8.0689      2.3868      0.1444     15.9487    138.3952     28.9871
  1897.5000      8.0587      2.4495      0.2012     12.1515    136.1957     29.3635
  1897.6000      8.0587      2.5419      0.3709      6.5497    138.9468     29.9702
  1897.7000      8.0587      2.6163      0.3995      2.0445    142.2768     30.6391
  1897.8000      8.1288      2.6460      0.3516      0.2431    141.1924     30.9265
  1897.9000      8.1288      2.6499      0.3157      0.0087    134.5030     30.7537
  1898.0000      8.2497      2.6438      0.3329      0.3762    127.9175     30.5055
  1898.1000      8.2497      2.6289      0.2500      1.2805    130.5384     30.2619
  1898.2000      8.2497      2.6145      0.2838      2.1508    139.7905     29.9067
  1898.3000      8.2959      2.6036      0.1922      2.8092    144.3502     29.8260
  1898.4000      8.2959      2.5850      0.1440      3.9396    141.7848     30.0584
  1898.5000      8.2519      2.5610      0.0610      5.3945    135.8002     29.9213
  1898.6000      8.2519      2.5481      0.1306      6.1781    127.4703     29.4148
  1898.7000      8.2519      2.5507      0.1748      6.0168    120.9708     29.3273
  1898.8000      8.1973      2.5637      0.1587      5.2293    121.6704     29.7310
  1898.9000      8.1973      2.5889      0.1123      3.7022    126.7444     30.0561
  1899.0000      8.1338      2.6245      0.1522      1.5452    128.6563     30.2108
  1899.1000      8.1338      2.6585      0.1257     -0.5138    126.3759     30.3890
  1899.2000      8.1338      2.6865      0.1578     -2.2114    125.0613     30.2134
  1899.3000      7.9793      2.7035      0.2124     -3.2450    127.3749     29.5027
  1899.4000      7.9793      2.6956      0.2277     -2.7621    129.5325     28.5914
  1899.5000      7.9610      2.6642      0.1600     -0.8618    126.4784     27.7804
  1899.6000      7.9610      2.6284      0.1746      1.3065    119.0370     27.3748
  1899.7000      7.9610      2.6011      0.1033      2.9648    112.4199     27.5072
  1899.8000      8.0021      2.5910      0.0775      3.5729    109.3939     28.0104
  1899.9000      8.0021      2.6028      0.0484      2.8604    109.7247     28.6255
  1900.0000      7.9345      2.6233      0.0913      1.6160    111.7151     29.2279
  1900.1000      7.9345      2.6366      0.0183      0.8140    124.1410     29.7722
  1900.2000      7.9345      2.6448      0.1120      0.3167    123.3588     30.0078
  1900.3000      7.9903      2.6501      0.0794     -0.0084    122.0192     29.7246
  1900.4000      7.9903      2.6486      0.1365      0.0874    121.8505     29.2081
  1900.5000      7.9725      2.6369      0.1218      0.7960    122.6706     28.9483
  1900.6000      7.9725      2.6152      0.1318      2.1105    125.1287     28.9452
  1900.7000      7.9725      2.5911      0.0733      3.5715    127.9311     28.8318
  1900.8000      7.9667      2.5816      0.0422      4.1468    126.8081     28.6810
  1900.9000      7.9667      2.5894      0.1001      3.6707    123.3774     28.8030
  1901.0000      7.9349      2.5880      0.0895      3.7604    123.9168     29.1002
  1901.1000      7.9349      2.5701      0.0249      4.8450    140.3815     29.3562
  1901.2000      7.9349      2.5670      0.0329      5.0292    146.0737     29.7299
  1901.3000      7.9531      2.5953      0.0918      3.3146    149.5898     30.1717
  1901.4000      7.9531      2.6389      0.1310      0.6731    149.7990     30.0061
  1901.5000      7.9256      2.6672      0.1836     -1.0453    149.2500     29.1390
  1901.6000      7.9256      2.6472      0.1493      0.1680    151.8769     28.3327
  1901.7000      7.9256      2.5722      0.1260      4.7163    156.8500     27.9978
  1901.8000      7.9749      2.4783      0.0550     10.4063    154.9513     28.0606
  1901.9000      7.9749      2.4042      0.0023     14.8966    142.9591     28.5589
  1902.0000      7.9424      2.3406      0.0236     18.7509    133.0496     29.2738
