~Version Information
VERS.                      2.0: CWLS Log ASCII Standard - VERSION 2.0
WRAP.                       NO: One line per depth step
~Well Information Block
STRT.FT                -7.6500: 
STOP.FT              3097.2500: 
STEP.FT                 0.0500: 
NULL.                -999.2500: 
COMP.          Pioneer Natural Resources: COMPANY
WELL.            Paradise 13-8: WELL
FLD.           Purgatoire River: FIELD
LOC.           1896' FSL & 1120' FWL--: LOCATION
PROV.                 Colorado: PROVINCE
CNTY.               Las Animas: COUNTRY
SRVC.                Patterson: SERVICE COMPANY
DATE.          Fri Feb 04 16:52:25 2005: LOG DATE
UWI.           05 071 07946 00: UNIQUE WELL ID
~Curve Information Block
DEPT.FT            0 000 00 00: Depth
CCL.                          : Casing Collar Locator
TT3.usec                      : CBL 3' Travel Time
AMP3.mV                       : CBL 3' Amplitude
GR.GAPI                       : Gamma Ray
~Parameter Information Block
~A  Depth       CCL         TT3         AMP3         GR     
# ...
  2464.6500      0.0000    628.6888      2.8726    103.0195
  2464.7000      0.0000    628.6888      2.8726    103.0195
  2464.7500      0.0000    627.4249      2.8270    107.7907
  2464.8000      0.0000    627.4249      2.8270    107.7907
  2464.8500      0.0000    627.4249      2.8270    107.7907
  2464.9000      0.0000    627.4249      2.8270    107.7907
  2464.9500      0.0000    627.4249      2.8270    107.7907
  2465.0000      0.0000    624.1600      2.7629    108.7000
  2465.0500      0.0000    624.1600      2.7629    108.7000
  2465.1000      0.0000    624.1600      2.7629    108.7000
  2465.1500      0.0000    624.1600      2.7629    108.7000
  2465.2000      0.0000    624.1600      2.7629    108.7000
  2465.2500      0.0000    621.9501      2.7013    106.2193
  2465.3000      0.0000    621.9501      2.7013    106.2193
  2465.3500      0.0000    621.9501      2.7013    106.2193
  2465.4000      0.0000    621.9501      2.7013    106.2193
  2465.4500      0.0000    621.9501      2.7013    106.2193
  2465.5000      0.0000    625.0641      2.6627    101.3377
  2465.5500      0.0000    625.0641      2.6627    101.3377
  2465.6000      0.0000    625.0641      2.6627    101.3377
  2465.6500      0.0000    625.0641      2.6627    101.3377
  2465.7000      0.0000    625.0641      2.6627    101.3377
  2465.7500      0.0000    634.6255      2.6530     94.9765
  2465.8000      0.0000    634.6255      2.6530     94.9765
  2465.8500      0.0000    634.6255      2.6530     94.9765
  2465.9000      0.0000    634.6255      2.6530     94.9765
  2465.9500      0.0000    634.6255      2.6530     94.9765
  2466.0000      0.0000    647.5854      2.6617     87.7212
  2466.0500      0.0000    647.5854      2.6617     87.7212
  2466.1000      0.0000    647.5854      2.6617     87.7212
  2466.1500      0.0000    647.5854      2.6617     87.7212
  2466.2000      0.0000    647.5854      2.6617     87.7212
  2466.2500      0.0000    659.5999      2.6730     80.2301
  2466.3000      0.0000    659.5999      2.6730     80.2301
  2466.3500      0.0000    659.5999      2.6730     80.2301
  2466.4000      0.0000    659.5999      2.6730     80.2301
  2466.4500      0.0000    659.5999      2.6730     80.2301
  2466.5000      0.0000    668.0859      2.6779     73.7000
  2466.5500      0.0000    668.0859      2.6779     73.7000
  2466.6000      0.0000    668.0859      2.6779     73.7000
  2466.6500      0.0000    668.0859      2.6779     73.7000
  2466.7000      0.0000    668.0859      2.6779     73.7000
  2466.7500      0.0000    672.8519      2.6747     69.5204
  2466.8000      0.0000    672.8519      2.6747     69.5204
  2466.8500      0.0000    672.8519      2.6747     69.5204
  2466.9000      0.0000    672.8519      2.6747     69.5204
  2466.9500      0.0000    672.8519      2.6747     69.5204
  2467.0000      0.0000    674.9946      2.6651     68.4262
  2467.0500      0.0000    674.9946      2.6651     68.4262
  2467.1000      0.0000    674.9946      2.6651     68.4262
  2467.1500      0.0000    674.9946      2.6651     68.4262
  2467.2000      0.0000    674.9946      2.6651     68.4262
  2467.2500      0.0000    675.7479      2.6530     69.9490
  2467.3000      0.0000    675.7479      2.6530     69.9490
  2467.3500      0.0000    675.7479      2.6530     69.9490
  2467.4000      0.0000    675.7479      2.6530     69.9490
  2467.4500      0.0000    675.7479      2.6530     69.9490
  2467.5000      0.0000    675.9791      2.6445     72.4610
  2467.5500      0.0000    675.9791      2.6445     72.4610
  2467.6000      0.0000    675.9791      2.6445     72.4610
  2467.6500      0.0000    675.9791      2.6445     72.4610
  2467.7000      0.0000    675.9791      2.6445     72.4610
  2467.7500      0.0000    676.1541      2.6465     74.0696
  2467.8000      0.0000    676.1541      2.6465     74.0696
  2467.8500      0.0000    676.1541      2.6465     74.0696
  2467.9000      0.0000    676.1541      2.6465     74.0696
  2467.9500      0.0000    676.1541      2.6465     74.0696
  2468.0000      0.0000    676.5051      2.6600     74.0715
  2468.0500      0.0000    676.5051      2.6600     74.0715
  2468.1000      0.0000    676.5051      2.6600     74.0715
  2468.1500      0.0000    676.5051      2.6600     74.0715
  2468.2000      0.0000    676.5051      2.6600     74.0715
  2468.2500      0.0000    677.2543      2.6756     73.5467
  2468.3000      0.0000    677.2543      2.6756     73.5467
  2468.3500      0.0000    677.2543      2.6756     73.5467
  2468.4000      0.0000    677.2543      2.6756     73.5467
  2468.4500      0.0000    677.2543      2.6756     73.5467
  2468.5000      0.0000    678.7986      2.6685     74.3106
  2468.5500      0.0000    678.7986      2.6685     74.3106
  2468.6000      0.0000    678.7986      2.6685     74.3106
  2468.6500      0.0000    678.7986      2.6685     74.3106
  2468.7000      0.0000    678.7986      2.6685     74.3106
  2468.7500      0.0000    681.6843      2.6042     77.4198
  2468.8000      0.0000    681.6843      2.6042     77.4198
  2468.8500      0.0000    681.6843      2.6042     77.4198
  2468.9000      0.0000    681.6843      2.6042     77.4198
  2468.9500      0.0000    681.6843      2.6042     77.4198
  2469.0000      0.0000    686.0925      2.4597     82.5237
  2469.0500      0.0000    686.0925      2.4597     82.5237
  2469.1000      0.0000    686.0925      2.4597     82.5237
  2469.1500      0.0000    686.0925      2.4597     82.5237
  2469.2000      0.0000    686.0925      2.4597     82.5237
  2469.2500      0.0000    691.0792      2.2570     87.9632
  2469.3000      0.0000    691.0792      2.2570     87.9632
  2469.3500      0.0000    691.0792      2.2570     87.9632
  2469.4000      0.0000    691.0792      2.2570     87.9632
  2469.4500      0.0000    691.0792      2.2570     87.9632
  2469.5000      0.0000    694.7498      2.0704     91.3352
  2469.5500      0.0000    694.7498      2.0704     91.3352
  2469.6000      0.0000    694.7498      2.0704     91.3352
  2469.6500      0.0000    694.7498      2.0704     91.3352
  2469.7000      0.0000    694.7498      2.0704     91.3352
  2469.7500      0.0000    696.2133      1.9808     90.7373
  2469.8000      0.0000    696.2133      1.9808     90.7373
  2469.8500      0.0000    696.2133      1.9808     90.7373
  2469.9000      0.0000    696.2133      1.9808     90.7373
  2469.9500      0.0000    696.2133      1.9808     90.7373
  2470.0000      0.0000    697.6556      2.0157     86.0515
  2470.0500      0.0000    697.6556      2.0157     86.0515
  2470.1000      0.0000    697.6556      2.0157     86.0515
  2470.1500      0.0000    697.6556      2.0157     86.0515
  2470.2000      0.0000    697.6556      2.0157     86.0515
  2470.2500      0.0000    703.5272      2.1376     79.0621
  2470.3000      0.0000    703.5272      2.1376     79.0621
  2470.3500      0.0000    703.5272      2.1376     79.0621
  2470.4000      0.0000    703.5272      2.1376     79.0621
  2470.4500      0.0000    703.5272      2.1376     79.0621
  2470.5000      0.0000    716.8828      2.2885     72.3061
  2470.5500      0.0000    716.8828      2.2885     72.3061
  2470.6000      0.0000    716.8828      2.2885     72.3061
  2470.6500      0.0000    716.8828      2.2885     72.3061
  2470.7000      0.0000    716.8828      2.2885     72.3061
  2470.7500      0.0000    736.7394      2.4314     67.6328
  2470.8000      0.0000    736.7394      2.4314     67.6328
  2470.8500      0.0000    736.7394      2.4314     67.6328
  2470.9000      0.0000    736.7394      2.4314     67.6328
  2470.9500      0.0000    736.7394      2.4314     67.6328
  2471.0000      0.0000    759.1331      2.5524     65.4486
  2471.0500     -2.0000    759.1331      2.5524     65.4486
  2471.1000     -2.0000    759.1331      2.5524     65.4486
  2471.1500      0.0000    759.1331      2.5524     65.4486
  2471.2000      2.0000    759.1331      2.5524     65.4486
  2471.2500      2.0000    779.8622      2.6447     65.0897
  2471.3000     -2.0000    779.8622      2.6447     65.0897
