~Version Information
 VERS.                                  2.0 : CWLS LAS VERSION
 WRAP.                                   NO : WRAPING MODE
 SWARE .                 MController 2.5.0J : SOFTWARE VERSION
~Well Information
 WELL.                      Peregrine 12-20 : WELL
 COMP.    Pioneer Natural Resources USA Inc : COMPANY
 FLD.                      Purgatoire River : FIELD
 LOC.               SW/NW Sec 20 T34S R65W  : LOCATION
 DATE.                             07/14/05 : DATE(S) LOGGED
 SRVC.       BLANCO Geological Services LLC : SERVICE COMPANY
 STAT.                                   CO : STATE
 CNTY.                           Las Animas : COUNTY
 CTRY.                                  USA : COUNTRY
 API.                       05-071-08428-00 : API NUMBER
 STRT.FT                             226.00 : START DEPTH
 STOP.FT                            1645.00 : STOP DEPTH
 STEP.FT                               1.00 : DEPTH INCREMENT
 NULL.                                -9999 : NULL VALUE
~Curve information
 DEPTH.FT                                   :
 ROP.MIN/FT                                 :
 GAS.UNITS                                  :
~ASCII Log data
# ...
      1026.0         0.20         11.2 
      1027.0         0.27         11.0 
      1028.0         0.20         11.4 
      1029.0         0.17         11.3 
      1030.0         0.17         10.9 
      1031.0         0.20         11.2 
      1032.0         0.23         11.4 
      1033.0         0.20         10.5 
      1034.0         0.23         10.8 
      1035.0         0.25         10.3 
      1036.0         0.23         10.8 
      1037.0         0.23         10.7 
      1038.0         0.23         10.5 
      1039.0         0.20         10.4 
      1040.0         0.17         10.1 
      1041.0         0.20          9.5 
      1042.0         0.13         10.0 
      1043.0         0.13          9.5 
      1044.0         0.13          9.5 
      1045.0         0.23         10.9 
      1046.0         1.35         43.7 
      1047.0         0.23         42.5 
      1048.0         0.23         38.1 
      1049.0         0.27         30.5 
      1050.0         0.37         21.6 
      1051.0         0.23         34.3 
      1052.0         0.23         82.0 
      1053.0         0.27        147.3 
      1054.0         0.23        183.4 
      1055.0         0.23        197.1 
      1056.0         0.27        197.4 
      1057.0         0.20        187.8 
      1058.0         0.17        174.6 
      1059.0         0.22        162.6 
      1060.0         0.23        146.1 
      1061.0         0.20        131.3 
      1062.0         0.23        120.2 
      1063.0         0.17        110.0 
      1064.0         0.17        104.4 
      1065.0         0.17        100.5 
      1066.0         0.23         95.3 
      1067.0         0.20         89.5 
      1068.0         0.27         94.9 
      1069.0         0.40         92.8 
      1070.0         0.27         42.2 
      1071.0         0.30         67.7 
      1072.0         0.37         61.3 
      1073.0         0.35         15.9 
      1074.0         0.30          9.8 
      1075.0         0.30         14.8 
      1076.0         5.55        303.6 
      1077.0         0.32        130.1 
      1078.0         0.30        108.4 
      1079.0         0.30         94.4 
      1080.0         0.27         89.3 
      1081.0         0.27         88.4 
      1082.0         0.20         86.7 
      1083.0         0.27         85.7 
      1084.0         0.23         84.9 
      1085.0         0.20         84.3 
      1086.0         0.20         82.7 
      1087.0         0.17         80.6 
      1088.0         0.23         78.8 
      1089.0         0.27         77.3 
      1090.0         0.25         76.5 
      1091.0         0.20         76.1 
      1092.0         0.20         75.4 
      1093.0         0.20         75.0 
      1094.0         0.17         74.5 
      1095.0         0.17         73.6 
      1096.0         0.23         72.2 
      1097.0         0.27         69.0 
      1098.0         0.23         62.3 
      1099.0         0.17         41.2 
      1100.0         0.28         24.3 
      1101.0         0.27         16.8 
      1102.0         0.30         22.5 
      1103.0         0.27         34.7 
      1104.0         0.27         49.5 
      1105.0         0.20         58.9 
      1106.0         6.17       1469.6 
      1107.0         0.23        492.1 
      1108.0         0.23        448.3 
      1109.0         0.25        440.0 
      1110.0         0.27         78.0 
      1111.0         0.23         74.9 
      1112.0         0.20         75.0 
      1113.0         0.20         74.6 
      1114.0         0.20         73.2 
      1115.0         0.20         70.6 
      1116.0         0.20         67.1 
      1117.0         0.27         62.9 
      1118.0         0.23         57.4 
      1119.0         0.20         52.9 
      1120.0         0.20         50.7 
      1121.0         0.17         49.3 
      1122.0         0.17         49.7 
      1123.0         0.15         51.1 
      1124.0         0.20         52.0 
      1125.0         0.17         52.6 
      1126.0         0.20         52.7 
      1127.0         0.20         51.5 
      1128.0         0.10         47.8 
      1129.0         0.23         44.2 
      1130.0         0.20         36.5 
      1131.0         0.20         28.6 
      1132.0         0.30         23.3 
      1133.0         0.23         20.6 
      1134.0         0.20         34.7 
      1135.0         0.23         67.1 
      1136.0         1.72        159.7 
      1137.0         0.27        120.2 
      1138.0         0.23         99.2 
      1139.0         0.37         82.4 
      1140.0         0.27         66.7 
      1141.0         0.28         64.4 
      1142.0         0.33         61.9 
      1143.0         0.30         55.3 
      1144.0         0.20         47.6 
      1145.0         0.27         41.8 
      1146.0         0.23         34.9 
      1147.0         0.27         30.7 
      1148.0         0.23         28.7 
      1149.0         0.23         28.1 
      1150.0         0.23         28.1 
      1151.0         0.23         27.2 
      1152.0         0.23         25.8 
      1153.0         0.23         24.0 
      1154.0         0.25         23.1 
      1155.0         0.23         25.8 
      1156.0         0.20         28.1 
      1157.0         0.23         30.5 
      1158.0         0.23         29.2 
      1159.0         0.20         25.1 
      1160.0         0.20         21.3 
      1161.0         0.20         17.3 
      1162.0         0.20         14.7 
      1163.0         0.20         16.3 
      1164.0         0.20         21.3 
      1165.0         0.23         34.7 
      1166.0         2.48        174.3 
      1167.0         0.27         90.7 
      1168.0         0.37         74.8 
      1169.0         0.27         60.5 
      1170.0         0.20         53.9 
      1171.0         0.20         45.3 
      1172.0         0.22         38.5 
      1173.0         0.73         49.3 
      1174.0         0.27         48.9 
      1175.0         0.20         47.3 
      1176.0         0.23         44.8 
      1177.0         0.20         41.8 
      1178.0         0.17         39.1 
      1179.0         0.20         37.0 
      1180.0         0.20         35.1 
      1181.0         0.20         33.7 
      1182.0         0.20         33.3 
      1183.0         0.17         31.7 
      1184.0         0.17         32.1 
      1185.0         0.17         31.5 
      1186.0         0.22         30.9 
      1187.0         0.20         30.3 
      1188.0         0.20         25.9 
      1189.0         0.20         18.0 
      1190.0         0.17         13.1 
      1191.0         0.20         11.3 
      1192.0         0.20         10.1 
      1193.0         0.20          9.7 
      1194.0         0.13         11.3 
      1195.0         0.17         14.0 
      1196.0         1.98        165.5 
      1197.0         0.17        130.8 
      1198.0         0.23        125.4 
      1199.0         0.23        113.4 
      1200.0         0.27         94.8 
      1201.0         0.27         72.5 
      1202.0         0.27         55.5 
      1203.0         0.27         46.4 
      1204.0         0.27         45.6 
      1205.0         0.23         46.8 
      1206.0         0.25         46.9 
      1207.0         0.20         45.2 
      1208.0         0.20         43.0 
      1209.0         0.23         39.1 
      1210.0         0.20         36.7 
      1211.0         0.20         36.1 
      1212.0         0.20         36.7 
      1213.0         0.20         36.7 
      1214.0         0.17         36.5 
      1215.0         0.17         35.4 
      1216.0         0.20         33.6 
      1217.0         0.17         30.1 
      1218.0         0.20         27.4 
      1219.0         0.17         23.9 
      1220.0         0.20         16.8 
      1221.0         0.20         12.9 
      1222.0         0.17         10.4 
      1223.0         0.22         10.0 
      1224.0         0.17          9.3 
      1225.0         0.20          8.9 
