~Version Information
VERS.                      2.0: CWLS Log ASCII Standard - VERSION 2.0
WRAP.                       NO: One line per depth step
~Well Information Block
STRT.FT                30.0000: 
STOP.FT              2789.0000: 
STEP.FT                 0.1000: 
NULL.                -999.2500: 
COMP.          Pioneer Natural Resources: COMPANY
WELL.          Rabbit Bush Federal 44-19: WELL
FLD.           Purgatorie River: FIELD
LOC.           826' FSL & 1127' FEL: LOCATION
CNTY.               Las Animas: COUNTY
SRVC.                Patterson: SERVICE COMPANY
DATE.          Mon Aug 28 10:56:57 2006: LOG DATE
UWI.           05-071-08149-00: UNIQUE WELL ID
STAT.                 Colorado: STATE
~Curve Information Block
DEPT.FT            0 000 00 00: Depth
DCAL.in                       : CDL Caliper
RHOB.g/cc                     : CDL Bulk Density
RHOC.g/cc                     : CDL Density Correction
DPOR.pu                       : CDL Density Porosity
GR.GAPI                       : Gamma Ray
NPOR.pu                       : Neutron Porosity
~Parameter Information Block
~A  Depth       DCAL        RHOB        RHOC        DPOR         GR         NPOR    
# ...
  1479.6000      8.0864      2.4986      0.1468      9.1782    159.7290     22.6168
  1479.7000      8.0864      2.4827      0.0603     10.1391    162.8229     22.7866
  1479.8000      8.0508      2.4691      0.0191     10.9641    161.6382     22.9715
  1479.9000      8.0508      2.4696      0.0600     10.9327    161.9410     23.1421
  1480.0000      8.0534      2.4838      0.0759     10.0748    164.1041     23.4446
  1480.1000      8.0534      2.5065      0.0308      8.6999    163.8751     23.8096
  1480.2000      8.0534      2.5283      0.0813      7.3782    159.9437     24.1030
  1480.3000      8.0807      2.5293      0.0759      7.3150    155.1992     24.2208
  1480.4000      8.0807      2.5013      0.0402      9.0099    153.2361     24.0577
  1480.5000      8.0844      2.4601      0.0146     11.5110    153.9092     23.7917
  1480.6000      8.0844      2.4193      0.0332     13.9800    154.7548     23.4628
  1480.7000      8.0844      2.3768      0.0136     16.5552    155.5219     22.8656
  1480.8000      8.0573      2.3308     -0.0409     19.3439    157.4846     22.0684
  1480.9000      8.0573      2.2837     -0.0413     22.2022    159.4011     21.3118
  1481.0000      8.0296      2.2362     -0.0505     25.0815    157.5329     20.7719
  1481.1000      8.0296      2.1976     -0.0039     27.4157    152.7608     20.4870
  1481.2000      8.0296      2.1783      0.0508     28.5897    149.8199     20.2539
  1481.3000      8.0090      2.1754      0.0874     28.7654    148.9430     20.1186
  1481.4000      8.0090      2.1803      0.0728     28.4659    147.5484     20.4629
  1481.5000      7.9777      2.1898      0.0914     27.8909    144.3167     21.0795
  1481.6000      7.9777      2.2004      0.1310     27.2487    140.1033     21.4804
  1481.7000      7.9777      2.2056      0.1716     26.9345    138.3365     21.6637
  1481.8000      7.9372      2.2116      0.1664     26.5712    140.7283     21.6839
  1481.9000      7.9372      2.2429      0.1592     24.6707    143.6581     21.7076
  1482.0000      7.9019      2.3186      0.1814     20.0874    143.0937     22.2864
  1482.1000      7.9019      2.4174      0.1833     14.0988    139.4657     23.5846
  1482.2000      7.9019      2.4985      0.1719      9.1827    134.5902     24.8381
  1482.3000      7.8764      2.5529      0.1812      5.8865    130.6437     25.3721
  1482.4000      7.8764      2.5975      0.1615      3.1844    130.6989     25.5092
  1482.5000      7.8531      2.6325      0.2069      1.0630    133.0018     25.7675
  1482.6000      7.8531      2.6460      0.1885      0.2444    132.1789     25.9536
  1482.7000      7.8531      2.6442      0.1551      0.3496    127.7059     25.8987
  1482.8000      7.8171      2.6357      0.1485      0.8665    123.0995     25.8652
  1482.9000      7.8171      2.6185      0.1214      1.9107    119.8091     25.8547
  1483.0000      7.7916      2.5966      0.0509      3.2379    115.7781     25.6208
  1483.1000      7.7916      2.5751      0.0972      4.5404    109.2376     25.1451
  1483.2000      7.7916      2.5547      0.0520      5.7740    103.5777     24.7820
  1483.3000      7.7971      2.5443      0.0309      6.4067    101.0186     24.6015
  1483.4000      7.7971      2.5444      0.0687      6.3975     97.8877     24.0923
  1483.5000      7.8309      2.5393      0.1385      6.7106     93.4918     23.1207
  1483.6000      7.8309      2.5202      0.0551      7.8673     91.0757     22.0089
  1483.7000      7.8309      2.4980      0.0391      9.2108     91.6158     20.8669
  1483.8000      7.8593      2.4786      0.0296     10.3874     94.7072     19.6441
  1483.9000      7.8593      2.4416      0.0414     12.6281     97.5723     17.9370
  1484.0000      7.8654      2.3636      0.0431     17.3556     95.9606     15.3522
  1484.1000      7.8654      2.2618     -0.0226     23.5278     90.1741     12.6335
  1484.2000      7.8654      2.1791     -0.0275     28.5379     83.9897     10.8063
  1484.3000      7.8692      2.1243      0.0122     31.8601     80.6970      9.8981
  1484.4000      7.8692      2.0866      0.0012     34.1485     81.1648      9.5987
  1484.5000      7.8664      2.0793      0.1109     34.5849     83.2923      9.8159
  1484.6000      7.8664      2.1105      0.2651     32.6986     84.3105     10.3457
  1484.7000      7.8664      2.1660      0.2675     29.3359     82.8600     10.9484
  1484.8000      7.8440      2.2408      0.3353     24.8016     78.3132     11.7022
  1484.9000      7.8440      2.3349      0.3452     19.0999     71.7684     12.7986
  1485.0000      7.8156      2.4369      0.3369     12.9130     66.8032     14.1846
  1485.1000      7.8156      2.5313      0.3342      7.1946     65.0690     15.7378
  1485.2000      7.8156      2.6054      0.3698      2.7053     64.7625     17.2792
  1485.3000      7.8005      2.6545      0.3420     -0.2712     64.9701     18.5241
  1485.4000      7.8005      2.6914      0.2125     -2.5115     64.7687     19.6440
  1485.5000      7.7998      2.7325      0.1755     -5.0006     63.1436     20.9109
  1485.6000      7.7998      2.7690      0.1927     -7.2093     62.6028     22.2122
  1485.7000      7.7998      2.7804      0.1919     -7.9037     64.8992     23.2724
  1485.8000      7.8095      2.7666      0.1834     -7.0640     69.4163     24.1165
  1485.9000      7.8095      2.7453      0.1154     -5.7766     74.8404     24.9400
  1486.0000      7.8323      2.7303      0.1421     -4.8641     77.3805     25.5953
  1486.1000      7.8323      2.7187      0.1589     -4.1633     75.3843     25.9131
  1486.2000      7.8323      2.7047      0.1403     -3.3149     72.5820     25.9506
  1486.3000      7.8450      2.6910      0.1055     -2.4866     71.1481     25.8750
  1486.4000      7.8450      2.6849      0.1074     -2.1134     70.5495     25.8854
  1486.5000      7.8384      2.6977      0.0551     -2.8938     71.5243     26.1020
  1486.6000      7.8384      2.7359      0.1393     -5.2037     72.0263     26.5514
  1486.7000      7.8384      2.7778      0.1588     -7.7437     69.0140     27.1299
  1486.8000      7.8269      2.7970      0.1665     -8.9072     66.6900     27.7152
  1486.9000      7.8269      2.7997      0.0847     -9.0699     70.0280     28.2869
  1487.0000      7.8167      2.8092      0.0950     -9.6487     74.7267     28.6934
  1487.1000      7.8167      2.8271      0.1239    -10.7328     75.6524     28.7814
  1487.2000      7.8167      2.8345      0.1114    -11.1789     74.2904     28.6815
  1487.3000      7.8239      2.8310      0.0765    -10.9704     72.6449     28.5310
  1487.4000      7.8239      2.8388      0.0886    -11.4437     71.5581     28.4663
  1487.5000      7.8589      2.8607      0.0803    -12.7684     71.6846     28.6142
  1487.6000      7.8589      2.8786      0.0534    -13.8550     73.4481     28.8151
  1487.7000      7.8589      2.8830      0.0465    -14.1219     75.3012     28.7018
  1487.8000      7.9017      2.8782      0.0034    -13.8296     74.6331     28.1319
  1487.9000      7.9017      2.8706      0.0723    -13.3682     72.7195     27.4510
  1488.0000      7.9270      2.8695     -0.0149    -13.3034     72.5802     27.0673
  1488.1000      7.9270      2.8878      0.0009    -14.4123     74.5498     27.0304
  1488.2000      7.9270      2.9093      0.0647    -15.7123     76.7935     27.0500
  1488.3000      7.9241      2.9081     -0.0175    -15.6413     77.5454     26.7599
  1488.4000      7.9241      2.8943      0.0080    -14.8079     75.5007     26.2750
  1488.5000      7.9069      2.8886      0.0280    -14.4576     70.6352     25.9301
  1488.6000      7.9069      2.8921      0.0290    -14.6702     65.4204     25.7165
  1488.7000      7.9069      2.8853      0.0738    -14.2589     63.4254     25.4485
  1488.8000      7.9104      2.8481     -0.0328    -12.0036     65.6586     25.0151
  1488.9000      7.9104      2.7893     -0.0272     -8.4450     69.5106     24.6406
  1489.0000      7.9446      2.7350     -0.0253     -5.1537     72.5204     24.6765
  1489.1000      7.9446      2.7058     -0.0624     -3.3791     73.6990     24.7614
