~Version Information
VERS.                      2.0: CWLS Log ASCII Standard - VERSION 2.0
WRAP.                       NO: One line per depth step
~Well Information Block
STRT.FT               528.0000: 
STOP.FT              2251.5000: 
STEP.FT                 0.2500: 
NULL.                -999.2500: 
COMP.          Pioneer Natural Resources: COMPANY
WELL.           Parklane 43-34: WELL
FLD.           Purgatorie River: FIELD
LOC.           1704' FSL & 1119' FEL: LOCATION
PROV.                 Colorado: PROVINCE
CNTY.               Las Animas: COUNTRY
SRVC.                         : SERVICE COMPANY
DATE.          Thu Oct 07 01:37:17 2004: LOG DATE
UWI.           05 071 08162 00: UNIQUE WELL ID
~Curve Information Block
DEPT.FT            0 000 00 00: Depth
LTEN.lb                       : Surface Line Tension
SN.Ohm-m                      : IEL Short Normal
SP.mV                         : IEL Spontaneous Potential
DIR.Ohm-m                     : IEL Induction Resistivity
GR.GAPI                       : Gamma Ray
~Parameter Information Block
~A  Depth       LTEN         SN          SP         DIR          GR     
# ...
  1452.0000    802.4185     19.5811   -178.4535     16.3432    102.3509
  1452.2500    803.1365     19.2069   -176.8890     16.3099    106.4287
  1452.5000    805.3557     19.0498   -175.6992     16.4101    111.4409
  1452.7500    808.2726     19.0965   -174.8864     16.6348    113.3706
  1453.0000    810.6860     19.3244   -174.3922     16.9478    113.1649
  1453.2500    811.8378     19.7140   -174.1257     17.2989    110.9830
  1453.5000    811.5696     20.2453   -173.9967     17.6393    105.8942
  1453.7500    810.2306     20.8851   -173.9310     17.9333    102.1512
  1454.0000    808.7593     21.5821   -173.8836     18.1654     96.6021
  1454.2500    808.4309     22.2751   -173.8371     18.3401     92.8707
  1454.5000    809.8917     22.9039   -173.7942     18.4671     87.3557
  1454.7500    812.2868     23.4123   -173.7782     18.5379     84.2100
  1455.0000    813.6943     23.7420   -173.8230     18.5164     81.2595
  1455.2500    812.7005     23.8314   -173.9657     18.3569     80.7180
  1455.5000    809.4163     23.6266   -174.2404     18.0396     81.7043
  1455.7500    804.8749     23.1062   -174.6713     17.5889     83.1158
  1456.0000    800.1351     22.3027   -175.2647     17.0599     85.7340
  1456.2500    796.4077     21.3023   -176.0094     16.5044     87.6730
  1456.5000    795.1308     20.2165   -176.8800     15.9491     90.9237
  1456.7500    796.8358     19.1437   -177.8456     15.3990     93.3575
  1457.0000    800.3527     18.1429   -178.8743     14.8588     97.2537
  1457.2500    803.9589     17.2358   -179.9426     14.3510     99.8525
  1457.5000    806.9227     16.4254   -181.0255     13.9102    103.9905
  1457.7500    809.2486     15.7127   -182.0925     13.5611    107.5874
  1458.0000    810.5118     15.1014   -183.0993     13.3033    115.3278
  1458.2500    810.0370     14.5980   -183.9897     13.1182    121.6211
  1458.5000    808.1757     14.2189   -184.7074     12.9894    129.8468
  1458.7500    806.4049     14.0004   -185.2057     12.9148    132.6498
  1459.0000    805.7921     13.9967   -185.4680     12.8983    131.5862
  1459.2500    806.0294     14.2570   -185.5108     12.9326    127.9412
  1459.5000    806.2625     14.7912   -185.3787     12.9936    120.0134
  1459.7500    806.1912     15.5449   -185.1330     13.0568    114.1872
  1460.0000    806.0540     16.4004   -184.8329     13.1198    106.2017
  1460.2500    806.0855     17.2064   -184.5272     13.2093    102.0329
  1460.5000    806.4686     17.8252   -184.2446     13.3628     97.7264
  1460.7500    807.5954     18.1733   -183.9998     13.6002     95.7325
  1461.0000    809.8615     18.2375   -183.8013     13.9049     93.3685
  1461.2500    812.9644     18.0636   -183.6596     14.2229     92.4922
  1461.5000    815.8195     17.7285   -183.5940     14.4809     93.7680
  1461.7500    817.5765     17.3099   -183.6284     14.6101     96.9300
  1462.0000    818.3543     16.8640   -183.7856     14.5681    104.0280
  1462.2500    818.5366     16.4157   -184.0643     14.3509    108.6408
  1462.5000    817.9006     15.9637   -184.4279     13.9920    112.6157
  1462.7500    816.1748     15.4995   -184.7983     13.5480    112.6426
  1463.0000    814.0232     15.0258   -185.0669     13.0783    109.5034
  1463.2500    812.4980     14.5656   -185.1314     12.6334    106.3832
  1463.5000    811.5867     14.1536   -184.9292     12.2547    102.0803
  1463.7500    810.2411     13.8195   -184.4693     11.9752    100.2243
  1464.0000    808.0128     13.5774   -183.8318     11.8176     99.6320
  1464.2500    805.7525     13.4272   -183.1469     11.7890    100.8378
  1464.5000    804.3519     13.3664   -182.5404     11.8796    104.6976
  1464.7500    803.6784     13.3994   -182.0932     12.0640    107.9748
  1465.0000    803.2013     13.5370   -181.8029     12.3040    112.5871
  1465.2500    802.8990     13.7870   -181.5960     12.5534    115.0327
  1465.5000    803.1400     14.1473   -181.3523     12.7674    117.5933
  1465.7500    804.1885     14.6048   -180.9611     12.9162    118.3214
  1466.0000    806.0649     15.1407   -180.3668     12.9963    117.1153
  1466.2500    808.4261     15.7328   -179.5930     13.0338    114.5221
  1466.5000    810.3668     16.3523   -178.7441     13.0744    108.4732
  1466.7500    810.7029     16.9637   -177.9705     13.1664    103.6290
  1467.0000    808.8635     17.5299   -177.4322     13.3443     96.2855
  1467.2500    805.6265     18.0231   -177.2549     13.6229     92.1324
  1467.5000    802.8674     18.4288   -177.5000     14.0001     88.5864
  1467.7500    802.2596     18.7393   -178.1523     14.4572     88.6108
  1468.0000    804.0059     18.9454   -179.1270     14.9533     91.9418
  1468.2500    807.0555     19.0419   -180.2903     15.4220     95.4319
  1468.5000    810.5251     19.0503   -181.4809     15.7944    100.2400
  1468.7500    814.1597     19.0360   -182.5419     16.0387    101.9168
  1469.0000    817.2738     19.0994   -183.3384     16.1765    101.4372
  1469.2500    818.4687     19.3389   -183.7763     16.2596     99.7775
  1469.5000    817.1829     19.8134   -183.8127     16.3372     97.2602
  1469.7500    814.7665     20.5308   -183.4622     16.4471     96.4392
  1470.0000    813.1494     21.4634   -182.7915     16.6228     96.5957
  1470.2500    812.6044     22.5749   -181.9096     16.8918     96.7695
  1470.5000    811.4810     23.8373   -180.9454     17.2608     94.8590
  1470.7500    808.4333     25.2299   -180.0153     17.6982     91.2448
  1471.0000    804.5270     26.7239   -179.1983     18.1378     82.8470
  1471.2500    802.5372     28.2622   -178.5096     18.5090     76.5932
  1471.5000    804.2635     29.7545   -177.8975     18.7828     68.6085
  1471.7500    809.1550     31.0937   -177.2663     19.0039     64.9338
  1472.0000    815.3286     32.1861   -176.5052     19.2805     61.8179
  1472.2500    820.9099     32.9767   -175.5359     19.7362     60.8921
  1472.5000    824.3265     33.4583   -174.3465     20.4455     60.4911
  1472.7500    824.5953     33.6662   -173.0076     21.3730     60.6290
  1473.0000    822.2161     33.6665   -171.6603     22.3475     61.2408
  1473.2500    819.2665     33.5390   -170.4850     23.1098     61.8618
  1473.5000    817.7869     33.3579   -169.6468     23.4531     63.1728
  1473.7500    817.9812     33.1746   -169.2528     23.3562     64.4513
  1474.0000    818.3422     33.0137   -169.3178     22.9816     67.2532
  1474.2500    817.5179     32.8853   -169.7641     22.5558     69.7516
  1474.5000    815.6763     32.8060   -170.4495     22.2571     74.1199
  1474.7500    814.0364     32.8110   -171.2159     22.1815     76.8635
  1475.0000    813.5663     32.9448   -171.9412     22.3577     78.9882
  1475.2500    814.2753     33.2388   -172.5739     22.7720     78.1003
  1475.5000    815.3676     33.6919   -173.1408     23.3740     73.0906
  1475.7500    815.9102     34.2670   -173.7280     24.0736     68.2614
  1476.0000    815.4991     34.9034   -174.4409     24.7601     61.1207
  1476.2500    814.3605     35.5327   -175.3572     25.3492     57.3144
  1476.5000    812.9977     36.0891   -176.4967     25.8169     53.2962
  1476.7500    811.9438     36.5147   -177.8093     26.1870     51.6437
  1477.0000    811.6252     36.7631   -179.1863     26.5018     50.8422
  1477.2500    812.1157     36.8054   -180.4928     26.8126     51.4913
  1477.5000    813.0831     36.6379   -181.6028     27.1528     53.6414
  1477.7500    814.1320     36.2828   -182.4318     27.4627     55.2145
  1478.0000    815.1089     35.7779   -182.9497     27.5243     57.0828
  1478.2500    815.8996     35.1540   -183.1823     27.0318     58.0672
  1478.5000    815.9876     34.4132   -183.1823     25.8239     59.6785
  1478.7500    814.6660     33.5211   -183.0054     24.0543     60.9979
  1479.0000    812.0536     32.4183   -182.6853     22.0735     62.8694
  1479.2500    809.5529     31.0439   -182.2158     20.1780     63.4218
  1479.5000    808.6648     29.3601   -181.5607     18.4960     62.5140
  1479.7500    809.4360     27.3701   -180.6707     17.0314     61.0935
