~Version Information
VERS.                      2.0: CWLS Log ASCII Standard - VERSION 2.0
WRAP.                       NO: One line per depth step
~Well Information Block
STRT.FT               840.0000: 
STOP.FT              2266.0000: 
STEP.FT                 0.1000: 
NULL.                -999.2500: 
COMP.          Pioneer Natural Resources: COMPANY
WELL.              Tonto 42-23: WELL
FLD.           Purgatoire River: FIELD
LOC.           2217' FNL & 423' FEL: LOCATION
PROV.                 Colorado: PROVINCE
CNTY.               Las Animas: COUNTRY
SRVC.                Patterson: SERVICE COMPANY
DATE.          Mon Apr 18 07:15:48 2005: LOG DATE
UWI.           05 071 08335 00: UNIQUE WELL ID
~Curve Information Block
DEPT.FT            0 000 00 00: Depth
DCAL.in                       : CDL Caliper
RHOB.g/cc                     : CDL Bulk Density
RHOC.g/cc                     : CDL Density Correction
DPOR.pu                       : CDL Density Porosity
GR.GAPI                       : Gamma Ray
NPOR.pu                       : Neutron Porosity
~Parameter Information Block
~A  Depth       DCAL        RHOB        RHOC        DPOR         GR         NPOR    
   840.0000      5.0888      2.2221      0.1765     25.9306    118.3669     22.2908
   840.1000      5.0888      2.2027      0.1074     27.1075    124.7336     21.8177
   840.2000      5.0888      2.1661      0.0790     29.3283    128.4781     21.7040
   840.3000      5.0865      2.1324      0.0464     31.3671    126.7905     21.9406
   840.4000      5.0865      2.1046      0.0845     33.0525    122.7614     22.2152
   840.5000      5.0896      2.0771      0.0493     34.7188    124.3367     22.4470
   840.6000      5.0896      2.0576      0.0177     35.9025    130.5055     23.0549
   840.7000      5.0896      2.0551      0.0425     36.0566    130.9872     24.0788
   840.8000      5.0713      2.0634      0.0075     35.5531    125.5652     24.8668
   840.9000      5.0713      2.0707      0.0102     35.1061    121.8130     25.1863
   841.0000      5.0682      2.0758      0.0556     34.8005    122.0788     25.4581
   841.1000      5.0682      2.0837      0.0844     34.3201    124.8687     25.6077
   841.2000      5.0682      2.0951      0.0878     33.6293    126.5320     25.2064
   841.3000      5.0805      2.1167      0.1057     32.3241    125.6484     24.7161
   841.4000      5.0805      2.1762      0.1184     28.7177    125.7831     25.0697
   841.5000      5.0781      2.3137      0.1107     20.3822    124.9910     26.1888
   841.6000      5.0781      2.5321      0.2510      7.1439    118.8612     27.2903
   841.7000      5.0781      2.7616      0.3349     -6.7641    111.5789     27.8737
   841.8000      5.0742      2.9148      0.4232    -16.0504    105.3651     27.6571
   841.9000      5.0742      2.9600      0.3791    -18.7895     98.8799     26.5146
   842.0000      5.4059      2.8981      0.4071    -15.0359     94.0252     24.9716
   842.1000      5.4059      2.7084      0.2925     -3.5399     89.0738     24.1571
   842.2000      5.4059      2.4014     -0.0975     15.0666     82.0055     24.5042
   842.3000      7.8807      2.0773     -0.5827     34.7064     76.6374     25.3718
   842.4000      7.8807      1.8447     -0.7634     48.8052     76.5743     26.3777
   842.5000      8.2169      1.7220     -0.7865     56.2424     79.4476     27.3217
   842.6000      8.2169      1.6626     -0.7231     59.8454     80.0199     27.4626
   842.7000      8.2169      1.6212     -0.7407     62.3544     76.6005     26.9347
   842.8000      8.2167      1.5848     -0.8163     64.5598     71.8152     26.8013
   842.9000      8.2167      1.5714     -0.8729     65.3714     68.0145     27.2550
   843.0000      8.2177      1.5871     -0.7856     64.4189     65.8859     28.1943
   843.1000      8.2177      1.5965     -0.6768     63.8505     66.8444     29.1363
   843.2000      8.2177      1.5774     -0.7780     65.0050     73.3096     29.3448
   843.3000      8.2167      1.5614     -0.7698     65.9746     82.1164     29.4127
   843.4000      8.2167      1.5897     -0.8410     64.2600     86.4680     29.8071
   843.5000      8.2176      1.6645     -0.7264     59.7257     87.3907     29.8959
   843.6000      8.2176      1.7449     -0.6553     54.8575     91.8891     29.3382
   843.7000      8.2176      1.8090     -0.7177     50.9718    101.0924     28.3340
   843.8000      8.2156      1.8785     -0.6903     46.7550    107.1185     27.2284
   843.9000      8.2156      1.9578     -0.6783     41.9516    107.9065     26.6065
   844.0000      8.2166      2.0193     -0.6338     38.2241    110.8191     26.6517
   844.1000      8.2166      2.0517     -0.6740     36.2588    115.2017     26.8769
   844.2000      8.2166      2.0670     -0.5778     35.3331    113.0773     26.8749
   844.3000      8.2159      2.0814     -0.6551     34.4623    105.5852     26.8813
   844.4000      8.2159      2.1028     -0.5794     33.1644    101.3477     27.3110
   844.5000      8.2160      2.1137     -0.5921     32.5009    103.4688     27.4605
   844.6000      8.2160      2.1018     -0.5382     33.2212    104.4507     26.3516
   844.7000      8.2160      2.0762     -0.6087     34.7779     98.8365     24.9418
   844.8000      8.2115      2.0343     -0.5532     37.3128     92.0127     24.7446
   844.9000      8.2115      1.9626     -0.5834     41.6610     88.2306     25.5534
   845.0000      8.2139      1.8733     -0.7169     47.0735     87.5745     26.5581
   845.1000      8.2139      1.7914     -0.6738     52.0358     90.8835     27.4092
   845.2000      8.2139      1.7209     -0.6719     56.3085     95.8341     27.7637
   845.3000      8.2092      1.6854     -0.9097     58.4582     99.6211     27.5864
   845.4000      8.2092      1.7320     -0.8417     55.6339    103.5903     27.3371
   845.5000      8.2083      1.8464     -0.7134     48.7024    109.5996     27.6455
   845.6000      8.2083      1.9652     -0.6624     41.5007    115.3694     28.6321
   845.7000      8.2083      2.0534     -0.6001     36.1569    116.0498     29.3839
   845.8000      8.2062      2.1111     -0.6416     32.6584    112.1487     29.0693
   845.9000      8.2062      2.1517     -0.6050     30.1973    111.9807     28.0692
   846.0000      8.2048      2.1898     -0.5996     27.8908    120.8344     27.0912
   846.1000      8.2048      2.2240     -0.5541     25.8162    133.6508     26.4550
   846.2000      8.2048      2.2334     -0.5607     25.2466    141.0870     26.5890
   846.3000      8.2067      2.2127     -0.5365     26.5027    140.1725     26.9772
   846.4000      8.2067      2.1877     -0.6195     28.0208    137.0282     26.4503
   846.5000      8.2079      2.1746     -0.5664     28.8125    136.5581     25.2936
   846.6000      8.2079      2.1585     -0.5520     29.7869    137.6494     24.5759
   846.7000      8.2079      2.1281     -0.5662     31.6296    137.2725     24.5091
   846.8000      8.2053      2.0952     -0.6833     33.6249    135.1716     24.7155
   846.9000      8.2053      2.0665     -0.5600     35.3657    134.2629     24.6856
   847.0000      8.2045      2.0223     -0.6233     38.0454    134.0665     24.2930
   847.1000      8.2045      1.9386     -0.5664     43.1174    131.4988     23.8311
   847.2000      8.2045      1.8273     -0.7090     49.8618    127.0091     23.2076
   847.3000      8.2049      1.7466     -0.8262     54.7544    124.4384     22.3251
   847.4000      8.2049      1.7269     -0.7584     55.9453    125.6174     21.7244
   847.5000      8.2044      1.7368     -0.6121     55.3473    129.1305     21.7990
   847.6000      8.2044      1.7515     -0.5674     54.4554    131.9547     21.8729
   847.7000      8.2044      1.7903     -0.5245     52.1045    128.3534     21.8640
   847.8000      8.2008      1.8692     -0.4184     47.3222    120.6232     22.2992
   847.9000      8.2008      1.9584     -0.3084     41.9129    119.7626     22.5112
   848.0000      8.2047      2.0054     -0.2622     39.0679    124.8370     22.4230
   848.1000      8.2047      1.9941     -0.4464     39.7514    129.4835     22.8163
   848.2000      8.2047      1.9508     -0.4333     42.3784    133.8305     22.8352
   848.3000      8.2044      1.9101     -0.6004     44.8454    135.7154     21.7646
   848.4000      8.2044      1.8957     -0.5119     45.7172    131.5366     21.1820
   848.5000      8.2071      1.8993     -0.5343     45.4981    122.7808     21.9719
   848.6000      8.2071      1.9010     -0.4718     45.3924    117.0595     23.0078
   848.7000      8.2071      1.8855     -0.5054     46.3354    116.6612     23.2563
   848.8000      8.2014      1.8531     -0.5695     48.2999    117.2574     23.1017
   848.9000      8.2014      1.8373     -0.6348     49.2542    119.5185     23.3963
   849.0000      8.2032      1.8625     -0.5584     47.7274    123.2861     24.0736
   849.1000      8.2032      1.9092     -0.5310     44.8958    125.3082     24.6214
   849.2000      8.2032      1.9541     -0.5149     42.1767    125.8330     24.4967
   849.3000      8.2055      1.9903     -0.5379     39.9837    126.2994     23.6405
   849.4000      8.2055      2.0007     -0.4083     39.3501    127.0796     22.8587
   849.5000      8.2038      1.9674     -0.5583     41.3695    128.4211     22.7433
