~Version Information
VERS.                      2.0: CWLS Log ASCII Standard - VERSION 2.0
WRAP.                       NO: One line per depth step
~Well Information Block
STRT.FT                 0.0000: 
STOP.FT              2430.7500: 
STEP.FT                 0.2500: 
NULL.                -999.2500: 
COMP.          Petrogulf Corporation: COMPANY
WELL.             Leier 17-42V: WELL
FLD.           Purgatorie River: FIELD
LOC.           2309' FNL & 1062' FEL: LOCATION
PROV.                 Colorado: PROVINCE
CNTY.               Las Animas: COUNTRY
SRVC.                Patterson: SERVICE COMPANY
DATE.          Thu Oct 06 10:18:00 2005: LOG DATE
UWI.                          : UNIQUE WELL ID
~Curve Information Block
DEPT.FT            0 000 00 00: Depth
CCL.                          : Casing Collar Locator
TT3.usec                      : CBL 3' Travel Time
AMP3.mV                       : CBL 3' Amplitude
GR.GAPI                       : Gamma Ray
~Parameter Information Block
~A  Depth       CCL         TT3         AMP3         GR     
# ...
   971.5000      0.0000    376.3025     32.3373     85.8338
   971.7500      0.0000    376.4565     31.3257     84.1712
   972.0000      0.0000    401.1496     28.9550     84.3497
   972.2500      0.0000    442.7245     26.2904     85.4261
   972.5000      0.0000    513.2678     23.8693     86.4941
   972.7500      0.0000    601.2975     21.5569     87.2448
   973.0000      0.0000    669.8210     19.6159     87.6474
   973.2500      0.0000    710.6476     18.4004     87.7073
   973.5000      0.0000    738.8027     17.6914     87.5858
   973.7500      2.0000    758.0406     17.0778     87.4965
   974.0000     -2.0000    773.6063     16.4054     87.2980
   974.2500      0.0000    790.6391     15.7332     86.3181
   974.5000      0.0000    796.2919     15.1717     83.7923
   974.7500      0.0000    774.3940     14.9533     79.8301
   975.0000      0.0000    730.0838     15.2686     75.8837
   975.2500      0.0000    693.4309     15.7528     73.5747
   975.5000      0.0000    687.6807     15.9527     72.9502
   975.7500      0.0000    701.3885     16.0828     72.6211
   976.0000      0.0000    714.1931     16.3281     71.6247
   976.2500      0.0000    723.1844     16.3841     70.3354
   976.5000      0.0000    731.8962     16.0846     69.5305
   976.7500      0.0000    739.7044     15.5962     69.3551
   977.0000      0.0000    743.6294     15.1454     69.3080
   977.2500      0.0000    742.3454     14.8904     68.6575
   977.5000      0.0000    737.9893     14.8779     66.7439
   977.7500      0.0000    732.8854     15.0248     63.4249
   978.0000      0.0000    727.5825     15.2125     59.4254
   978.2500      0.0000    722.3754     15.4213     55.9915
   978.5000      0.0000    712.8633     15.7367     54.0173
   978.7500      0.0000    682.3054     16.3036     53.5317
   979.0000      0.0000    613.0683     17.3404     54.0429
   979.2500      0.0000    517.3481     19.1207     55.3206
   979.5000      0.0000    434.6200     21.8612     57.6548
   979.7500      0.0000    386.6529     25.5519     61.3524
   980.0000      0.0000    362.4770     29.8685     66.3770
   980.2500      0.0000    345.3035     34.3601     72.6808
   980.5000      0.0000    329.2623     38.8290     80.3567
   980.7500      0.0000    315.5126     43.5029     89.0005
   981.0000      0.0000    305.9322     48.7165     97.3418
   981.2500      0.0000    299.9049     54.4093    104.1053
   981.5000      0.0000    294.1766     60.0583    109.1378
   981.7500      0.0000    285.9468     65.0443    113.2231
   982.0000      0.0000    276.1559     68.9391    116.8094
   982.2500      0.0000    268.3847     71.5131    119.5059
   982.5000      0.0000    264.6578     72.6587    121.0051
   982.7500      0.0000    264.7207     72.4166    121.9231
   983.0000      0.0000    268.5702     71.0866    123.1961
   983.2500      0.0000    276.4292     69.2502    124.8993
   983.5000      0.0000    286.1773     67.5367    126.1800
   983.7500      0.0000    293.9433     66.3100    126.3693
   984.0000      0.0000    297.9268     65.6291    125.7799
   984.2500      0.0000    299.2261     65.3747    125.2933
   984.5000      0.0000    299.4482     65.2898    125.3563
   984.7500      0.0000    299.3789     65.0155    125.5603
   985.0000      0.0000    299.3071     64.1807    125.2347
   985.2500      0.0000    299.8147     62.5093    124.3805
   985.5000      0.0000    303.6941     59.8430    123.7185
   985.7500      0.0000    319.3983     55.9614    123.5313
   986.0000      0.0000    358.2670     50.5962    122.7337
   986.2500      0.0000    413.8354     44.0384    119.5209
   986.5000      0.0000    449.5245     37.5294    112.7699
   986.7500      0.0000    439.1348     32.4234    102.8618
   987.0000      0.0000    405.0776     29.0441     91.7206
   987.2500      0.0000    382.2361     26.8242     82.0206
   987.5000      0.0000    376.5153     25.2227     75.6503
   987.7500      0.0000    377.2486     24.0979     72.7354
   988.0000      0.0000    378.3823     23.5290     72.3077
   988.2500      0.0000    381.3006     23.6164     73.6650
   988.5000      0.0000    393.6810     24.3648     76.7868
   988.7500      0.0000    425.2449     25.7116     81.7901
   989.0000      0.0000    466.5937     27.7903     88.4165
   989.2500      0.0000    477.8148     31.0377     95.8033
   989.5000      0.0000    434.7799     35.6926    102.4449
   989.7500      0.0000    369.1065     41.3580    106.8037
   990.0000      0.0000    323.4557     47.3212    108.6019
   990.2500      0.0000    304.9596     52.9444    109.4613
   990.5000      0.0000    300.2309     57.7109    111.6885
   990.7500      0.0000    299.4027     61.2990    116.1999
   991.0000      0.0000    299.0280     63.6877    121.6989
   991.2500      0.0000    297.7146     65.1272    125.7606
   991.5000      0.0000    293.7899     66.0883    126.6483
   991.7500      0.0000    286.1211     67.2358    124.3924
   992.0000      0.0000    276.4066     69.1663    120.4414
   992.2500      0.0000    268.4084     71.9036    116.3459
   992.5000      0.0000    264.0772     74.7259    112.9041
   992.7500      0.0000    262.4973     76.7581    110.5314
   993.0000      0.0000    262.0969     77.7328    109.7587
   993.2500      0.0000    262.0271     78.0046    110.7488
   993.5000      0.0000    262.0193     78.0126    112.6617
   993.7500      0.0000    262.0162     77.9697    114.0171
   994.0000      0.0000    262.0023     77.9855    113.5814
   994.2500      0.0000    261.9600     78.2221    110.8795
   994.5000      0.0000    261.8949     78.7133    106.4005
   994.7500      0.0000    261.8446     79.2035    101.5829
   995.0000      0.0000    261.8332     79.4237     98.1469
   995.2500      0.0000    261.8488     79.3748     97.0280
   995.5000      0.0000    261.8700     79.2282     97.9042
   995.7500      0.0000    261.8881     79.1215     99.6885
   996.0000      0.0000    261.9033     79.0963    101.3705
   996.2500      0.0000    261.9129     79.1199    102.4377
   996.5000      0.0000    261.9113     79.1282    102.8558
   996.7500      0.0000    261.8986     79.0678    103.0447
   997.0000      0.0000    261.8828     78.9126    103.8594
   997.2500      0.0000    261.8732     78.6685    106.1278
   997.5000      0.0000    261.8812     78.3632    109.9569
   997.7500      0.0000    261.9227     78.0204    114.6216
   998.0000      0.0000    261.9952     77.6853    119.1970
   998.2500      0.0000    262.0681     77.4279    123.2090
   998.5000      0.0000    262.1522     77.1781    126.7838
   998.7500      0.0000    262.5020     76.5172    130.2486
   999.0000      0.0000    264.0273     74.6657    133.5041
   999.2500      0.0000    268.4952     70.8765    135.8596
   999.5000      0.0000    277.3998     65.0809    136.6552
   999.7500      0.0000    291.6124     58.0241    135.9369
  1000.0000      0.0000    318.0007     50.6648    134.4069
  1000.2500      0.0000    376.6824     43.8032    132.9003
  1000.5000      0.0000    483.3143     38.1932    132.0724
  1000.7500      0.0000    614.4453     34.2965    132.3795
  1001.0000      0.0000    718.7217     31.9115    133.9230
  1001.2500      0.0000    770.1632     30.4527    136.0717
  1001.5000      0.0000    778.1032     29.5593    137.4512
  1001.7500      0.0000    754.2133     29.2558    136.7012
  1002.0000      0.0000    703.2976     29.6621    133.4652
  1002.2500      0.0000    633.8810     30.8809    128.5745
  1002.5000      0.0000    551.3639     33.1530    123.2419
  1002.7500      0.0000    459.4923     36.6591    118.1355
  1003.0000      0.0000    378.1467     41.0368    113.2073
  1003.2500      0.0000    328.2659     45.3382    108.1402
  1003.5000      0.0000    307.9680     48.4207    102.6828
  1003.7500      0.0000    302.8496     49.4155     96.6812
  1004.0000      0.0000    304.8535     48.1159     90.1702
  1004.2500      0.0000    319.2133     45.0034     83.5480
  1004.5000      0.0000    364.7794     40.8344     77.5088
  1004.7500      0.0000    459.4638     36.1566     72.6219
