~Version Information
VERS.                      2.0: CWLS Log ASCII Standard - VERSION 2.0
WRAP.                       NO: One line per depth step
~Well Information Block
STRT.FT               801.5000: 
STOP.FT              2513.0000: 
STEP.FT                 0.2500: 
NULL.                -999.2500: 
COMP.          Petrogulf Corporation: COMPANY
WELL.               YWAM 7-32V: WELL
FLD.           Purgatoire River: FIELD
LOC.           2423' FNL & 2412' FEL: LOCATION
PROV.                 Colorado: PROVINCE
CNTY.               Las Animas: COUNTRY
SRVC.                Patterson: SERVICE COMPANY
DATE.          Sun Dec 14 06:58:17 2003: LOG DATE
UWI.                          : UNIQUE WELL ID
~Curve Information Block
DEPT.FT            0 000 00 00: Depth
SP.mV                         : DIL Spontaneous Potential
RILD.Ohm-m                    : DIL Deep Resistivity
RILM.Ohm-m                    : DIL Medium Resistivity
RLL3.Ohm-m                    : DIL Shallow Resistivity
GR.GAPI                       : Gamma Ray
~Parameter Information Block
~A  Depth        SP         RILD        RILM        RLL3         GR     
# ...
  1613.5000   -399.4915      8.4083      7.1260     10.2119    151.9765
  1613.7500   -399.1677      8.2490      7.0482     10.2174    152.6906
  1614.0000   -398.9146      8.0972      7.0607     10.1855    153.3860
  1614.2500   -398.7371      7.9591      7.1310     10.0515    153.6660
  1614.5000   -398.6553      7.8433      7.2149      9.8166    154.4166
  1614.7500   -398.7032      7.7552      7.2800      9.5551    155.5691
  1615.0000   -398.9167      7.7002      7.3223      9.3526    158.3052
  1615.2500   -399.3216      7.6865      7.3596      9.2521    160.1556
  1615.5000   -399.9232      7.7225      7.4104      9.2653    161.5926
  1615.7500   -400.6985      7.8090      7.4760      9.4056    161.3844
  1616.0000   -401.6006      7.9324      7.5409      9.6706    159.9618
  1616.2500   -402.5754      8.0642      7.5869      9.9912    158.7752
  1616.5000   -403.5732      8.1714      7.6103     10.2509    156.8746
  1616.7500   -404.5401      8.2329      7.6267     10.3930    155.2870
  1617.0000   -405.4124      8.2542      7.6637     10.4963    152.0294
  1617.2500   -406.1372      8.2652      7.7458     10.7223    149.3778
  1617.5000   -406.7080      8.3038      7.8830     11.2008    145.1797
  1617.7500   -407.1721      8.3968      8.0645     11.9487    142.3614
  1618.0000   -407.5968      8.5498      8.2629     12.8337    138.1179
  1618.2500   -408.0209      8.7484      8.4469     13.5758    135.4241
  1618.5000   -408.4316      8.9644      8.6010     13.8444    131.9839
  1618.7500   -408.7709      9.1636      8.7363     13.4644    130.2449
  1619.0000   -408.9581      9.3140      8.8870     12.5833    128.7330
  1619.2500   -408.9149      9.3972      9.0936     11.6312    128.6673
  1619.5000   -408.5891      9.4155      9.3858     11.1045    129.9874
  1619.7500   -407.9755      9.3925      9.7712     11.3384    131.3524
  1620.0000   -407.1288      9.3655     10.2302     12.3618    132.5965
  1620.2500   -406.1574      9.3823     10.7156     13.8542    132.0419
  1620.5000   -405.1989      9.5004     11.1616     15.2642    129.0148
  1620.7500   -404.3832      9.7843     11.5033     16.1116    126.4975
  1621.0000   -403.7906     10.2928     11.7039     16.2704    124.1150
  1621.2500   -403.4149     11.0561     11.7708     15.9717    123.9596
  1621.5000   -403.1638     12.0403     11.7492     15.5517    125.1846
  1621.7500   -402.9081     13.1022     11.6929     15.2285    126.4539
  1622.0000   -402.5565     13.9859     11.6343     15.0719    128.8632
  1622.2500   -402.0982     14.4400     11.5673     15.0641    130.7664
  1622.5000   -401.5898     14.4128     11.4528     15.1245    133.3368
  1622.7500   -401.1096     14.0946     11.2485     15.1234    134.3152
  1623.0000   -400.7212     13.7497     10.9499     14.9504    134.4300
  1623.2500   -400.4583     13.5555     10.6127     14.5972    133.9669
  1623.5000   -400.3225     13.5677     10.3370     14.1526    133.5009
  1623.7500   -400.2901     13.7543     10.2326     13.6994    133.8922
  1624.0000   -400.3320     14.0320     10.3950     13.2377    136.0149
  1624.2500   -400.4376     14.2991     10.8970     12.7248    138.3349
  1624.5000   -400.6224     14.4685     11.7791     12.1646    142.1792
  1624.7500   -400.9139     14.4963     13.0279     11.6263    144.1205
  1625.0000   -401.3212     14.3845     14.5470     11.1999    144.9425
  1625.2500   -401.8055     14.1608     16.1593     10.9670    143.9770
  1625.5000   -402.2751     13.8521     17.6608     11.0106    140.9308
  1625.7500   -402.6144     13.4712     18.8872     11.4143    138.4532
  1626.0000   -402.7277     13.0264     19.7361     12.2167    135.1844
  1626.2500   -402.5766     12.5450     20.1653     13.3446    133.8183
  1626.5000   -402.1983     12.0880     20.2118     14.5826    133.1734
  1626.7500   -401.6963     11.7320     19.9960     15.6092    133.2838
  1627.0000   -401.1999     11.5322     19.6596     16.0968    133.3715
  1627.2500   -400.8033     11.4925     19.2854     15.8384    133.2456
  1627.5000   -400.5211     11.5589     18.8674     14.8575    133.5556
  1627.7500   -400.2872     11.6376     18.3558     13.4345    134.7541
  1628.0000   -400.0012     11.6386     17.7275     12.0027    138.2720
  1628.2500   -399.5847     11.5265     17.0185     10.9521    141.0477
  1628.5000   -399.0165     11.3367     16.2948     10.4669    144.1419
  1628.7500   -398.3357     11.1410     15.6059     10.5048    145.0259
  1629.0000   -397.6271     10.9949     14.9621     10.8976    144.8854
  1629.2500   -396.9948     10.9099     14.3389     11.4577    144.1064
  1629.5000   -396.5255     10.8626     13.6906     12.0083    142.0676
  1629.7500   -396.2564     10.8236     12.9802     12.3721    140.2058
  1630.0000   -396.1647     10.7830     12.2212     12.3934    137.1344
  1630.2500   -396.1826     10.7539     11.4976     12.0136    135.3364
  1630.5000   -396.2281     10.7599     10.9322     11.3317    133.5980
  1630.7500   -396.2415     10.8194     10.6320     10.5877    133.1294
  1631.0000   -396.2110     10.9366     10.6564     10.0781    133.0058
  1631.2500   -396.1665     11.0978     11.0127     10.0623    132.8212
  1631.5000   -396.1477     11.2740     11.6643     10.6972    131.3993
  1631.7500   -396.1692     11.4282     12.5464     11.9787    129.2267
  1632.0000   -396.2088     11.5306     13.6098     13.6901    124.0957
  1632.2500   -396.2237     11.5780     14.8842     15.4348    119.9774
  1632.5000   -396.1851     11.6023     16.5209     16.8042    114.1672
  1632.7500   -396.1093     11.6574     18.7879     17.5833    111.2089
  1633.0000   -396.0578     11.7968     22.0388     17.8267    108.8120
  1633.2500   -396.1091     12.0563     26.6847     17.7791    108.8278
  1633.5000   -396.3211     12.4547     33.1608     17.7424    111.3819
  1633.7500   -396.7036     13.0091     41.8892     17.9748    114.2997
  1634.0000   -397.2089     13.7548     53.3105     18.6400    118.6502
  1634.2500   -397.7462     14.7562     68.1152     19.8002    120.4342
  1634.5000   -398.2165     16.1050     87.6363     21.4435    120.7995
  1634.7500   -398.5495     17.9054    114.1213     23.5318    119.8143
  1635.0000   -398.7211     20.2464    149.6448     26.0215    117.0900
  1635.2500   -398.7460     23.1499    189.9489     28.7876    114.5871
  1635.5000   -398.6533     26.4728    211.2008     31.4888    110.3357
  1635.7500   -398.4738     29.7776    184.7608     33.5824    107.8991
  1636.0000   -398.2475     32.3231    131.3449     34.6028    106.0354
  1636.2500   -398.0267     33.4179     87.4174     34.4798    105.9881
  1636.5000   -397.8495     32.9573     60.5894     33.5922    106.4397
  1636.7500   -397.7050     31.4866     45.8516     32.5389    106.3379
  1637.0000   -397.5298     29.6997     38.4464     31.7684    105.5455
  1637.2500   -397.2436     28.0122     35.6269     31.2199    105.2071
  1637.5000   -396.7883     26.4928     35.8888     30.3077    105.9210
  1637.7500   -396.1381     25.0008     38.0682     28.4575    107.2262
  1638.0000   -395.2920     23.3843     40.6085     25.7044    109.8244
  1638.2500   -394.2862     21.6286     41.5857     22.6403    111.7356
  1638.5000   -393.2219     19.8635     39.9313     19.8251    114.9280
  1638.7500   -392.2508     18.2474     36.2551     17.4165    117.3522
  1639.0000   -391.4903     16.8686     31.8779     15.3325    121.4174
  1639.2500   -390.9427     15.7345     27.7202     13.5558    124.5002
  1639.5000   -390.5038     14.8116     24.1440     12.1922    130.2116
  1639.7500   -390.0477     14.0588     21.2135     11.3179    135.0278
  1640.0000   -389.5095     13.4399     18.8919     10.8643    143.4191
  1640.2500   -388.9095     12.9210     17.1142     10.6594    148.9786
  1640.5000   -388.3260     12.4698     15.8039     10.5492    155.7185
  1640.7500   -387.8513     12.0618     14.8726     10.4709    158.8112
  1641.0000   -387.5551     11.6862     14.2223     10.4354    161.6633
  1641.2500   -387.4610     11.3468     13.7525     10.4609    162.3721
