~Version Information
VERS.                      2.0: CWLS Log ASCII Standard - VERSION 2.0
WRAP.                       NO: One line per depth step
~Well Information Block
STRT.FT               260.0000: 
STOP.FT              1200.5000: 
STEP.FT                 0.2500: 
NULL.                -999.2500: 
COMP.          Evergreen Operating Corporation: COMPANY
WELL.             Justin 32-10: WELL
FLD.           Purgatorie River: FIELD
LOC.           2994' FNL & 1449' FEL: LOCATION
PROV.                 Colorado: PROVINCE
CNTY.               Las Animas: COUNTRY
SRVC.                         : SERVICE COMPANY
DATE.          Sun Aug 29 20:47:20 2004: LOG DATE
UWI.           05 071 08053 00: UNIQUE WELL ID
~Curve Information Block
DEPT.FT            0 000 00 00: Depth
LTEN.lb                       : Surface Line Tension
SN.Ohm-m                      : IEL Short Normal
SP.mV                         : IEL Spontaneous Potential
DIR.Ohm-m                     : IEL Induction Resistivity
GR.GAPI                       : Gamma Ray
~Parameter Information Block
~A  Depth       LTEN         SN          SP         DIR          GR     
# ...
  1128.0000    686.5004     28.5075     21.9375     27.6657     73.2735
  1128.2500    687.0247     28.5279     21.8372     27.6387     72.7679
  1128.5000    687.4034     28.5533     21.7557     27.6511     71.1598
  1128.7500    687.4745     28.5822     21.6930     27.7113     69.7649
  1129.0000    687.2663     28.6212     21.6470     27.8270     67.8853
  1129.2500    686.9233     28.6847     21.6139     27.9953     67.1363
  1129.5000    686.6025     28.7917     21.5890     28.1968     67.0633
  1129.7500    686.4247     28.9603     21.5671     28.4011     67.6823
  1130.0000    686.4250     29.2030     21.5440     28.5876     69.4897
  1130.2500    686.5399     29.5235     21.5172     28.7652     71.5083
  1130.5000    686.7313     29.9178     21.4867     28.9767     76.9851
  1130.7500    687.0870     30.3792     21.4551     29.2803     82.9239
  1131.0000    687.6770     30.9033     21.4278     29.7239     94.4226
  1131.2500    688.3481     31.4922     21.4118     30.3256    101.8134
  1131.5000    688.8116     32.1543     21.4146     31.0716    108.2188
  1131.7500    688.9306     32.9004     21.4425     31.9289    107.9768
  1132.0000    688.8048     33.7385     21.4999     32.8652    101.8996
  1132.2500    688.5864     34.6714     21.5879     33.8636     96.1554
  1132.5000    688.3381     35.6972     21.7045     34.9219     88.9573
  1132.7500    688.1008     36.8130     21.8449     36.0362     86.6519
  1133.0000    688.0104     38.0167     22.0021     37.1863     87.6587
  1133.2500    688.2682     39.3031     22.1677     38.3367     90.6824
  1133.5000    688.9700     40.6508     22.3330     39.4565     96.4053
  1133.7500    689.9790     42.0105     22.4892     40.5350     99.3900
  1134.0000    691.0293     43.3032     22.6285     41.5729    100.4288
  1134.2500    691.9321     44.4358     22.7438     42.5506     98.2337
  1134.5000    692.5811     45.3273     22.8300     43.4080     90.8612
  1134.7500    692.8064     45.9314     22.8838     44.0654     84.0605
  1135.0000    692.4543     46.2402     22.9046     44.4750     73.3773
  1135.2500    691.6628     46.2706     22.8942     44.6547     67.4830
  1135.5000    690.8336     46.0472     22.8570     44.6702     62.4750
  1135.7500    690.2382     45.5954     22.7987     44.5834     61.9920
  1136.0000    689.8272     44.9477     22.7259     44.4122     64.3396
  1136.2500    689.4617     44.1511     22.6451     44.1259     66.5577
  1136.5000    689.1334     43.2654     22.5614     43.6743     68.5199
  1136.7500    688.9352     42.3482     22.4788     43.0307     68.2684
  1137.0000    688.9724     41.4375     22.3994     42.2238     66.1563
  1137.2500    689.2832     40.5433     22.3243     41.3342     64.5132
  1137.5000    689.7390     39.6556     22.2536     40.4589     62.9101
  1137.7500    690.1182     38.7636     22.1868     39.6664     62.5988
  1138.0000    690.3514     37.8720     22.1232     38.9702     63.0236
  1138.2500    690.5244     37.0046     22.0618     38.3312     63.6209
  1138.5000    690.6102     36.1918     22.0017     37.6861     64.3639
  1138.7500    690.4609     35.4504     21.9418     36.9853     64.5193
  1139.0000    690.1130     34.7712     21.8818     36.2174     64.6154
  1139.2500    689.8022     34.1216     21.8222     35.4027     65.1741
  1139.5000    689.6325     33.4619     21.7655     34.5683     67.4307
  1139.7500    689.5089     32.7656     21.7157     33.7323     69.6973
  1140.0000    689.3950     32.0310     21.6784     32.9078     73.2191
  1140.2500    689.3682     31.2792     21.6597     32.1138     75.0799
  1140.5000    689.4420     30.5406     21.6655     31.3767     76.7221
  1140.7500    689.5574     29.8407     21.6999     30.7173     77.0810
  1141.0000    689.7050     29.1919     21.7645     30.1364     76.6691
  1141.2500    689.8943     28.5958     21.8577     29.6102     75.7609
  1141.5000    690.0671     28.0498     21.9747     29.1021     73.2980
  1141.7500    690.1470     27.5521     22.1079     28.5861     70.9322
  1142.0000    690.1225     27.1029     22.2480     28.0664     67.0104
  1142.2500    690.0241     26.7023     22.3842     27.5770     65.0048
  1142.5000    689.8622     26.3496     22.5059     27.1597     64.2299
  1142.7500    689.6418     26.0445     22.6031     26.8393     65.2152
  1143.0000    689.4614     25.7883     22.6675     26.6164     67.4511
  1143.2500    689.5511     25.5857     22.6934     26.4791     68.3139
  1143.5000    690.1133     25.4439     22.6784     26.4207     67.6922
  1143.7500    691.1011     25.3701     22.6235     26.4438     66.2692
  1144.0000    692.1938     25.3664     22.5336     26.5479     63.9272
  1144.2500    692.9863     25.4257     22.4165     26.7148     62.9247
  1144.5000    693.2297     25.5334     22.2820     26.9064     62.7034
  1144.7500    692.9894     25.6724     22.1405     27.0790     63.2940
  1145.0000    692.5747     25.8309     22.0018     27.2011     64.7334
  1145.2500    692.2410     26.0049     21.8739     27.2646     65.4896
  1145.5000    691.9900     26.1944     21.7626     27.2828     65.1224
  1145.7500    691.7175     26.3955     21.6712     27.2835     63.6026
  1146.0000    691.4398     26.5930     21.6006     27.2980     60.4194
  1146.2500    691.2407     26.7610     21.5500     27.3478     58.7587
  1146.5000    691.1156     26.8695     21.5172     27.4320     58.0183
  1146.7500    691.0250     26.8962     21.4991     27.5256     58.4566
  1147.0000    690.9991     26.8358     21.4920     27.5940     59.4199
  1147.2500    691.0457     26.7021     21.4921     27.6188     59.8753
  1147.5000    691.0558     26.5220     21.4960     27.6123     60.3263
  1147.7500    690.9390     26.3263     21.5007     27.6073     60.6872
  1148.0000    690.7885     26.1424     21.5049     27.6295     61.7691
  1148.2500    690.8204     25.9919     21.5083     27.6761     63.1483
  1148.5000    691.1766     25.8917     21.5121     27.7168     66.5441
  1148.7500    691.8134     25.8544     21.5185     27.7153     69.6557
  1149.0000    692.5538     25.8876     21.5304     27.6543     75.1404
  1149.2500    693.2372     25.9926     21.5503     27.5456     78.8576
  1149.5000    693.7985     26.1640     21.5804     27.4247     83.2484
  1149.7500    694.2114     26.3920     21.6215     27.3391     84.5762
  1150.0000    694.4547     26.6635     21.6737     27.3389     83.5908
  1150.2500    694.5701     26.9643     21.7353     27.4670     81.3761
  1150.5000    694.6355     27.2799     21.8038     27.7494     77.1687
  1150.7500    694.6434     27.5980     21.8751     28.1852     74.4860
  1151.0000    694.5528     27.9113     21.9442     28.7428     71.3252
  1151.2500    694.4624     28.2201     22.0047     29.3662     70.0677
  1151.5000    694.5309     28.5322     22.0501     29.9909     69.9782
  1151.7500    694.7515     28.8619     22.0739     30.5650     71.3788
  1152.0000    695.0215     29.2255     22.0705     31.0624     75.6413
  1152.2500    695.3398     29.6377     22.0366     31.4781     79.3703
  1152.5000    695.6947     30.1069     21.9711     31.8140     84.5751
  1152.7500    695.9349     30.6306     21.8760     32.0695     86.9162
  1153.0000    696.0375     31.1929     21.7557     32.2492     88.5471
  1153.2500    696.2684     31.7647     21.6169     32.3772     88.9981
  1153.5000    696.7600     32.3105     21.4675     32.4975     89.9562
  1153.7500    697.1714     32.7972     21.3158     32.6535     91.0689
  1154.0000    697.0897     33.2027     21.1692     32.8614     92.9577
  1154.2500    696.5769     33.5188     21.0334     33.1019     93.7525
  1154.5000    696.0923     33.7476     20.9119     33.3361     93.4540
  1154.7500    696.0175     33.8959     20.8054     33.5311     92.2992
  1155.0000    696.3157     33.9704     20.7120     33.6718     89.9101
  1155.2500    696.5019     33.9782     20.6281     33.7550     88.2609
  1155.5000    696.0654     33.9298     20.5489     33.7800     85.7343
  1155.7500    695.1624     33.8416     20.4698     33.7459     84.0290
