~Version Information
VERS.                      2.0: CWLS Log ASCII Standard - VERSION 2.0
WRAP.                       NO: One line per depth step
~Well Information Block
STRT.FT                -2.7500: 
STOP.FT              2139.2500: 
STEP.FT                 0.2500: 
NULL.                -999.2500: 
COMP.          Petrogulf Corporation: COMPANY
WELL.             State 16-34V: WELL
FLD.           Purgatorie River: FIELD
LOC.           1146' FSL & 1393' FEL: LOCATION
PROV.                 Colorado: PROVINCE
CNTY.               Las Animas: COUNTRY
SRVC.          Patterson Wireline: SERVICE COMPANY
DATE.          Wed Jun 25 13:16:42 2003: LOG DATE
UWI.           05 071 07724 00: UNIQUE WELL ID
~Curve Information Block
DEPT.FT            0 000 00 00: Depth
CCL.                          : Casing Collar Locator
TT3.usec                      : CBL 3' Travel Time
AMP3.mV                       : CBL 3' Amplitude
GR.GAPI                       : Gamma Ray
~Parameter Information Block
~A  Depth       CCL         TT3         AMP3         GR     
# ...
   834.7500      0.0000    349.9702     13.8715    107.5516
   835.0000      0.0000    372.1575     12.4587    109.8597
   835.2500      0.0000    401.1405     10.9949    109.2759
   835.5000      0.0000    430.1943      9.6139    105.4882
   835.7500      0.0000    452.1983      8.4358     99.5024
   836.0000      0.0000    466.3961      7.5039     92.8015
   836.2500      0.0000    479.2141      6.7931     86.5094
   836.5000      0.0000    498.3454      6.2531     81.2724
   836.7500      0.0000    527.0566      5.8308     77.5074
   837.0000      0.0000    564.1232      5.4753     75.3746
   837.2500      0.0000    607.0220      5.1528     74.6646
   837.5000      0.0000    652.8909      4.8626     75.0508
   837.7500      0.0000    697.1592      4.6237     76.3852
   838.0000      0.0000    734.4117      4.4476     78.6315
   838.2500      0.0000    761.6807      4.3328     81.7072
   838.5000      0.0000    779.5975      4.2666     85.5114
   838.7500      0.0000    790.2233      4.2138     89.8298
   839.0000      0.0000    795.0015      4.1295     94.0466
   839.2500      0.0000    794.7960      4.0006     97.2907
   839.5000      0.0000    790.5337      3.8578     99.0592
   839.7500      0.0000    783.2175      3.7450     99.2988
   840.0000      0.0000    774.3492      3.6961     97.6614
   840.2500      0.0000    766.8381      3.7337     93.2789
   840.5000      0.0000    763.7540      3.8606     85.8617
   840.7500      0.0000    764.5532      4.0444     76.8038
   841.0000      0.0000    764.3251      4.2183     68.7068
   841.2500      0.0000    759.2130      4.3115     63.6600
   841.5000      0.0000    751.7413      4.2918     61.9880
   841.7500      0.0000    748.5143      4.1845     62.5844
   842.0000      0.0000    752.8832      4.0524     64.3401
   842.2500      0.0000    761.8000      3.9673     67.0797
   842.5000      0.0000    769.8865      3.9880     71.2705
   842.7500      0.0000    774.5427      4.1348     77.3555
   843.0000      0.0000    776.7033      4.3767     85.4322
   843.2500      0.0000    778.5491      4.6653     94.8631
   843.5000      0.0000    781.4094      4.9854    103.9930
   843.7500      0.0000    784.7424      5.3571    110.9893
   844.0000      0.0000    785.6500      5.7991    115.2413
   844.2500      0.0000    778.9441      6.3151    117.4620
   844.5000      0.0000    758.6047      6.9016    118.5409
   844.7500      0.0000    721.0447      7.5402    118.9687
   845.0000      0.0000    668.0453      8.1967    119.1995
   845.2500      0.0000    605.9066      8.8407    119.7839
   845.5000      0.0000    541.9130      9.4332    121.0391
   845.7500      0.0000    483.2827      9.8851    122.9799
   846.0000      0.0000    438.8392     10.0765    125.3820
   846.2500      0.0000    417.4578      9.9577    127.5367
   846.5000      0.0000    421.8685      9.6080    128.3111
   846.7500      0.0000    444.8676      9.1753    126.9419
   847.0000      0.0000    473.6151      8.7683    123.6196
   847.2500      0.0000    498.8354      8.4091    119.0759
   847.5000      0.0000    521.2321      8.0684    113.8913
   847.7500      0.0000    549.9763      7.7256    108.4801
   848.0000      0.0000    593.7051      7.3856    103.5650
   848.2500      0.0000    651.0603      7.0522    100.2873
   848.5000      0.0000    710.0623      6.7136     99.6567
   848.7500      0.0000    757.3784      6.3655    101.8613
   849.0000      0.0000    787.5441      6.0362    106.1532
   849.2500      0.0000    803.5460      5.7816    111.4459
   849.5000      0.0000    811.2206      5.6524    116.9700
   849.7500      0.0000    814.8948      5.6497    122.3227
   850.0000      0.0000    816.7404      5.7092    127.0960
   850.2500      0.0000    817.5397      5.7485    130.7664
   850.5000      0.0000    816.8672      5.7372    132.9608
   850.7500      0.0000    812.7715      5.7034    133.5784
   851.0000      0.0000    802.1711      5.6752    132.7344
   851.2500      0.0000    783.1100      5.6532    130.9629
   851.5000      0.0000    758.1667      5.6429    129.4226
   851.7500      0.0000    735.1175      5.6740    129.3454
   852.0000      0.0000    721.8457      5.7662    131.0324
   852.2500      0.0000    719.1185      5.9057    133.4886
   852.5000      0.0000    719.0702      6.0732    134.8692
   852.7500      0.0000    711.1832      6.2721    133.2720
   853.0000      0.0000    689.1090      6.5173    127.9764
   853.2500      2.0000    652.3118      6.8317    120.6151
   853.5000      0.0000    603.5511      7.2772    114.5220
   853.7500      0.0000    546.7794      7.9788    112.1008
   854.0000      0.0000    487.4250      9.1161    112.7731
   854.2500      0.0000    432.5569     10.8727    113.5609
   854.5000      0.0000    388.3045     13.3149    111.5349
   854.7500      0.0000    356.6730     16.2524    105.9329
   855.0000      0.0000    335.5652     19.2832     98.5240
   855.2500      0.0000    321.2756     22.0800     92.3132
   855.5000      0.0000    310.3010     24.5913     89.7435
   855.7500      0.0000    300.1159     26.8868     91.5645
   856.0000      0.0000    290.1318     28.8959     96.8036
   856.2500      0.0000    282.0449     30.4067    103.5736
   856.5000      0.0000    278.3875     31.2644    110.2158
   856.7500      0.0000    280.1572     31.4794    116.0651
   857.0000      0.0000    285.7691     31.1741    121.2036
   857.2500      0.0000    292.2626     30.4981    125.5300
   857.5000      0.0000    297.4320     29.5783    128.4308
   857.7500      0.0000    301.0052     28.4826    129.5835
   858.0000      0.0000    304.5356     27.2062    129.6789
   858.2500      0.0000    310.9842     25.6956    130.0186
   858.5000      0.0000    324.1991     23.8994    131.5313
   858.7500      0.0000    347.5255     21.8188    134.1127
   859.0000      0.0000    381.9201     19.5332    136.6295
   859.2500      0.0000    426.0813     17.1784    137.7572
   859.5000      0.0000    479.2251     14.8966    137.2742
   859.7500      0.0000    541.9806     12.8104    136.4639
   860.0000      0.0000    611.8297     11.0207    136.8562
   860.2500      0.0000    678.6154      9.5877    138.7320
   860.5000      0.0000    728.6689      8.5076    141.1413
   860.7500      0.0000    755.0193      7.7285    142.9668
   861.0000      0.0000    761.9203      7.2023    143.5418
   861.2500      0.0000    759.3450      6.9145    142.6894
   861.5000      0.0000    755.5551      6.8628    140.7963
   861.7500      0.0000    755.0247      7.0367    138.6894
   862.0000      0.0000    759.4632      7.4385    136.9255
   862.2500      0.0000    768.0078      8.1021    135.2030
   862.5000      0.0000    777.9891      9.0576    132.7193
   862.7500      0.0000    786.8867     10.2825    129.0698
   863.0000      0.0000    791.9984     11.6880    124.7058
   863.2500      0.0000    787.2457     13.1241    120.5668
   863.5000      0.0000    762.1249     14.4058    117.4435
   863.7500      0.0000    707.1236     15.3970    115.7483
   864.0000      0.0000    623.4430     16.0885    115.4885
   864.2500      0.0000    527.8082     16.5677    116.0243
   864.5000      0.0000    444.5382     16.9121    116.1998
   864.7500      0.0000    390.2003     17.1306    115.3895
   865.0000      0.0000    365.2147     17.1937    114.2490
   865.2500      0.0000    358.1268     17.1050    113.9811
   865.5000      0.0000    355.6876     16.9335    115.0927
   865.7500      0.0000    350.4435     16.7551    117.0672
   866.0000      0.0000    342.3210     16.5710    118.9284
   866.2500      0.0000    334.8604     16.3418    120.0182
   866.5000      0.0000    330.2228     16.1163    120.4880
   866.7500      0.0000    327.3194     16.0627    121.0387
   867.0000      0.0000    323.6329     16.3347    122.0689
   867.2500      0.0000    317.8537     16.9373    123.2852
   867.5000      0.0000    310.8319     17.7298    124.3603
   867.7500      0.0000    304.4856     18.5169    125.5779
   868.0000      0.0000    300.1161     19.1392    127.2388
