~Version Information
VERS.                      2.0: CWLS Log ASCII Standard - VERSION 2.0
WRAP.                       NO: One line per depth step
~Well Information Block
STRT.FT               732.2500: 
STOP.FT              2476.0000: 
STEP.FT                 0.2500: 
NULL.                -999.2500: 
COMP.          Petrogulf Corporation: COMPANY
WELL.            Montoya 7-14V: WELL
FLD.           Purgatorie River: FIELD
LOC.           535' FSL & 491' FWL: LOCATION
CNTY.               Las Animas: COUNTY
SRVC.                         : SERVICE COMPANY
DATE.          Mon Aug 23 05:51:43 2004: LOG DATE
UWI.           05 071 08019 00: UNIQUE WELL ID
STAT.                 Colorado: STATE
~Curve Information Block
DEPT.FT            0 000 00 00: Depth
SP.mV                         : DIL Spontaneous Potential
RILD.Ohm-m                    : DIL Deep Resistivity
RILM.Ohm-m                    : DIL Medium Resistivity
RLL3.Ohm-m                    : DIL Shallow Resistivity
GR.GAPI                       : Gamma Ray
~Parameter Information Block
~A  Depth        SP         RILD        RILM        RLL3         GR     
# ...
  2104.2500    -18.6703     26.3018     23.3889     28.0878     91.6087
  2104.5000    -18.1055     26.1987     23.1004     26.2545     92.6667
  2104.7500    -17.2919     26.1232     22.9060     25.0786     92.8819
  2105.0000    -16.4281     26.0590     22.8042     24.5635     92.3435
  2105.2500    -15.7192     26.0139     22.7871     24.6220     91.3418
  2105.5000    -15.2943     26.0272     22.8419     25.1322     89.0332
  2105.7500    -15.1682     26.1568     22.9496     25.9567     87.2168
  2106.0000    -15.2590     26.4478     23.0857     26.9336     84.8636
  2106.2500    -15.4446     26.9008     23.2213     27.8820     84.0029
  2106.5000    -15.6257     27.4439     23.3262     28.6446     83.9511
  2106.7500    -15.7527     27.9188     23.3726     29.1395     84.5214
  2107.0000    -15.8140     28.0966     23.3410     29.3778     85.9513
  2107.2500    -15.7997     27.7424     23.2241     29.4248     87.1917
  2107.5000    -15.6753     26.7191     23.0294     29.3309     89.1680
  2107.7500    -15.3929     25.0634     22.7778     29.0779     90.3261
  2108.0000    -14.9307     22.9675     22.4998     28.5810     91.7691
  2108.2500    -14.3368     20.6829     22.2285     27.7513     92.7763
  2108.5000    -13.7416     18.4304     21.9939     26.5825     94.9722
  2108.7500    -13.3197     16.3614     21.8176     25.2046     97.1690
  2109.0000    -13.2202     14.5609     21.7100     23.8710    101.2931
  2109.2500    -13.5049     13.0629     21.6683     22.8925    103.7875
  2109.5000    -14.1261     11.8647     21.6779     22.5571    105.4254
  2109.7500    -14.9551     10.9390     21.7153     23.0615    104.7138
  2110.0000    -15.8382     10.2460     21.7528     24.4371    101.6015
  2110.2500    -16.6471      9.7418     21.7660     26.4692     98.7345
  2110.5000    -17.3034      9.3868     21.7395     28.6604     93.8525
  2110.7500    -17.7657      9.1504     21.6715     30.3293     90.6119
  2111.0000    -18.0060      9.0164     21.5732     30.8653     86.9956
  2111.2500    -17.9875      8.9883     21.4645     30.0162     86.1846
  2111.5000    -17.6650      9.1005     21.3689     28.0211     87.9509
  2111.7500    -17.0112      9.4378     21.3065     25.4978     90.8528
  2112.0000    -16.0491     10.1798     21.2912     23.1768     96.4143
  2112.2500    -14.8773     11.7287     21.3275     21.6490     99.7762
  2112.5000    -13.6682     15.1981     21.4120     21.2305    102.4524
  2112.7500    -12.6334     25.3800     21.5364     21.9301    102.2073
  2113.0000    -11.9610    142.2775     21.6938     23.4726     99.5357
  2113.2500    -11.7549 100000.0000     21.8876     25.3689     97.1772
  2113.5000    -12.0016 100000.0000     22.1414     27.0522     94.2193
  2113.7500    -12.5828 100000.0000     22.5104     28.0658     93.0682
  2114.0000    -13.3335 100000.0000     23.0984     28.2279     92.6554
  2114.2500    -14.1177 100000.0000     24.0848     27.6769     92.9787
  2114.5000    -14.8909 100000.0000     25.7904     26.7681     93.5482
  2114.7500    -15.7219 100000.0000     28.8504     25.8801     93.6509
  2115.0000    -16.7645 100000.0000     34.7649     25.2452     93.5886
  2115.2500    -18.1960 100000.0000     48.2329     24.8909     93.8076
  2115.5000    -20.1516 100000.0000     95.9909     24.6990     94.9928
  2115.7500    -22.6934 100000.0000 100000.0000     24.5208     96.3217
  2116.0000    -25.8262 100000.0000 100000.0000     24.2660     98.6731
  2116.2500    -29.5631 100000.0000 100000.0000     23.9227     99.9921
  2116.5000    -33.9780 100000.0000 100000.0000     23.5243    100.5036
  2116.7500    -39.2823 100000.0000 100000.0000     23.1113     99.4446
  2117.0000    -45.7766 100000.0000 100000.0000     22.7245     96.2293
  2117.2500    -53.7596 100000.0000     25.4510     22.4175     93.9591
  2117.5000    -63.3593 100000.0000      7.9301     22.2462     92.0791
  2117.7500    -74.3093 100000.0000      3.8191     22.2209     92.2618
  2118.0000    -85.7062 100000.0000      2.1930     22.2494     94.1681
  2118.2500    -95.8175 100000.0000      1.3995     22.1227     95.8095
  2118.5000   -102.0551 100000.0000      0.9638     21.5708     97.4581
  2118.7500   -101.2473 100000.0000      0.7055     20.3626     97.2858
  2119.0000    -90.2792    110.4651      0.5441     18.4024     94.2493
  2119.2500    -67.0315      4.1530      0.4396     15.7793     90.3169
  2119.5000    -31.2555      1.6630      0.3703     12.7569     82.4016
  2119.7500     14.9026      0.8896      0.3239      9.7026     76.5670
  2120.0000     67.0980      0.5399      0.2931      6.9751     68.1007
  2120.2500    119.6620      0.3523      0.2732      4.8096     63.0056
  2120.5000    166.8114      0.2441      0.2613      3.2587     56.4889
  2120.7500    203.6986      0.1811      0.2556      2.2240     52.9882
  2121.0000    226.9501      0.1456      0.2549      1.5500     48.9747
  2121.2500    234.6702      0.1270      0.2584      1.1127     46.9897
  2121.5000    226.2052      0.1187      0.2660      0.8553     44.6983
  2121.7500    202.0203      0.1168      0.2776      0.7811     43.3509
  2122.0000    163.8601      0.1188      0.2932      0.9638     40.9853
  2122.2500    115.0299      0.1224      0.3128      1.6195     38.8736
  2122.5000     60.4302      0.1263      0.3362      3.2236     34.9560
  2122.7500      6.0426      0.1295      0.3621      6.5849     32.2512
  2123.0000    -42.1438      0.1322      0.3888     12.7199     28.8315
  2123.2500    -79.4136      0.1366      0.4140     22.3866     27.1996
  2123.5000   -103.3097      0.1462      0.4355     35.3410     25.9390
  2123.7500   -113.9359      0.1666      0.4527     49.7447     26.2478
  2124.0000   -113.4845      0.2064      0.4672     62.3537     29.6070
  2124.2500   -105.3377      0.2794      0.4827     69.7592     34.4615
  2124.5000    -93.0374      0.4099      0.5043     70.1093     45.8619
  2124.7500    -79.5298      0.6508      0.5382     64.1424     55.4381
  2125.0000    -66.8117      1.1527      0.5923     54.7456     70.2798
  2125.2500    -55.9302      2.5234      0.6778     45.3652     78.9153
  2125.5000    -47.2002     11.0521      0.8132     38.4138     88.1556
  2125.7500    -40.4801 100000.0000      1.0328     34.6187     91.7018
  2126.0000    -35.4136 100000.0000      1.4087     33.3881     94.4417
  2126.2500    -31.5930 100000.0000      2.1192     33.6261     95.6904
  2126.5000    -28.6428 100000.0000      3.7439     34.3987     97.7853
  2126.7500    -26.2856 100000.0000      9.7026     35.2100     99.1667
  2127.0000    -24.3213 100000.0000 100000.0000     35.9520    100.4775
  2127.2500    -22.6364 100000.0000 100000.0000     36.7050    100.8198
  2127.5000    -21.1905 100000.0000 100000.0000     37.5421    101.2834
  2127.7500    -19.9908 100000.0000 100000.0000     38.4264    101.9235
  2128.0000    -19.0604 100000.0000 100000.0000     39.2160    103.2633
  2128.2500    -18.4110 100000.0000 100000.0000     39.7391    104.1894
  2128.5000    -18.0207 100000.0000 100000.0000     39.8791    105.6239
  2128.7500    -17.8295 100000.0000 100000.0000     39.6246    106.6592
  2129.0000    -17.7543 100000.0000     51.0850     39.0632    107.8651
  2129.2500    -17.7144 100000.0000     16.7291     38.3276    107.9837
  2129.5000    -17.6597 100000.0000     10.8008     37.5200    106.9069
  2129.7500    -17.5842    822.4885      8.5912     36.6628    105.6586
  2130.0000    -17.5213    112.8132      7.6442     35.7091    103.5776
  2130.2500    -17.5148     67.7277      7.3286     34.6096    102.1013
  2130.5000    -17.5910     50.7130      7.4274     33.3913     99.5023
  2130.7500    -17.7367     41.4373      7.8649     32.1913     97.4235
  2131.0000    -17.9035     35.6275      8.6272     31.2139     93.8569
  2131.2500    -18.0258     31.8569      9.7292     30.6325     91.2965
  2131.5000    -18.0439     29.4736     11.1924     30.4930     87.5774
  2131.7500    -17.9167     28.0897     13.0178     30.6899     85.5615
  2132.0000    -17.6224     27.4269     15.1521     31.0361     83.9899
