~Version Information
VERS.                      2.0: CWLS Log ASCII Standard - VERSION 2.0
WRAP.                       NO: One line per depth step
~Well Information Block
STRT.FT               768.0000: 
STOP.FT              2637.5000: 
STEP.FT                 0.2500: 
NULL.                -999.2500: 
COMP.          Pioneer Natural Resources: COMPANY
WELL.               Zink 44-10: WELL
FLD.           Purgatoire River: FIELD
LOC.           548' FSL & 473' FEL: LOCATION
PROV.                 Colorado: PROVINCE
CNTY.               Las Animas: COUNTRY
SRVC.                Patterson: SERVICE COMPANY
DATE.          Mon May 30 05:59:42 2005: LOG DATE
UWI.           05 071 08380 00: UNIQUE WELL ID
~Curve Information Block
DEPT.FT            0 000 00 00: Depth
SN.Ohm-m                      : IEL Short Normal
SP.mV                         : IEL Spontaneous Potential
DIR.Ohm-m                     : IEL Induction Resistivity
GR.GAPI                       : Gamma Ray
~Parameter Information Block
~A  Depth        SN          SP         DIR          GR     
# ...
  1136.5000   2000.0000   2000.0000     23.9037    122.2676
  1136.7500   2000.0000   2000.0000     23.0218    126.5269
  1137.0000   2000.0000   2000.0000     22.0576    131.7544
  1137.2500   2000.0000   2000.0000     21.0369    134.6868
  1137.5000   2000.0000   2000.0000     20.0191    138.7506
  1137.7500   2000.0000   2000.0000     19.0668    141.1625
  1138.0000   2000.0000   2000.0000     18.2247    143.8197
  1138.2500   2000.0000   2000.0000     17.5189    144.9141
  1138.5000   2000.0000   2000.0000     16.9648    146.4504
  1138.7500   2000.0000   2000.0000     16.5703    148.1646
  1139.0000   2000.0000   2000.0000     16.3288    152.2780
  1139.2500   2000.0000   2000.0000     16.2105    155.6242
  1139.5000   2000.0000   2000.0000     16.1632    160.0527
  1139.7500   2000.0000   2000.0000     16.1271    161.6817
  1140.0000   2000.0000   2000.0000     16.0573    161.1625
  1140.2500   2000.0000   2000.0000     15.9387    158.9587
  1140.5000   2000.0000   2000.0000     15.7849    154.2950
  1140.7500   2000.0000   2000.0000     15.6254    151.3483
  1141.0000   2000.0000   2000.0000     15.4926    148.2388
  1141.2500   2000.0000   2000.0000     15.4142    147.0866
  1141.5000   2000.0000   2000.0000     15.4083    146.6430
  1141.7500   2000.0000   2000.0000     15.4824    147.4113
  1142.0000   2000.0000   2000.0000     15.6343    150.5871
  1142.2500   2000.0000   2000.0000     15.8540    153.8786
  1142.5000   2000.0000   2000.0000     16.1234    159.3828
  1142.7500   2000.0000   2000.0000     16.4147    162.6041
  1143.0000   2000.0000   2000.0000     16.6904    165.8438
  1143.2500   2000.0000   2000.0000     16.9126    166.6491
  1143.5000   2000.0000   2000.0000     17.0597    165.4187
  1143.7500   2000.0000   2000.0000     17.1366    162.9771
  1144.0000   2000.0000   2000.0000     17.1714    157.8696
  1144.2500   2000.0000   2000.0000     17.2006    154.5055
  1144.5000   2000.0000   2000.0000     17.2555    150.8698
  1144.7500   2000.0000   2000.0000     17.3564    149.4307
  1145.0000   2000.0000   2000.0000     17.5138    147.5287
  1145.2500   2000.0000   2000.0000     17.7349    145.4648
  1145.5000   2000.0000   2000.0000     18.0317    140.4163
  1145.7500   2000.0000   2000.0000     18.4254    136.1834
  1146.0000   2000.0000   2000.0000     18.9409    130.1313
  1146.2500   2000.0000   2000.0000     19.5941    126.9702
  1146.5000   2000.0000   2000.0000     20.3772    123.3904
  1146.7500   2000.0000   2000.0000     21.2466    121.0784
  1147.0000   2000.0000   2000.0000     22.1190    116.4672
  1147.2500   2000.0000   2000.0000     22.8879    112.3040
  1147.5000   2000.0000   2000.0000     23.4678    104.5387
  1147.7500   2000.0000   2000.0000     23.8469     98.5848
  1148.0000   2000.0000   2000.0000     24.1006     89.2270
  1148.2500   2000.0000   2000.0000     24.3422     83.5248
  1148.5000   2000.0000   2000.0000     24.6526     77.5576
  1148.7500   2000.0000   2000.0000     25.0407     75.9161
  1149.0000   2000.0000   2000.0000     25.4534     76.3111
  1149.2500   2000.0000   2000.0000     25.8120     77.3850
  1149.5000   2000.0000   2000.0000     26.0444     78.8269
  1149.7500   2000.0000   2000.0000     26.0949     79.8301
  1150.0000   2000.0000   2000.0000     25.9248     82.9127
  1150.2500   2000.0000   2000.0000     25.5250     86.8301
  1150.5000   2000.0000   2000.0000     24.9390     95.5519
  1150.7500   2000.0000   2000.0000     24.2665    102.4419
  1151.0000   2000.0000   2000.0000     23.6307    112.4640
  1151.2500   2000.0000   2000.0000     23.1284    118.2443
  1151.5000   2000.0000   2000.0000     22.7998    125.6994
  1151.7500   2000.0000   2000.0000     22.6251    130.2440
  1152.0000   2000.0000   2000.0000     22.5399    136.1412
  1152.2500   2000.0000   2000.0000     22.4588    138.5068
  1152.5000   2000.0000   2000.0000     22.2994    137.8159
  1152.7500   2000.0000   2000.0000     22.0079    134.0738
  1153.0000   2000.0000   2000.0000     21.5790    124.2347
  1153.2500   2000.0000   2000.0000     21.0609    115.8223
  1153.5000   2000.0000   2000.0000     20.5365    102.7000
  1153.7500   2000.0000   2000.0000     20.0921     95.3000
  1154.0000   2000.0000   2000.0000     19.7901     89.0169
  1154.2500   2000.0000   2000.0000     19.6597     88.8895
  1154.5000   2000.0000   2000.0000     19.7003     94.3046
  1154.7500   2000.0000   2000.0000     19.8915    100.5311
  1155.0000   2000.0000   2000.0000     20.2007    111.2266
  1155.2500   2000.0000   2000.0000     20.5842    117.6994
  1155.5000   2000.0000   2000.0000     20.9912    124.4573
  1155.7500   2000.0000   2000.0000     21.3737    126.6758
  1156.0000   2000.0000   2000.0000     21.7040    127.1106
  1156.2500   2000.0000   2000.0000     21.9882    125.8111
  1156.5000   2000.0000   2000.0000     22.2683    121.7994
  1156.7500   2000.0000   2000.0000     22.6126    118.1343
  1157.0000   2000.0000   2000.0000     23.0982    112.3686
  1157.2500   2000.0000   2000.0000     23.7904    109.0261
  1157.5000   2000.0000   2000.0000     24.7216    105.2136
  1157.7500   2000.0000   2000.0000     25.8826    103.2968
  1158.0000   2000.0000   2000.0000     27.2320    100.7837
  1158.2500   2000.0000   2000.0000     28.7253     99.1690
  1158.5000   2000.0000   2000.0000     30.3430     96.9495
  1158.7500   2000.0000   2000.0000     32.0816     95.6916
  1159.0000   2000.0000   2000.0000     33.8862     93.8441
  1159.2500   2000.0000   2000.0000     35.5547     92.2754
  1159.5000   2000.0000   2000.0000     36.7080     89.2854
  1159.7500   2000.0000   2000.0000     36.9464     87.4284
  1160.0000   2000.0000   2000.0000     36.1357     86.4373
  1160.2500   2000.0000   2000.0000     34.5215     87.6580
  1160.5000   2000.0000   2000.0000     32.5226     92.5298
  1160.7500   2000.0000   2000.0000     30.4680     97.5300
  1161.0000   2000.0000   2000.0000     28.5224    106.8431
  1161.2500   2000.0000   2000.0000     26.7524    113.6217
  1161.5000   2000.0000   2000.0000     25.1931    123.5363
  1161.7500   2000.0000   2000.0000     23.8606    129.6022
  1162.0000   2000.0000   2000.0000     22.7370    137.8717
  1162.2500   2000.0000   2000.0000     21.7740    142.9426
  1162.5000   2000.0000   2000.0000     20.9180    149.6358
  1162.7500   2000.0000   2000.0000     20.1407    152.9752
  1163.0000   2000.0000   2000.0000     19.4455    155.2876
  1163.2500   2000.0000   2000.0000     18.8510    154.8046
  1163.5000   2000.0000   2000.0000     18.3721    151.5139
  1163.7500   2000.0000   2000.0000     18.0198    148.0849
  1164.0000   2000.0000   2000.0000     17.8145    141.6948
  1164.2500   2000.0000   2000.0000     17.7910    136.7581
  1164.5000   2000.0000   2000.0000     17.9811    128.3477
  1164.7500   2000.0000   2000.0000     18.3837    122.0862
  1165.0000   2000.0000   2000.0000     18.9472    112.2037
  1165.2500   2000.0000   2000.0000     19.5817    105.8349
  1165.5000   2000.0000   2000.0000     20.1949     97.2780
  1165.7500   2000.0000   2000.0000     20.7238     92.2007
  1166.0000   2000.0000   2000.0000     21.1359     85.2808
  1166.2500   2000.0000   2000.0000     21.4039     81.4453
  1166.5000   2000.0000   2000.0000     21.4876     78.3977
  1166.7500   2000.0000   2000.0000     21.3407     79.1376
  1167.0000   2000.0000   2000.0000     20.9378     84.9845
  1167.2500   2000.0000   2000.0000     20.2950     91.3871
  1167.5000   2000.0000   2000.0000     19.4650    102.1142
  1167.7500   2000.0000   2000.0000     18.5170    108.2540
  1168.0000   2000.0000   2000.0000     17.5173    114.3412
  1168.2500   2000.0000   2000.0000     16.5223    116.6922
  1168.5000   2000.0000   2000.0000     15.5762    119.6039
  1168.7500   2000.0000   2000.0000     14.7107    122.0695
  1169.0000   2000.0000   2000.0000     13.9465    126.8643
  1169.2500   2000.0000   2000.0000     13.2963    130.4118
  1169.5000   2000.0000   2000.0000     12.7664    135.5763
  1169.7500   2000.0000   2000.0000     12.3575    138.7806
