~Version Information
VERS.                      2.0: CWLS Log ASCII Standard - VERSION 2.0
WRAP.                       NO: One line per depth step
~Well Information Block
STRT.FT               555.5000: 
STOP.FT              2179.0000: 
STEP.FT                 0.2500: 
NULL.                -999.2500: 
COMP.          Petrogulf Corporation: COMPANY
WELL.            Montoya 6-14R: WELL
FLD.           Purgatorie River: FIELD
LOC.           867' FSL & 751' FWL: LOCATION
CNTY.               Las Animas: COUNTY
SRVC.                         : SERVICE COMPANY
DATE.          Mon Nov 15 07:02:23 2004: LOG DATE
UWI.           05 071 08242 00: UNIQUE WELL ID
STAT.                 Colorado: STATE
~Curve Information Block
DEPT.FT            0 000 00 00: Depth
SP.mV                         : DIL Spontaneous Potential
RILD.Ohm-m                    : DIL Deep Resistivity
RILM.Ohm-m                    : DIL Medium Resistivity
RLL3.Ohm-m                    : DIL Shallow Resistivity
GR.GAPI                       : Gamma Ray
~Parameter Information Block
~A  Depth        SP         RILD        RILM        RLL3         GR     
# ...
  2039.5000     -7.3086     11.7323     11.3781     12.6589    130.7652
  2039.7500     -6.0668     11.8786     11.5602     12.8385    129.5038
  2040.0000     -4.9339     12.0532     11.7713     13.0910    126.3584
  2040.2500     -3.9489     12.2556     12.0115     13.4302    123.0259
  2040.5000     -3.0965     12.4849     12.2814     13.8675    116.7837
  2040.7500     -2.3198     12.7409     12.5823     14.4096    112.8526
  2041.0000     -1.5449     13.0244     12.9160     15.0544    108.7948
  2041.2500     -0.7000     13.3378     13.2850     15.7868    107.4276
  2041.5000      0.2623     13.6848     13.6919     16.5776    106.8967
  2041.7500      1.3481     14.0701     14.1389     17.3883    107.3929
  2042.0000      2.5081     14.4985     14.6278     18.1798    109.1728
  2042.2500      3.6367     14.9738     15.1602     18.9261    110.6320
  2042.5000      4.5849     15.4985     15.7372     19.6239    112.4200
  2042.7500      5.1822     16.0729     16.3605     20.2991    113.2303
  2043.0000      5.2730     16.6948     17.0328     21.0048    114.0804
  2043.2500      4.7538     17.3599     17.7580     21.8151    114.2980
  2043.5000      3.6017     18.0628     18.5415     22.8178    113.4752
  2043.7500      1.8893     18.7973     19.3897     24.1079    111.9886
  2044.0000     -0.2259     19.5586     20.3092     25.7794    108.8306
  2044.2500     -2.5255     20.3436     21.3056     27.9152    106.5771
  2044.5000     -4.7712     21.1513     22.3831     30.5704    103.4771
  2044.7500     -6.7468     21.9813     23.5430     33.7491    101.6110
  2045.0000     -8.2938     22.8324     24.7845     37.3790     98.7345
  2045.2500     -9.3389     23.6996     26.1033     41.2952     96.4652
  2045.5000     -9.8981     24.5722     27.4924     45.2439     92.4354
  2045.7500    -10.0681     25.4328     28.9410     48.9156     89.6761
  2046.0000     -9.9994     26.2589     30.4328     52.0029     86.2667
  2046.2500     -9.8601     27.0258     31.9440     54.2686     84.7628
  2046.5000     -9.7908     27.7112     33.4400     55.5952     83.6057
  2046.7500     -9.8799     28.2995     34.8756     55.9947     83.2879
  2047.0000    -10.1429     28.7842     36.1970     55.5752     82.8472
  2047.2500    -10.5304     29.1677     37.3483     54.4829     82.3892
  2047.5000    -10.9542     29.4579     38.2809     52.8511     81.9036
  2047.7500    -11.3150     29.6640     38.9650     50.7829     82.2744
  2048.0000    -11.5343     29.7926     39.3973     48.3727     84.5041
  2048.2500    -11.5684     29.8449     39.6012     45.7472     86.9475
  2048.5000    -11.4147     29.8168     39.6199     43.0944     90.8730
  2048.7500    -11.1032     29.7004     39.5045     40.6596     92.7015
  2049.0000    -10.6851     29.4875     39.3006     38.7051     92.9236
  2049.2500    -10.2182     29.1730     39.0367     37.4528     91.2320
  2049.5000     -9.7555     28.7569     38.7176     37.0335     86.8035
  2049.7500     -9.3334     28.2453     38.3230     37.4613     83.2744
  2050.0000     -8.9663     27.6499     37.8117     38.6414     77.7473
  2050.2500     -8.6451     26.9855     37.1310     40.3996     74.0694
  2050.5000     -8.3386     26.2684     36.2314     42.5161     69.1778
  2050.7500     -8.0040     25.5149     35.0825     44.7457     66.8956
  2051.0000     -7.5953     24.7401     33.6838     46.8202     65.5297
  2051.2500     -7.0761     23.9577     32.0710     48.4429     65.8374
  2051.5000     -6.4277     23.1801     30.3083     49.2973     67.3274
  2051.7500     -5.6521     22.4181     28.4761     49.0882     68.7074
  2052.0000     -4.7693     21.6813     26.6553     47.6155     71.7562
  2052.2500     -3.8139     20.9774     24.9155     44.8525     75.0714
  2052.5000     -2.8282     20.3125     23.3081     40.9908     82.8528
  2052.7500     -1.8558     19.6910     21.8651     36.4208     89.9241
  2053.0000     -0.9361     19.1163     20.6016     31.6456    102.3966
  2053.2500     -0.1009     18.5909     19.5198     27.1604    111.0477
  2053.5000      0.6273     18.1175     18.6130     23.3439    122.9316
  2053.7500      1.2366     17.6993     17.8701     20.3968    129.3505
  2054.0000      1.7244     17.3400     17.2771     18.3414    135.7089
  2054.2500      2.0972     17.0439     16.8205     17.0672    137.5002
  2054.5000      2.3687     16.8155     16.4879     16.3965    137.0490
  2054.7500      2.5568     16.6593     16.2692     16.1453    135.4688
  2055.0000      2.6819     16.5785     16.1573     16.1641    132.5858
  2055.2500      2.7649     16.5756     16.1478     16.3575    130.7713
  2055.5000      2.8243     16.6507     16.2390     16.6840    128.3454
  2055.7500      2.8751     16.8020     16.4317     17.1484    126.7882
  2056.0000      2.9276     17.0248     16.7278     17.7926    124.1395
  2056.2500      2.9869     17.3113     17.1297     18.6897    121.9923
  2056.5000      3.0539     17.6503     17.6387     19.9370    118.4290
  2056.7500      3.1260     18.0271     18.2528     21.6424    116.3398
  2057.0000      3.1986     18.4236     18.9644     23.8978    114.6763
  2057.2500      3.2674     18.8189     19.7567     26.7386    114.7628
  2057.5000      3.3299     19.1907     20.6006     30.1000    115.8242
  2057.7500      3.3870     19.5163     21.4514     33.7836    116.1013
  2058.0000      3.4441     19.7751     22.2491     37.4542    114.2559
  2058.2500      3.5110     19.9505     22.9219     40.6755    111.2401
  2058.5000      3.6013     20.0314     23.3968     42.9849    104.7918
  2058.7500      3.7305     20.0133     23.6147     43.9925    100.0029
  2059.0000      3.9132     19.8983     23.5453     43.4783     93.5804
  2059.2500      4.1603     19.6942     23.1965     41.4574     90.8089
  2059.5000      4.4756     19.4134     22.6116     38.1876     90.7660
  2059.7500      4.8545     19.0712     21.8572     34.1142     94.2086
  2060.0000      5.2828     18.6840     21.0070     29.7658    104.3488
  2060.2500      5.7383     18.2683     20.1274     25.6357    113.4206
  2060.5000      6.1930     17.8400     19.2701     22.0876    128.0820
  2060.7500      6.6172     17.4138     18.4698     19.3100    137.2354
  2061.0000      6.9825     17.0032     17.7466     17.3250    148.4765
  2061.2500      7.2657     16.6206     17.1097     16.0352    153.9486
  2061.5000      7.4501     16.2771     16.5615     15.2839    159.2766
  2061.7500      7.5268     15.9831     16.1014     14.9076    161.1435
  2062.0000      7.4941     15.7473     15.7280     14.7696    161.7512
  2062.2500      7.3565     15.5776     15.4411     14.7741    161.0580
  2062.5000      7.1240     15.4806     15.2422     14.8682    159.5922
  2062.7500      6.8105     15.4617     15.1352     15.0393    158.9468
  2063.0000      6.4327     15.5251     15.1259     15.3131    158.1571
  2063.2500      6.0087     15.6737     15.2219     15.7511    156.8703
  2063.5000      5.5568     15.9094     15.4320     16.4481    152.7446
  2063.7500      5.0945     16.2328     15.7659     17.5245    148.7512
  2064.0000      4.6373     16.6432     16.2338     19.1066    142.0303
  2064.2500      4.1979     17.1383     16.8454     21.2955    137.4222
  2064.5000      3.7865     17.7137     17.6093     24.1233    129.8996
  2064.7500      3.4102     18.3625     18.5320     27.5141    123.9253
  2065.0000      3.0742     19.0748     19.6164     31.2647    112.8742
  2065.2500      2.7815     19.8368     20.8596     35.0671    104.1253
  2065.5000      2.5343     20.6302     22.2514     38.5735     89.6100
  2065.7500      2.3345     21.4317     23.7707     41.4909     79.7277
  2066.0000      2.1846     22.2125     25.3827     43.6694     66.1789
  2066.2500      2.0887     22.9384     27.0342     45.1466     58.8807
  2066.5000      2.0534     23.5709     28.6500     46.1274     51.4531
  2066.7500      2.0876     24.0693     30.1292     46.9021     48.8448
  2067.0000      2.2027     24.3958     31.3486     47.7323     47.5314
  2067.2500      2.4106     24.5202     32.1748     48.7435     47.5144
