~Version Information
VERS.                      2.0: CWLS Log ASCII Standard - VERSION 2.0
WRAP.                       NO: One line per depth step
~Well Information Block
STRT.FT                 3.0000: 
STOP.FT              1884.7500: 
STEP.FT                 0.2500: 
NULL.                -999.2500: 
COMP.          Pioneer Natural Resources: COMPANY
WELL.          Blackjack 32-11 Tr: WELL
FLD.           Purgatoire River: FIELD
LOC.           2066' FNL & 1453' FEL: LOCATION
PROV.                 Colorado: PROVINCE
CNTY.               Las Animas: COUNTRY
SRVC.                Patterson: SERVICE COMPANY
DATE.          Fri Aug 19 11:07:11 2005: LOG DATE
UWI.           05 071 08310 00: UNIQUE WELL ID
~Curve Information Block
DEPT.FT            0 000 00 00: Depth
CCL.                          : Casing Collar Locator
TT3.usec                      : CBL 3' Travel Time
AMP3.mV                       : CBL 3' Amplitude
GR.GAPI                       : Gamma Ray
~Parameter Information Block
~A  Depth       CCL         TT3         AMP3         GR     
# ...
   237.5000      0.0000    964.0944     18.0954     41.1900
   237.7500      0.0000    995.4730     18.0353     41.8601
   238.0000      0.0000   1015.7392     17.9011     43.3002
   238.2500      0.0000   1018.7540     17.6768     45.2051
   238.5000      0.0000   1011.5356     17.3505     46.4270
   238.7500      0.0000   1007.9635     16.9222     46.0523
   239.0000      0.0000   1012.4035     16.4220     44.5029
   239.2500      0.0000   1012.9624     15.9146     43.3138
   239.5000      0.0000    993.8524     15.4797     43.7460
   239.7500      0.0000    952.1772     15.1779     45.6239
   240.0000      0.0000    899.8508     15.0270     47.5823
   240.2500      0.0000    851.8182     15.0056     48.4613
   240.5000      0.0000    816.4612     15.0811     48.2450
   240.7500      0.0000    795.5012     15.2376     47.5385
   241.0000      0.0000    787.8378     15.4796     46.5698
   241.2500      0.0000    791.4545     15.8171     45.1540
   241.5000      0.0000    803.1360     16.2490     43.3843
   241.7500      0.0000    818.2420     16.7548     41.8193
   242.0000      0.0000    831.9689     17.2957     40.9721
   242.2500      0.0000    841.3407     17.8226     40.9142
   242.5000      0.0000    845.8301     18.2879     41.3423
   242.7500      0.0000    845.9725     18.6549     41.8863
   243.0000      0.0000    841.8078     18.9053     42.4195
   243.2500      0.0000    833.0131     19.0427     43.1073
   243.5000      0.0000    820.5845     19.0907     44.1672
   243.7500      0.0000    807.7483     19.0853     45.6834
   244.0000      0.0000    798.0494     19.0660     47.5542
   244.2500      0.0000    792.0995     19.0666     49.4438
   244.5000      0.0000    787.0872     19.1077     50.8213
   244.7500      0.0000    780.1661     19.1879     51.1520
   245.0000      0.0000    771.5613     19.2799     50.0678
   245.2500      0.0000    763.6863     19.3423     47.5854
   245.5000      0.0000    758.1337     19.3469     44.4828
   245.7500      0.0000    754.6705     19.3000     42.2355
   246.0000      0.0000    752.8689     19.2372     42.1242
   246.2500      0.0000    753.5115     19.1985     44.2188
   246.5000      0.0000    757.7446     19.2017     47.1790
   246.7500      0.0000    764.9365     19.2324     49.1248
   247.0000      0.0000    772.0592     19.2570     48.9591
   247.2500      0.0000    775.9352     19.2482     47.0037
   247.5000      0.0000    775.9314     19.1975     44.4207
   247.7500      0.0000    773.8207     19.1041     42.2836
   248.0000      0.0000    771.4357     18.9636     41.2181
   248.2500      0.0000    769.0679     18.7793     41.3536
   248.5000      0.0000    765.7018     18.5801     42.2033
   248.7500      0.0000    760.2125     18.4158     42.9153
   249.0000      0.0000    752.5952     18.3252     42.9872
   249.2500      0.0000    744.4879     18.3078     42.6294
   249.5000      0.0000    738.3367     18.3249     42.3986
   249.7500      0.0000    735.6419     18.3290     42.6022
   250.0000      0.0000    735.9705     18.2959     43.0443
   250.2500      0.0000    737.7055     18.2356     43.2944
   250.5000      0.0000    739.5849     18.1869     43.3398
   250.7500      0.0000    741.2088     18.2096     43.8978
   251.0000      0.0000    742.2739     18.3738     45.7411
   251.2500      0.0000    742.0762     18.7117     48.6376
   251.5000      0.0000    740.1566     19.1382     51.2208
   251.7500      0.0000    737.1785     19.4368     52.0849
   252.0000      0.0000    734.7755     19.3970     50.9640
   252.2500      0.0000    734.2752     18.9985     48.7954
   252.5000      0.0000    735.5760     18.4267     46.7417
   252.7500      0.0000    737.4150     17.9048     45.2707
   253.0000      0.0000    738.5875     17.5437     44.0682
   253.2500      0.0000    738.5760     17.3377     42.6608
   253.5000      0.0000    737.2651     17.2328     41.1231
   253.7500      0.0000    734.8113     17.1703     40.1802
   254.0000      0.0000    731.8652     17.0990     40.4858
   254.2500      0.0000    729.3031     16.9861     41.7586
   254.5000      0.0000    727.5952     16.8269     42.8260
   254.7500      0.0000    726.6353     16.6368     42.7200
   255.0000      0.0000    726.0981     16.4317     41.6304
   255.2500      0.0000    725.7629     16.2155     40.5783
   255.5000      0.0000    725.5469     15.9861     40.2228
   255.7500      0.0000    725.4161     15.7456     40.2173
   256.0000      0.0000    725.3120     15.5052     39.7665
   256.2500      0.0000    725.1196     15.2805     38.6502
   256.5000      0.0000    724.4411     15.0838     37.5772
   256.7500      0.0000    722.0735     14.9203     37.4973
   257.0000      0.0000    715.4594     14.7849     38.6073
   257.2500      0.0000    701.7474     14.6490     40.1204
   257.5000      0.0000    682.1658     14.4355     41.0266
   257.7500      0.0000    667.1965     14.0153     41.0189
   258.0000      0.0000    674.3690     13.2663     40.6221
   258.2500      0.0000    714.6587     12.1794     40.5184
   258.5000      0.0000    779.0471     10.9244     41.0595
   258.7500      0.0000    842.3040      9.7891     42.5203
   259.0000      0.0000    882.6811      9.0229     45.3745
   259.2500     -3.0000    896.7787      8.7169     49.8920
   259.5000      3.0000    896.3156      8.7974     55.4914
   259.7500      0.0000    896.4474      9.0932     60.7336
   260.0000     -2.3038    907.9480      9.4212     64.1453
   260.2500      0.0000    931.3993      9.6790     65.1186
   260.5000      0.0000    952.4279      9.8934     63.9896
   260.7500      0.0000    949.1833     10.1693     61.4087
   261.0000      0.0000    912.4255     10.5908     58.0423
   261.2500      0.0000    855.7829     11.1786     54.9116
   261.5000      0.0000    802.4724     11.8956     53.4290
   261.7500      0.0000    766.0289     12.6457     54.6414
   262.0000      0.0000    746.0329     13.3010     58.4274
   262.2500      0.0000    736.2350     13.7793     63.5118
   262.5000      0.0000    731.5804     14.0903     68.2868
   262.7500      0.0000    729.4722     14.2956     71.6375
   263.0000      0.0000    728.6544     14.4431     73.0450
   263.2500      0.0000    728.4968     14.5474     72.3128
   263.5000      0.0000    728.8281     14.6111     69.7616
   263.7500      0.0000    730.0862     14.6446     66.4985
   264.0000      0.0000    733.3509     14.6687     63.7621
   264.2500      0.0000    739.9996     14.7078     61.9453
   264.5000      0.0000    750.6420     14.7804     60.6307
   264.7500      0.0000    763.8355     14.8897     59.3214
   265.0000      0.0000    775.9410     15.0229     57.7273
   265.2500      0.0000    783.0667     15.1650     55.7398
   265.5000      0.0000    783.8583     15.3123     53.7214
   265.7500      0.0000    780.3035     15.4688     52.6838
   266.0000      0.0000    775.6337     15.6291     53.5050
   266.2500      0.0000    771.7014     15.7722     55.6918
   266.5000      0.0000    768.3699     15.8724     57.2395
   266.7500      0.0000    764.7725     15.9123     56.1928
   267.0000      0.0000    760.7190     15.8872     52.4675
   267.2500      0.0000    757.0074     15.8053     47.9468
   267.5000      0.0000    754.5656     15.6876     44.7031
   267.7500      0.0000    753.3804     15.5657     43.2038
   268.0000      0.0000    752.3838     15.4693     42.2970
   268.2500      0.0000    750.5183     15.4106     40.8373
   268.5000      0.0000    747.7247     15.3750     39.1196
   268.7500      0.0000    744.6036     15.3248     38.5614
   269.0000      0.0000    741.4224     15.2194     40.0553
   269.2500      0.0000    738.1816     15.0402     42.8584
   269.5000      0.0000    735.5377     14.7974     45.1744
   269.7500      0.0000    735.0206     14.5156     45.7364
   270.0000      0.0000    738.0365     14.2165     44.6776
   270.2500      0.0000    744.3092     13.9167     42.9818
   270.5000      0.0000    750.9616     13.6322     41.4633
   270.7500      0.0000    753.8378     13.3762     40.4262
