~Version Information
VERS.                      2.0: CWLS Log ASCII Standard - VERSION 2.0
WRAP.                       NO: One line per depth step
~Well Information Block
STRT.FT                -7.2500: 
STOP.FT              2610.0000: 
STEP.FT                 0.2500: 
NULL.                -999.2500: 
COMP.          Pioneer Natural Resources: COMPANY
WELL.              Wagner 13-9: WELL
FLD.           Purgatorie River: FIELD
LOC.           1819' FSL & 1111' FWL--: LOCATION
PROV.                       CO: PROVINCE
CNTY.               Las Animas: COUNTRY
SRVC.          Patterson Wireline: SERVICE COMPANY
DATE.          Wed May 18 09:08:26 2005: LOG DATE
UWI.           05 071 08302 00: UNIQUE WELL ID
~Curve Information Block
DEPT.FT            0 000 00 00: Depth
CCL.                          : Casing Collar Locator
TT3.usec                      : CBL 3' Travel Time
AMP3.mV                       : CBL 3' Amplitude
GR.GAPI                       : Gamma Ray
~Parameter Information Block
~A  Depth       CCL         TT3         AMP3         GR     
# ...
  1366.2500      0.0000    720.6183      2.4141     77.1609
  1366.5000      0.0000    723.8114      2.2657     78.4340
  1366.7500      0.0000    722.5046      2.1732     79.4863
  1367.0000      0.0000    718.0069      2.0963     79.7192
  1367.2500      0.0000    711.7485      1.9972     79.2005
  1367.5000      0.0000    704.5900      1.8785     78.5476
  1367.7500      0.0000    698.2181      1.7724     78.2230
  1368.0000      0.0000    695.4912      1.7032     77.9999
  1368.2500      0.0000    698.2656      1.6749     77.1167
  1368.5000      0.0000    705.0010      1.6943     74.8747
  1368.7500      0.0000    711.4416      1.7857     71.3085
  1369.0000      0.0000    714.4227      1.9589     67.5054
  1369.2500      0.0000    715.0703      2.1703     64.9828
  1369.5000      0.0000    718.1234      2.3420     64.4466
  1369.7500      0.0000    728.2620      2.4177     65.1659
  1370.0000      0.0000    746.5731      2.3913     65.5351
  1370.2500      0.0000    769.3717      2.3010     64.2599
  1370.5000      0.0000    789.8121      2.2057     61.3883
  1370.7500      0.0000    801.0357      2.1524     58.4639
  1371.0000      0.0000    799.0046      2.1552     57.4097
  1371.2500      0.0000    784.1067      2.2065     58.9827
  1371.5000      0.0000    761.0367      2.2946     62.4144
  1371.7500      0.0000    736.4139      2.4132     66.5269
  1372.0000      0.0000    715.1733      2.5625     70.9987
  1372.2500      0.0000    698.6255      2.7310     76.6409
  1372.5000      0.0000    685.6764      2.8794     84.6348
  1372.7500      0.0000    675.3801      2.9696     95.4446
  1373.0000      0.0000    667.9916      3.0056    108.3802
  1373.2500      0.0000    664.0682      3.0187    122.0544
  1373.5000      0.0000    663.0770      3.0194    134.8985
  1373.7500      0.0000    662.4415      2.9849    145.1859
  1374.0000      0.0000    657.1008      2.8915    151.1866
  1374.2500      0.0000    640.5125      2.7492    152.0049
  1374.5000      0.0000    608.2505      2.6056    148.4448
  1374.7500      0.0000    562.4812      2.5123    142.8798
  1375.0000      0.0000    512.6578      2.4897    137.9874
  1375.2500      0.0000    470.4239      2.5221    135.3546
  1375.5000      0.0000    443.3330      2.5795    134.9591
  1375.7500      0.0000    433.7321      2.6464    135.5328
  1376.0000      0.0000    442.4348      2.7328    135.2142
  1376.2500      0.0000    470.5926      2.8467    132.2637
  1376.5000      0.0000    515.9995      2.9569    125.9969
  1376.7500      0.0000    568.7396      3.0060    117.3345
  1377.0000      0.0000    613.4412      2.9614    108.0866
  1377.2500      0.0000    637.9652      2.8403     99.8618
  1377.5000      0.0000    641.0258      2.6943     94.0935
  1377.7500      0.0000    632.5659      2.5789     92.3616
  1378.0000      0.0000    626.2660      2.5260     95.4340
  1378.2500      0.0000    629.4057      2.5341    102.0679
  1378.5000      0.0000    639.1125      2.5749    109.6032
  1378.7500      0.0000    648.4471      2.6077    115.7300
  1379.0000      0.0000    654.5966      2.5984    119.4955
  1379.2500      0.0000    660.2905      2.5432    121.3268
  1379.5000      0.0000    668.7779      2.4730    122.6584
  1379.7500      0.0000    678.9381      2.4289    125.1636
  1380.0000      0.0000    685.7275      2.4335    129.7293
  1380.2500      0.0000    685.3679      2.4906    135.8437
  1380.5000      0.0000    679.1109      2.6027    141.7747
  1380.7500      0.0000    671.3782      2.7691    145.2353
  1381.0000      0.0000    665.1958      2.9669    144.2524
  1381.2500      0.0000    659.9202      3.1557    138.0950
  1381.5000      0.0000    651.5854      3.3031    127.8534
  1381.7500      0.0000    634.2230      3.3997    116.2578
  1382.0000      0.0000    602.6725      3.4572    106.6001
  1382.2500      0.0000    557.4314      3.4968    101.0700
  1382.5000      0.0000    507.8555      3.5354     99.6912
  1382.7500      0.0000    469.1137      3.5796    100.9494
  1383.0000      0.0000    454.5037      3.6309    103.3018
  1383.2500      0.0000    469.1317      3.6918    105.8039
  1383.5000      0.0000    507.8101      3.7556    107.9020
  1383.7500      0.0000    557.0108      3.7942    109.4458
  1384.0000      0.0000    600.8905      3.7782    110.7759
  1384.2500      0.0000    628.5142      3.7085    112.5094
  1384.5000      0.0000    636.3433      3.6073    115.2457
  1384.7500      0.0000    625.0340      3.4839    118.9005
  1385.0000      0.0000    596.6157      3.3389    121.8265
  1385.2500      0.0000    556.5425      3.1902    121.3567
  1385.5000      0.0000    516.9697      3.0703    116.2493
  1385.7500      0.0000    494.1408      3.0040    108.5503
  1386.0000      0.0000    498.2792      2.9986    102.4362
  1386.2500      0.0000    523.4787      3.0418    101.0117
  1386.5000     -2.0000    548.7158      3.1032    104.3279
  1386.7500     -2.0000    553.6699      3.1502    110.3653
  1387.0000      0.0000    537.0161      3.1743    117.3365
  1387.2500      0.0000    517.9401      3.2058    124.3422
  1387.5000      0.0000    518.2817      3.2926    130.1495
  1387.7500      0.0000    543.6115      3.4472    132.8808
  1388.0000      0.0000    580.7383      3.6187    131.7780
  1388.2500      0.0000    611.5592      3.7386    128.4738
  1388.5000      0.0000    628.6069      3.7931    125.5610
  1388.7500      0.0000    637.4941      3.8294    124.0200
  1389.0000      0.0000    646.2325      3.8921    122.7162
  1389.2500      0.0000    655.9367      3.9772    120.3964
  1389.5000      0.0000    662.5670      4.0543    117.2490
  1389.7500      0.0000    663.5142      4.1028    114.1433
  1390.0000      0.0000    659.8615      4.1173    111.3736
  1390.2500      0.0000    654.6022      4.0962    108.9821
  1390.5000      0.0000    650.8253      4.0385    107.5364
  1390.7500      0.0000    650.5280      3.9503    107.6695
  1391.0000      0.0000    653.7343      3.8624    109.2963
  1391.2500      0.0000    658.9130      3.8322    111.8720
  1391.5000      0.0000    664.6698      3.9085    115.0420
  1391.7500      0.0000    670.6823      4.0858    118.5061
  1392.0000      0.0000    677.0332      4.2967    121.4964
  1392.2500      0.0000    683.1689      4.4568    123.0501
  1392.5000      0.0000    687.7388      4.5139    122.8551
  1392.7500      0.0000    689.2341      4.4624    121.3613
  1393.0000      0.0000    686.8271      4.3319    119.1262
  1393.2500      0.0000    680.8657      4.1727    116.6167
  1393.5000      0.0000    672.3521      4.0392    114.5263
  1393.7500      0.0000    662.0061      3.9671    113.5789
  1394.0000      0.0000    650.6818      3.9574    113.7927
  1394.2500      0.0000    640.8914      3.9840    114.2095
  1394.5000      0.0000    636.3864      4.0216    113.4207
  1394.7500      0.0000    638.7701      4.0623    110.4555
  1395.0000      0.0000    645.1360      4.1037    105.6138
  1395.2500      0.0000    650.0315      4.1318    100.5042
  1395.5000      0.0000    649.5302      4.1225     96.8156
  1395.7500      0.0000    643.7814      4.0540     94.9055
  1396.0000      0.0000    637.0737      3.9193     93.7850
  1396.2500      0.0000    635.3296      3.7472     92.5254
  1396.5000      0.0000    641.8008      3.6047     91.7851
  1396.7500      0.0000    654.4659      3.5538     93.9462
  1397.0000      0.0000    667.7828      3.5978    101.1002
  1397.2500      0.0000    676.6979      3.6763    112.5174
  1397.5000      0.0000    679.2822      3.7187    124.4900
  1397.7500      0.0000    676.9639      3.6974    132.9685
  1398.0000      0.0000    672.9922      3.6330    136.2546
  1398.2500      0.0000    670.3934      3.5633    135.4042
  1398.5000      0.0000    670.8370      3.5155    132.5568
  1398.7500      0.0000    674.5850      3.4947    128.9956
  1399.0000      0.0000    680.5742      3.4828    124.5869
  1399.2500      0.0000    686.5026      3.4539    118.8398
  1399.5000      0.0000    689.9659      3.3964    112.1430
