~Version Information
VERS.                      2.0: CWLS Log ASCII Standard - VERSION 2.0
WRAP.                       NO: One line per depth step
~Well Information Block
STRT.FT               300.0000: 
STOP.FT               871.2500: 
STEP.FT                 0.2500: 
NULL.                -999.2500: 
COMP.          Pioneer Natural Resources: COMPANY
WELL.            Hustler 12-17: WELL
FLD.           Purgatoire River: FIELD
LOC.           2150' FNL & 450' FWL: LOCATION
PROV.                 Colorado: PROVINCE
CNTY.               Las Animas: COUNTRY
SRVC.                Patterson: SERVICE COMPANY
DATE.          Mon Dec 20 09:25:34 2004: LOG DATE
UWI.           05 071 08236 00: UNIQUE WELL ID
~Curve Information Block
DEPT.FT            0 000 00 00: Depth
SN.Ohm-m                      : IEL Short Normal
SP.mV                         : IEL Spontaneous Potential
DIR.Ohm-m                     : IEL Induction Resistivity
GR.GAPI                       : Gamma Ray
~Parameter Information Block
~A  Depth        SN          SP         DIR          GR     
   300.0000    645.9807   -800.0005      4.7534    100.2320
   300.2500    645.9807   -800.0005      4.7427    100.0587
   300.5000    645.9807   -800.0005      4.7396    102.8669
   300.7500    645.9807   -800.0005      4.7370    106.9167
   301.0000    645.9807   -800.0005      4.7293    114.9373
   301.2500    645.9807   -800.0005      4.7115    120.4717
   301.5000    645.9807   -800.0005      4.6786    127.9196
   301.7500    645.9807   -800.0005      4.6276    132.2061
   302.0000    645.9807   -800.0005      4.5598    137.3001
   302.2500    645.9807   -800.0005      4.4812    139.0646
   302.5000    645.9807   -800.0005      4.3991    137.8453
   302.7500    645.9807   -800.0005      4.3192    134.5660
   303.0000    645.9807   -800.0005      4.2443    128.5056
   303.2500    645.9807   -800.0005      4.1745    125.7911
   303.5000    645.9807   -800.0005      4.1085    126.0217
   303.7500    645.9807   -800.0005      4.0447    129.0538
   304.0000    645.9807   -800.0005      3.9814    136.2220
   304.2500    645.9807   -800.0005      3.9174    141.4363
   304.5000    645.9807   -800.0005      3.8523    148.0282
   304.7500    645.9807   -800.0005      3.7862    150.9503
   305.0000    645.9807   -800.0005      3.7194    152.9819
   305.2500    645.9807   -800.0005      3.6525    153.1997
   305.5000    645.9807   -800.0005      3.5869    152.9485
   305.7500    645.9807   -800.0005      3.5240    152.9250
   306.0000    645.9807   -800.0005      3.4631    153.3436
   306.2500    645.9807   -800.0005      3.4000    153.6390
   306.5000    645.9807   -800.0005      3.3282    153.3470
   306.7500    645.9807   -800.0005      3.2436    152.4571
   307.0000    645.9807   -800.0005      3.1477    150.3554
   307.2500    645.9807   -800.0005      3.0483    148.6835
   307.5000    645.9807   -800.0005      2.9555    145.7242
   307.7500    645.9807   -800.0005      2.8769    143.1980
   308.0000    645.9743   -800.0005      2.8139    138.5345
   308.2500    645.9395   -800.0005      2.7625    135.4103
   308.5000    645.7720   -800.0005      2.7160    132.2359
   308.7500    645.1553   -800.0005      2.6699    131.5918
   309.0000    643.4386   -800.0005      2.6259    132.1528
   309.2500    639.8826   -800.0005      2.5900    132.7279
   309.5000    634.5880   -800.0005      2.5678    133.0816
   309.7500    629.4045   -800.0005      2.5593    133.0326
   310.0000    627.1974   -800.0005      2.5576    132.8681
   310.2500    629.4045   -800.0005      2.5531    132.6603
   310.5000    634.5880   -800.0005      2.5393    131.6926
   310.7500    639.8826   -800.0005      2.5146    130.3214
   311.0000    643.4386   -800.0005      2.4817    127.3643
   311.2500    645.1553   -800.0005      2.4440     83.6568
   311.5000    645.7720   -800.0005      2.4055     83.0613
   311.7500    645.9395   -800.0005      2.3692     84.0212
   312.0000    645.9743   -800.0005      2.3360     87.1588
   312.2500    645.9807   -800.0005      2.3052     89.4410
   312.5000    645.9807   -800.0005      2.2798     91.4037
   312.7500    645.9807   -800.0005      2.2753     91.4082
   313.0000    645.9807   -800.0005      2.3272     90.2459
   313.2500    645.9807   -800.0005      2.4963     89.4145
   313.5000    645.9807   -800.0005      2.8812     89.1282
   313.7500    645.9807   -800.0005      3.6534     90.1695
   314.0000    645.9807   -800.0005      5.1205     94.6857
   314.2500    645.9807   -800.0005      7.7449    100.1359
   314.5000    645.9807   -800.0005     11.7503    111.7958
   314.7500    645.9807   -800.0005     16.0844    120.9837
   315.0000    645.9807   -800.0005     18.8562    134.2936
   315.2500    645.9807   -800.0005     18.8550    141.3999
   315.5000    645.9807   -800.0005     15.0849    148.2544
   315.7500    645.9807   -800.0005      9.6265    150.4955
   316.0000    645.9807   -800.0005      5.7568    151.4576
   316.2500    645.9807   -800.0005      3.7496    151.1743
   316.5000    645.9807   -800.0005      2.8508    150.3747
   316.7500    645.9807   -800.0005      2.5993    150.0341
   317.0000    645.9807   -800.0005      2.8882    150.0373
   317.2500    645.9807   -800.0005      4.0301    150.1760
   317.5000    645.9807   -800.0005      7.8772    150.0111
   317.7500    645.9807   -800.0005     51.6127    149.4508
   318.0000    645.9807   -800.0005 100000.0000    148.1457
   318.2500    645.9807   -800.0005 100000.0000    147.2973
   318.5000    645.9807   -800.0005 100000.0000    146.1612
   318.7500    645.9807   -800.0005 100000.0000    145.0506
   319.0000    645.9807   -800.0005 100000.0000    142.0951
   319.2500    645.9807   -800.0005 100000.0000    139.4491
   319.5000    645.9807   -800.0005     76.6529    135.6321
   319.7500    645.9807   -800.0005     31.1826    133.6606
   320.0000    645.9807   -800.0005     23.9981    131.3757
   320.2500    645.9807   -800.0005     22.5820    129.8470
   320.5000    645.9807   -800.0005     23.3208    126.7924
   320.7500    645.9807   -800.0005     25.1330    123.9924
   321.0000    645.9807   -800.0005     27.3472    118.7681
   321.2500    645.9807   -800.0005     29.2019    115.0540
   321.5000    645.9807   -800.0005     29.9727    110.1520
   321.7500    645.9807   -800.0005     29.6325    107.6819
   322.0000    645.9807   -800.0005     29.0226    105.0578
   322.2500    645.9807   -800.0005     29.1912    103.7192
   322.5000    645.9807   -800.0005     30.8301    101.8981
   322.7500    645.9807   -800.0005     33.9983    100.7472
   323.0000    645.9807   -800.0005     37.5790     99.2044
   323.2500    645.9807   -800.0005     39.0798     98.3005
   323.5000    645.9807   -800.0005     36.8901     96.9797
   323.7500    645.9807   -800.0005     32.4784     96.0362
   324.0000    645.9807   -800.0005     28.1769     94.4163
   324.2500    645.9807   -800.0005     25.0347     93.0942
   324.5000    645.9807   -800.0005     23.1289     90.6648
   324.7500    645.9807   -800.0005     22.2458     88.9683
   325.0000    645.9807   -800.0005     22.1392     87.1182
   325.2500    645.9807   -800.0005     22.5560     86.7440
   325.5000    645.9807   -800.0005     23.2207     87.3100
   325.7500    645.9807   -800.0005     23.8662     87.8053
   326.0000    645.9807   -800.0005     24.3091     87.6276
   326.2500    645.9674   -800.0005     24.5026     86.9089
   326.5000    645.8887   -800.0005     24.5121     86.0932
   326.7500    645.5010   -800.0005     24.4434     86.3073
   327.0000    644.0308   -800.0005     24.3753     87.5335
   327.2500    639.7427   -800.0005     24.3349     88.4215
   327.5000    630.2172   -800.0005     24.3104     89.4237
   327.7500    614.3110   -800.0005     24.2816     89.9670
   328.0000    594.6559   -800.0005     24.2518     90.6856
   328.2500    576.9291   -800.0005     24.2528     90.9925
   328.5000    564.5273   -800.0005     24.3258     91.1052
   328.7500    554.9650   -800.0005     24.4897     91.0665
   329.0000    544.7313   -800.0005     24.7275     91.1265
   329.2500    537.3577   -800.0005     25.0004     91.2861
   329.5000    542.1077   -800.0005     25.2783     91.4231
   329.7500    562.9212   -800.0005     25.5548     91.2616
   330.0000    592.3541   -800.0005     25.8306     90.8713
   330.2500    618.4855   -800.0005     26.0821     90.9416
   330.5000    634.8748   -800.0005     26.2527     91.8755
   330.7500    642.4599   -800.0005     26.2846     92.6469
   331.0000    645.1069   -800.0005     26.1679     92.8414
   331.2500    645.8109   -800.0005     25.9601     91.9469
   331.5000    645.9559   -800.0005     25.7496     89.4613
   331.7500    645.9807   -800.0005     25.6008     87.7375
   332.0000    645.9807   -800.0005     25.5273     86.3600
   332.2500    645.9807   -800.0005     25.5086     86.6524
   332.5000    645.9807   -800.0005     25.5241     88.3638
   332.7500    645.9807   -800.0005     25.5715     89.3655
   333.0000    645.9807   -800.0005     25.6599     88.9659
   333.2500    645.9807   -800.0005     25.7883     87.2399
