~Version Information
VERS.                      2.0: CWLS Log ASCII Standard - VERSION 2.0
WRAP.                       NO: One line per depth step
~Well Information Block
STRT.FT               390.0000: 
STOP.FT              2768.7000: 
STEP.FT                 0.1000: 
NULL.                -999.2500: 
COMP.          Pioneer Natural Resources: COMPANY
WELL.              Lynch 43-30: WELL
FLD.           Purgatoire River: FIELD
LOC.           1438' FSL & 429' FEL: LOCATION
PROV.                 Colorado: PROVINCE
CNTY.               Las Animas: COUNTRY
SRVC.                Patterson: SERVICE COMPANY
DATE.          Wed Oct 27 08:22:00 2004: LOG DATE
UWI.           05 071 08170 00: UNIQUE WELL ID
~Curve Information Block
DEPT.FT            0 000 00 00: Depth
DCAL.in                       : CDL Caliper
DPOR.pu                       : CDL Density Porosity
NPOR.pu                       : Neutron Porosity
RHOB.g/cc                     : CDL Bulk Density
RHOC.g/cc                     : CDL Density Correction
GR.GAPI                       : Gamma Ray
~Parameter Information Block
~A  Depth       DCAL        DPOR        NPOR        RHOB        RHOC         GR     
# ...
  1023.6000      8.1051     42.4447     19.3564      1.9497      0.0158    132.5037
  1023.7000      8.1051     47.0893     18.2518      1.8730     -0.0620    132.3298
  1023.8000      8.0999     50.8998     17.0242      1.8102     -0.1291    131.1526
  1023.9000      8.0999     51.8099     16.1049      1.7951     -0.0836    134.6716
  1024.0000      8.1055     49.7261     15.5589      1.8295     -0.0256    139.1363
  1024.1000      8.1055     46.0934     14.9926      1.8895      0.0696    138.3307
  1024.2000      8.1055     42.0973     14.2987      1.9554      0.0800    132.4538
  1024.3000      8.1055     38.2523     13.7995      2.0188      0.1601    123.1442
  1024.4000      8.1055     34.9904     13.7412      2.0727      0.1802    113.1296
  1024.5000      8.1125     32.1181     14.1182      2.1201      0.1713    108.1003
  1024.6000      8.1125     29.3089     14.7496      2.1664      0.1614    109.4416
  1024.7000      8.1125     27.2379     15.4399      2.2006      0.1580    114.4928
  1024.8000      8.1100     26.3267     16.1701      2.2156      0.0922    120.5557
  1024.9000      8.1100     26.0918     16.8850      2.2195      0.1108    124.2402
  1025.0000      8.1060     26.7678     17.4629      2.2083      0.1710    122.1327
  1025.1000      8.1060     28.8102     17.9509      2.1746      0.1073    115.9912
  1025.2000      8.1060     31.3507     18.2805      2.1327      0.0575    113.2060
  1025.3000      8.1141     33.2675     18.1851      2.1011      0.0760    114.8909
  1025.4000      8.1141     34.9346     17.7140      2.0736      0.1703    116.1739
  1025.5000      8.1155     37.5231     17.1826      2.0309      0.1441    115.0855
  1025.6000      8.1155     41.1512     16.8221      1.9710      0.0633    112.7902
  1025.7000      8.1155     44.8712     16.4999      1.9096     -0.0078    112.6593
  1025.8000      8.1104     47.3415     15.9107      1.8689     -0.0373    116.7041
  1025.9000      8.1104     47.2071     15.1656      1.8711     -0.0723    124.0455
  1026.0000      8.1148     44.3257     14.6728      1.9186     -0.0233    129.8573
  1026.1000      8.1148     40.2971     14.4833      1.9851      0.0581    129.3362
  1026.2000      8.1148     36.3535     14.1159      2.0502      0.0854    123.4019
  1026.3000      8.1239     32.1793     13.5560      2.1190      0.1288    116.4623
  1026.4000      8.1239     27.3818     13.4029      2.1982      0.2000    111.4770
  1026.5000      8.1109     22.1505     13.9107      2.2845      0.2137    109.7810
  1026.6000      8.1109     16.7498     14.9342      2.3736      0.2242    112.4963
  1026.7000      8.1109     11.6513     16.1081      2.4578      0.2379    118.1929
  1026.8000      8.1080      7.8832     17.2400      2.5199      0.2381    122.3598
  1026.9000      8.1080      6.5881     18.5177      2.5413      0.1891    122.8526
  1027.0000      8.1078      8.0354     19.7502      2.5174      0.0928    121.4197
  1027.1000      8.1078     11.0241     20.5619      2.4681      0.0113    118.2945
  1027.2000      8.1078     13.2608     21.2219      2.4312     -0.0432    112.7728
  1027.3000      8.1080     13.6118     22.2116      2.4254      0.0377    107.3030
  1027.4000      8.1080     13.4466     23.5897      2.4281      0.0286    102.5864
  1027.5000      8.1088     14.2568     24.7223      2.4148      0.0329     97.1356
  1027.6000      8.1088     15.7284     24.9782      2.3905     -0.0124     94.0691
  1027.7000      8.1088     16.7822     24.5958      2.3731     -0.0200     96.1144
  1027.8000      8.1080     17.2586     24.3072      2.3652      0.0016    100.7633
  1027.9000      8.1080     18.0755     24.2910      2.3518      0.0453    106.9250
  1028.0000      8.1100     19.9354     23.8661      2.3211      0.0023    114.8558
  1028.1000      8.1100     22.0998     22.7986      2.2854      0.0297    123.0664
  1028.2000      8.1100     23.6239     21.8673      2.2602      0.0703    129.9332
  1028.3000      8.1254     24.4991     21.5063      2.2458      0.1022    132.0788
  1028.4000      8.1254     25.1247     21.6745      2.2354      0.1032    130.3615
  1028.5000      8.1205     25.6879     22.3385      2.2261      0.1051    131.2164
  1028.6000      8.1205     25.7097     23.0307      2.2258      0.1075    135.9411
  1028.7000      8.1205     24.4963     23.1871      2.2458      0.1536    141.1394
  1028.8000      8.1186     21.4083     23.0849      2.2968      0.1228    144.8858
  1028.9000      8.1186     16.2155     23.3778      2.3824      0.2154    145.6312
  1029.0000      8.1307     10.2605     24.3236      2.4807      0.3232    141.9948
  1029.1000      8.1307      5.3428     25.6876      2.5618      0.3875    135.4298
  1029.2000      8.1307      1.9913     26.7414      2.6171      0.3439    129.2579
  1029.3000      8.1470      0.1183     27.0002      2.6480      0.3322    126.3571
  1029.4000      8.1470     -0.2523     26.8734      2.6542      0.3119    127.1799
  1029.5000      8.3044      0.6645     26.7374      2.6390      0.2779    129.7220
  1029.6000      8.3044      2.8815     26.3573      2.6025      0.2247    132.3056
  1029.7000      8.3044      6.0328     25.8434      2.5505      0.1576    133.7634
  1029.8000      8.3279      7.2293     25.8002      2.5307      0.0346    136.5343
  1029.9000      8.3279      3.7265     26.1196      2.5885      0.1376    140.1414
  1030.0000      8.2156     -2.1942     26.1921      2.6862      0.1801    136.1515
  1030.1000      8.2156     -6.3318     25.9005      2.7545      0.2227    126.0788
  1030.2000      8.2156     -7.5064     25.5691      2.7739      0.2003    120.8731
  1030.3000      8.1133     -7.2010     25.5963      2.7688      0.1368    121.9282
  1030.4000      8.1133     -6.3618     26.3625      2.7550      0.1117    120.7519
  1030.5000      8.1090     -4.6982     27.5758      2.7275      0.0529    113.8297
  1030.6000      8.1090     -2.8110     28.3961      2.6964      0.0076    109.0817
  1030.7000      8.1090     -1.7754     28.9514      2.6793     -0.0546    111.1659
  1030.8000      8.1359     -1.4023     29.6198      2.6731     -0.0854    114.3933
  1030.9000      8.1359     -0.3246     29.8912      2.6554     -0.0469    114.5546
  1031.0000      8.1722      2.0814     29.5983      2.6157     -0.1355    112.4090
  1031.1000      8.1722      4.8274     29.1570      2.5703     -0.0646    110.6062
  1031.2000      8.1722      6.7497     28.7347      2.5386     -0.1131    113.4896
  1031.3000      8.1891      7.2817     28.5800      2.5299     -0.0456    119.6463
  1031.4000      8.1891      6.8835     29.0107      2.5364     -0.0534    122.5237
  1031.5000      8.1916      6.4665     29.6135      2.5433     -0.0052    120.1000
  1031.6000      8.1916      6.9685     29.5883      2.5350      0.0256    116.0717
  1031.7000      8.1916      8.6576     29.0182      2.5071     -0.0540    115.2287
  1031.8000      8.1905     10.7774     28.5816      2.4722     -0.0195    119.8784
  1031.9000      8.1905     13.1871     28.4693      2.4324      0.0152    127.5393
  1032.0000      8.1882     15.5929     28.4107      2.3927     -0.0686    132.1615
  1032.1000      8.1882     16.7186     27.9390      2.3741     -0.0778    132.3047
  1032.2000      8.1882     16.9366     26.8413      2.3705     -0.0269    132.1500
  1032.3000      8.1893     17.7916     25.6747      2.3564     -0.0164    135.1139
  1032.4000      8.1893     19.7907     25.0312      2.3235     -0.0019    140.4440
  1032.5000      8.2252     23.2797     24.7004      2.2659      0.0554    142.8781
  1032.6000      8.2252     26.7992     24.4177      2.2078     -0.0627    139.7279
  1032.7000      8.2252     25.8465     24.3649      2.2235     -0.0389    134.2284
  1032.8000      8.3009     18.3217     24.4378      2.3477      0.0699    131.4298
  1032.9000      8.3009      7.6359     24.2891      2.5240      0.2843    134.6014
  1033.0000      8.1837     -1.3669     24.0525      2.6726      0.3175    138.8606
  1033.1000      8.1837     -6.6478     24.0187      2.7597      0.3448    138.1026
