~Version Information
VERS.                      2.0: CWLS Log ASCII Standard - VERSION 2.0
WRAP.                       NO: One line per depth step
~Well Information Block
STRT.FT               741.2000: 
STOP.FT              2461.0000: 
STEP.FT                 0.1000: 
NULL.                -999.2500: 
COMP.          Petrogulf Corporation: COMPANY
WELL.           Montoya 12-44V: WELL
FLD.           Purgatorie River: FIELD
LOC.           698' FSL & 599' FEL: LOCATION
CNTY.               Las Animas: COUNTY
SRVC.                         : SERVICE COMPANY
DATE.          Mon Aug 09 06:09:04 2004: LOG DATE
UWI.           05 071 08094 00: UNIQUE WELL ID
STAT.                 Colorado: STATE
~Curve Information Block
DEPT.FT            0 000 00 00: Depth
DCAL.in                       : CDL Caliper
RHOB.g/cc                     : CDL Bulk Density
RHOC.g/cc                     : CDL Density Correction
DPOR.pu                       : CDL Density Porosity
GR.GAPI                       : Gamma Ray
NPOR.pu                       : Neutron Porosity
~Parameter Information Block
~A  Depth       DCAL        RHOB        RHOC        DPOR         GR         NPOR    
# ...
  1778.0000      8.4157      2.4869      0.4065      9.8827    126.2995     31.7875
  1778.1000      8.4157      2.5101      0.3677      8.4789    121.9560     31.3093
  1778.2000      8.4157      2.5069      0.3495      8.6745    119.6836     31.5385
  1778.3000      8.8216      2.4951      0.3078      9.3886    122.2095     31.7258
  1778.4000      8.8216      2.4614      0.2993     11.4329    129.2705     31.4258
  1778.5000      8.8603      2.3906      0.1899     15.7224    136.7875     31.1262
  1778.6000      8.8603      2.3061      0.1413     20.8421    139.3250     31.3999
  1778.7000      8.8603      2.2435      0.0553     24.6393    135.8405     32.0843
  1778.8000      8.3220      2.2115      0.0748     26.5774    127.6875     32.3519
  1778.9000      8.3220      2.1955      0.0967     27.5440    117.9192     31.7793
  1779.0000      8.2873      2.1885      0.1090     27.9688    115.0510     30.8467
  1779.1000      8.2873      2.2001      0.1813     27.2659    125.5736     30.2211
  1779.2000      8.2873      2.2290      0.2988     25.5157    138.6683     29.9764
  1779.3000      7.9908      2.2556      0.3678     23.9010    138.4398     30.0620
  1779.4000      7.9908      2.2606      0.3762     23.6004    130.2390     30.3275
  1779.5000      8.0116      2.2377      0.3628     24.9876    127.6083     30.5876
  1779.6000      8.0116      2.2039      0.3465     27.0351    130.6391     31.0132
  1779.7000      8.0116      2.1855      0.3788     28.1545    131.7912     31.5892
  1779.8000      8.1325      2.1895      0.3737     27.9116    130.7328     31.6828
  1779.9000      8.1325      2.2140      0.3586     26.4225    130.3282     30.9133
  1780.0000      8.4567      2.2677      0.3587     23.1717    128.8154     29.9075
  1780.1000      8.4567      2.3514      0.3884     18.0999    124.0375     29.5594
  1780.2000      8.4567      2.4366      0.4144     12.9338    119.2820     30.1882
  1780.3000      8.5186      2.4864      0.4247      9.9133    117.4861     31.3082
  1780.4000      8.5186      2.4917      0.4209      9.5928    117.9479     32.0310
  1780.5000      8.3070      2.4697      0.4127     10.9284    119.4048     31.7560
  1780.6000      8.3070      2.4366      0.3784     12.9362    119.8367     30.7527
  1780.7000      8.3070      2.3942      0.3060     15.5057    121.2389     29.9014
  1780.8000      8.1099      2.3379      0.2002     18.9152    127.4902     29.2733
  1780.9000      8.1099      2.2775      0.0887     22.5760    135.4581     28.5307
  1781.0000      7.9692      2.2468      0.0797     24.4387    140.7755     28.0001
  1781.1000      7.9692      2.2843      0.0982     22.1639    143.5923     27.9288
  1781.2000      7.9692      2.3864      0.3230     15.9763    145.0521     28.3977
  1781.3000      7.9511      2.4921      0.4601      9.5680    147.1828     29.0377
  1781.4000      7.9511      2.5599      0.4226      5.4584    151.0646     28.7712
  1781.5000      7.9436      2.6011      0.4434      2.9625    152.8742     27.6485
  1781.6000      7.9436      2.6274      0.4154      1.3697    151.6329     27.1344
  1781.7000      7.9436      2.6317      0.4059      1.1073    153.2750     28.0170
  1781.8000      7.9572      2.6094      0.3291      2.4630    158.7908     29.4681
  1781.9000      7.9572      2.5805      0.2485      4.2127    162.4704     30.2269
  1782.0000      8.0106      2.5744      0.2145      4.5813    160.1890     30.0595
  1782.1000      8.0106      2.5972      0.1996      3.1979    155.2702     29.7423
  1782.2000      8.0106      2.6312      0.2323      1.1372    151.3539     29.5933
  1782.3000      8.0328      2.6560      0.2532     -0.3632    148.8166     28.8768
  1782.4000      8.0328      2.6659      0.2688     -0.9662    149.6410     27.6616
  1782.5000      7.9554      2.6590      0.2765     -0.5473    152.1618     26.9786
  1782.6000      7.9554      2.6305      0.2089      1.1833    151.0666     27.2356
  1782.7000      7.9554      2.5902      0.1304      3.6263    146.9017     27.9741
  1782.8000      7.9419      2.5553      0.1157      5.7400    142.7609     28.1619
  1782.9000      7.9419      2.5324      0.0604      7.1270    139.6771     27.5407
  1783.0000      7.9346      2.5276      0.0519      7.4206    137.9810     26.9105
  1783.1000      7.9346      2.5469      0.0764      6.2461    135.2520     26.5953
  1783.2000      7.9346      2.5805      0.1164      4.2151    129.0746     26.5143
  1783.3000      7.9412      2.6028      0.1611      2.8636    123.7527     26.8215
  1783.4000      7.9412      2.5971      0.1698      3.2069    124.9611     27.5693
  1783.5000      7.9380      2.5746      0.1815      4.5676    128.4710     27.9040
  1783.6000      7.9380      2.5543      0.2123      5.7989    128.0950     27.0598
  1783.7000      7.9380      2.5331      0.1808      7.0821    129.1849     26.1224
  1783.8000      7.9430      2.5061      0.0777      8.7201    133.3953     26.1779
  1783.9000      7.9430      2.4934      0.0147      9.4932    131.6141     26.6683
  1784.0000      8.0279      2.5114      0.0629      8.3986    125.8748     27.0533
  1784.1000      8.0279      2.5471      0.1204      6.2343    124.9417     27.3468
  1784.2000      8.0279      2.5815      0.1917      4.1528    129.4691     27.5211
  1784.3000      7.9916      2.6072      0.1923      2.5938    138.2311     27.7511
  1784.4000      7.9916      2.6206      0.1844      1.7829    148.7746     28.1597
  1784.5000      7.9374      2.6143      0.1981      2.1666    155.9373     28.4531
  1784.6000      7.9374      2.5919      0.1142      3.5219    159.1792     28.1573
  1784.7000      7.9374      2.5764      0.0752      4.4605    161.4814     27.2548
  1784.8000      7.9541      2.5790      0.1035      4.3025    161.9193     26.5357
  1784.9000      7.9541      2.5874      0.1057      3.7915    156.9217     26.7681
  1785.0000      7.9609      2.5859      0.1106      3.8837    148.9852     27.5934
  1785.1000      7.9609      2.5675      0.0656      5.0011    148.1164     28.3883
  1785.2000      7.9609      2.5372      0.0689      6.8380    155.9152     29.0719
  1785.3000      7.9656      2.5011      0.0433      9.0236    162.4721     29.4474
  1785.4000      7.9656      2.4589      0.0559     11.5829    162.4973     29.2436
  1785.5000      7.9572      2.4171     -0.0309     14.1175    161.0317     28.9513
  1785.6000      7.9572      2.3901      0.0064     15.7498    161.3873     29.1613
  1785.7000      7.9572      2.3696      0.0652     16.9964    162.1188     29.6210
  1785.8000      7.9578      2.3316      0.0329     19.2985    163.3456     29.6748
  1785.9000      7.9578      2.2697      0.0423     23.0496    164.4059     29.4575
  1786.0000      7.9895      2.1984     -0.0118     27.3702    163.3157     29.6563
  1786.1000      7.9895      2.1344      0.0418     31.2480    161.4628     30.0896
  1786.2000      7.9895      2.0702      0.1152     35.1366    161.0731     30.5543
  1786.3000      8.1509      1.9859      0.0959     40.2492    159.6518     31.3117
  1786.4000      8.1509      1.8891      0.0398     46.1156    155.9793     31.7931
  1786.5000      8.1943      1.8114      0.0201     50.8272    150.2992     31.6987
  1786.6000      8.1943      1.7676      0.0335     53.4806    138.6690     31.8233
  1786.7000      8.1943      1.7457      0.1120     54.8062    123.7303     32.3333
  1786.8000      8.0915      1.7364      0.1182     55.3693    113.0075     32.4620
  1786.9000      8.0915      1.7454      0.1267     54.8230    108.0784     32.2334
  1787.0000      8.0474      1.7734      0.1530     53.1287    107.4632     32.5319
  1787.1000      8.0474      1.8177      0.1653     50.4444    110.5683     33.0653
  1787.2000      8.0474      1.8821      0.1884     46.5400    116.0828     32.9455
  1787.3000      8.1648      1.9588      0.2163     41.8899    120.1723     32.7029
  1787.4000      8.1648      2.0235      0.2293     37.9673    122.1777     32.8942
  1787.5000      8.2024      2.0612      0.2161     35.6821    125.6458     32.6689
