~Version Information
VERS.                      2.0: CWLS Log ASCII Standard - VERSION 2.0
WRAP.                       NO: One line per depth step
~Well Information Block
STRT.FT               770.0000: 
STOP.FT              1997.7000: 
STEP.FT                 0.1000: 
NULL.                -999.2500: 
COMP.          Pioneer Natural Resources: COMPANY
WELL.          Titan Federal 34-17: WELL
FLD.           Purgatoire River: FIELD
LOC.           321' FSL & 1911' FEL--: LOCATION
STAT.                 Colorado: State
CNTY.               Las Animas: COUNTY
CTRY. USA : Country
SECT. 17 : Section
TOWN. 32S : Township
RANG. 65W : Range
SRVC.                Patterson: SERVICE COMPANY
DATE.          Thu Oct 06 15:09:27 2005: LOG DATE
API.           05 071 08272 00: UNIQUE WELL ID
~Curve Information Block
DEPT.FT            0 000 00 00: Depth
DCAL.in                       : CDL Caliper
RHOB.g/cc                     : CDL Bulk Density
RHOC.g/cc                     : CDL Density Correction
DPOR.pu                       : CDL Density Porosity
NPOR.pu                       : Neutron Porosity
GR.GAPI                       : Gamma Ray
~Parameter Information Block
~A  Depth       DCAL        RHOB        RHOC        DPOR        NPOR         GR     
# ...
  1653.2000      8.0506      2.5842      0.0456      3.9902     25.6930    159.3664
  1653.3000      8.0518      2.5593      0.0186      5.4956     25.6107    160.1053
  1653.4000      8.0518      2.5317      0.0178      7.1694     25.3595    161.6966
  1653.5000      8.0528      2.5214     -0.0164      7.7916     24.7003    162.1235
  1653.6000      8.0528      2.5276      0.0212      7.4172     23.9989    162.7235
  1653.7000      8.0528      2.5353      0.0012      6.9538     23.8717    163.7787
  1653.8000      8.0531      2.5383      0.0106      6.7717     24.3593    161.0618
  1653.9000      8.0531      2.5433      0.0022      6.4687     24.9662    154.7404
  1654.0000      8.0527      2.5523      0.0128      5.9229     25.2130    152.5847
  1654.1000      8.0527      2.5514      0.0496      5.9763     25.2115    157.3922
  1654.2000      8.0527      2.5353      0.0505      6.9524     25.1261    164.1727
  1654.3000      8.0525      2.5201      0.0084      7.8744     25.0932    171.6616
  1654.4000      8.0525      2.5165      0.0115      8.0896     25.2881    180.2150
  1654.5000      8.0520      2.5186     -0.0225      7.9637     25.5468    185.5251
  1654.6000      8.0520      2.5148      0.0108      8.1926     25.6735    185.0792
  1654.7000      8.0520      2.5052     -0.0143      8.7765     25.3914    179.3564
  1654.8000      8.0519      2.5051     -0.0243      8.7819     24.9048    171.6976
  1654.9000      8.0519      2.5117      0.0270      8.3815     24.8588    166.8859
  1655.0000      8.0547      2.5071      0.0200      8.6628     25.1059    166.5616
  1655.1000      8.0547      2.4976      0.0066      9.2387     25.1831    171.4771
  1655.2000      8.0547      2.4978      0.0325      9.2216     25.1721    177.2017
  1655.3000      8.0570      2.5056      0.0426      8.7539     25.2041    175.4133
  1655.4000      8.0570      2.5130      0.0416      8.3017     25.1976    166.2858
  1655.5000      8.0578      2.5084      0.0402      8.5820     25.0411    158.5726
  1655.6000      8.0578      2.4850      0.0265      9.9976     24.5423    158.2451
  1655.7000      8.0578      2.4567     -0.0070     11.7141     23.5348    163.6980
  1655.8000      8.0582      2.4377      0.0165     12.8679     22.2197    165.9934
  1655.9000      8.0582      2.4230      0.0285     13.7567     21.1759    159.4788
  1656.0000      8.0591      2.4039      0.0257     14.9143     20.6873    152.1609
  1656.1000      8.0591      2.3873      0.0107     15.9214     20.3830    151.5332
  1656.2000      8.0591      2.3871      0.0227     15.9307     19.9280    152.6553
  1656.3000      8.0593      2.4014      0.0388     15.0694     19.5149    146.3321
  1656.4000      8.0593      2.4138      0.0488     14.3147     19.2275    133.2360
  1656.5000      8.0576      2.4120      0.0815     14.4220     18.7213    121.8308
  1656.6000      8.0576      2.3999      0.0128     15.1560     18.2230    117.9398
  1656.7000      8.0576      2.3925      0.0253     15.6061     18.2673    117.9720
  1656.8000      8.0561      2.3953      0.0283     15.4357     18.6139    115.2073
  1656.9000      8.0561      2.4095      0.0226     14.5774     18.6580    110.9884
  1657.0000      8.0536      2.4331      0.0457     13.1484     18.1917    112.3626
  1657.1000      8.0536      2.4477      0.0952     12.2628     17.4729    116.9670
  1657.2000      8.0536      2.4347      0.0531     13.0496     16.9149    115.8254
  1657.3000      8.0503      2.3953      0.0586     15.4382     16.5598    110.6957
  1657.4000      8.0503      2.3493     -0.0063     18.2250     16.1692    107.0257
  1657.5000      8.0486      2.3258     -0.0061     19.6507     15.5992    102.7642
  1657.6000      8.0486      2.3322      0.0151     19.2594     14.9532     95.7360
  1657.7000      8.0486      2.3498      0.0047     18.1946     14.4881     88.2690
  1657.8000      8.0483      2.3589      0.0423     17.6422     14.2000     84.4992
  1657.9000      8.0483      2.3554      0.0395     17.8560     13.8903     85.1563
  1658.0000      8.0507      2.3475      0.0374     18.3332     13.5131     86.4252
  1658.1000      8.0507      2.3413      0.0146     18.7074     13.1548     85.4359
  1658.2000      8.0507      2.3382      0.0280     18.8960     12.8823     83.5622
  1658.3000      8.0528      2.3380      0.0382     18.9092     12.7887     81.3981
  1658.4000      8.0528      2.3391      0.0495     18.8413     12.9119     78.4717
  1658.5000      8.0534      2.3389      0.0476     18.8535     12.9562     76.6993
  1658.6000      8.0534      2.3403      0.0098     18.7695     12.8308     75.5324
  1658.7000      8.0534      2.3483      0.0664     18.2878     12.8501     70.1975
  1658.8000      8.0540      2.3595      0.0460     17.6054     12.9852     62.5955
  1658.9000      8.0540      2.3689      0.0724     17.0384     12.9985     59.5370
  1659.0000      8.0542      2.3695      0.0294     17.0018     12.9421     61.0042
  1659.1000      8.0542      2.3588      0.0254     17.6509     12.8849     62.3266
  1659.2000      8.0542      2.3475      0.0061     18.3359     12.6984     62.4066
  1659.3000      8.0545      2.3432      0.0403     18.5956     12.3684     62.1498
  1659.4000      8.0545      2.3386      0.0361     18.8720     12.1402     60.9818
  1659.5000      8.0562      2.3315      0.0018     19.3059     12.0976     59.2745
  1659.6000      8.0562      2.3272      0.0115     19.5614     12.0231     58.9776
  1659.7000      8.0562      2.3223      0.0391     19.8628     11.9206     61.2446
  1659.8000      8.0572      2.3107      0.0274     20.5649     11.9672     64.4126
  1659.9000      8.0572      2.2973      0.0249     21.3728     12.1510     66.4178
  1660.0000      8.0560      2.2888      0.0227     21.8915     12.2791     65.4342
  1660.1000      8.0560      2.2898      0.0044     21.8333     12.2796     61.9312
  1660.2000      8.0560      2.3008      0.0207     21.1609     12.2422     59.2320
  1660.3000      8.0563      2.3142      0.0192     20.3494     12.1772     61.1345
  1660.4000      8.0563      2.3177      0.0533     20.1413     12.2121     68.4670
  1660.5000      8.0583      2.3108      0.0230     20.5595     12.4903     73.1734
  1660.6000      8.0583      2.3159      0.0093     20.2466     12.8364     69.6254
  1660.7000      8.0583      2.3467      0.0578     18.3822     12.9806     63.4066
  1660.8000      8.0588      2.3853      0.0835     16.0401     13.1118     61.1413
  1660.9000      8.0588      2.4100      0.0841     14.5445     13.6346     64.7035
  1661.0000      8.0558      2.4227      0.0880     13.7755     14.4348     70.9074
  1661.1000      8.0558      2.4398      0.0629     12.7373     14.8122     75.5996
  1661.2000      8.0558      2.4626      0.0980     11.3603     14.4390     77.7734
  1661.3000      8.0531      2.4774      0.0927     10.4633     14.0076     80.5226
  1661.4000      8.0531      2.4821      0.0722     10.1786     14.1998     87.3957
  1661.5000      8.0537      2.4829      0.0821     10.1294     14.7594     95.8827
  1661.6000      8.0537      2.4751      0.0845     10.5972     14.9807     98.9315
  1661.7000      8.0537      2.4537      0.0560     11.8950     14.8245     96.8133
  1661.8000      8.0556      2.4237      0.0465     13.7136     14.6728     94.7760
  1661.9000      8.0556      2.3956      0.0185     15.4189     14.7315     92.9025
  1662.0000      8.0583      2.3828      0.0169     16.1915     14.8780     88.5484
  1662.1000      8.0583      2.3861      0.0321     15.9921     14.8638     81.0247
  1662.2000      8.0583      2.3872      0.0598     15.9264     14.7077     74.2192
  1662.3000      8.0585      2.3771      0.0230     16.5371     14.4592     72.5163
  1662.4000      8.0585      2.3688      0.0428     17.0416     14.1390     74.5154
  1662.5000      8.0571      2.3687      0.0742     17.0514     13.8006     74.7579
  1662.6000      8.0571      2.3679      0.0589     17.0946     13.5962     69.4245
  1662.7000      8.0571      2.3632      0.0645     17.3802     13.5406     63.7869
