~Version Information
VERS.                      2.0: CWLS Log ASCII Standard - VERSION 2.0
WRAP.                       NO: One line per depth step
~Well Information Block
STRT.FT               -16.5000: 
STOP.FT              1244.7500: 
STEP.FT                 0.2500: 
NULL.                -999.2500: 
COMP.          Pioneer Natural Resources: COMPANY
WELL.          Bouncer41-27 Tr: WELL
FLD.           Purgatorie River: FIELD
LOC.           292' FNL & 222' FEL--------: LOCATION
PROV.                       CO: PROVINCE
CNTY.               Las Animas: COUNTRY
SRVC.                         : SERVICE COMPANY
DATE.          Fri Feb 11 15:34:51 2005: LOG DATE
UWI.                071-08291 : UNIQUE WELL ID
~Curve Information Block
DEPT.FT            0 000 00 00: Depth
CCL.                          : Casing Collar Locator
TT3.usec                      : CBL 3' Travel Time
AMP3.mV                       : CBL 3' Amplitude
GR.GAPI                       : Gamma Ray
~Parameter Information Block
~A  Depth       CCL         TT3         AMP3         GR     
# ...
  1223.0000      0.0000    732.8783      6.7517     29.2289
  1223.2500      0.0000    730.6467      6.8335     29.9562
  1223.5000      0.0000    726.7123      6.9419     31.5001
  1223.7500      0.0000    722.0330      7.0464     34.3926
  1224.0000      0.0000    719.0603      7.1159     38.9913
  1224.2500      0.0000    720.4890      7.1298     45.2978
  1224.5000      0.0000    727.2662      7.0934     53.6032
  1224.7500      0.0000    737.8587      7.0416     65.0828
  1225.0000      0.0000    749.2317      7.0173     81.0026
  1225.2500      0.0000    758.1255      7.0424    100.9502
  1225.5000      0.0000    761.8597      7.1081    122.0563
  1225.7500      0.0000    759.3896      7.1919    140.1427
  1226.0000      0.0000    752.4621      7.2811    151.7086
  1226.2500      0.0000    745.2119      7.3799    155.3263
  1226.5000      0.0000    741.8347      7.5003    151.9031
  1226.7500      0.0000    744.0980      7.6536    144.0181
  1227.0000      0.0000    750.2256      7.8438    134.9154
  1227.2500      0.0000    755.7975      8.0557    127.5238
  1227.5000      0.0000    756.6968      8.2468    123.4726
  1227.7500      0.0000    752.1456      8.3667    122.5713
  1228.0000      0.0000    744.8607      8.3935    123.5245
  1228.2500      0.0000    738.3027      8.3496    125.1891
  1228.5000      0.0000    734.2209      8.2804    126.8121
  1228.7500      0.0000    732.4949      8.2262    127.4926
  1229.0000      0.0000    732.2621      8.2072    126.6384
  1229.2500      0.0000    732.7330      8.2135    125.1785
  1229.5000      0.0000    733.3496      8.1998    125.1623
  1229.7500      0.0000    733.7380      8.1024    127.4339
  1230.0000      0.0000    733.7337      7.8815    130.1197
  1230.2500      0.0000    733.4159      7.5534    129.8585
  1230.5000      0.0000    733.0037      7.1800    124.1782
  1230.7500      0.0000    732.6514      6.8301    112.3429
  1231.0000      0.0000    732.3449      6.5498     94.6260
  1231.2500      0.0000    731.9860      6.3595     72.2393
  1231.5000      0.0000    731.5352      6.2676     48.2968
  1231.7500      0.0000    731.0549      6.2773     27.3552
  1232.0000      0.0000    730.6500      6.3768     12.7854
  1232.2500      0.0000    730.3792      6.5274      4.8394
  1232.5000      0.0000    730.1755      6.6726      1.4647
  1232.7500      0.0000    729.8060      6.7656      0.3510
  1233.0000      0.0000    728.9200      6.7888      0.0658
  1233.2500      0.0000    727.2583      6.7505      0.0091
  1233.5000      0.0000    725.0326      6.6703   -999.2500
  1233.7500      0.0000    723.1633      6.5735   -999.2500
  1234.0000      0.0000    722.8029      6.4905   -999.2500
  1234.2500      0.0000    724.2090      6.4470   -999.2500
  1234.5000      0.0000    726.1044      6.4485   -999.2500
  1234.7500      0.0000    726.3656      6.4767   -999.2500
  1235.0000      0.0000    723.4464      6.4997   -999.2500
  1235.2500      0.0000    716.8972      6.4779   -999.2500
  1235.5000      0.0000    705.6913      6.3628   -999.2500
  1235.7500      0.0000    684.1656      6.0950   -999.2500
  1236.0000      0.0000    639.2390      5.6184   -999.2500
  1236.2500      0.0000    556.0299      4.9163   -999.2500
  1236.5000      0.0000    432.7118      4.0528   -999.2500
  1236.7500      0.0000    290.5110      3.1770   -999.2500
  1237.0000      0.0000    163.4861      2.4560   -999.2500
  1237.2500      0.0000     75.5113      1.9811   -999.2500
  1237.5000      0.0000     28.2028      1.7333   -999.2500
  1237.7500      0.0000      8.4277      1.6316   -999.2500
  1238.0000      0.0000      1.9975      1.5989   -999.2500
  1238.2500      0.0000      0.3701      1.5906   -999.2500
  1238.5000      0.0000   -999.2500   -999.2500   -999.2500
  1238.7500      0.0000   -999.2500   -999.2500   -999.2500
  1239.0000      0.0000   -999.2500   -999.2500   -999.2500
  1239.2500      0.0000   -999.2500   -999.2500   -999.2500
  1239.5000      0.0000   -999.2500   -999.2500   -999.2500
  1239.7500      0.0000   -999.2500   -999.2500   -999.2500
  1240.0000      0.0000   -999.2500   -999.2500   -999.2500
  1240.2500      0.0000   -999.2500   -999.2500   -999.2500
  1240.5000      0.0000   -999.2500   -999.2500   -999.2500
  1240.7500      0.0000   -999.2500   -999.2500   -999.2500
  1241.0000      0.0000   -999.2500   -999.2500   -999.2500
  1241.2500      0.0000   -999.2500   -999.2500   -999.2500
  1241.5000      0.0000   -999.2500   -999.2500   -999.2500
  1241.7500      0.0000   -999.2500   -999.2500   -999.2500
  1242.0000      0.0000   -999.2500   -999.2500   -999.2500
  1242.2500      0.0000   -999.2500   -999.2500   -999.2500
  1242.5000      0.0000   -999.2500   -999.2500   -999.2500
  1242.7500      0.0000   -999.2500   -999.2500   -999.2500
  1243.0000      0.0000   -999.2500   -999.2500   -999.2500
  1243.2500      0.0000   -999.2500   -999.2500   -999.2500
  1243.5000      0.0000   -999.2500   -999.2500   -999.2500
  1243.7500      0.0000   -999.2500   -999.2500   -999.2500
  1244.0000      0.0000   -999.2500   -999.2500   -999.2500
  1244.2500   -999.2500   -999.2500   -999.2500   -999.2500
  1244.5000   -999.2500   -999.2500   -999.2500   -999.2500
  1244.7500   -999.2500   -999.2500   -999.2500   -999.2500
