~Version Information
 VERS.                                  2.0 : CWLS LAS VERSION
 WRAP.                                   NO : WRAPING MODE
 SWARE .                 MController 2.5.0J : SOFTWARE VERSION
~Well Information
 WELL.                       Montoya 01-41V : WELL
 COMP.                Petrogulf Corporation : COMPANY
 FLD.                      Purgatoire River : FIELD
 LOC.                NE/NE Sec 01 T33S R68W : LOCATION
 DATE.                             08/21/05 : DATE(S) LOGGED
 SRVC.       BLANCO Geological Services LLC : SERVICE COMPANY
 STAT.                                   CO : STATE
 CNTY.                           Las Animas : COUNTY
 CTRY.                                  USA : COUNTRY
 API.                       05-071-08144-00 : API NUMBER
 STRT.FT                             719.00 : START DEPTH
 STOP.FT                            2945.00 : STOP DEPTH
 STEP.FT                               1.00 : DEPTH INCREMENT
 NULL.                                -9999 : NULL VALUE
~Curve information
 DEPTH.FT                                   :
 ROP.MIN/FT                                 :
 GAS.UNITS                                  :
~ASCII Log data
# ...
      2719.0         0.33         26.7 
      2720.0         0.33         24.7 
      2721.0         0.33         19.0 
      2722.0         0.13         16.7 
      2723.0         0.13         14.9 
      2724.0         0.13         14.9 
      2725.0         0.18         12.5 
      2726.0         0.23         11.5 
      2727.0         0.37         10.0 
      2728.0         0.30          9.0 
      2729.0         0.37          6.5 
      2730.0         0.43          5.4 
      2731.0         0.50          5.6 
      2732.0         0.40          6.5 
      2733.0         0.43          8.9 
      2734.0         0.28         11.3 
      2735.0         0.53         20.7 
      2736.0         3.38         36.2 
      2737.0         0.57         11.6 
      2738.0         0.47          8.5 
      2739.0         0.47          7.4 
      2740.0         0.37          7.2 
      2741.0         0.37          8.8 
      2742.0         0.40         21.7 
      2743.0         0.38         22.1 
      2744.0         0.47         17.6 
      2745.0         0.23         13.4 
      2746.0         0.13         13.4 
      2747.0         0.27         12.6 
      2748.0         0.37         11.8 
      2749.0         0.33         11.0 
      2750.0         0.37         10.6 
      2751.0         0.40          9.9 
      2752.0         0.30         10.7 
      2753.0         0.25         12.3 
      2754.0         0.43         14.4 
      2755.0         0.30         22.5 
      2756.0         0.27         25.0 
      2757.0         0.20         19.8 
      2758.0         0.23         18.6 
      2759.0         0.27         12.9 
      2760.0         0.23          8.2 
      2761.0         0.10          6.4 
      2762.0         0.13          6.4 
      2763.0         0.20          6.1 
      2764.0         0.27          5.9 
      2765.0         0.33          6.4 
      2766.0         4.73         35.3 
      2767.0         0.83         13.8 
      2768.0         0.43         10.0 
      2769.0         0.37          8.3 
      2770.0         0.40          7.5 
      2771.0         0.35          7.0 
      2772.0         0.33          6.3 
      2773.0         0.33          5.6 
      2774.0         0.37          5.8 
      2775.0         0.43          5.9 
      2776.0         0.30          5.2 
      2777.0         0.30          5.4 
      2778.0         0.33          5.0 
      2779.0         0.37          4.1 
      2780.0         0.48          3.4 
      2781.0         0.40          2.8 
      2782.0         0.40          2.4 
      2783.0         0.30          2.5 
      2784.0         0.33          2.0 
      2785.0         0.27          1.8 
      2786.0         0.30          1.8 
      2787.0         0.30          2.1 
      2788.0         0.30          2.3 
      2789.0         0.33          2.1 
      2790.0         0.30          0.2 
      2791.0         0.35          0.2 
      2792.0         0.33          0.7 
      2793.0         0.33          0.8 
      2794.0         0.37          1.5 
      2795.0         0.53          4.7 
      2796.0         4.02         29.9 
      2797.0         0.47          8.3 
      2798.0         0.37          6.2 
      2799.0         0.32          4.8 
      2800.0         0.20          5.4 
      2801.0         0.50          6.3 
      2802.0         0.40          7.6 
      2803.0         0.40          6.6 
      2804.0         0.33          5.0 
      2805.0         0.27          3.4 
      2806.0         0.37          2.3 
      2807.0         0.47          1.4 
      2808.0         0.38          2.4 
      2809.0         0.30          4.1 
      2810.0         0.33          6.8 
      2811.0         0.50         10.9 
      2812.0         0.20         11.1 
      2813.0         0.33         12.2 
      2814.0         0.50         10.4 
      2815.0         0.40          9.1 
      2816.0         0.30          6.7 
      2817.0         0.32          5.6 
      2818.0         0.33          5.4 
      2819.0         0.30          5.0 
      2820.0         0.30          2.5 
      2821.0         0.33          1.3 
      2822.0         0.30          0.5 
      2823.0         0.30          0.9 
      2824.0         0.37          1.2 
      2825.0         0.43          2.3 
      2826.0         3.70         24.4 
      2827.0         0.47          9.4 
      2828.0         0.43          7.2 
      2829.0         0.37          6.0 
      2830.0         0.37          5.7 
      2831.0         0.47          6.8 
      2832.0         0.38          6.6 
      2833.0         0.37          6.7 
      2834.0         0.30          6.6 
      2835.0         0.33          6.1 
      2836.0         0.50          5.3 
      2837.0         0.53          4.7 
      2838.0         0.50          3.9 
      2839.0         0.40          3.4 
      2840.0         0.38          3.2 
      2841.0         0.37          2.9 
      2842.0         0.33          3.0 
      2843.0         0.33          2.6 
      2844.0         0.37          3.1 
      2845.0         0.37          2.2 
      2846.0         0.47          2.5 
      2847.0         0.37          2.3 
      2848.0         0.30          2.0 
      2849.0         0.35          2.2 
      2850.0         0.37          2.5 
      2851.0         0.50          3.4 
      2852.0         7.60         39.2 
      2853.0         2.18         10.8 
      2854.0         0.73          0.2 
      2855.0         1.27          4.4 
      2856.0         5.23         21.4 
      2857.0         0.63          8.4 
      2858.0         0.50          5.9 
      2859.0         0.50          5.5 
      2860.0         0.48          5.5 
      2861.0         0.47          3.4 
      2862.0         0.43          3.2 
      2863.0         0.47          2.9 
      2864.0         0.40          2.9 
      2865.0         0.33          3.5 
      2866.0         0.37          2.8 
      2867.0         0.37          3.2 
      2868.0         0.42          3.0 
      2869.0         0.40          1.7 
      2870.0         0.47          1.7 
      2871.0         0.33          1.0 
      2872.0         0.30          0.8 
      2873.0         0.40          1.5 
      2874.0         1.00          1.9 
      2875.0         0.95          1.6 
      2876.0         1.07          3.9 
      2877.0         1.13          4.6 
      2878.0         0.65          5.1 
      2879.0         0.73          5.4 
      2880.0         0.60          4.8 
      2881.0         0.57          3.8 
      2882.0         0.60          3.0 
      2883.0         0.53          1.2 
      2884.0         0.58          0.6 
      2885.0         0.60          6.6 
      2886.0         2.78         45.7 
      2887.0         0.73         22.3 
      2888.0         0.57         12.0 
      2889.0         0.50          7.4 
      2890.0         0.53          6.1 
      2891.0         0.57          4.2 
      2892.0         0.55          4.5 
      2893.0         0.53          4.3 
      2894.0         0.43          2.7 
      2895.0         0.47          2.7 
      2896.0         0.55          2.5 
      2897.0         0.53          2.7 
      2898.0         0.53          1.6 
      2899.0         0.60          1.7 
      2900.0         0.73          1.5 
      2901.0         0.47          2.0 
      2902.0         0.78          4.0 
      2903.0         0.80          4.2 
      2904.0         0.73          4.8 
      2905.0         0.72          4.4 
      2906.0         0.70          4.0 
      2907.0         0.77          4.3 
      2908.0         0.83          2.4 
      2909.0         0.68          2.0 
      2910.0         0.87          4.2 
      2911.0         0.73          5.8 
      2912.0         0.67          6.6 
      2913.0         0.70          4.7 
      2914.0         0.65          2.2 
      2915.0         1.07          8.3 
      2916.0         2.08         34.3 
      2917.0         0.73         29.3 
      2918.0         0.77         23.9 
