~Version Information
VERS.                      2.0: CWLS Log ASCII Standard - VERSION 2.0
WRAP.                       NO: One line per depth step
~Well Information Block
STRT.FT               430.0000: 
STOP.FT              2827.0000: 
STEP.FT                 0.1000: 
NULL.                -999.2500: 
COMP.          Pioneer Natural Resources: COMPANY
WELL.           Ei-ei-oh 31-24: WELL
FLD.           Purgatoire River: FIELD
LOC.           235' FNL & 2001' FEL--: LOCATION
PROV.                 Colorado: PROVINCE
CNTY.               Las Animas: COUNTRY
SRVC.                Patterson: SERVICE COMPANY
DATE.          Thu Jun 16 07:14:41 2005: LOG DATE
UWI.           05 071 08403 00: UNIQUE WELL ID
~Curve Information Block
DEPT.FT            0 000 00 00: Depth
DCAL.in                       : CDL Caliper
DPOR.pu                       : CDL Density Porosity
NPOR.pu                       : Neutron Porosity
RHOB.g/cc                     : CDL Bulk Density
RHOC.g/cc                     : CDL Density Correction
GR.GAPI                       : Gamma Ray
~Parameter Information Block
~A  Depth       DCAL        DPOR        NPOR        RHOB        RHOC         GR     
# ...
  1946.8000      7.9604     -2.8653     20.0355      2.6973      0.0730    105.2729
  1946.9000      7.9604     -2.9560     20.9802      2.6988      0.0941    108.0980
  1947.0000      7.9594     -1.3157     21.4545      2.6717      0.0376    114.0017
  1947.1000      7.9594      0.8722     21.2037      2.6356      0.0161    118.7585
  1947.2000      7.9594      2.4114     20.6972      2.6102      0.0185    117.4954
  1947.3000      7.9578      2.8253     20.4856      2.6034      0.0177    109.2632
  1947.4000      7.9578      2.3440     20.6677      2.6113      0.0417    100.3849
  1947.5000      7.9583      2.1428     21.0801      2.6146      0.0585     96.6846
  1947.6000      7.9583      2.8854     21.5674      2.6024      0.0094     97.2475
  1947.7000      7.9583      3.5780     21.9572      2.5910      0.0229     99.7482
  1947.8000      7.9605      3.3587     21.9410      2.5946      0.0438    102.9386
  1947.9000      7.9605      2.6705     21.7244      2.6059      0.0428    105.3668
  1948.0000      7.9613      2.3706     21.8249      2.6109      0.0599    106.4603
  1948.1000      7.9613      2.8591     21.9501      2.6028      0.0610    105.7924
  1948.2000      7.9613      3.5734     21.7493      2.5910      0.0452    103.6487
  1948.3000      7.9601      3.8038     21.3929      2.5872      0.0644    100.7906
  1948.4000      7.9601      3.6354     20.9966      2.5900      0.0381     99.6884
  1948.5000      7.9590      3.0568     20.8575      2.5996      0.0351    107.0372
  1948.6000      7.9590      2.5213     21.1317      2.6084      0.0853    124.3412
  1948.7000      7.9590      3.2320     21.3343      2.5967      0.0673    140.9526
  1948.8000      7.9592      4.6748     21.1130      2.5729      0.0046    148.0849
  1948.9000      7.9592      4.9741     20.9296      2.5679      0.0116    144.2964
  1949.0000      7.9587      4.0100     21.1287      2.5838      0.0322    132.2500
  1949.1000      7.9587      3.1004     21.3485      2.5988      0.0520    122.7886
  1949.2000      7.9587      2.8115     21.3146      2.6036      0.0634    123.0617
  1949.3000      7.9588      2.8027     21.1977      2.6038      0.0596    122.7060
  1949.4000      7.9588      3.0323     21.2409      2.6000      0.0580    114.0248
  1949.5000      7.9610      3.8298     21.4041      2.5868      0.0163    107.0206
  1949.6000      7.9610      4.7370     21.4386      2.5718      0.0145    110.1058
  1949.7000      7.9610      4.7402     21.2300      2.5718      0.0176    117.2243
  1949.8000      7.9629      3.4945     20.9440      2.5923      0.0526    123.5070
  1949.9000      7.9629      1.9225     20.9831      2.6183      0.0881    130.5786
  1950.0000      7.9629      1.3053     21.4721      2.6285      0.0675    135.1408
  1950.1000      7.9629      2.1240     21.9519      2.6150      0.1048    135.7982
  1950.2000      7.9629      4.0842     22.0138      2.5826      0.0549    136.2483
  1950.3000      7.9633      5.6232     21.7478      2.5572     -0.0094    136.1728
  1950.4000      7.9633      5.0780     21.5142      2.5662      0.0231    131.6905
  1950.5000      7.9640      3.0556     21.4083      2.5996      0.0702    122.4943
  1950.6000      7.9640      1.4465     21.2938      2.6261      0.0850    111.8719
  1950.7000      7.9640      1.0241     21.2108      2.6331      0.0849    103.9655
  1950.8000      7.9642      1.0402     21.0626      2.6328      0.0603    100.7807
  1950.9000      7.9642      0.6359     20.4902      2.6395      0.0766    101.9195
  1951.0000      7.9650      0.1316     19.5298      2.6478      0.0770    106.3526
  1951.1000      7.9650      0.4365     18.6821      2.6428      0.0889    109.5531
  1951.2000      7.9650      1.4224     18.1515      2.6265      0.0409    107.0372
  1951.3000      7.9646      1.8699     17.9830      2.6191      0.0146    103.4018
  1951.4000      7.9646      1.4262     18.4221      2.6265      0.0529    104.1159
  1951.5000      7.9634      1.1620     19.2128      2.6308      0.0704    105.9184
  1951.6000      7.9634      1.7335     19.6558      2.6214      0.0577    105.9010
  1951.7000      7.9634      2.3551     19.5967      2.6111      0.0193    108.3804
  1951.8000      7.9617      2.4518     19.4129      2.6095      0.0462    113.6845
  1951.9000      7.9617      2.6107     19.4671      2.6069      0.0217    116.0619
  1952.0000      7.9610      2.9968     20.0738      2.6006      0.0204    115.0296
  1952.1000      7.9610      3.1440     21.1356      2.5981      0.0404    114.4663
  1952.2000      7.9610      3.1996     21.9153      2.5972      0.0667    116.8632
  1952.3000      7.9614      3.4183     22.1558      2.5936      0.0413    120.2283
  1952.4000      7.9614      3.4881     22.2248      2.5924      0.0504    119.5102
  1952.5000      7.9611      3.4047     22.4921      2.5938      0.0457    113.8122
  1952.6000      7.9611      3.7034     23.1269      2.5889      0.0732    109.1956
  1952.7000      7.9611      4.4638     23.6322      2.5763      0.0484    113.5440
  1952.8000      7.9613      5.1572     23.9231      2.5649      0.0398    124.8560
  1952.9000      7.9613      5.4662     24.5799      2.5598      0.0600    131.6832
  1953.0000      7.9632      5.1755     25.6343      2.5646      0.0383    130.8756
  1953.1000      7.9632      3.9945     26.4311      2.5841      0.0883    129.0380
  1953.2000      7.9632      2.3662     26.7054      2.6110      0.0628    129.9380
  1953.3000      7.9638      0.8999     26.8673      2.6352      0.0723    133.1887
  1953.4000      7.9638     -0.2894     27.0538      2.6548      0.1043    138.0824
  1953.5000      7.9640     -1.0255     27.1710      2.6669      0.0862    141.9162
  1953.6000      7.9640     -1.0535     27.4002      2.6674      0.0859    145.9168
  1953.7000      7.9640     -0.1589     27.6243      2.6526      0.0900    154.9639
  1953.8000      7.9688      1.5055     27.4450      2.6252      0.0294    164.7915
  1953.9000      7.9688      3.5707     27.1876      2.5911      0.0616    166.8405
  1954.0000      7.9795      5.8292     27.5702      2.5538     -0.0015    163.7352
  1954.1000      7.9795      7.4901     28.0703      2.5264     -0.0359    166.0859
  1954.2000      7.9795      7.9475     27.6934      2.5189     -0.0175    171.1263
  1954.3000      7.9944      7.9310     26.8954      2.5191     -0.0107    170.5709
  1954.4000      7.9944      8.0906     26.5607      2.5165     -0.0465    168.3651
  1954.5000      8.0083      7.5054     26.5324      2.5262     -0.0199    169.4181
  1954.6000      8.0083      5.6449     26.4829      2.5569      0.0644    172.6455
  1954.7000      8.0083      4.0940     26.5384      2.5824      0.1284    175.0903
  1954.8000      8.0141      3.8702     26.6211      2.5861      0.0749    177.4620
  1954.9000      8.0141      4.1846     26.2719      2.5810      0.0794    183.3878
  1955.0000      8.0121      4.5075     25.4763      2.5756      0.0929    189.6213
  1955.1000      8.0121      4.9017     24.9908      2.5691      0.0739    189.0990
  1955.2000      8.0121      5.3826     25.3124      2.5612      0.0699    182.5503
  1955.3000      8.0068      5.8415     26.2270      2.5536      0.0576    176.7938
  1955.4000      8.0068      5.8616     27.2560      2.5533      0.0609    172.6282
  1955.5000      7.9997      4.9406     27.7280      2.5685      0.0219    170.7405
  1955.6000      7.9997      3.5239     27.3794      2.5919      0.0701    176.0607
  1955.7000      7.9997      2.8269     26.8152      2.6034      0.0879    182.3533
  1955.8000      7.9936      2.8970     26.4645      2.6022      0.0418    178.2349
  1955.9000      7.9936      2.6940     25.9378      2.6055      0.0721    163.4971
  1956.0000      7.9902      2.0945     25.0183      2.6154      0.0579    148.6434
  1956.1000      7.9902      1.9788     24.4004      2.6174      0.0864    143.0454
  1956.2000      7.9902      2.9744     24.5583      2.6009      0.0420    144.2379
  1956.3000      7.9879      4.6305     24.9385      2.5736      0.0296    145.7646
