~Version Information
VERS.                      2.0: CWLS Log ASCII Standard - VERSION 2.0
WRAP.                       NO: One line per depth step
~Well Information Block
STRT.FT               533.0000: 
STOP.FT              1578.0000: 
STEP.FT                 0.2500: 
NULL.                -999.2500: 
COMP.          Pioneer Natural Resources: COMPANY
WELL.           Telna 24-22 Tr: WELL
FLD.           Purgatoire River: FIELD
LOC.           748' FSL & 1931' FWL: LOCATION
PROV.                 Colorado: PROVINCE
CNTY.               Las Animas: COUNTRY
SRVC.                Patterson: SERVICE COMPANY
DATE.          Sun May 01 14:14:42 2005: LOG DATE
UWI.           05 071 08304 00: UNIQUE WELL ID
~Curve Information Block
DEPT.FT            0 000 00 00: Depth
SN.Ohm-m                      : IEL Short Normal
SP.mV                         : IEL Spontaneous Potential
DIR.Ohm-m                     : IEL Induction Resistivity
GR.GAPI                       : Gamma Ray
~Parameter Information Block
~A  Depth        SN          SP         DIR          GR     
# ...
   801.0000     19.0708    -22.5869     11.7541    136.0885
   801.2500     17.5766    -21.6765     12.1789    138.7199
   801.5000     15.7680    -20.9911     12.5458    140.9157
   801.7500     14.3831    -20.6241     12.8036    140.6348
   802.0000     13.5960    -20.5488     12.9239    137.1082
   802.2500     13.2751    -20.6753     12.9085    132.9600
   802.5000     13.3175    -20.9291     12.7824    125.4695
   802.7500     13.6908    -21.2695     12.5821    120.7730
   803.0000     14.3065    -21.6539     12.3488    116.2337
   803.2500     14.9769    -22.0099     12.1264    115.9223
   803.5000     15.4759    -22.2571     11.9560    120.3081
   803.7500     15.6530    -22.3609     11.8650    125.9585
   804.0000     15.5661    -22.3696     11.8573    136.2132
   804.2500     15.4602    -22.3979     11.9139    142.6397
   804.5000     15.5275    -22.5590     12.0054    149.6732
   804.7500     15.7663    -22.8971     12.1109    152.2271
   805.0000     16.1081    -23.3707     12.2281    153.3669
   805.2500     16.5367    -23.8855     12.3704    152.9433
   805.5000     17.0021    -24.3379     12.5569    151.3677
   805.7500     17.3487    -24.6463     12.8029    149.9420
   806.0000     17.4440    -24.7708     13.1151    147.5080
   806.2500     17.3373    -24.7126     13.4868    145.7534
   806.5000     17.2260    -24.4910     13.8994    142.6689
   806.7500     17.2838    -24.1243     14.3296    140.0667
   807.0000     17.5679    -23.6378     14.7622    135.3380
   807.2500     18.0563    -23.0793     15.1948    131.9395
   807.5000     18.6574    -22.5182     15.6333    127.1320
   807.7500     19.1768    -22.0250     16.0844    124.4097
   808.0000     19.4082    -21.6551     16.5593    121.2812
   808.2500     19.3484    -21.4429     17.0810    119.7321
   808.5000     19.2374    -21.3978     17.6806    117.5857
   808.7500     19.3345    -21.5054     18.3749    115.8179
   809.0000     19.7928    -21.7399     19.1394    112.3098
   809.2500     20.7144    -22.0814     19.9033    109.6088
   809.5000     22.0377    -22.5156     20.5793    105.8462
   809.7500     23.4078    -23.0132     21.1106    104.0443
   810.0000     24.5029    -23.5132     21.4938    103.0047
   810.2500     25.3918    -23.9335     21.7595    103.4632
   810.5000     26.2979    -24.2060     21.9385    105.2819
   810.7500     27.1846    -24.3087     22.0435    106.6738
   811.0000     27.6800    -24.2702     22.0715    108.1974
   811.2500     27.2694    -24.1471     22.0128    108.5230
   811.5000     25.7343    -23.9990     21.8537    107.6377
   811.7500     23.5832    -23.8750     21.5701    106.1473
   812.0000     21.7855    -23.8075     21.1234    103.2824
   812.2500     21.0251    -23.8074     20.4818    101.6895
   812.5000     21.4647    -23.8674     19.6638    100.7913
   812.7500     22.8791    -23.9739     18.7585    101.1804
   813.0000     24.6001    -24.1197     17.8862    102.2188
   813.2500     25.7753    -24.3075     17.1310    102.6634
   813.5000     26.0110    -24.5463     16.5067    103.3289
   813.7500     25.5043    -24.8506     15.9755    104.6088
   814.0000     24.6171    -25.2446     15.4989    108.7275
   814.2500     23.5475    -25.7599     15.0766    112.7212
   814.5000     22.3161    -26.4154     14.7433    119.5279
   814.7500     20.9181    -27.1862     14.5343    124.0187
   815.0000     19.3939    -27.9889     14.4548    129.4788
   815.2500     17.8083    -28.7075     14.4763    131.3037
   815.5000     16.3302    -29.2428     14.5512    130.1382
   815.7500     15.2563    -29.5456     14.6299    127.0675
   816.0000     14.8146    -29.6195     14.6712    121.2492
   816.2500     15.0811    -29.5089     14.6496    118.0520
   816.5000     16.0584    -29.2879     14.5651    115.7271
   816.7500     17.5274    -29.0435     14.4490    115.9434
   817.0000     18.8976    -28.8561     14.3516    118.6696
   817.2500     19.5991    -28.7790     14.3162    121.9583
   817.5000     19.6038    -28.8159     14.3572    128.5389
   817.7500     19.2949    -28.9051     14.4520    133.2410
   818.0000     19.0110    -28.9416     14.5437    138.9611
   818.2500     18.9079    -28.8430     14.5563    141.0949
   818.5000     18.9738    -28.6069     14.4161    141.5473
   818.7500     19.0405    -28.3037     14.0774    140.4846
   819.0000     18.9435    -28.0123     13.5427    138.2054
   819.2500     18.6985    -27.7573     12.8690    137.0707
   819.5000     18.4639    -27.4959     12.1550    136.8022
   819.7500     18.3431    -27.1550     11.5091    137.4250
   820.0000     18.2822    -26.6767     11.0162    138.4658
   820.2500     18.1872    -26.0398     10.7215    138.7394
   820.5000     18.0579    -25.2638     10.6348    138.8311
   820.7500     17.9525    -24.4106     10.7432    139.3173
   821.0000     17.9060    -23.5824     11.0205    141.2277
   821.2500     17.9155    -22.9096     11.4317    142.8561
   821.5000     17.9142    -22.5272     11.9358    144.4068
   821.7500     17.7565    -22.5497     12.4945    144.2451
   822.0000     17.3024    -23.0573     13.0812    141.7375
   822.2500     16.4954    -24.0970     13.6794    138.1808
   822.5000     15.4018    -25.6769     14.2725    129.2089
   822.7500     14.3697    -27.7233     14.8298    121.0068
   823.0000     14.0591    -30.0183     15.3015    107.7912
   823.2500     15.2532    -32.1983     15.6274    100.3008
   823.5000     18.8357    -33.8793     15.7634     92.9758
   823.7500     25.2748    -34.8390     15.7124     90.5943
   824.0000     33.2017    -35.0877     15.5342     89.7046
   824.2500     39.2189    -34.7635     15.3169     90.6607
   824.5000     40.1263    -33.9769     15.1333     95.0671
   824.7500     35.4232    -32.7567     15.0158    100.4920
   825.0000     27.8868    -31.1192     14.9597    112.3806
   825.2500     21.5411    -29.1734     14.9422    122.0811
   825.5000     18.6331    -27.1638     14.9405    137.0244
   825.7500     18.8071    -25.4058     14.9406    145.7683
   826.0000     20.5825    -24.1579     14.9375    155.2980
   826.2500     22.6352    -23.5276     14.9338    159.0068
   826.5000     24.1369    -23.4655     14.9379    161.1712
   826.7500     24.8001    -23.8329     14.9601    160.8798
   827.0000     24.6740    -24.4871     15.0095    158.6700
   827.2500     23.7408    -25.3279     15.0907    156.3788
   827.5000     21.8887    -26.2749     15.2043    152.0318
   827.7500     19.3436    -27.1978     15.3512    148.4852
   828.0000     16.8695    -27.8824     15.5358    141.8727
   828.2500     15.4373    -28.1146     15.7658    136.4750
   828.5000     15.8704    -27.8403     16.0464    127.1740
   828.7500     18.6817    -27.2420     16.3768    120.7094
   829.0000     23.6888    -26.6179     16.7496    111.8573
   829.2500     29.6245    -26.1601     17.1504    107.1169
   829.5000     34.6019    -25.8383     17.5527    102.3068
   829.7500     37.2918    -25.4697     17.9141    100.8591
   830.0000     37.5683    -24.8756     18.1862    101.8356
   830.2500     36.0899    -23.9887     18.3359    104.7182
   830.5000     33.6864    -22.8748     18.3548    111.5674
   830.7500     30.9983    -21.6993     18.2460    116.6637
   831.0000     28.1070    -20.6703     18.0046    122.8503
   831.2500     24.7116    -19.9627     17.6194    125.1866
   831.5000     20.9377    -19.6393     17.0985    126.1993
   831.7500     17.4460    -19.6126     16.4863    126.1762
   832.0000     14.6912    -19.6987     15.8517    127.2406
   832.2500     12.6636    -19.7404     15.2582    129.5495
   832.5000     11.2547    -19.7075     14.7427    135.4998
   832.7500     10.5094    -19.6912     14.3162    140.3991
   833.0000     10.5491    -19.8183     13.9745    147.3408
   833.2500     11.3928    -20.1695     13.7084    150.8573
   833.5000     12.9542    -20.7431     13.5079    153.9116
   833.7500     15.0189    -21.4557     13.3604    154.4904
   834.0000     17.0555    -22.1772     13.2497    153.3356
   834.2500     18.3598    -22.7964     13.1600    151.4474
