~Version Information
VERS.                      2.0: CWLS Log ASCII Standard - VERSION 2.0
WRAP.                       NO: One line per depth step
~Well Information Block
STRT.FT                 5.5000: 
STOP.FT              1635.7500: 
STEP.FT                 0.2500: 
NULL.                -999.2500: 
COMP.          Pioneer Natural Resources: COMPANY
WELL.                Mead 11-9: WELL
FLD.           Purgatoire River: FIELD
LOC.           1127' FNL & 668' FWL: LOCATION
PROV.                 Colorado: PROVINCE
CNTY.               Las Animas: COUNTRY
SRVC.                Patterson: SERVICE COMPANY
DATE.          Wed Mar 02 13:48:38 2005: LOG DATE
UWI.           05 071 08160 00: UNIQUE WELL ID
~Curve Information Block
DEPT.FT            0 000 00 00: Depth
CCL.                          : Casing Collar Locator
TT3.usec                      : CBL 3' Travel Time
AMP3.mV                       : CBL 3' Amplitude
GR.GAPI                       : Gamma Ray
~Parameter Information Block
~A  Depth       CCL         TT3         AMP3         GR     
# ...
   340.5000      0.0000    964.7761      3.9365     97.1489
   340.7500      0.0000    969.4139      3.8702     96.7326
   341.0000      0.0000    965.2213      3.8432     94.4076
   341.2500      0.0000    948.2970      3.8722     91.2832
   341.5000      0.0000    920.0823      3.9815     88.2035
   341.7500      0.0000    884.4149      4.1741     85.4742
   342.0000      0.0000    847.9164      4.4030     83.1605
   342.2500      0.0000    824.1236      4.5756     81.3740
   342.5000      0.0000    831.2324      4.6063     80.1525
   342.7500      0.0000    877.8702      4.4813     79.2981
   343.0000      0.0000    948.2227      4.2662     78.5755
   343.2500      0.0000   1005.8070      4.0433     77.9719
   343.5000      0.0000   1020.9233      3.8483     77.5099
   343.7500     -2.5140    997.5009      3.6644     76.8962
   344.0000     -3.0000    967.9061      3.4592     75.8019
   344.2500      3.0000    960.7221      3.2160     74.5810
   344.5000      0.0000    978.6323      2.9414     74.3669
   344.7500      0.0000   1005.2930      2.6563     76.2290
   345.0000      0.0000   1025.0961      2.3811     80.2839
   345.2500      0.0000   1034.4507      2.1293     85.5216
   345.5000      0.0000   1038.7716      1.9141     90.3795
   345.7500      0.0000   1042.5531      1.7523     93.7409
   346.0000      0.0000   1044.7317      1.6498     95.5968
   346.2500      0.0000   1042.9276      1.5925     96.6672
   346.5000      0.0000   1037.6801      1.5603     97.5462
   346.7500      0.0000   1031.5966      1.5442     98.4006
   347.0000      0.0000   1028.4138      1.5444     98.9534
   347.2500      0.0000   1033.6128      1.5594     98.4012
   347.5000      0.0000   1051.6814      1.5874     96.0919
   347.7500      0.0000   1080.6194      1.6344     92.8574
   348.0000      0.0000   1111.6586      1.7162     91.0433
   348.2500      0.0000   1136.0782      1.8498     92.4657
   348.5000      0.0000   1150.7273      2.0404     96.5580
   348.7500      0.0000   1156.7776      2.2745    101.0145
   349.0000      0.0000   1155.6989      2.5256    104.0938
   349.2500      0.0000   1147.9104      2.7663    105.7756
   349.5000      0.0000   1133.6017      2.9784    106.7989
   349.7500      0.0000   1112.5206      3.1570    107.3528
   350.0000      0.0000   1084.0265      3.3091    107.0097
   350.2500      0.0000   1050.0127      3.4521    105.3933
   350.5000      0.0000   1017.4317      3.6063    102.4842
   350.7500      0.0000    994.6809      3.7816     98.4776
   351.0000      0.0000    984.5474      3.9645     93.7046
   351.2500      0.0000    983.0053      4.1180     88.7587
   351.5000      0.0000    985.2476      4.2033     84.3660
   351.7500      0.0000    990.0588      4.2040     80.9082
   352.0000      0.0000    997.4653      4.1367     78.3048
   352.2500      0.0000   1005.0532      4.0392     76.5047
   352.5000      0.0000   1008.3599      3.9493     75.7467
   352.7500      0.0000   1004.4993      3.8863     76.2600
   353.0000      0.0000    995.9880      3.8458     78.0727
   353.2500      0.0000    992.1424      3.8106     81.0581
   353.5000      0.0000   1004.0643      3.7649     84.8245
   353.7500      0.0000   1034.1284      3.7030     88.7017
   354.0000      0.0000   1070.7688      3.6289     91.9971
   354.2500      0.0000   1095.6393      3.5533     94.1282
   354.5000      0.0000   1094.6772      3.4905     94.6557
   354.7500      0.0000   1063.1333      3.4540     93.6105
   355.0000      0.0000   1008.0740      3.4489     91.7188
   355.2500      0.0000    951.0886      3.4674     89.8718
   355.5000      0.0000    922.5588      3.4921     88.3795
   355.7500      0.0000    944.7003      3.5045     87.0205
   356.0000      0.0000   1016.7512      3.4885     85.7025
   356.2500      0.0000   1114.2404      3.4300     84.6688
   356.5000      0.0000   1200.6299      3.3222     84.1159
   356.7500      0.0000   1244.4502      3.1749     83.9997
   357.0000      0.0000   1234.7742      3.0160     84.3570
   357.2500      0.0000   1185.6737      2.8802     85.5349
   357.5000      0.0000   1124.9655      2.7947     87.7258
   357.7500      0.0000   1076.4319      2.7736     90.2785
   358.0000      0.0000   1050.6779      2.8200     92.0852
   358.2500      0.0000   1049.1478      2.9269     93.0213
   358.5000      0.0000   1072.1920      3.0738     94.4179
   358.7500      0.0000   1119.9908      3.2310     97.5213
   359.0000      0.0000   1185.1055      3.3747    101.7757
   359.2500      0.0000   1246.3932      3.4999    105.0453
   359.5000      0.0000   1275.0815      3.6165    105.4497
   359.7500      0.0000   1253.0375      3.7353    102.9326
   360.0000      0.0000   1189.4539      3.8617     99.2450
   360.2500      0.0000   1118.3265      4.0007     96.5025
   360.5000      0.0000   1074.0443      4.1627     95.6979
   360.7500      0.0000   1066.3436      4.3551     96.4009
   361.0000      0.0000   1078.2371      4.5693     97.5861
   361.2500      0.0000   1085.6830      4.7777     98.4770
   361.5000      0.0000   1080.5204      4.9462     98.8353
   361.7500      0.0000   1079.4318      5.0458     98.9048
   362.0000      0.0000   1108.7753      5.0565     99.0004
   362.2500      0.0000   1176.1631      4.9737     99.0156
   362.5000      0.0000   1259.7485      4.8158     98.6884
   362.7500      0.0000   1326.6671      4.6183     98.2335
   363.0000      0.0000   1357.2181      4.4118     98.0669
   363.2500      0.0000   1352.3871      4.2109     98.1200
   363.5000      0.0000   1325.8881      4.0261     98.1694
   363.7500      0.0000   1290.6417      3.8763     98.5283
   364.0000      0.0000   1248.1482      3.7820     99.7408
   364.2500      0.0000   1191.2120      3.7447    101.9129
   364.5000      0.0000   1119.3744      3.7399    104.6329
   364.7500      0.0000   1048.2909      3.7318    107.0285
   365.0000      0.0000   1000.4090      3.6965    107.8242
   365.2500      0.0000    989.0396      3.6346    106.0221
   365.5000      0.0000   1013.5378      3.5656    101.7619
   365.7500      0.0000   1064.5135      3.5120     96.2749
   366.0000      0.0000   1126.3872      3.4861     91.0528
   366.2500      0.0000   1177.2177      3.4862     87.1948
   366.5000      0.0000   1196.8444      3.5011     85.1768
   366.7500      0.0000   1180.3386      3.5199     84.7958
   367.0000      0.0000   1139.9705      3.5376     85.3394
   367.2500      0.0000   1092.9983      3.5548     85.9788
   367.5000      0.0000   1050.9272      3.5721     86.1460
   367.7500      0.0000   1018.7285      3.5893     85.8393
   368.0000      0.0000    997.5024      3.6091     85.6946
   368.2500      0.0000    985.4459      3.6392     86.5562
   368.5000      0.0000    978.9031      3.6876     88.7635
   368.7500      0.0000    974.6876      3.7555     91.7174
   369.0000      0.0000    971.7617      3.8333     94.0698
   369.2500      0.0000    971.0262      3.9047     94.5470
   369.5000      0.0000    974.1485      3.9537     92.9867
   369.7500      0.0000    983.0252      3.9710     90.7572
   370.0000      0.0000    999.8549      3.9578     89.9400
   370.2500      0.0000   1025.0549      3.9256     91.6760
   370.5000      0.0000   1053.1118      3.8945     95.0975
   370.7500      0.0000   1071.9944      3.8909     98.0443
   371.0000      0.0000   1069.3673      3.9431     99.0521
   371.2500      0.0000   1039.4805      4.0690     98.5068
   371.5000      0.0000    984.9929      4.2621     97.7381
   371.7500      0.0000    916.5876      4.4866     97.2789
   372.0000      0.0000    851.2948      4.6912     96.3760
   372.2500      0.0000    805.9128      4.8334     94.2442
   372.5000      0.0000    789.3584      4.8971     91.4238
   372.7500      0.0000    801.3896      4.8877     89.5078
   373.0000      0.0000    835.8593      4.8109     89.5430
   373.2500      0.0000    883.4664      4.6599     91.0809
   373.5000      0.0000    933.2902      4.4320     92.9258
   373.7500      0.0000    973.2423      4.1582     94.3107
