~Version Information
VERS.                      2.0: CWLS Log ASCII Standard - VERSION 2.0
WRAP.                       NO: One line per depth step
~Well Information Block
STRT.FT               395.0000: 
STOP.FT              1998.0000: 
STEP.FT                 0.1000: 
NULL.                -999.2500: 
COMP.          Pioneer Natural Resources: COMPANY
WELL.          Easton 12-30 Tr: WELL
FLD.           Purgatoire River: FIELD
LOC.           549' FWL & 2416' FNL--: LOCATION
PROV.                 Colorado: PROVINCE
CNTY.               Las Animas: COUNTRY
SRVC.                Patterson: SERVICE COMPANY
DATE.          Thu Jun 02 09:14:44 2005: LOG DATE
UWI.           05 071 08379 00: UNIQUE WELL ID
~Curve Information Block
DEPT.FT            0 000 00 00: Depth
DCAL.in                       : CDL Caliper
RHOB.g/cc                     : CDL Bulk Density
RHOC.g/cc                     : CDL Density Correction
DPOR.pu                       : CDL Density Porosity
NPOR.pu                       : Neutron Porosity
GR.GAPI                       : Gamma Ray
~Parameter Information Block
~A  Depth       DCAL        RHOB        RHOC        DPOR        NPOR         GR     
# ...
  1652.6000      7.9405      2.6605      0.0826     -0.6366     25.0074     98.9578
  1652.7000      7.9405      2.6309      0.0332      1.1570     24.6431     97.7878
  1652.8000      7.9518      2.6057      0.0433      2.6833     24.1183     99.2443
  1652.9000      7.9518      2.5986      0.0421      3.1131     23.9462    102.2627
  1653.0000      7.9549      2.6080      0.0710      2.5458     24.1432    102.5112
  1653.1000      7.9549      2.6158      0.0708      2.0724     24.2262    100.1083
  1653.2000      7.9549      2.6075      0.0810      2.5761     23.9738     97.4908
  1653.3000      7.9502      2.5870      0.0530      3.8194     23.5461     94.7606
  1653.4000      7.9502      2.5721      0.0514      4.7199     23.1523     95.2504
  1653.5000      7.9442      2.5746      0.0643      4.5692     22.8858    103.4717
  1653.6000      7.9442      2.5848      0.0671      3.9492     22.6646    113.6617
  1653.7000      7.9442      2.5863      0.0971      3.8610     22.5548    115.2664
  1653.8000      7.9416      2.5792      0.0670      4.2899     22.6200    110.0226
  1653.9000      7.9416      2.5768      0.0635      4.4365     22.7195    108.1388
  1654.0000      7.9420      2.5825      0.0873      4.0889     22.5436    111.8531
  1654.1000      7.9420      2.5889      0.0684      3.7013     22.0743    114.3810
  1654.2000      7.9420      2.5909      0.0666      3.5796     21.7081    111.9586
  1654.3000      7.9430      2.5870      0.0826      3.8188     21.6496    108.1585
  1654.4000      7.9430      2.5852      0.0409      3.9255     21.8583    106.1128
  1654.5000      7.9444      2.5990      0.0620      3.0921     22.0388    103.5949
  1654.6000      7.9444      2.6166      0.1031      2.0213     21.8223     99.6682
  1654.7000      7.9444      2.6205      0.0420      1.7875     21.4926     96.3178
  1654.8000      7.9442      2.6181      0.0708      1.9358     21.5662     93.7643
  1654.9000      7.9442      2.6178      0.0718      1.9502     22.0126     91.6327
  1655.0000      7.9419      2.6136      0.0526      2.2082     22.3980     91.4125
  1655.1000      7.9419      2.5974      0.0603      3.1905     22.6217     94.0871
  1655.2000      7.9419      2.5754      0.0265      4.5198     22.9257     96.0495
  1655.3000      7.9398      2.5656      0.0116      5.1147     23.1897     93.7455
  1655.4000      7.9398      2.5751      0.0184      4.5391     23.3328     89.5240
  1655.5000      7.9371      2.5880      0.0803      3.7553     23.6718     87.5538
  1655.6000      7.9371      2.5844      0.0513      3.9786     24.2955     89.5731
  1655.7000      7.9371      2.5708      0.0427      4.7988     24.7753     96.5951
  1655.8000      7.9329      2.5717      0.0518      4.7459     24.5968    106.3202
  1655.9000      7.9329      2.5935      0.0790      3.4215     23.8455    113.0134
  1656.0000      7.9299      2.6194      0.1083      1.8550     23.0310    112.5076
  1656.1000      7.9299      2.6337      0.0932      0.9898     22.4959    105.8856
  1656.2000      7.9299      2.6393      0.0887      0.6476     22.3039     98.9591
  1656.3000      7.9296      2.6459      0.0745      0.2492     22.3572     97.2699
  1656.4000      7.9296      2.6537      0.0903     -0.2261     22.7730     97.8470
  1656.5000      7.9298      2.6607      0.0595     -0.6496     23.6620     95.3538
  1656.6000      7.9298      2.6613      0.0984     -0.6819     24.6177     91.4645
  1656.7000      7.9298      2.6469      0.0382      0.1860     25.0262     90.8987
  1656.8000      7.9292      2.6248      0.0445      1.5280     24.8243     95.3512
  1656.9000      7.9292      2.6046      0.0384      2.7515     24.5693    101.2310
  1657.0000      7.9305      2.5896      0.0397      3.6602     24.5507    104.8868
  1657.1000      7.9305      2.5891      0.0228      3.6936     24.5393    103.9857
  1657.2000      7.9305      2.5992      0.0823      3.0796     24.2737    100.2012
  1657.3000      7.9319      2.5911      0.0908      3.5686     23.9605     99.0044
  1657.4000      7.9319      2.5612      0.0305      5.3840     23.8015    102.5250
  1657.5000      7.9359      2.5453     -0.0020      6.3441     23.5467    107.4627
  1657.6000      7.9359      2.5667      0.0615      5.0487     23.1773    108.7158
  1657.7000      7.9359      2.6091      0.0973      2.4777     22.9761    105.8441
  1657.8000      7.9445      2.6360      0.1559      0.8502     22.9479    103.2643
  1657.9000      7.9445      2.6230      0.1113      1.6340     22.8953    103.9106
  1658.0000      7.9521      2.5815      0.0842      4.1525     22.8384    107.8868
  1658.1000      7.9521      2.5456      0.0276      6.3254     22.8711    114.2574
  1658.2000      7.9521      2.5396      0.0837      6.6891     22.9371    121.2279
  1658.3000      7.9550      2.5595      0.0802      5.4820     22.8349    124.6483
  1658.4000      7.9550      2.5854      0.1092      3.9174     22.4725    121.2574
  1658.5000      7.9552      2.6015      0.0554      2.9408     21.9518    113.8070
  1658.6000      7.9552      2.6020      0.1065      2.9106     21.3590    109.0601
  1658.7000      7.9552      2.5898      0.0837      3.6469     20.9986    110.7823
  1658.8000      7.9546      2.5813      0.0797      4.1627     20.9673    114.2321
  1658.9000      7.9546      2.5904      0.0775      3.6137     20.8159    113.8949
  1659.0000      7.9533      2.6115      0.1230      2.3358     20.6210    110.6271
  1659.1000      7.9533      2.6288      0.1048      1.2835     20.7149    107.9772
  1659.2000      7.9533      2.6370      0.1069      0.7902     20.8038    107.2778
  1659.3000      7.9520      2.6396      0.0889      0.6288     20.8804    106.6304
  1659.4000      7.9520      2.6360      0.1061      0.8515     21.3075    102.9871
  1659.5000      7.9519      2.6161      0.1006      2.0561     22.0460     97.9122
  1659.6000      7.9519      2.5848      0.0265      3.9537     22.7641     95.1686
  1659.7000      7.9519      2.5673      0.0621      5.0125     23.2781     94.1742
  1659.8000      7.9532      2.5717      0.0616      4.7481     23.5887     92.5957
  1659.9000      7.9532      2.5818      0.0647      4.1358     23.7683     91.5458
  1660.0000      7.9536      2.5917      0.0239      3.5342     24.1513     93.7811
  1660.1000      7.9536      2.6086      0.0549      2.5065     24.6849     97.2301
  1660.2000      7.9536      2.6218      0.0997      1.7077     24.8063     97.7141
  1660.3000      7.9529      2.6215      0.0446      1.7254     24.6001     95.2745
  1660.4000      7.9529      2.6254      0.0502      1.4928     24.6319     94.3233
  1660.5000      7.9544      2.6445      0.0941      0.3346     25.1640     98.7738
  1660.6000      7.9544      2.6644      0.0700     -0.8740     26.0310    104.9954
  1660.7000      7.9544      2.6639      0.1040     -0.8414     26.8791    106.3080
  1660.8000      7.9575      2.6429      0.0403      0.4331     27.4742    105.3687
  1660.9000      7.9575      2.6232      0.0331      1.6271     27.7973    108.8229
  1661.0000      7.9616      2.6139      0.0460      2.1881     28.0648    116.1479
  1661.1000      7.9616      2.6128      0.0007      2.2541     28.4278    123.2025
  1661.2000      7.9616      2.6177      0.0380      1.9601     28.6231    129.7093
  1661.3000      7.9648      2.6140      0.0542      2.1843     28.2839    136.4303
  1661.4000      7.9648      2.5970     -0.0321      3.2104     27.4096    139.3282
  1661.5000      7.9646      2.5811      0.0694      4.1760     26.4381    135.8055
  1661.6000      7.9646      2.5718      0.0184      4.7381     25.7998    130.4899
  1661.7000      7.9646      2.5706      0.0383      4.8101     25.4105    131.9719
  1661.8000      7.9620      2.5747      0.0680      4.5606     25.2530    141.6924
  1661.9000      7.9620      2.5755      0.0594      4.5164     25.2681    153.1783
  1662.0000      7.9624      2.5713      0.0478      4.7670     25.1699    160.6533
  1662.1000      7.9624      2.5665      0.0562      5.0621     24.7789    160.8067
