~Version Information
VERS.                      2.0: CWLS Log ASCII Standard - VERSION 2.0
WRAP.                       NO: One line per depth step
~Well Information Block
STRT.FT               860.0000: 
STOP.FT              2733.7000: 
STEP.FT                 0.1000: 
NULL.                -999.2500: 
COMP.          Pioneer Natural Resources: COMPANY
WELL.          Beacon 11-18 Tr: WELL
FLD.           Purgatoire River: FIELD
LOC.           409' FNL & 203' FWL: LOCATION
PROV.                 Colorado: PROVINCE
CNTY.               Las Animas: COUNTRY
SRVC.                Patterson: SERVICE COMPANY
DATE.          Mon Jan 17 07:36:09 2005: LOG DATE
UWI.           05 071 08251 00: UNIQUE WELL ID
~Curve Information Block
DEPT.FT            0 000 00 00: Depth
DCAL.in                       : CDL Caliper
RHOB.g/cc                     : CDL Bulk Density
RHOC.g/cc                     : CDL Density Correction
DPOR.pu                       : CDL Density Porosity
NPOR.pu                       : Neutron Porosity
GR.GAPI                       : Gamma Ray
~Parameter Information Block
~A  Depth       DCAL        RHOB        RHOC        DPOR        NPOR         GR     
# ...
  1349.6000      8.1541      2.5633      0.1212      5.2534     27.7476    129.9650
  1349.7000      8.1541      2.5591      0.0454      5.5068     27.3979    133.2674
  1349.8000      8.1523      2.5380      0.0710      6.7893     27.3908    129.7026
  1349.9000      8.1523      2.5111      0.0095      8.4164     27.3501    124.1111
  1350.0000      8.1536      2.5054     -0.0095      8.7639     27.2116    122.0538
  1350.1000      8.1536      2.5327      0.0456      7.1070     27.2789    122.4880
  1350.2000      8.1536      2.5649      0.1103      5.1583     27.6296    123.3736
  1350.3000      8.1531      2.5694      0.0912      4.8854     27.9985    126.3378
  1350.4000      8.1531      2.5484      0.0729      6.1595     28.0305    132.4344
  1350.5000      8.1422      2.5252      0.0572      7.5655     27.5544    137.3099
  1350.6000      8.1422      2.5193      0.0230      7.9187     27.0373    137.9198
  1350.7000      8.1422      2.5322      0.0545      7.1402     27.0112    135.9446
  1350.8000      8.1327      2.5467      0.0788      6.2617     27.1190    134.3002
  1350.9000      8.1327      2.5535      0.0688      5.8511     27.0898    132.8205
  1351.0000      8.1434      2.5537      0.1129      5.8361     27.1205    130.1106
  1351.1000      8.1434      2.5446      0.0693      6.3896     27.1759    127.7309
  1351.2000      8.1434      2.5320      0.0614      7.1545     27.1148    124.0634
  1351.3000      8.1555      2.5335      0.0337      7.0609     26.8757    119.7850
  1351.4000      8.1555      2.5522      0.0734      5.9258     26.4659    120.7325
  1351.5000      8.1571      2.5675      0.0828      5.0006     26.0999    124.1202
  1351.6000      8.1571      2.5703      0.0585      4.8280     25.9958    123.3718
  1351.7000      8.1571      2.5734      0.0641      4.6446     26.0142    121.4240
  1351.8000      8.1560      2.5746      0.0960      4.5696     25.9015    123.3291
  1351.9000      8.1560      2.5652      0.0739      5.1417     25.6775    126.0879
  1352.0000      8.1561      2.5497      0.0522      6.0783     25.7310    126.7692
  1352.1000      8.1561      2.5323      0.0402      7.1357     26.3949    127.5567
  1352.2000      8.1561      2.5197      0.0109      7.8957     27.3324    129.1312
  1352.3000      8.1572      2.5238      0.0367      7.6465     28.0690    129.5179
  1352.4000      8.1572      2.5423      0.0592      6.5245     28.3306    124.5157
  1352.5000      8.1582      2.5589      0.0991      5.5228     28.0316    113.0812
  1352.6000      8.1582      2.5640      0.0815      5.2109     27.5626    103.3856
  1352.7000      8.1582      2.5695      0.0443      4.8808     27.2593    103.1339
  1352.8000      8.1567      2.5832      0.0924      4.0505     27.1797    109.9779
  1352.9000      8.1567      2.5853      0.1155      3.9236     27.3228    116.7193
  1353.0000      8.1551      2.5633      0.0872      5.2566     27.3989    121.0670
  1353.1000      8.1551      2.5377      0.0539      6.8038     27.1310    122.5723
  1353.2000      8.1551      2.5229      0.0869      7.7003     26.6376    120.0201
  1353.3000      8.1559      2.5053      0.0756      8.7683     26.0772    115.9273
  1353.4000      8.1559      2.4780      0.0420     10.4216     25.3492    112.2277
  1353.5000      8.1572      2.4553      0.0447     11.8008     24.4939    111.1081
  1353.6000      8.1572      2.4416      0.0869     12.6317     23.7495    115.4837
  1353.7000      8.1572      2.4333      0.0285     13.1345     23.3520    121.5396
  1353.8000      8.1577      2.4387      0.0576     12.8078     23.3413    121.1114
  1353.9000      8.1577      2.4620      0.0647     11.3943     23.5854    112.8993
  1354.0000      8.1573      2.4987      0.0883      9.1707     23.9419    105.6817
  1354.1000      8.1573      2.5370      0.1036      6.8459     24.1590    104.6285
  1354.2000      8.1573      2.5520      0.1581      5.9368     24.2635    106.1284
  1354.3000      8.1569      2.5248      0.1395      7.5881     24.5392    107.5863
  1354.4000      8.1569      2.4670      0.0934     11.0909     24.8707    108.7391
  1354.5000      8.1553      2.4008      0.0603     15.1008     25.0831    107.3850
  1354.6000      8.1553      2.3396      0.0172     18.8134     25.1131    103.0437
  1354.7000      8.1553      2.2923     -0.0066     21.6779     24.9170     99.5654
  1354.8000      8.1523      2.2554      0.0182     23.9147     24.5316     99.0923
  1354.9000      8.1523      2.2193     -0.0354     26.1004     23.8552    101.3976
  1355.0000      8.1517      2.1949     -0.0519     27.5842     22.8225    106.3989
  1355.1000      8.1517      2.1952     -0.0146     27.5611     21.5436    110.9108
  1355.2000      8.1517      2.2138      0.0169     26.4344     20.2286    113.1508
  1355.3000      8.1553      2.2432      0.0565     24.6542     19.1739    116.4551
  1355.4000      8.1553      2.2832      0.1083     22.2286     18.4237    117.7168
  1355.5000      8.1597      2.3352      0.1520     19.0805     17.7991    113.2774
  1355.6000      8.1597      2.4005      0.1840     15.1240     17.5178    109.1820
  1355.7000      8.1597      2.4643      0.1712     11.2560     17.9169    110.5916
  1355.8000      8.1617      2.5033      0.1571      8.8909     18.6746    112.9019
  1355.9000      8.1617      2.5131      0.1238      8.2956     19.2816    109.6665
  1356.0000      8.1620      2.5050      0.0712      8.7877     19.6551    106.0589
  1356.1000      8.1620      2.4908      0.0553      9.6468     20.1590    108.2784
  1356.2000      8.1620      2.4752      0.0786     10.5913     20.8811    111.1213
  1356.3000      8.1600      2.4582      0.0457     11.6218     21.4852    112.2388
  1356.4000      8.1600      2.4387      0.0507     12.8066     21.9162    115.0373
  1356.5000      8.1578      2.4189      0.0362     14.0060     22.4447    117.5587
  1356.6000      8.1578      2.4118      0.0368     14.4389     23.1112    118.3565
  1356.7000      8.1578      2.4288      0.0571     13.4079     23.5637    119.1014
  1356.8000      8.1574      2.4655      0.0936     11.1802     23.4255    118.6049
  1356.9000      8.1574      2.5027      0.1069      8.9279     22.9990    115.5489
  1357.0000      8.1595      2.5213      0.1420      7.8013     22.9405    111.8534
  1357.1000      8.1595      2.5234      0.1288      7.6724     23.3408    109.8687
  1357.2000      8.1595      2.5241      0.1551      7.6309     23.7138    112.1401
  1357.3000      8.1628      2.5200      0.1396      7.8814     23.5217    116.8246
  1357.4000      8.1628      2.4990      0.0868      9.1534     22.8142    117.2396
  1357.5000      8.1642      2.4628      0.0913     11.3440     22.2846    113.3044
  1357.6000      8.1642      2.4187      0.0899     14.0186     22.2046    109.6812
  1357.7000      8.1642      2.3697      0.0617     16.9852     22.0731    108.2456
  1357.8000      8.1610      2.3264      0.0158     19.6094     21.6366    108.3834
  1357.9000      8.1610      2.3062      0.0016     20.8340     21.2922    107.9790
  1358.0000      8.1526      2.3150      0.0030     20.3005     21.3634    107.3939
  1358.1000      8.1526      2.3448      0.0329     18.4963     21.6408    105.4806
  1358.2000      8.1526      2.3850      0.0993     16.0602     21.9460     99.2608
  1358.3000      8.1404      2.4262      0.1913     13.5640     22.4988     93.8195
  1358.4000      8.1404      2.4669      0.2185     11.0991     23.3363     97.0917
  1358.5000      8.1307      2.5194      0.2289      7.9126     24.2329    107.2159
  1358.6000      8.1307      2.5868      0.2979      3.8296     24.9778    116.2004
  1358.7000      8.1307      2.6355      0.3465      0.8788     25.3766    119.3101
  1358.8000      8.1274      2.6294      0.2828      1.2476     25.3730    118.3041
  1358.9000      8.1274      2.5836      0.1287      4.0234     25.1786    118.1556
  1359.0000      8.1274      2.5376      0.0832      6.8143     25.0333    117.2583
  1359.1000      8.1274      2.5069      0.0526      8.6735     24.7743    110.9652
