~Version Information
VERS.                      2.0: CWLS Log ASCII Standard - VERSION 2.0
WRAP.                       NO: One line per depth step
~Well Information Block
STRT.FT               555.5000: 
STOP.FT              2179.0000: 
STEP.FT                 0.2500: 
NULL.                -999.2500: 
COMP.          Petrogulf Corporation: COMPANY
WELL.            Montoya 6-14R: WELL
FLD.           Purgatorie River: FIELD
LOC.           867' FSL & 751' FWL: LOCATION
CNTY.               Las Animas: COUNTY
SRVC.                         : SERVICE COMPANY
DATE.          Mon Nov 15 07:02:23 2004: LOG DATE
UWI.           05 071 08242 00: UNIQUE WELL ID
STAT.                 Colorado: STATE
~Curve Information Block
DEPT.FT            0 000 00 00: Depth
SP.mV                         : DIL Spontaneous Potential
RILD.Ohm-m                    : DIL Deep Resistivity
RILM.Ohm-m                    : DIL Medium Resistivity
RLL3.Ohm-m                    : DIL Shallow Resistivity
GR.GAPI                       : Gamma Ray
~Parameter Information Block
~A  Depth        SP         RILD        RILM        RLL3         GR     
# ...
  1115.5000   -168.8781     17.4153     17.4590     23.0222     99.0882
  1115.7500   -169.0953     17.3293     17.5949     24.3348     97.8883
  1116.0000   -168.8930     17.2271     17.6777     25.3052     95.8384
  1116.2500   -168.1588     17.1158     17.6947     25.7792     94.7360
  1116.5000   -166.8668     17.0063     17.6426     25.6887     94.1681
  1116.7500   -165.0914     16.9104     17.5281     25.0678     94.8241
  1117.0000   -163.0020     16.8390     17.3657     24.0412     97.6270
  1117.2500   -160.8335     16.8009     17.1740     22.7864    100.5900
  1117.5000   -158.8479     16.8018     16.9734     21.4867    105.9287
  1117.7500   -157.2795     16.8438     16.7832     20.2930    109.4511
  1118.0000   -156.2915     16.9254     16.6210     19.3045    113.5949
  1118.2500   -155.9478     17.0428     16.5026     18.5738    115.1110
  1118.5000   -156.2086     17.1896     16.4412     18.1254    115.2507
  1118.7500   -156.9492     17.3592     16.4480     17.9786    114.2165
  1119.0000   -158.0006     17.5462     16.5317     18.1603    111.9845
  1119.2500   -159.1890     17.7487     16.6976     18.7001    110.4994
  1119.5000   -160.3681     17.9694     16.9482     19.6077    108.2051
  1119.7500   -161.4428     18.2158     17.2827     20.8456    106.1201
  1120.0000   -162.3708     18.4989     17.6978     22.3092    101.1822
  1120.2500   -163.1579     18.8306     18.1886     23.8336     96.5751
  1120.5000   -163.8394     19.2212     18.7509     25.2318     88.8630
  1120.7500   -164.4658     19.6757     19.3823     26.3539     84.4272
  1121.0000   -165.0825     20.1926     20.0846     27.1454     80.6748
  1121.2500   -165.7192     20.7629     20.8642     27.6744     80.4466
  1121.5000   -166.3811     21.3711     21.7311     28.1145     82.6485
  1121.7500   -167.0501     21.9972     22.6968     28.6858     84.7455
  1122.0000   -167.6874     22.6185     23.7686     29.5782     86.9073
  1122.2500   -168.2454     23.2109     24.9432     30.8857     87.0168
  1122.5000   -168.6741     23.7505     26.1980     32.5750     85.3213
  1122.7500   -168.9311     24.2132     27.4816     34.4926     83.6235
  1123.0000   -168.9899     24.5750     28.7083     36.4008     81.4835
  1123.2500   -168.8420     24.8139     29.7610     38.0272     80.7010
  1123.5000   -168.4982     24.9124     30.5095     39.1165     80.3746
  1123.7500   -167.9944     24.8603     30.8416     39.4772     80.4589
  1124.0000   -167.3860     24.6581     30.7013     39.0191     80.8751
  1124.2500   -166.7469     24.3156     30.1079     37.7756     81.5193
  1124.5000   -166.1591     23.8515     29.1513     35.9000     83.3508
  1124.7500   -165.7002     23.2893     27.9581     33.6338     85.0444
  1125.0000   -165.4291     22.6544     26.6558     31.2503     87.6080
  1125.2500   -165.3702     21.9721     25.3455     28.9893     88.9176
  1125.5000   -165.5101     21.2676     24.0924     27.0062     90.0503
  1125.7500   -165.7898     20.5638     22.9308     25.3511     90.4554
  1126.0000   -166.1170     19.8834     21.8721     23.9845     91.2227
  1126.2500   -166.3775     19.2466     20.9164     22.8199     92.1793
  1126.5000   -166.4545     18.6706     20.0599     21.7727     94.4477
  1126.7500   -166.2480     18.1692     19.2997     20.7974     96.4590
  1127.0000   -165.6935     17.7511     18.6358     19.9008    100.2859
  1127.2500   -164.7729     17.4205     18.0703     19.1324    103.4749
  1127.5000   -163.5287     17.1778     17.6061     18.5587    108.9340
  1127.7500   -162.0620     17.0209     17.2455     18.2365    112.4529
  1128.0000   -160.5236     16.9458     16.9892     18.1917    116.3717
  1128.2500   -159.0888     16.9491     16.8373     18.4125    117.6464
  1128.5000   -157.9204     17.0288     16.7893     18.8561    117.5034
  1128.7500   -157.1331     17.1840     16.8461     19.4652    116.4071
  1129.0000   -156.7689     17.4159     17.0106     20.1936    114.3724
  1129.2500   -156.7944     17.7264     17.2887     21.0329    113.3186
  1129.5000   -157.1298     18.1172     17.6890     22.0351    112.2673
  1129.7500   -157.6858     18.5886     18.2224     23.3237    111.5168
  1130.0000   -158.4008     19.1401     18.9003     25.0844    109.7786
  1130.2500   -159.2551     19.7701     19.7329     27.5334    108.3342
  1130.5000   -160.2537     20.4786     20.7275     30.8634    106.3990
  1130.7500   -161.3953     21.2692     21.8865     35.1793    105.3789
  1131.0000   -162.6381     22.1525     23.2070     40.4436    103.2818
  1131.2500   -163.8854     23.1486     24.6810     46.4508    100.5476
  1131.5000   -165.0036     24.2869     26.2970     52.8459     93.6191
  1131.7500   -165.8582     25.6060     28.0437     59.1909     87.6022
  1132.0000   -166.3616     27.1481     29.9129     65.0612     78.4604
  1132.2500   -166.5080     28.9550     31.9025     70.1516     73.5089
  1132.5000   -166.3830     31.0568     34.0173     74.3620     69.0892
  1132.7500   -166.1423     33.4611     36.2693     77.8474     68.1586
  1133.0000   -165.9731     36.1405     38.6742     81.0257     68.5406
  1133.2500   -166.0354     39.0191     41.2472     84.5476     68.9214
  1133.5000   -166.4188     41.9754     43.9977     89.2314     68.3301
  1133.7500   -167.1128     44.8544     46.9196     95.9644     66.9442
  1134.0000   -168.0174     47.5052     49.9870    105.5612     63.7635
  1134.2500   -168.9661     49.8262     53.1438    118.5846     61.2869
  1134.5000   -169.7762     51.7960     56.3029    135.1534     57.5794
  1134.7500   -170.2933     53.4789     59.3446    154.7916     55.3077
  1135.0000   -170.4264     55.0058     62.1247    176.3811     52.2722
  1135.2500   -170.1564     56.5278     64.4962    198.2683     50.4180
  1135.5000   -169.5335     58.1844     66.3342    218.5227     47.7552
  1135.7500   -168.6487     60.0778     67.5673    235.2846     46.0649
  1136.0000   -167.6155     62.2454     68.1999    247.1012     43.7934
  1136.2500   -166.5498     64.6484     68.3191    253.1493     42.5497
  1136.5000   -165.5566     67.1567     68.0788    253.2937     41.1950
  1136.7500   -164.7229     69.5355     67.6650    247.9956     40.6103
  1137.0000   -164.1104     71.4659     67.2626    238.1361     39.9564
  1137.2500   -163.7474     72.5926     67.0134    224.8282     39.4347
  1137.5000   -163.6278     72.6046     66.9943    209.2736     38.3024
  1137.7500   -163.7081     71.3450     67.1990    192.6694     37.4910
  1138.0000   -163.9233     68.8641     67.5269    176.1451     36.9763
  1138.2500   -164.1989     65.4103     67.7861    160.6958     37.5015
  1138.5000   -164.4758     61.3440     67.7193    147.0994     39.4296
  1138.7500   -164.7204     57.0409     67.0382    135.8272     40.8364
  1139.0000   -164.9288     52.8053     65.4982    126.9759     41.9041
  1139.2500   -165.1130     48.8435     62.9640    120.2505     41.6551
  1139.5000   -165.2791     45.2638     59.4602    115.0134     40.3852
  1139.7500   -165.4078     42.1004     55.1796    110.4032     39.5588
  1140.0000   -165.4480     39.3398     50.4297    105.5056     39.3300
  1140.2500   -165.3283     36.9432     45.5579     99.5472     40.2237
  1140.5000   -164.9867     34.8647     40.8773     92.0707     43.4836
  1140.7500   -164.4044     33.0628     36.6160     83.0424     47.1830
  1141.0000   -163.6294     31.5028     32.9049     72.8551     55.9792
  1141.2500   -162.7777     30.1603     29.7930     62.2206     64.7134
  1141.5000   -162.0152     29.0171     27.2700     51.9809     82.1162
  1141.7500   -161.5106     28.0581     25.2912     42.9002     95.1310
  1142.0000   -161.3917     27.2697     23.7980     35.5074    112.4640
  1142.2500   -161.7072     26.6362     22.7292     30.0312    120.4310
  1142.5000   -162.4210     26.1410     22.0274     26.4352    126.1012
  1142.7500   -163.4203     25.7676     21.6430     24.5176    126.5548
  1143.0000   -164.5443     25.5026     21.5344     24.0307    124.2666
  1143.2500   -165.6171     25.3368     21.6678     24.7775    121.6466
