~Version Information
VERS.                      2.0: CWLS Log ASCII Standard - VERSION 2.0
WRAP.                       NO: One line per depth step
~Well Information Block
STRT.FT               550.0000: 
STOP.FT              1577.7500: 
STEP.FT                 0.2500: 
NULL.                -999.2500: 
COMP.          Pioneer Natural Resources: COMPANY
WELL.          Kristin 22-23 Tr: WELL
FLD.           Purgatoire River: FIELD
LOC.           2273' FNL & 2029' FWL: LOCATION
PROV.                 Colorado: PROVINCE
CNTY.               Las Animas: COUNTRY
SRVC.                Patterson: SERVICE COMPANY
DATE.          Thu Jan 20 21:18:23 2005: LOG DATE
UWI.           05 071 08259 00: UNIQUE WELL ID
~Curve Information Block
DEPT.FT            0 000 00 00: Depth
SN.Ohm-m                      : IEL Short Normal
SP.mV                         : IEL Spontaneous Potential
DIR.Ohm-m                     : IEL Induction Resistivity
GR.GAPI                       : Gamma Ray
~Parameter Information Block
~A  Depth        SN          SP         DIR          GR     
   550.0000     -1.8542   -126.3488 100000.0000     88.5889
   550.2500     -1.8771   -124.4207 100000.0000     90.1676
   550.5000     -1.9030   -122.8990 100000.0000     91.8183
   550.7500     -1.9267   -121.6277 100000.0000     91.7065
   551.0000     -1.9503   -120.4429 100000.0000     89.8008
   551.2500     -1.9745   -119.2204 100000.0000     88.0346
   551.5000     -1.9920   -117.9091 100000.0000     85.5713
   551.7500     -1.9935   -116.5509 100000.0000     84.0142
   552.0000     -1.9779   -115.2802 100000.0000     81.4195
   552.2500     -1.9538   -114.2956 100000.0000     79.8181
   552.5000     -1.9314   -113.8017 100000.0000     78.9861
   552.7500     -1.9135   -113.9347 100000.0000     79.9450
   553.0000     -1.8966   -114.6969 100000.0000     82.8635
   553.2500     -1.8794   -115.9274 100000.0000     84.8391
   553.5000     -1.8673   -117.3264 100000.0000     86.7140
   553.7500     -1.8677   -118.5325 100000.0000     87.0260
   554.0000     -1.8825   -119.2291 100000.0000     86.0519
   554.2500     -1.9046   -119.2406 100000.0000     84.6127
   554.5000     -1.9260   -118.5829 100000.0000     82.1408
   554.7500     -1.9426   -117.4463 100000.0000     80.9116
   555.0000     -1.9525   -116.1207 100000.0000     80.2247
   555.2500     -1.9522   -114.8943 100000.0000     80.4871
   555.5000     -1.9399   -113.9659 100000.0000     81.6671
   555.7500     -1.9196   -113.3987 100000.0000     82.7646
   556.0000     -1.8994   -113.1245 100000.0000     84.4772
   556.2500     -1.8854   -112.9847 100000.0000     85.6146
   556.5000     -1.8783   -112.7854 100000.0000     87.6078
   556.7500     -1.8741   -112.3479 100000.0000     89.1142
   557.0000     -1.8691   -111.5421 100000.0000     90.8216
   557.2500     -1.8632   -110.3046 100000.0000     91.0858
   557.5000     -1.8603   -108.6480 100000.0000     90.4080
   557.7500     -1.8639   -106.6681 100000.0000     89.9096
   558.0000     -1.8743   -104.5516 100000.0000     89.7482
   558.2500     -1.8881   -102.5888 100000.0000     89.7424
   558.5000     -1.8993   -101.1876 100000.0000     89.0994
   558.7500     -1.8986   -100.8817 100000.0000     88.2950
   559.0000     -1.8750   -102.3127 100000.0000     87.5827
   559.2500     -1.8247   -106.1573 100000.0000     88.0760
   559.5000     -1.7595   -112.9871 100000.0000     90.4227
   559.7500     -1.6950   -123.0842 100000.0000     92.5563
   560.0000     -1.6117   -136.2829 100000.0000     95.4744
   560.2500     -1.4246   -151.9200 100000.0000     96.8007
   560.5000     -1.0003   -168.9375 100000.0000     97.6620
   560.7500     -0.2251   -186.1104 100000.0000     97.5856
   561.0000      0.9214   -202.3044    395.8969     96.9603
   561.2500      2.3374   -216.6643      6.7490     96.6236
   561.5000      3.8425   -228.6832      3.7401     96.9495
   561.7500      5.2605   -238.1702      3.1505     97.9979
   562.0000      6.4815   -245.1766      3.4489    101.0355
   562.2500      7.4733   -249.9315      4.7530    103.9145
   562.5000      8.2613   -252.7987      8.5480    108.4359
   562.7500      8.9039   -254.2420     24.7551    110.5936
   563.0000      9.4730   -254.7712 100000.0000    111.5737
   563.2500     10.0385   -254.8676 100000.0000    111.1064
   563.5000     10.6553   -254.9066 100000.0000    110.1478
   563.7500     11.3612   -255.1118     34.1533    109.6493
   564.0000     12.1832   -255.5586     14.9769    108.1317
   564.2500     13.1471   -256.2216     10.0407    105.7173
   564.5000     14.2799   -257.0384      8.2434     99.4208
   564.7500     15.6022   -257.9597      7.6659     94.0004
   565.0000     17.1136   -258.9679      7.7448     86.0085
   565.2500     18.7772   -260.0685      8.2705     81.8848
   565.5000     20.5173   -261.2698      9.1433     78.5267
   565.7500     22.2384   -262.5657     10.2774     78.2124
   566.0000     23.8677   -263.9304     11.5469     80.0179
   566.2500     25.3945   -265.3224     12.7852     82.1558
   566.5000     26.8684   -266.6920     13.8851     85.9531
   566.7500     28.3396   -267.9898     14.9313     88.7508
   567.0000     29.7797   -269.1727     16.2216     93.3412
   567.2500     31.0552   -270.2077     18.1592     96.4673
   567.5000     31.9834   -271.0730     21.0737    100.8267
   567.7500     32.4198   -271.7572     24.8450    103.4538
   568.0000     32.3051   -272.2587     28.2460    106.8578
   568.2500     31.6597   -272.5860     29.1650    108.4650
   568.5000     30.5614   -272.7585     26.9753    109.5480
   568.7500     29.1249   -272.8082     23.3623    109.7082
   569.0000     27.4815   -272.7785     20.0084    109.9591
   569.2500     25.7592   -272.7225     17.5067    110.1876
   569.5000     24.0712   -272.6986     15.8330    110.2737
   569.7500     22.5086   -272.7648     14.7990    110.4269
   570.0000     21.1304   -272.9718     14.2102    112.0491
   570.2500     19.9573   -273.3551     13.8995    114.3597
   570.5000     18.9766   -273.9285     13.7354    118.5904
   570.7500     18.1595   -274.6813     13.6287    120.9494
   571.0000     17.4823   -275.5812     13.5319    123.0571
   571.2500     16.9422   -276.5825     13.4284    123.7183
   571.5000     16.5570   -277.6367     13.3191    124.1562
   571.7500     16.3473   -278.7017     13.2105    124.1694
   572.0000     16.3133   -279.7456     13.1056    123.7677
   572.2500     16.4201   -280.7450     12.9998    123.5046
   572.5000     16.5977   -281.6799     12.8806    124.3272
   572.7500     16.7561   -282.5310     12.7321    126.4023
   573.0000     16.8128   -283.2814     12.5434    131.7822
   573.2500     16.7198   -283.9199     12.3164    135.9181
   573.5000     16.4765   -284.4433     12.0687    140.7494
   573.7500     16.1231   -284.8513     11.8267    142.3006
   574.0000     15.7212   -285.1363     11.6146    142.2575
   574.2500     15.3324   -285.2747     11.4467    141.1449
   574.5000     14.9991   -285.2268     11.3272    138.2301
   574.7500     14.7324   -284.9496     11.2544    135.1111
   575.0000     14.5100   -284.4168     11.2218    127.8170
   575.2500     14.2942   -283.6375     11.2160    121.4183
   575.5000     14.0626   -282.6604     11.2169    111.8886
   575.7500     13.8297   -281.5634     11.2025    107.4821
   576.0000     13.6304   -280.4319     11.1534    105.6081
   576.2500     13.4785   -279.3410     11.0554    107.0939
   576.5000     13.3406   -278.3463     10.8979    111.1372
   576.7500     13.1557   -277.4890     10.6740    113.7934
   577.0000     12.8800   -276.8033     10.3823    116.7469
   577.2500     12.5163   -276.3184     10.0296    118.0795
   577.5000     12.1075   -276.0522      9.6310    119.4957
   577.7500     11.7122   -275.9993      9.2081    119.9555
   578.0000     11.3846   -276.1253      8.7872    119.1972
   578.2500     11.1633   -276.3739      8.3972    117.6119
   578.5000     11.0624   -276.6901      8.0670    114.8463
   578.7500     11.0725   -277.0449      7.8220    113.8633
   579.0000     11.1704   -277.4492      7.6815    114.6096
   579.2500     11.3299   -277.9460      7.6581    116.2400
   579.5000     11.5260   -278.5863      7.7574    119.1592
   579.7500     11.7396   -279.3987      7.9766    120.8644
   580.0000     11.9682   -280.3712      8.3046    122.4184
   580.2500     12.2347   -281.4478      8.7235    122.4181
   580.5000     12.5814   -282.5388      9.2142    120.3517
   580.7500     13.0504   -283.5397      9.7625    117.5501
   581.0000     13.6709   -284.3512     10.3605    111.8540
   581.2500     14.4592   -284.8962     11.0000    108.0298
   581.5000     15.4130   -285.1326     11.6623    104.7928
   581.7500     16.4891   -285.0592     12.3103    105.5943
   582.0000     17.5834   -284.7151     12.8910    111.4252
   582.2500     18.5456   -284.1726     13.3494    117.1422
   582.5000     19.2363   -283.5222     13.6484    125.4284
   582.7500     19.5909   -282.8572     13.7834    129.4774
   583.0000     19.6472   -282.2569     13.7801    132.8303
   583.2500     19.5175   -281.7761     13.6827    133.7942
