~Version Information
VERS.                      2.0: CWLS Log ASCII Standard - VERSION 2.0
WRAP.                       NO: One line per depth step
~Well Information Block
STRT.FT               -12.5000: 
STOP.FT              2200.2500: 
STEP.FT                 0.2500: 
NULL.                -999.2500: 
COMP.          Pioneer Natural Resources: COMPANY
WELL.           Ogallela 44-12: WELL
FLD.           Purgatorie River: FIELD
LOC.           610' FSL & 671' FEL------: LOCATION
PROV.                       CO: PROVINCE
CNTY.               Las Animas: COUNTRY
SRVC.          Patterson Wireline: SERVICE COMPANY
DATE.          Tue Mar 22 17:18:22 2005: LOG DATE
UWI.           05 071 08283 00: UNIQUE WELL ID
~Curve Information Block
DEPT.FT            0 000 00 00: Depth
CCL.                          : Casing Collar Locator
TT3.usec                      : CBL 3' Travel Time
AMP3.mV                       : CBL 3' Amplitude
GR.GAPI                       : Gamma Ray
~Parameter Information Block
~A  Depth       CCL         TT3         AMP3         GR     
# ...
   557.0000      0.0000    267.8318     86.7983     96.7398
   557.2500      0.0000    267.8601     86.8563     90.8898
   557.5000      0.0000    267.8944     86.8940     85.9627
   557.7500      0.0000    267.9286     86.9743     82.0311
   558.0000      0.0000    267.9614     87.1087     79.5707
   558.2500      0.0000    267.9922     87.2450     79.3983
   558.5000      0.0000    268.0181     87.3105     81.9109
   558.7500      0.0000    268.0370     87.2588     86.3705
   559.0000      0.0000    268.0529     87.0757     91.0676
   559.2500      0.0000    268.0742     86.7634     94.3927
   559.5000      0.0000    268.1056     86.3455     95.7867
   559.7500      0.0000    268.1437     85.8923     95.6844
   560.0000      0.0000    268.1794     85.5145     94.9117
   560.2500      0.0000    268.2054     85.3009     94.4604
   560.5000      0.0000    268.2215     85.2437     95.5829
   560.7500      0.0000    268.2330     85.2419     99.2887
   561.0000      0.0000    268.2449     85.1989    105.2614
   561.2500      0.0000    268.2564     85.1072    111.5558
   561.5000      0.0000    268.2643     85.0285    115.8670
   561.7500      0.0000    268.2670     85.0142    117.0567
   562.0000      0.0000    268.2664     85.0660    115.3762
   562.2500      0.0000    268.2656     85.1542    111.6906
   562.5000      0.0000    268.2675     85.2482    106.9149
   562.7500      0.0000    268.2737     85.3333    101.9171
   563.0000      0.0000    268.2830     85.4128     97.5266
   563.2500      0.0000    268.2932     85.4957     94.5043
   563.5000      0.0000    268.3051     85.5773     93.4388
   563.7500      0.0000    268.3241     85.6297     94.5115
   564.0000      0.0000    268.3537     85.6268     97.4095
   564.2500      0.0000    268.3900     85.5793    101.7940
   564.5000      0.0000    268.4229     85.5412    107.6828
   564.7500      0.0000    268.4443     85.5815    114.7870
   565.0000      0.0000    268.4518     85.7461    121.6131
   565.2500      0.0000    268.4483     86.0187    126.0584
   565.5000      0.0000    268.4409     86.3058    127.1844
   565.7500      0.0000    268.4402     86.4932    125.9762
   566.0000      0.0000    268.4546     86.5370    124.3688
   566.2500      0.0000    268.4833     86.4876    123.9589
   566.5000      0.0000    268.5157     86.4303    125.3501
   566.7500      0.0000    268.5381     86.4235    128.0360
   567.0000      0.0000    268.5435     86.4820    130.9933
   567.2500      0.0000    268.5360     86.5897    133.6216
   567.5000      0.0000    268.5283     86.7234    135.8880
   567.7500      0.0000    268.5316     86.8701    137.5243
   568.0000      0.0000    268.5476     87.0205    137.6081
   568.2500      0.0000    268.5678     87.1572    135.3571
   568.5000      0.0000    268.5822     87.2673    131.1425
   568.7500      0.0000    268.5861     87.3588    126.3085
   569.0000      0.0000    268.5818     87.4447    122.0510
   569.2500      0.0000    268.5753     87.5117    118.7267
   569.5000      0.0000    268.5727     87.5270    116.0576
   569.7500      0.0000    268.5779     87.4814    113.5070
   570.0000      0.0000    268.5916     87.4097    110.5459
   570.2500      0.0000    268.6124     87.3662    107.0195
   570.5000      0.0000    268.6363     87.3968    103.1793
   570.7500      0.0000    268.6589     87.5189     99.1319
   571.0000      0.0000    268.6781     87.6968     94.7329
   571.2500      0.0000    268.6940     87.8446     90.4115
   571.5000      0.0000    268.7060     87.8913     87.5888
   571.7500      0.0000    268.7100     87.8435     87.6853
   572.0000      0.0000    268.7048     87.7631     90.8715
   572.2500      0.0000    268.6959     87.6924     95.9740
   572.5000      0.0000    268.6903     87.6215    101.3510
   572.7500      0.0000    268.6897     87.5184    105.7215
   573.0000      0.0000    268.6900     87.3695    108.4783
   573.2500      0.0000    268.6871     87.1942    109.6135
   573.5000      0.0000    268.6803     87.0354    109.6061
   573.7500      0.0000    268.6708     86.9349    109.1995
   574.0000      0.0000    268.6595     86.9087    108.8555
   574.2500      0.0000    268.6459     86.9330    108.3749
   574.5000      0.0000    268.6304     86.9492    107.2848
   574.7500      0.0000    268.6142     86.8950    105.5712
   575.0000      0.0000    268.5999     86.7463    103.8225
   575.2500      0.0000    268.5900     86.5377    102.5926
   575.5000      0.0000    268.5853     86.3460    101.6747
   575.7500      0.0000    268.5825     86.2492    100.0851
   576.0000      0.0000    268.5757     86.2794     96.9033
   576.2500      0.0000    268.5626     86.3939     92.3278
   576.5000      0.0000    268.5488     86.4915     87.9241
   576.7500      0.0000    268.5455     86.4586     85.7455
   577.0000      0.0000    268.5662     86.1910     87.2029
   577.2500      0.0000    268.6375     85.5266     92.4724
   577.5000      0.0000    268.8300     84.1338    100.3652
   577.7500      0.0000    269.2799     81.5112    108.6615
   578.0000      0.0000    270.1357     77.2590    115.2511
   578.2500      0.0000    271.4221     71.5381    119.5051
   578.5000      0.0000    272.9350     65.3244    122.3479
   578.7500      0.0000    274.3202     60.0428    124.8811
   579.0000      0.0000    275.3009     56.7067    127.1629
   579.2500      0.0000    275.8322     55.3306    128.4401
   579.5000      0.0000    276.0449     55.1737    128.3278
   579.7500      0.0000    276.0922     55.4538    127.3734
   580.0000      2.0000    276.0581     55.7860    126.3892
   580.2500      0.0000    275.9449     56.1966    125.5725
   580.5000      0.0000    275.6788     56.9699    124.4140
   580.7500      0.0000    275.1234     58.4096    122.4357
   581.0000      0.0000    274.1552     60.5834    120.0980
   581.2500      0.0000    272.7932     63.3816    118.7593
   581.5000      0.0000    271.2622     66.8682    119.3261
   581.7500      0.0000    269.8859     71.2088    121.1064
   582.0000      0.0000    268.8916     76.0614    122.4366
   582.2500      0.0000    268.3121     80.4432    122.2758
   582.5000      0.0000    268.0406     83.4787    120.9635
   582.7500      0.0000    267.9388     85.0436    119.7801
   583.0000      0.0000    267.9048     85.5939    119.9446
   583.2500      0.0000    267.8863     85.6434    121.7012
   583.5000      0.0000    267.8671     85.5130    124.2543
   583.7500      0.0000    267.8484     85.3745    126.5899
   584.0000      0.0000    267.8340     85.3254    128.1580
   584.2500      0.0000    267.8255     85.4065    128.8432
   584.5000      0.0000    267.8228     85.5925    128.8573
   584.7500      0.0000    267.8249     85.8002    128.8323
   585.0000      0.0000    267.8299     85.9266    129.5126
   585.2500      0.0000    267.8361     85.9038    131.0855
   585.5000      0.0000    267.8434     85.7431    133.2065
   585.7500      0.0000    267.8512     85.5305    135.8989
   586.0000      0.0000    267.8576     85.3648    139.7923
   586.2500      0.0000    267.8601     85.2951    144.7631
   586.5000      0.0000    267.8574     85.3193    148.7182
   586.7500      0.0000    267.8486     85.4193    148.7286
   587.0000      0.0000    267.8352     85.5747    143.6668
   587.2500      0.0000    267.8211     85.7504    135.3288
   587.5000      0.0000    267.8117     85.8993    126.9617
   587.7500      0.0000    267.8095     85.9910    120.9929
   588.0000      0.0000    267.8131     86.0284    117.7587
   588.2500      0.0000    267.8201     86.0291    115.7041
   588.5000      0.0000    267.8296     86.0007    112.9404
   588.7500      0.0000    267.8385     85.9473    109.1993
   589.0000      0.0000    267.8417     85.8761    106.3703
   589.2500      0.0000    267.8363     85.7856    106.8096
   589.5000      0.0000    267.8248     85.6712    110.9968
   589.7500      0.0000    267.8125     85.5553    116.8797
   590.0000      0.0000    267.8022     85.4807    121.4775
   590.2500      0.0000    267.7942     85.4638    123.0888
