~Version Information
VERS.                      2.0: CWLS Log ASCII Standard - VERSION 2.0
WRAP.                       NO: One line per depth step
~Well Information Block
STRT.FT               519.6000: 
STOP.FT              2727.5000: 
STEP.FT                 0.1000: 
NULL.                -999.2500: 
COMP.          Petrogulf Corporation: COMPANY
WELL.              Silva 6-22V: WELL
FLD.           Purgatorie River: FIELD
LOC.           1936' FNL & 1798' FWL: LOCATION
CNTY.               Las Animas: COUNTY
SRVC.                         : SERVICE COMPANY
DATE.          Tue Nov 09 12:21:27 2004: LOG DATE
UWI.           05 071 08143 00: UNIQUE WELL ID
STAT.                 Colorado: STATE
~Curve Information Block
DEPT.FT            0 000 00 00: Depth
DCAL.in                       : CDL Caliper
RHOB.g/cc                     : CDL Bulk Density
RHOC.g/cc                     : CDL Density Correction
DPOR.pu                       : CDL Density Porosity
GR.GAPI                       : Gamma Ray
NPOR.pu                       : Neutron Porosity
~Parameter Information Block
~A  Depth       DCAL        RHOB        RHOC        DPOR         GR         NPOR    
# ...
   538.8000   -999.2500   -999.2500   -999.2500   -999.2500     90.8114     42.3777
   538.9000   -999.2500   -999.2500   -999.2500   -999.2500     84.5606     42.2281
   539.0000   -999.2500   -999.2500   -999.2500   -999.2500     77.3192     42.1293
   539.1000   -999.2500   -999.2500   -999.2500   -999.2500     74.5431     41.8435
   539.2000   -999.2500   -999.2500   -999.2500   -999.2500     76.3916     41.2743
   539.3000   -999.2500   -999.2500   -999.2500   -999.2500     78.4863     40.7436
   539.4000   -999.2500   -999.2500   -999.2500   -999.2500     80.8852     40.6929
   539.5000   -999.2500   -999.2500   -999.2500   -999.2500     83.8946     41.2413
   539.6000   -999.2500   -999.2500   -999.2500   -999.2500     85.4646     41.8823
   539.7000   -999.2500   -999.2500   -999.2500   -999.2500     84.1952     42.0941
   539.8000   -999.2500   -999.2500   -999.2500   -999.2500     79.6660     41.8526
   539.9000   -999.2500   -999.2500   -999.2500   -999.2500     74.7361     41.4798
   540.0000   -999.2500   -999.2500   -999.2500   -999.2500     73.2338     41.3831
   540.1000   -999.2500   -999.2500   -999.2500   -999.2500     73.3370     41.5304
   540.2000   -999.2500   -999.2500   -999.2500   -999.2500     71.3381     41.4577
   540.3000   -999.2500   -999.2500   -999.2500   -999.2500     67.0154     41.1971
   540.4000   -999.2500   -999.2500   -999.2500   -999.2500     64.0275     41.0408
   540.5000   -999.2500   -999.2500   -999.2500   -999.2500     64.8373     41.0526
   540.6000   -999.2500   -999.2500   -999.2500   -999.2500     67.8695     41.0731
   540.7000   -999.2500   -999.2500   -999.2500   -999.2500     68.8687     40.9428
   540.8000   -999.2500   -999.2500   -999.2500   -999.2500     65.3638     40.6090
   540.9000   -999.2500   -999.2500   -999.2500   -999.2500     57.7555     40.1969
   541.0000   -999.2500   -999.2500   -999.2500   -999.2500     48.0230     40.2666
   541.1000   -999.2500   -999.2500   -999.2500   -999.2500     39.5511     41.0316
   541.2000   -999.2500   -999.2500   -999.2500   -999.2500     34.4501     41.7775
   541.3000   -999.2500   -999.2500   -999.2500   -999.2500     32.2507     41.9329
   541.4000   -999.2500   -999.2500   -999.2500   -999.2500     32.3195     41.8012
   541.5000   -999.2500   -999.2500   -999.2500   -999.2500     34.5778     41.8361
   541.6000   -999.2500   -999.2500   -999.2500   -999.2500     37.1355     41.9329
   541.7000   -999.2500   -999.2500   -999.2500   -999.2500     37.4710     41.8150
   541.8000   -999.2500   -999.2500   -999.2500   -999.2500     36.6886     41.4281
   541.9000   -999.2500   -999.2500   -999.2500   -999.2500     37.3843     40.5699
   542.0000   -999.2500   -999.2500   -999.2500   -999.2500     39.1731     39.4453
   542.1000   -999.2500   -999.2500   -999.2500   -999.2500     39.2190     39.0697
   542.2000   -999.2500   -999.2500   -999.2500   -999.2500     37.2187     39.5814
   542.3000   -999.2500   -999.2500   -999.2500   -999.2500     35.0984     39.9010
   542.4000   -999.2500   -999.2500   -999.2500   -999.2500     33.6177     39.6617
   542.5000   -999.2500   -999.2500   -999.2500   -999.2500     33.2700     39.5314
   542.6000   -999.2500   -999.2500   -999.2500   -999.2500     33.8070     39.7995
   542.7000   -999.2500   -999.2500   -999.2500   -999.2500     33.5069     39.8373
   542.8000   -999.2500   -999.2500   -999.2500   -999.2500     32.7744     39.3260
   542.9000   -999.2500   -999.2500   -999.2500   -999.2500     33.0855     38.8523
   543.0000   -999.2500   -999.2500   -999.2500   -999.2500     32.2699     38.8119
   543.1000   -999.2500   -999.2500   -999.2500   -999.2500     29.6494     39.0055
   543.2000   -999.2500   -999.2500   -999.2500   -999.2500     29.4888     39.2369
   543.3000   -999.2500   -999.2500   -999.2500   -999.2500     31.9503     39.3032
   543.4000   -999.2500   -999.2500   -999.2500   -999.2500     33.9161     38.9913
   543.5000   -999.2500   -999.2500   -999.2500   -999.2500     35.3255     38.7285
   543.6000   -999.2500   -999.2500   -999.2500   -999.2500     35.7086     38.9747
   543.7000   -999.2500   -999.2500   -999.2500   -999.2500     34.4998     39.2510
   543.8000   -999.2500   -999.2500   -999.2500   -999.2500     34.5550     39.1263
   543.9000   -999.2500   -999.2500   -999.2500   -999.2500     37.6100     38.8964
   544.0000   -999.2500   -999.2500   -999.2500   -999.2500     40.6197     39.0463
   544.1000   -999.2500   -999.2500   -999.2500   -999.2500     40.2300     39.6357
   544.2000   -999.2500   -999.2500   -999.2500   -999.2500     37.8171     40.2512
   544.3000   -999.2500   -999.2500   -999.2500   -999.2500     36.3274     40.5593
   544.4000   -999.2500   -999.2500   -999.2500   -999.2500     36.5427     40.7522
   544.5000   -999.2500   -999.2500   -999.2500   -999.2500     38.2526     41.0936
   544.6000   -999.2500   -999.2500   -999.2500   -999.2500     40.4778     41.4469
   544.7000   -999.2500   -999.2500   -999.2500   -999.2500     42.8060     41.5755
   544.8000   -999.2500   -999.2500   -999.2500   -999.2500     46.0852     41.3603
   544.9000   -999.2500   -999.2500   -999.2500   -999.2500     50.6276     40.9610
   545.0000   -999.2500   -999.2500   -999.2500   -999.2500     55.8303     40.7592
   545.1000   -999.2500   -999.2500   -999.2500   -999.2500     61.4871     40.7138
   545.2000   -999.2500   -999.2500   -999.2500   -999.2500     64.6091     40.6151
   545.3000   -999.2500   -999.2500   -999.2500   -999.2500     62.5932     40.5991
   545.4000   -999.2500   -999.2500   -999.2500   -999.2500     58.9170     40.5437
   545.5000   -999.2500   -999.2500   -999.2500   -999.2500     57.6562     40.1782
   545.6000   -999.2500   -999.2500     -0.5759   -999.2500     57.6511     39.8553
   545.7000   -999.2500   -999.2500     -0.5953   -999.2500     55.9621     40.0687
   545.8000   -999.2500   -999.2500     -0.5649   -999.2500     53.5873     40.6669
   545.9000   -999.2500   -999.2500     -0.5892   -999.2500     53.0393     41.0236
   546.0000      2.0797   -999.2500     -0.6125   -999.2500     54.8096     40.8185
   546.1000      2.0797      2.1334     -0.5679     31.3119     57.2683     40.2823
   546.2000      2.0797      2.1290     -0.6029     31.5768     57.8276     39.8098
   546.3000      2.0957      2.1202     -0.6315     32.1073     56.4708     39.6856
   546.4000      2.0957      2.1188     -0.6167     32.1928     55.4156     39.9368
   546.5000      2.0973      2.1269     -0.6175     31.7041     55.1094     40.1795
   546.6000      2.0973      2.1336     -0.5543     31.2946     52.5664     40.1210
   546.7000      2.0973      2.1297     -0.5047     31.5310     48.1944     40.0185
   546.8000      2.0890      2.1236     -0.6195     31.9056     45.3636     39.9725
   546.9000      2.0890      2.1152     -0.5273     32.4093     41.9499     39.6661
   547.0000      2.0904      2.0866     -0.6001     34.1460     35.8414     39.2779
   547.1000      2.0904      2.0543     -0.7002     36.1056     32.0946     39.4493
   547.2000      2.0904      2.0469     -0.6919     36.5545     35.1551     40.0396
   547.3000      2.0927      2.0548     -0.6300     36.0709     40.5977     40.3258
   547.4000      2.0927      2.0591     -0.5951     35.8150     42.8261     40.2801
   547.5000      2.0925      2.0599     -0.6195     35.7628     42.1737     40.2312
   547.6000      2.0925      2.0636     -0.6818     35.5397     42.9571     40.2728
   547.7000      2.0925      2.0639     -0.6085     35.5223     48.1193     40.4588
   547.8000      2.0954      2.0507     -0.6531     36.3187     53.8604     40.7594
   547.9000      2.0954      2.0346     -0.7057     37.2997     55.0199     40.9252
   548.0000      2.0974      2.0248     -0.6334     37.8912     52.1065     40.7011
   548.1000      2.0974      2.0191     -0.6590     38.2377     49.6705     40.3416
   548.2000      2.0974      2.0349     -0.6502     37.2801     50.6538     40.3638
   548.3000      2.0919      2.0859     -0.6282     34.1886     52.9909     40.8470
