~Version Information
VERS.                      2.0: CWLS Log ASCII Standard - VERSION 2.0
WRAP.                       NO: One line per depth step
~Well Information Block
STRT.FT               710.0000: 
STOP.FT              2921.0000: 
STEP.FT                 0.1000: 
NULL.                -999.2500: 
COMP.          Petrogulf Corporation: COMPANY
WELL.            Montoya 1-41V: WELL
FLD.           Purgatorie River: FIELD
LOC.           610' FNL & 1205' FEL: LOCATION
PROV.                 Colorado: PROVINCE
CNTY.               Las Animas: COUNTRY
SRVC.                Patterson: SERVICE COMPANY
DATE.          Mon Aug 22 07:54:27 2005: LOG DATE
UWI.                          : UNIQUE WELL ID
~Curve Information Block
DEPT.FT            0 000 00 00: Depth
DCAL.in                       : CDL Caliper
RHOB.g/cc                     : CDL Bulk Density
RHOC.g/cc                     : CDL Density Correction
DPOR.pu                       : CDL Density Porosity
GR.GAPI                       : Gamma Ray
NPOR.pu                       : Neutron Porosity
~Parameter Information Block
~A  Depth       DCAL        RHOB        RHOC        DPOR         GR         NPOR    
# ...
  2610.8000      7.9867      2.5721      0.1063      4.7239     79.6902     19.4219
  2610.9000      7.9867      2.5723      0.0608      4.7101     80.8032     19.4831
  2611.0000      7.9953      2.5537      0.0422      5.8364     79.9421     19.5009
  2611.1000      7.9953      2.5331      0.0448      7.0855     76.8094     19.1435
  2611.2000      7.9953      2.5218      0.0341      7.7673     71.9737     18.4289
  2611.3000      7.9943      2.5280      0.0257      7.3924     67.5003     17.5477
  2611.4000      7.9943      2.5458      0.0739      6.3177     65.9845     16.5263
  2611.5000      7.9957      2.5519      0.0598      5.9437     68.2203     15.4712
  2611.6000      7.9957      2.5433      0.0182      6.4642     71.2370     14.6085
  2611.7000      7.9957      2.5449      0.0122      6.3708     71.5046     14.2757
  2611.8000      7.9914      2.5638      0.1165      5.2234     69.5550     14.6866
  2611.9000      7.9914      2.5784      0.0924      4.3396     68.2306     15.5326
  2612.0000      8.0030      2.5781      0.0617      4.3604     67.7976     16.1525
  2612.1000      8.0030      2.5706      0.0888      4.8133     66.6141     16.4474
  2612.2000      8.0030      2.5648      0.0471      5.1622     65.9286     16.8888
  2612.3000      7.9918      2.5616      0.1007      5.3560     66.8137     17.6972
  2612.4000      7.9918      2.5520      0.0561      5.9418     67.5064     18.5802
  2612.5000      7.9986      2.5371      0.0582      6.8406     66.8186     19.1578
  2612.6000      7.9986      2.5293      0.0467      7.3125     66.3360     19.2957
  2612.7000      7.9986      2.5356      0.0391      6.9304     67.8865     19.0278
  2612.8000      7.9976      2.5531      0.0827      5.8720     70.2027     18.5284
  2612.9000      7.9976      2.5684      0.0919      4.9475     70.2202     18.2099
  2613.0000      8.0022      2.5735      0.0957      4.6373     68.3461     18.3363
  2613.1000      8.0022      2.5760      0.0923      4.4834     68.2644     18.6417
  2613.2000      8.0022      2.5808      0.0688      4.1962     69.3363     18.5696
  2613.3000      8.0187      2.5794      0.0876      4.2807     68.1586     18.1382
  2613.4000      8.0187      2.5693      0.0614      4.8912     66.5250     18.0175
  2613.5000      8.0170      2.5654      0.0394      5.1269     66.8477     18.2648
  2613.6000      8.0170      2.5761      0.0948      4.4816     68.6127     18.2010
  2613.7000      8.0170      2.5852      0.1032      3.9300     70.7450     17.7527
  2613.8000      8.0371      2.5799      0.0648      4.2500     70.5604     17.4998
  2613.9000      8.0371      2.5727      0.0479      4.6821     67.1802     17.3700
  2614.0000      8.0609      2.5765      0.0859      4.4529     63.3246     16.9722
  2614.1000      8.0609      2.5838      0.0663      4.0111     61.6535     16.4548
  2614.2000      8.0609      2.5793      0.0904      4.2840     62.0770     16.0604
  2614.3000      8.0739      2.5608      0.0391      5.4039     62.9557     15.7650
  2614.4000      8.0739      2.5463      0.0304      6.2840     63.4574     15.4194
  2614.5000      8.0615      2.5506      0.0391      6.0261     63.1804     15.0169
  2614.6000      8.0615      2.5645      0.0936      5.1808     62.3193     14.6388
  2614.7000      8.0615      2.5648      0.0903      5.1638     61.9941     14.2271
  2614.8000      8.0390      2.5449      0.0778      6.3725     63.8131     13.6585
  2614.9000      8.0390      2.5271      0.0346      7.4475     68.3813     13.1431
  2615.0000      8.0683      2.5300      0.0612      7.2716     73.3884     13.2543
  2615.1000      8.0683      2.5383      0.1040      6.7674     74.4950     14.2157
  2615.2000      8.0683      2.5348      0.0365      6.9802     71.8071     15.7174
  2615.3000      8.0382      2.5316      0.0580      7.1737     69.6431     17.2240
  2615.4000      8.0382      2.5371      0.0869      6.8451     69.6989     18.3093
  2615.5000      8.0514      2.5421      0.0670      6.5423     71.8759     18.7994
  2615.6000      8.0514      2.5463      0.0599      6.2843     73.1071     18.8315
  2615.7000      8.0514      2.5509      0.1119      6.0056     69.6022     18.6379
  2615.8000      8.0326      2.5482      0.0769      6.1708     65.0223     18.3262
  2615.9000      8.0326      2.5411      0.0363      6.5995     65.4032     18.0473
  2616.0000      8.0161      2.5377      0.0576      6.8039     69.7385     18.1310
  2616.1000      8.0161      2.5377      0.0734      6.8081     72.3052     18.5535
  2616.2000      8.0161      2.5402      0.0426      6.6522     70.4816     18.7005
  2616.3000      8.0117      2.5442      0.0776      6.4130     66.5766     18.1952
  2616.4000      8.0117      2.5471      0.0709      6.2362     64.2648     17.3869
  2616.5000      7.9687      2.5519      0.0456      5.9473     63.8374     16.5843
  2616.6000      7.9687      2.5562      0.1036      5.6870     63.8940     15.8980
  2616.7000      7.9687      2.5509      0.0877      6.0064     64.1699     15.4251
  2616.8000      7.9852      2.5397      0.0568      6.6867     65.6963     15.0358
  2616.9000      7.9852      2.5391      0.0403      6.7238     68.3656     14.6213
  2617.0000      7.9511      2.5553      0.0893      5.7393     69.9276     14.0944
  2617.1000      7.9511      2.5743      0.0792      4.5903     69.4830     13.4379
  2617.2000      7.9511      2.5807      0.0996      4.2022     68.3698     12.8197
  2617.3000      7.9225      2.5740      0.0837      4.6073     67.1831     12.3767
  2617.4000      7.9225      2.5645      0.0553      5.1828     65.4773     12.2821
  2617.5000      7.9482      2.5630      0.0613      5.2702     63.7502     12.5821
  2617.6000      7.9482      2.5699      0.0694      4.8560     63.2295     12.9487
  2617.7000      7.9482      2.5781      0.0616      4.3561     63.7274     13.1373
  2617.8000      7.9805      2.5845      0.0479      3.9679     63.4213     13.3304
  2617.9000      7.9805      2.5889      0.0598      3.7054     62.6755     13.6947
  2618.0000      8.0232      2.5900      0.0782      3.6378     62.5112     14.1990
  2618.1000      8.0232      2.5894      0.0570      3.6723     62.8705     14.6681
  2618.2000      8.0232      2.5878      0.0776      3.7698     63.8743     15.0203
  2618.3000      8.0360      2.5822      0.0692      4.1121     64.6574     15.4462
  2618.4000      8.0360      2.5763      0.0557      4.4674     64.3661     15.8371
  2618.5000      8.0161      2.5760      0.0279      4.4833     63.3041     15.8464
  2618.6000      8.0161      2.5726      0.0559      4.6926     61.7574     15.7544
  2618.7000      8.0161      2.5585      0.0140      5.5427     60.8499     16.0258
  2618.8000      8.0117      2.5490      0.0236      6.1225     60.8591     16.4795
  2618.9000      8.0117      2.5557      0.0763      5.7159     60.5492     16.6207
  2619.0000      8.0165      2.5671      0.0901      5.0254     60.6951     16.4343
  2619.1000      8.0165      2.5680      0.0764      4.9677     62.7993     16.4683
  2619.2000      8.0165      2.5591      0.0621      5.5092     66.3541     16.7830
  2619.3000      7.9949      2.5521      0.0538      5.9325     69.4921     16.9671
  2619.4000      7.9949      2.5502      0.0726      6.0489     70.4123     16.9947
  2619.5000      7.9726      2.5432      0.0587      6.4716     69.6520     17.1442
  2619.6000      7.9726      2.5259      0.0352      7.5201     69.4915     17.6671
  2619.7000      7.9726      2.5061      0.0370      8.7189     71.0691     18.4168
  2619.8000      7.9898      2.4946      0.0464      9.4187     75.0028     18.8194
  2619.9000      7.9898      2.4906      0.0718      9.6585     80.1895     18.6169
  2620.0000      7.9974      2.4868      0.0275      9.8909     84.7315     18.1914
  2620.1000      7.9974      2.4827      0.0263     10.1379     89.3879     18.0152
  2620.2000      7.9974      2.4808      0.0440     10.2535     95.7203     18.1342
  2620.3000      8.0037      2.4854      0.0423      9.9765    103.5410     18.5379
