~Version Information
VERS.                      2.0: CWLS Log ASCII Standard - VERSION 2.0
WRAP.                       NO: One line per depth step
~Well Information Block
STRT.FT               390.0000: 
STOP.FT               902.2000: 
STEP.FT                 0.1000: 
NULL.                -999.2500: 
COMP.          Pioneer Natural Resources: COMPANY
WELL.              Venom 32-22: WELL
FLD.           Purgatoire River: FIELD
LOC.           2307' FNL & 2024' FEL----: LOCATION
PROV.                 Colorado: PROVINCE
CNTY.               Las Animas: COUNTRY
SRVC.                Patterson: SERVICE COMPANY
DATE.          Wed May 11 08:31:39 2005: LOG DATE
UWI.           05 071 08361 00: UNIQUE WELL ID
~Curve Information Block
DEPT.FT            0 000 00 00: Depth
DCAL.in                       : CDL Caliper
RHOB.g/cc                     : CDL Bulk Density
RHOC.g/cc                     : CDL Density Correction
DPOR.pu                       : CDL Density Porosity
NPOR.pu                       : Neutron Porosity
GR.GAPI                       : Gamma Ray
~Parameter Information Block
~A  Depth       DCAL        RHOB        RHOC        DPOR        NPOR         GR     
# ...
   418.8000      8.3251      2.2349      0.0478     25.1570     25.6921    131.7270
   418.9000      8.3251      2.1433     -0.0410     30.7117     29.4486    122.7631
   419.0000      8.3267      2.0347     -0.0856     37.2939     29.0057    120.2297
   419.1000      8.3267      1.9507     -0.1247     42.3791     24.7706    121.1988
   419.2000      8.3267      1.9076     -0.0770     44.9914     23.0813    117.8283
   419.3000      8.3313      1.8879     -0.0547     46.1856     25.2964    113.1296
   419.4000      8.3313      1.8767     -0.0730     46.8691     26.0622    112.8397
   419.5000      8.3320      1.8778     -0.0470     46.7976     21.1284    113.0674
   419.6000      8.3320      1.8958      0.0187     45.7120     16.4513    109.7711
   419.7000      8.3320      1.9410      0.0217     42.9702     16.5772    106.7409
   419.8000      8.3309      2.0330      0.1181     37.3914     21.2490    107.1813
   419.9000      8.3309      2.1650      0.2502     29.3963     25.9784    110.5128
   420.0000      8.3174      2.2985      0.3077     21.3006     24.3465    117.4993
   420.1000      8.3174      2.4011      0.3005     15.0873     19.7718    127.8255
   420.2000      8.3174      2.4626      0.2671     11.3555     18.8119    138.3332
   420.3000      8.2795      2.4935      0.2042      9.4862     21.9735    147.7341
   420.4000      8.2795      2.5147      0.1343      8.2000     24.2068    155.0444
   420.5000      8.2356      2.5384      0.1701      6.7610     22.5260    154.8260
   420.6000      8.2356      2.5600      0.1630      5.4536     21.7896    145.5962
   420.7000      8.2356      2.5740      0.1312      4.6059     23.5016    135.0409
   420.8000      8.1884      2.5790      0.1235      4.3032     23.7913    128.3593
   420.9000      8.1884      2.5758      0.0952      4.4974     21.8879    124.5880
   421.0000      8.1375      2.5747      0.0499      4.5608     21.3443    123.0096
   421.1000      8.1375      2.5809      0.0685      4.1859     23.5603    123.3672
   421.2000      8.1375      2.5806      0.0775      4.2057     25.7692    123.8178
   421.3000      8.1087      2.5636      0.0608      5.2372     24.3000    124.2276
   421.4000      8.1087      2.5391      0.0336      6.7242     20.5774    127.5841
   421.5000      8.1127      2.5169      0.0684      8.0652     18.6389    132.6257
   421.6000      8.1127      2.4933      0.0328      9.4996     19.8524    134.5977
   421.7000      8.1127      2.4681      0.0189     11.0234     23.1767    134.6207
   421.8000      8.1399      2.4542      0.0292     11.8638     25.0676    135.8806
   421.9000      8.1399      2.4606      0.0335     11.4810     23.8793    139.0616
   422.0000      8.1773      2.4770      0.0802     10.4876     23.3878    143.3464
   422.1000      8.1773      2.4796      0.0647     10.3290     25.8620    145.9845
   422.2000      8.1773      2.4617      0.0533     11.4150     28.4397    148.3669
   422.3000      8.2177      2.4365      0.0461     12.9366     27.2370    153.9834
   422.4000      8.2177      2.4125      0.0229     14.3939     23.6466    158.5698
   422.5000      8.2573      2.3921      0.0337     15.6279     22.2757    157.2015
   422.6000      8.2573      2.3804      0.0174     16.3421     24.5954    155.7794
   422.7000      8.2573      2.3791      0.0600     16.4209     26.6824    162.7843
   422.8000      8.2901      2.3833      0.0462     16.1648     23.9992    171.4104
   422.9000      8.2901      2.3822      0.0754     16.2331     20.0217    172.0522
   423.0000      8.2988      2.3654      0.0843     17.2504     19.5476    170.5346
   423.1000      8.2988      2.3438      0.0452     18.5591     22.2231    171.7168
   423.2000      8.2988      2.3442      0.0705     18.5345     24.6536    171.1976
   423.3000      8.2679      2.3755      0.0852     16.6339     25.1763    168.0002
   423.4000      8.2679      2.4219      0.1167     13.8259     24.8175    167.4945
   423.5000      8.2215      2.4650      0.1042     11.2129     23.9289    168.6405
   423.6000      8.2215      2.5071      0.0900      8.6633     23.1639    167.4242
   423.7000      8.2215      2.5566      0.1806      5.6601     23.3618    166.2767
   423.8000      8.1815      2.5914      0.2991      3.5506     23.8453    165.4590
   423.9000      8.1815      2.5850      0.2178      3.9398     24.1707    162.9589
   424.0000      8.1494      2.5592      0.1368      5.5032     25.9154    162.9307
   424.1000      8.1494      2.5455      0.1661      6.3336     28.8678    165.0440
   424.2000      8.1494      2.5424      0.1322      6.5236     28.7487    160.1776
   424.3000      8.1392      2.5393      0.1078      6.7062     25.0026    150.4203
   424.4000      8.1392      2.5316      0.0764      7.1778     22.4976    143.7502
   424.5000      8.1487      2.5194      0.0297      7.9177     22.9986    140.9787
   424.6000      8.1487      2.5054      0.0540      8.7637     24.2763    139.9175
   424.7000      8.1487      2.4888      0.0206      9.7706     23.2770    138.1729
   424.8000      8.1559      2.4773     -0.0263     10.4655     20.7438    137.2449
   424.9000      8.1559      2.4792      0.0484     10.3502     20.3094    142.1118
   425.0000      8.1555      2.4913      0.0175      9.6198     23.5992    150.6925
   425.1000      8.1555      2.5055      0.0433      8.7578     27.5758    152.3989
   425.2000      8.1555      2.5095      0.0563      8.5180     27.1630    142.0598
   425.3000      8.1571      2.5009      0.0296      9.0353     24.3695    128.1360
   425.4000      8.1571      2.4870      0.0849      9.8758     23.6520    121.3721
   425.5000      8.1628      2.4720      0.0611     10.7896     23.7657    123.9969
   425.6000      8.1628      2.4641      0.0055     11.2641     21.5356    130.7358
   425.7000      8.1628      2.4689      0.0280     10.9783     18.6246    138.8852
   425.8000      8.1671      2.4749      0.0363     10.6094     18.2013    149.8248
   425.9000      8.1671      2.4665      0.0484     11.1242     21.1803    158.3325
   426.0000      8.1643      2.4385      0.0689     12.8211     25.7396    159.2901
   426.1000      8.1643      2.3994      0.0645     15.1872     26.8987    159.0923
   426.2000      8.1643      2.3664      0.0681     17.1876     24.8446    162.9234
   426.3000      8.1572      2.3565      0.0466     17.7898     24.9590    163.1079
   426.4000      8.1572      2.3749      0.0714     16.6715     27.7292    159.1093
   426.5000      8.1567      2.4146      0.1362     14.2654     28.7564    160.2646
   426.6000      8.1567      2.4643      0.1537     11.2538     27.5621    166.1884
   426.7000      8.1567      2.5075      0.2142      8.6374     27.6782    168.8616
   426.8000      8.1571      2.5195      0.2437      7.9069     28.9531    168.0773
   426.9000      8.1571      2.4915      0.1956      9.6078     27.7990    167.0814
   427.0000      8.1544      2.4493      0.1257     12.1661     24.6399    162.1570
   427.1000      8.1544      2.4351      0.0668     13.0267     23.9899    153.6152
   427.2000      8.1544      2.4603      0.1444     11.4971     26.7776    149.9009
   427.3000      8.1506      2.4953      0.1571      9.3749     28.8816    154.9673
   427.4000      8.1506      2.5172      0.1392      8.0483     26.4264    162.5140
   427.5000      8.1343      2.5281      0.1287      7.3854     21.6033    163.7316
   427.6000      8.1343      2.5359      0.1451      6.9158     19.2356    159.8656
   427.7000      8.1343      2.5450      0.1184      6.3662     20.1818    160.0045
   427.8000      8.0977      2.5672      0.1186      5.0184     21.4450    164.5248
   427.9000      8.0977      2.6122      0.1844      2.2896     19.7054    162.4282
   428.0000      8.0595      2.6572      0.2589     -0.4342     16.9762    147.0067
   428.1000      8.0595      2.6686      0.2104     -1.1294     16.5659    126.1208
   428.2000      8.0595      2.6509      0.1440     -0.0518     18.9827    114.1224
   428.3000      8.0375      2.6277      0.1428      1.3514     22.0136    115.3570
