~Version Information
VERS.                      2.0: CWLS Log ASCII Standard - VERSION 2.0
WRAP.                       NO: One line per depth step
~Well Information Block
STRT.FT                -8.7500: 
STOP.FT              1126.7500: 
STEP.FT                 0.2500: 
NULL.                -999.2500: 
COMP.          Evergreen Operating Corp.: COMPANY
WELL.             Bernice 21-3: WELL
FLD.           Purgatorie River: FIELD
LOC.           201' FNL & 2575' FWL--: LOCATION
PROV.                       CO: PROVINCE
CNTY.               Las Animas: COUNTRY
SRVC.          Patterson Wireline: SERVICE COMPANY
DATE.          Mon Feb 02 12:04:59 2004: LOG DATE
UWI.              05 071 07912: UNIQUE WELL ID
~Curve Information Block
DEPT.FT            0 000 00 00: Depth
CCL.                          : Casing Collar Locator
TT3.usec                      : CBL 3' Travel Time
AMP3.mV                       : CBL 3' Amplitude
GR.GAPI                       : Gamma Ray
~Parameter Information Block
~A  Depth       CCL         TT3         AMP3         GR     
    -8.7500   -999.2500   -999.2500   -999.2500   -999.2500
    -8.5000   -999.2500   -999.2500   -999.2500     68.2558
    -8.2500   -999.2500   -999.2500   -999.2500     69.7780
    -8.0000   -999.2500   -999.2500   -999.2500     72.8897
    -7.7500   -999.2500   -999.2500   -999.2500     76.5193
    -7.5000   -999.2500   -999.2500   -999.2500     79.2562
    -7.2500   -999.2500   -999.2500   -999.2500     80.3746
    -7.0000   -999.2500   -999.2500   -999.2500     80.1229
    -6.7500   -999.2500   -999.2500   -999.2500     79.1783
    -6.5000   -999.2500   -999.2500   -999.2500     77.9518
    -6.2500   -999.2500   -999.2500   -999.2500     76.3198
    -6.0000   -999.2500   -999.2500   -999.2500     74.0939
    -5.7500   -999.2500   -999.2500   -999.2500     71.7943
    -5.5000   -999.2500   -999.2500   -999.2500     70.5419
    -5.2500   -999.2500   -999.2500   -999.2500     70.9555
    -5.0000   -999.2500   -999.2500   -999.2500     72.5721
    -4.7500   -999.2500   -999.2500   -999.2500     74.4818
    -4.5000   -999.2500   -999.2500   -999.2500     75.9946
    -4.2500   -999.2500   -999.2500   -999.2500     76.6014
    -4.0000   -999.2500   -999.2500   -999.2500     76.0125
    -3.7500   -999.2500   -999.2500   -999.2500     74.6990
    -3.5000   -999.2500   -999.2500   -999.2500     73.9684
    -3.2500   -999.2500   1402.1912      1.0211     74.9397
    -3.0000   -999.2500   1402.3086      1.0429     77.4226
    -2.7500   -999.2500   1402.4115      1.0572     80.0984
    -2.5000   -999.2500   1402.4675      1.0589     81.7485
    -2.2500   -999.2500   1402.4835      1.0423     81.9917
    -2.0000   -999.2500   1402.4852      1.0158     80.9974
    -1.7500   -999.2500   1402.4762      1.0033     79.0764
    -1.5000   -999.2500   1402.4387      1.0222     76.7160
    -1.2500   -999.2500   1402.3751      1.0645     74.5768
    -1.0000   -999.2500   1402.3184      1.1028     73.0345
    -0.7500   -999.2500   1402.2953      1.1128     71.8018
    -0.5000   -999.2500   1402.3000      1.0909     70.2531
    -0.2500   -999.2500   1402.3081      1.0533     68.0318
     0.0000   -999.2500   1402.2999      1.0216     65.1712
     0.2500   -999.2500   1402.2059      1.0158     58.3300
     0.5000   -999.2500   1402.1414      1.0310     54.9146
     0.7500   -999.2500   1402.1051      1.0428     51.8086
     1.0000   -999.2500   1402.1281      1.0408     48.9605
     1.2500   -999.2500   1402.2217      1.0212     46.3563
     1.5000   -999.2500   1402.3641      0.9935     44.3953
     1.7500   -999.2500   1402.4971      0.9783     43.6093
     2.0000      0.0000   1402.4922      0.9901     43.8199
     2.2500      0.0000   1402.0735      1.0221     43.8070
     2.5000      4.0000   1400.1072      1.0545     42.0807
     2.7500     -4.0000   1392.8264      1.0876     37.9978
     3.0000     -4.0000   1371.1406      1.1784     32.2256
     3.2500      0.0000   1320.1901      1.4570     26.3620
     3.5000      0.0000   1225.9772      2.1071     22.0487
     3.7500      0.0000   1087.3586      3.3332     20.0931
     4.0000      0.0000    921.0380      5.3994     20.2391
     4.2500      0.0000    751.7035      8.7593     21.7524
     4.5000      0.0000    598.5510     14.0642     24.0866
     4.7500      0.0000    472.1786     21.7653     26.8942
     5.0000      0.0000    377.9780     31.4774     29.7320
     5.2500      0.0000    316.4808     41.7720     32.2408
     5.5000      0.0000    282.2501     50.7996     34.5989
     5.7500      0.0000    266.2277     57.2888     37.3672
     6.0000      0.0000    259.9467     61.0940     40.8119
     6.2500      0.0000    257.8800     62.9512     44.6792
     6.5000      0.0000    257.2885     63.8114     48.4814
     6.7500      0.0000    257.1532     64.3293     51.5731
     7.0000      0.0000    257.1592     64.7661     53.1412
     7.2500      0.0000    257.2151     65.1570     52.6894
     7.5000      0.0000    257.2909     65.4608     50.6561
     7.7500      0.0000    257.4264     65.5540     48.2815
     8.0000      0.0000    257.8321     65.1353     46.7200
     8.2500      0.0000    259.0336     63.7225     46.4072
     8.5000      0.0000    261.9051     60.8668     47.2540
     8.7500      0.0000    267.2751     56.4813     49.0151
     9.0000      0.0000    275.1029     50.9947     51.2537
     9.2500      0.0000    284.0260     45.1630     53.4139
     9.5000      0.0000    292.1039     39.7026     55.2927
     9.7500      0.0000    298.5768     35.0287     57.1589
    10.0000      0.0000    305.5616     31.2128     59.1722
    10.2500      0.0000    319.2626     28.0827     60.9546
    10.5000      0.0000    349.8371     25.3767     61.9611
    10.7500      0.0000    407.5990     22.8912     62.1547
    11.0000      0.0000    495.2061     20.5478     62.0680
    11.2500      0.0000    601.8370     18.3658     62.1370
    11.5000      0.0000    706.6895     16.4093     62.1576
    11.7500      0.0000    789.9691     14.7623     61.6166
    12.0000      0.0000    842.1884     13.5063     60.4876
    12.2500      0.0000    866.4163     12.6680     59.3752
    12.5000      0.0000    874.4874     12.1760     58.7387
    12.7500      0.0000    879.6030     11.8877     58.2861
    13.0000      0.0000    888.9027     11.6786     57.3923
    13.2500      0.0000    901.2614     11.5101     55.9162
    13.5000      0.0000    911.5873     11.4152     54.3520
    13.7500      0.0000    916.2783     11.4311     53.4018
    14.0000      0.0000    914.8915     11.5555     53.5821
    14.2500      0.0000    908.9996     11.7483     54.8324
    14.5000      0.0000    900.9385     11.9571     56.2381
    14.7500      0.0000    893.0514     12.1385     56.5707
    15.0000      0.0000    886.9380     12.2740     55.3528
    15.2500      0.0000    883.0527     12.3754     53.1582
    15.5000      0.0000    880.9763     12.4730     50.9258
    15.7500      0.0000    879.9290     12.5995     49.3983
    16.0000      0.0000    878.8451     12.7776     49.0750
    16.2500      0.0000    875.6119     13.0069     50.1259
    16.5000      0.0000    865.8893     13.2467     52.1998
    16.7500      0.0000    843.2232     13.4144     54.5057
    17.0000      0.0000    803.2621     13.4125     56.0872
    17.2500      0.0000    750.8697     13.1769     56.1384
    17.5000      0.0000    702.0928     12.7190     54.4309
    17.7500      0.0000    675.1285     12.1354     51.6329
    18.0000      0.0000    677.7336     11.5663     49.0617
    18.2500      0.0000    703.4189     11.1204     47.8932
    18.5000      0.0000    736.8648     10.8263     48.3617
    18.7500      0.0000    762.0276     10.6529     49.5008
    19.0000      0.0000    770.5896     10.5602     49.7919
    19.2500      0.0000    767.4762     10.5213     48.4526
    19.5000      0.0000    766.4015     10.5120     46.2093
    19.7500      0.0000    776.9874     10.5021     44.6093
    20.0000      0.0000    796.8641     10.4641     44.5594
    20.2500      0.0000    816.7381     10.3860     45.7765
    20.5000      0.0000    830.0999     10.2773     47.5065
    20.7500      0.0000    836.5173     10.1613     49.2761
    21.0000      0.0000    838.6779     10.0605     50.8535
    21.2500      0.0000    839.1380      9.9839     51.9552
    21.5000      0.0000    839.5035      9.9196     52.3545
    21.7500      0.0000    840.7079      9.8425     52.1522
    22.0000      0.0000    842.9562      9.7348     51.7608
    22.2500      0.0000    845.4678      9.6036     51.6266
    22.5000      0.0000    846.8330      9.4755     51.9841
    22.7500      0.0000    846.2401      9.3798     52.8324
    23.0000      0.0000    844.2994      9.3411     54.0893
    23.2500      0.0000    842.5410      9.3827     55.6348
    23.5000      0.0000    842.2664      9.5270     57.1458
    23.7500      0.0000    843.8432      9.7846     57.9742
    24.0000      0.0000    846.7301     10.1423     57.4186
    24.2500      0.0000    850.1315     10.5660     55.4140
    24.5000      0.0000    853.8104     11.0194     52.9949
