~Version Information
 VERS.                                  2.0 : CWLS LAS VERSION
 WRAP.                                   NO : WRAPING MODE
 SWARE .                 MController 2.5.0I : SOFTWARE VERSION
~Well Information
 WELL.                      Alexander 9-43R : WELL
 COMP.                       Petrogulf corp : COMPANY
 FLD.                      Purgatorie River : FIELD
 LOC.                 NE/SE Sec 9 T33s R67W : LOCATION
 DATE.                              9/03/04 : DATE(S) LOGGED
 SRVC.       Blanco Geological Services LLC : SERVICE COMPANY
 STAT.                                   CO : STATE
 CNTY.                           Las Animas : COUNTY
 CTRY.                                  USA : COUNTRY
 API.                       05-071-08036-00 : API NUMBER
 STRT.FT                             527.00 : START DEPTH
 STOP.FT                            1779.00 : STOP DEPTH
 STEP.FT                               1.00 : DEPTH INCREMENT
 NULL.                                -9999 : NULL VALUE
~Curve information
 DEPTH.FT                                   :
 ROP.MIN/FT                                 :
 GAS.UNITS                                  :
~ASCII Log data
# ...
      1127.0          0.2         11.0 
      1128.0          0.2         11.1 
      1129.0          0.2         11.0 
      1130.0          0.2         10.8 
      1131.0          0.1         11.8 
      1132.0          0.1         13.8 
      1133.0          0.1         14.4 
      1134.0          0.1         16.8 
      1135.0          0.2         17.9 
      1136.0          0.2         16.5 
      1137.0          0.2         13.7 
      1138.0          2.0         76.4 
      1139.0          0.4         41.8 
      1140.0          0.3         39.2 
      1141.0          0.2         31.0 
      1142.0          0.3         25.7 
      1143.0          0.4         23.1 
      1144.0          0.3         22.4 
      1145.0          0.2         20.6 
      1146.0          0.2         18.4 
      1147.0          0.1         18.3 
      1148.0          0.1         18.0 
      1149.0          0.1         18.1 
      1150.0          0.1         18.8 
      1151.0          0.2         18.5 
      1152.0          0.2         17.1 
      1153.0          0.2         15.7 
      1154.0          0.2         14.9 
      1155.0          0.2         14.5 
      1156.0          0.2         13.8 
      1157.0          0.3         13.6 
      1158.0          0.2         13.6 
      1159.0          0.2         13.4 
      1160.0          0.2         13.4 
      1161.0          0.2         13.0 
      1162.0          0.1         12.9 
      1163.0          0.2         12.7 
      1164.0          0.1         11.9 
      1165.0          0.1         10.5 
      1166.0          0.1          9.8 
      1167.0          0.1          8.6 
      1168.0          1.9         77.5 
      1169.0          0.2         41.0 
      1170.0          0.3         40.8 
      1171.0          0.2         34.7 
      1172.0          0.2         28.4 
      1173.0          0.2         24.1 
      1174.0          0.2         22.7 
      1175.0          0.1         23.1 
      1176.0          0.2         23.3 
      1177.0          0.2         22.2 
      1178.0          0.3         19.8 
      1179.0          0.2         17.7 
      1180.0          0.3         16.0 
      1181.0          0.2         14.5 
      1182.0          0.2         13.8 
      1183.0          0.2         13.0 
      1184.0          0.2         12.3 
      1185.0          0.2         12.2 
      1186.0          0.2         11.3 
      1187.0          0.2         10.9 
      1188.0          0.2         11.1 
      1189.0          0.2         11.4 
      1190.0          0.2         11.1 
      1191.0          0.2         10.9 
      1192.0          0.2         10.8 
      1193.0          0.2         11.0 
      1194.0          0.2         11.7 
      1195.0          0.2         12.3 
      1196.0          0.2         11.6 
      1197.0          0.2          9.2 
      1198.0          2.0         81.6 
      1199.0          0.4         42.5 
      1200.0          0.4         38.7 
      1201.0          0.2         28.6 
      1202.0          0.3         23.7 
      1203.0          0.3         22.0 
      1204.0          0.3         21.9 
      1205.0          0.3          6.8 
      1206.0          0.3         12.8 
      1207.0          0.2         13.4 
      1208.0          0.2         13.4 
      1209.0          0.1         14.0 
      1210.0          0.1         14.6 
      1211.0          0.2         16.2 
      1212.0          0.2         16.6 
      1213.0          0.2         16.9 
      1214.0          0.3         16.1 
      1215.0          0.3         15.3 
      1216.0          0.3         14.5 
      1217.0          0.2         13.8 
      1218.0          0.3         12.9 
      1219.0          0.3         12.7 
      1220.0          0.1         11.9 
      1221.0          0.2         11.7 
      1222.0          0.2         11.1 
      1223.0          0.2         10.5 
      1224.0          0.2         11.4 
      1225.0          0.2         11.8 
      1226.0          0.1          9.0 
      1227.0          0.1          6.0 
      1228.0          2.0         84.5 
      1229.0          0.2         46.1 
      1230.0          0.3         46.0 
      1231.0          0.2         41.8 
      1232.0          0.2         35.2 
      1233.0          0.2         29.0 
      1234.0          0.2         26.0 
      1235.0          0.2         22.3 
      1236.0          0.2         21.1 
      1237.0          0.2         20.4 
      1238.0          0.2         18.7 
      1239.0          0.2         17.3 
      1240.0          0.2         15.5 
      1241.0          0.2         14.7 
      1242.0          0.2         14.0 
      1243.0          0.2         13.7 
      1244.0          0.1         14.4 
      1245.0          0.1         14.1 
      1246.0          0.2         14.0 
      1247.0          0.2         12.8 
      1248.0          0.2         12.6 
      1249.0          0.2         11.6 
      1250.0          0.2         11.2 
      1251.0          0.3         10.9 
      1252.0          0.3         10.2 
      1253.0          0.6         10.2 
      1254.0          0.2         11.0 
      1255.0          0.2         11.1 
      1256.0          0.1         10.0 
      1257.0          0.2          7.6 
      1258.0          2.3         85.5 
      1259.0          0.6         35.7 
      1260.0          0.4          4.2 
      1261.0          0.4         17.2 
      1262.0          0.2         17.5 
      1263.0          0.2         17.1 
      1264.0          0.2         14.1 
      1265.0          0.2         12.5 
      1266.0          0.3         12.6 
      1267.0          0.2         12.8 
      1268.0          0.2         12.9 
      1269.0          0.2         12.7 
      1270.0          0.3         12.8 
      1271.0          0.3         13.4 
      1272.0          0.2         13.2 
      1273.0          0.1         13.4 
      1274.0          0.2         12.3 
      1275.0          0.3         11.8 
      1276.0          0.2         12.5 
      1277.0          0.2         12.1 
      1278.0          0.2         12.3 
      1279.0          0.2         11.5 
      1280.0          0.2         11.5 
      1281.0          0.2         12.4 
      1282.0          0.1         12.2 
      1283.0          0.2         12.8 
      1284.0          0.2         13.5 
      1285.0          0.2         12.4 
      1286.0          2.5        130.5 
      1287.0          0.2         52.9 
      1288.0          0.2         49.2 
      1289.0          0.2         42.6 
      1290.0          0.1         37.4 
      1291.0          0.3         34.9 
      1292.0          0.4         25.2 
      1293.0          0.2         22.7 
      1294.0          0.1         22.8 
      1295.0          0.3         22.5 
      1296.0          0.4         19.9 
      1297.0          0.3         18.2 
      1298.0          0.2         17.3 
      1299.0          0.2         16.1 
      1300.0          0.3         15.2 
      1301.0          0.4         12.9 
      1302.0          0.2         10.3 
      1303.0          0.2         11.3 
      1304.0          0.2         12.5 
      1305.0          0.2         12.8 
      1306.0          0.3         12.8 
      1307.0          0.3         13.1 
      1308.0          0.2         12.3 
      1309.0          0.2         11.8 
      1310.0          0.3         12.0 
      1311.0          0.2         12.3 
      1312.0          0.2         12.3 
      1313.0          0.3         11.5 
      1314.0          0.3         12.2 
      1315.0          0.3         12.2 
      1316.0          0.2          6.2 
      1317.0          0.4          9.2 
      1318.0          2.3         89.4 
      1319.0          0.3         31.5 
      1320.0          0.4         24.5 
      1321.0          0.2         21.6 
      1322.0          0.5         20.8 
      1323.0          0.3         17.1 
      1324.0          0.2         16.4 
      1325.0          0.2         15.8 
      1326.0          0.2         15.4 
