~Version Information
VERS.                      2.0: CWLS Log ASCII Standard - VERSION 2.0
WRAP.                       NO: One line per depth step
~Well Information Block
STRT.FT               742.5000: 
STOP.FT              2463.5000: 
STEP.FT                 0.2500: 
NULL.                -999.2500: 
COMP.          Petrogulf Corporation: COMPANY
WELL.           Montoya 12-44V: WELL
FLD.           Purgatorie River: FIELD
LOC.           698' FSL & 599' FEL: LOCATION
CNTY.               Las Animas: COUNTY
SRVC.                         : SERVICE COMPANY
DATE.          Sun Aug 08 06:43:17 2004: LOG DATE
UWI.           05 071 08094 00: UNIQUE WELL ID
STAT.                 Colorado: STATE
~Curve Information Block
DEPT.FT            0 000 00 00: Depth
SN.Ohm-m                      : IEL Short Normal
SP.mV                         : IEL Spontaneous Potential
DIR.Ohm-m                     : IEL Induction Resistivity
GR.GAPI                       : Gamma Ray
~Parameter Information Block
~A  Depth        SN          SP         DIR          GR     
# ...
  2082.5000     65.3151    -54.1824     33.2257     32.6258
  2082.7500     68.2367    -53.1981     38.3780     32.4637
  2083.0000     70.1443    -52.1492     43.7791     32.0473
  2083.2500     71.2352    -51.0971     47.6881     31.4596
  2083.5000     71.7427    -50.1374     48.4255     30.5585
  2083.7500     71.9026    -49.3893     46.2917     30.3766
  2084.0000     71.9318    -48.9688     43.2553     31.0815
  2084.2500     72.0070    -48.9627     41.0172     31.9622
  2084.5000     72.2453    -49.4037     40.2590     33.0740
  2084.7500     72.6951    -50.2628     40.9343     33.4384
  2085.0000     73.3436    -51.4551     42.6306     33.9188
  2085.2500     74.1338    -52.8568     44.8603     34.6730
  2085.5000     74.9816    -54.3327     47.3292     36.4561
  2085.7500     75.7847    -55.7549     49.9330     37.4018
  2086.0000     76.4243    -57.0179     52.3981     37.0241
  2086.2500     76.7690    -58.0443     54.0629     35.2656
  2086.5000     76.6871    -58.7824     54.3508     31.2438
  2086.7500     76.0707    -59.2025     53.4908     28.6538
  2087.0000     74.8616    -59.2952     52.3690     26.3670
  2087.2500     73.0686    -59.0720     51.6834     26.1662
  2087.5000     70.7671    -58.5689     51.4518     27.5265
  2087.7500     68.0805    -57.8463     51.1119     29.3953
  2088.0000     65.1553    -56.9869     50.0239     33.7045
  2088.2500     62.1404    -56.0874     48.0258     37.3683
  2088.5000     59.1792    -55.2396     45.5246     42.6880
  2088.7500     56.4072    -54.5128     43.0890     45.1211
  2089.0000     53.9388    -53.9369     41.0562     46.3038
  2089.2500     51.8358    -53.5016     39.4714     45.7310
  2089.5000     50.0753    -53.1585     38.2109     43.8546
  2089.7500     48.5535    -52.8458     37.0984     42.3500
  2090.0000     47.1337    -52.5086     35.9307     40.0225
  2090.2500     45.7052    -52.1190     34.4975     38.6342
  2090.5000     44.2057    -51.6813     32.6846     37.4244
  2090.7500     42.5957    -51.2246     30.5885     37.4823
  2091.0000     40.8208    -50.7858     28.4657     38.7182
  2091.2500     38.8070    -50.3913     26.5278     39.9515
  2091.5000     36.4936    -50.0508     24.7835     42.0394
  2091.7500     33.8746    -49.7548     23.0618     43.7164
  2092.0000     31.0164    -49.4901     21.1853     47.1286
  2092.2500     28.0420    -49.2498     19.1512     50.1152
  2092.5000     25.0941    -49.0402     17.1327     55.5494
  2092.7500     22.2984    -48.8798     15.3209     59.8042
  2093.0000     19.7441    -48.7829     13.8026     67.4441
  2093.2500     17.4878    -48.7442     12.5646     73.5086
  2093.5000     15.5694    -48.7236     11.5572     83.6138
  2093.7500     14.0174    -48.6489     10.7443     90.3744
  2094.0000     12.8360    -48.4318     10.1112     99.3735
  2094.2500     11.9894    -47.9984      9.6453    104.1493
  2094.5000     11.4061    -47.3176      9.3186    109.1125
  2094.7500     11.0014    -46.4179      9.0899    111.0014
  2095.0000     10.7039    -45.3792      8.9203    112.4042
  2095.2500     10.4674    -44.3108      8.7904    113.0662
  2095.5000     10.2716    -43.3153      8.7037    114.5713
  2095.7500     10.1200    -42.4606      8.6762    115.9193
  2096.0000     10.0419    -41.7734      8.7224    117.5125
  2096.2500     10.0931    -41.2517      8.8483    117.6165
  2096.5000     10.3445    -40.8867      9.0529    115.9198
  2096.7500     10.8585    -40.6855      9.3322    113.8664
  2097.0000     11.6606    -40.6768      9.6808    110.2065
  2097.2500     12.7196    -40.8953     10.0918    107.6065
  2097.5000     13.9445    -41.3554     10.5617    103.4618
  2097.7500     15.2066    -42.0340     11.0977    100.5767
  2098.0000     16.3793    -42.8580     11.7173     96.4210
  2098.2500     17.3774    -43.7198     12.4270     93.9543
  2098.5000     18.1694    -44.5028     13.1922     90.7189
  2098.7500     18.7558    -45.1071     13.9264     88.8418
  2099.0000     19.1375    -45.4690     14.5219     86.7844
  2099.2500     19.3022    -45.5671     14.9040     86.3166
  2099.5000     19.2376    -45.4181     15.0599     87.4688
  2099.7500     18.9540    -45.0650     15.0249     89.4956
  2100.0000     18.4922    -44.5695     14.8511     94.1620
  2100.2500     17.9119    -44.0011     14.5877     98.1509
  2100.5000     17.2729    -43.4314     14.2787    105.0810
  2100.7500     16.6230    -42.9254     13.9681    109.9928
  2101.0000     15.9973    -42.5308     13.6983    116.6431
  2101.2500     15.4235    -42.2711     13.4965    119.7612
  2101.5000     14.9240    -42.1378     13.3612    122.0645
  2101.7500     14.5100    -42.0961     13.2590    122.7919
  2102.0000     14.1767    -42.0875     13.1359    124.4984
  2102.2500     13.9089    -42.0453     12.9364    126.3759
  2102.5000     13.6937    -41.9040     12.6255    129.2170
  2102.7500     13.5245    -41.6156     12.2070    130.1561
  2103.0000     13.3867    -41.1580     11.7231    129.1518
  2103.2500     13.2391    -40.5405     11.2289    126.9050
  2103.5000     13.0137    -39.8028     10.7636    121.7920
  2103.7500     12.6414    -39.0076     10.3411    117.5388
  2104.0000     12.0899    -38.2294      9.9586    110.1334
  2104.2500     11.3914    -37.5374      9.6115    104.6916
  2104.5000     10.6431    -36.9807      9.3016     96.7474
  2104.7500      9.9748    -36.5816      9.0391     92.6275
  2105.0000      9.4962    -36.3350      8.8351     90.0453
  2105.2500      9.2507    -36.2178      8.6906     91.2332
  2105.5000      9.2029    -36.2062      8.5873     96.6027
  2105.7500      9.2649    -36.2911      8.4878    101.2270
  2106.0000      9.3451    -36.4840      8.3501    106.9642
  2106.2500      9.3893    -36.8144      8.1511    108.9444
  2106.5000      9.3942    -37.3116      7.9015    109.0828
  2106.7500      9.3896    -37.9829      7.6395    107.9537
  2107.0000      9.4059    -38.7966      7.4068    105.7435
  2107.2500      9.4513    -39.6754      7.2282    104.5008
  2107.5000      9.5098    -40.5067      7.1058    103.6749
  2107.7500      9.5550    -41.1710      7.0263    104.0571
  2108.0000      9.5630    -41.5698      6.9727    105.8139
  2108.2500      9.5207    -41.6517      6.9305    107.1176
  2108.5000      9.4281    -41.4183      6.8896    107.7271
  2108.7500      9.2981    -40.9196      6.8447    106.7311
  2109.0000      9.1521    -40.2326      6.8000    103.7377
  2109.2500      9.0126    -39.4399      6.7708    101.6875
  2109.5000      8.8947    -38.6141      6.7789     99.7770
  2109.7500      8.8022    -37.8114      6.8392     99.3515
  2110.0000      8.7290    -37.0744      6.9514     99.5505
  2110.2500      8.6680    -36.4409      7.1003    100.1404
  2110.5000      8.6181    -35.9506      7.2645    101.8420
  2110.7500      8.5855    -35.6457      7.4272    103.5201
  2111.0000      8.5777    -35.5656      7.5796    106.5269
  2111.2500      8.6003    -35.7398      7.7194    108.5708
  2111.5000      8.6630    -36.1769      7.8490    111.3108
  2111.7500      8.7860    -36.8572      7.9776    112.8764
  2112.0000      8.9954    -37.7252      8.1249    114.8902
  2112.2500      9.3095    -38.6937      8.3206    115.8140
  2112.5000      9.7269    -39.6462      8.5960    115.5782
  2112.7500     10.2255    -40.4531      8.9697    113.7193
  2113.0000     10.7656    -40.9897      9.4352    108.4652
  2113.2500     11.2947    -41.1607      9.9597    104.3217
  2113.5000     11.7602    -40.9238     10.5025     99.3604
  2113.7500     12.1398    -40.3016     11.0408     97.3695
  2114.0000     12.4767    -39.3820     11.5802     94.9566
  2114.2500     12.8919    -38.3033     12.1419     92.3556
  2114.5000     13.5463    -37.2282     12.7456     86.0735
  2114.7500     14.5609    -36.3124     13.4062     81.3080
  2115.0000     15.9407    -35.6790     14.1381     76.5874
  2115.2500     17.5533    -35.4044     14.9530     76.4880
  2115.5000     19.1832    -35.5137     15.8501     80.4826
  2115.7500     20.6270    -35.9839     16.8091     84.1220
