~Version Information
VERS.                      2.0: CWLS Log ASCII Standard - VERSION 2.0
WRAP.                       NO: One line per depth step
~Well Information Block
STRT.FT               890.0000: 
STOP.FT              1588.2000: 
STEP.FT                 0.1000: 
NULL.                -999.2500: 
COMP.          Evergreen Operating Corporation: COMPANY
WELL.            Tomahawk 44-9: WELL
FLD.           Purgatorie River: FIELD
LOC.           434' FSL & 491' FEL: LOCATION
PROV.                 Colorado: PROVINCE
CNTY.               Las Animas: COUNTRY
SRVC.                         : SERVICE COMPANY
DATE.          Mon Sep 13 10:07:57 2004: LOG DATE
UWI.           05 071 08133 00: UNIQUE WELL ID
~Curve Information Block
DEPT.FT            0 000 00 00: Depth
LTEN.lb                       : Surface Line Tension
DCAL.in                       : CDL Caliper
RHOB.g/cc                     : CDL Bulk Density
RHOC.g/cc                     : CDL Density Correction
DPOR.pu                       : CDL Density Porosity
GR.GAPI                       : Gamma Ray
NPOR.pu                       : Neutron Porosity
~Parameter Information Block
~A  Depth       LTEN        DCAL        RHOB        RHOC        DPOR         GR         NPOR    
# ...
  1394.0000   1128.7018      8.0770      2.4158      0.0207     14.1913     89.5733     24.0281
  1394.1000   1128.7018      8.0770      2.3971      0.0140     15.3263     87.0156     24.8419
  1394.2000   1128.7018      8.0770      2.3840     -0.0118     16.1240     85.4063     25.2219
  1394.3000   1093.6292      8.0775      2.3769     -0.0025     16.5520     86.3698     25.1024
  1394.4000   1093.6292      8.0775      2.3825     -0.0220     16.2097     89.3121     24.9534
  1394.5000   1108.0548      8.0803      2.3954      0.0711     15.4302     92.7030     25.1810
  1394.6000   1108.0548      8.0803      2.3934      0.0709     15.5501     95.3154     25.8969
  1394.7000   1108.0548      8.0803      2.3788      0.0178     16.4369     97.4557     26.7316
  1394.8000   1110.8136      8.0834      2.3744      0.0552     16.7052    100.2100     26.8828
  1394.9000   1110.8136      8.0834      2.3850      0.0323     16.0578    104.2968     26.4694
  1395.0000   1083.5101      8.0831      2.4021      0.0309     15.0248    107.1754     26.5278
  1395.1000   1083.5101      8.0831      2.4172      0.0437     14.1109    107.1246     27.1509
  1395.2000   1083.5101      8.0831      2.4235      0.0355     13.7277    105.2570     27.4216
  1395.3000   1138.8596      8.0882      2.4240      0.0152     13.6993    102.6225     27.1875
  1395.4000   1138.8596      8.0882      2.4320      0.0425     13.2135    101.7471     26.8670
  1395.5000   1096.0856      8.0859      2.4522      0.0599     11.9876    103.6233     26.4965
  1395.6000   1096.0856      8.0859      2.4690      0.0519     10.9711    105.8884     26.3895
  1395.7000   1096.0856      8.0859      2.4669      0.0737     11.0950    108.3376     26.7982
  1395.8000   1124.4832      8.0865      2.4546      0.0134     11.8406    112.2081     26.8945
  1395.9000   1124.4832      8.0865      2.4540      0.0391     11.8784    117.6536     26.3013
  1396.0000   1103.6520      8.0831      2.4716      0.0299     10.8105    122.9097     25.8977
  1396.1000   1103.6520      8.0831      2.4964      0.0530      9.3108    123.7871     26.2383
  1396.2000   1103.6520      8.0831      2.5131      0.0270      8.2942    117.5081     26.7172
  1396.3000   1071.2010      8.0824      2.5160      0.0317      8.1236    106.6613     26.4484
  1396.4000   1071.2010      8.0824      2.5117      0.0243      8.3847     99.0305     25.6871
  1396.5000   1133.1311      8.0751      2.5095      0.0269      8.5181     98.5917     25.2566
  1396.6000   1133.1311      8.0751      2.5096      0.0483      8.5107    101.6586     25.6206
  1396.7000   1133.1311      8.0751      2.5073      0.0211      8.6486    102.8899     26.1918
  1396.8000   1050.3234      8.0730      2.5032      0.0126      8.8961    101.2628     26.2115
  1396.9000   1050.3234      8.0730      2.4990      0.0281      9.1516    101.5807     26.2918
  1397.0000   1096.7888      8.0743      2.4912      0.0683      9.6272    108.3855     26.9033
  1397.1000   1096.7888      8.0743      2.4840      0.0451     10.0598    116.4045     27.4078
  1397.2000   1096.7888      8.0743      2.4848      0.0475     10.0130    118.2533     27.4435
  1397.3000   1073.6785      8.0731      2.4851      0.0488      9.9947    114.1930     27.1353
  1397.4000   1073.6785      8.0731      2.4789      0.0050     10.3687    108.4604     26.0875
  1397.5000   1048.1379      8.0751      2.4753      0.0303     10.5889    102.6798     24.5308
  1397.6000   1048.1379      8.0751      2.4823      0.0661     10.1638     98.9784     23.8979
  1397.7000   1048.1379      8.0751      2.4955      0.0947      9.3626    101.6765     24.6341
  1397.8000   1077.4987      8.0735      2.5002      0.1110      9.0800    108.5337     25.4807
  1397.9000   1077.4987      8.0735      2.4906      0.0663      9.6617    115.0787     25.7985
  1398.0000   1025.1272      8.0731      2.4769      0.0711     10.4902    121.5740     25.7677
  1398.1000   1025.1272      8.0731      2.4633      0.0839     11.3129    125.3354     25.1842
  1398.2000   1025.1272      8.0731      2.4488      0.0423     12.1929    120.5796     24.3238
  1398.3000   1086.7650      8.0594      2.4395      0.0437     12.7579    108.8950     23.9495
  1398.4000   1086.7650      8.0594      2.4433      0.0141     12.5258    100.0443     24.3888
  1398.5000   1047.4125      8.0582      2.4580      0.0731     11.6383     98.9955     25.5412
  1398.6000   1047.4125      8.0582      2.4725      0.0314     10.7603    101.5495     26.8261
  1398.7000   1047.4125      8.0582      2.4887      0.0339      9.7767    104.5599     27.4270
  1398.8000   1082.5880      8.0575      2.5139      0.0661      8.2476    108.8073     27.0517
  1398.9000   1082.5880      8.0575      2.5349      0.0999      6.9728    112.4165     26.0120
  1399.0000   1090.2194      8.0574      2.5291      0.0618      7.3273    111.7974     24.9226
  1399.1000   1090.2194      8.0574      2.5019      0.0427      8.9765    106.5276     24.4145
  1399.2000   1090.2194      8.0574      2.4792      0.0233     10.3489    100.2660     24.5807
  1399.3000   1037.6527      8.0574      2.4760      0.0118     10.5478     97.9215     24.8502
  1399.4000   1037.6527      8.0574      2.4929      0.0359      9.5214    101.9037     25.2111
  1399.5000   1099.6125      8.0575      2.5229      0.0707      7.7028    107.2107     25.7507
  1399.6000   1099.6125      8.0575      2.5547      0.1040      5.7739    108.5530     25.8920
  1399.7000   1099.6125      8.0575      2.5796      0.1300      4.2650    108.1533     25.8299
  1399.8000   1031.6075      8.0581      2.5963      0.1459      3.2528    107.4029     26.2420
  1399.9000   1031.6075      8.0581      2.6066      0.1736      2.6324    104.5733     26.5606
  1400.0000   1099.2004      8.0577      2.6062      0.1748      2.6538    103.0635     26.0253
  1400.1000   1099.2004      8.0577      2.5891      0.1464      3.6910    104.5784     25.3662
  1400.2000   1099.2004      8.0577      2.5635      0.0850      5.2398    104.7261     25.3363
  1400.3000   1079.5270      8.0652      2.5484      0.0777      6.1552    102.2861     25.5024
  1400.4000   1079.5270      8.0652      2.5463      0.0959      6.2852     99.2100     25.4311
  1400.5000   1033.4061      8.0721      2.5457      0.0567      6.3216     97.4776     25.2965
  1400.6000   1033.4061      8.0721      2.5398      0.0475      6.6797    100.4550     25.2687
  1400.7000   1033.4061      8.0721      2.5299      0.0354      7.2762    107.8059     25.8578
  1400.8000   1103.1780      8.0892      2.5193      0.0826      7.9222    113.5804     27.1000
  1400.9000   1103.1780      8.0892      2.5009      0.0876      9.0346    113.6016     27.8144
  1401.0000   1044.2601      8.0838      2.4737      0.0569     10.6855    110.5874     27.7490
  1401.1000   1044.2601      8.0838      2.4561      0.0196     11.7541    107.0101     27.6653
  1401.2000   1044.2601      8.0838      2.4609      0.0266     11.4595    104.6226     27.5860
  1401.3000   1128.4514      8.0840      2.4807      0.0457     10.2609    106.5675     27.5907
  1401.4000   1128.4514      8.0840      2.4982      0.0711      9.2026    112.4623     28.0220
  1401.5000   1064.8368      8.0824      2.5034      0.0800      8.8867    113.7339     28.6579
  1401.6000   1064.8368      8.0824      2.5027      0.0863      8.9252    106.5574     29.3665
  1401.7000   1064.8368      8.0824      2.5059      0.0850      8.7341    101.4425     30.2080
  1401.8000   1073.8922      8.0820      2.5134      0.0769      8.2772    104.1770     30.3433
  1401.9000   1073.8922      8.0820      2.5167      0.1252      8.0805    108.1875     29.0790
  1402.0000   1126.3357      8.0815      2.5090      0.1168      8.5448    106.8454     27.4537
  1402.1000   1126.3357      8.0815      2.5005      0.0630      9.0577    102.0408     26.7050
  1402.2000   1126.3357      8.0815      2.5011      0.1087      9.0213     97.0991     26.8153
  1402.3000   1063.4379      8.0830      2.5043      0.0823      8.8298     92.7912     27.2256
