~Version Information
VERS.                      2.0: CWLS Log ASCII Standard - VERSION 2.0
WRAP.                       NO: One line per depth step
~Well Information Block
STRT.FT               472.0000: 
STOP.FT              2428.5000: 
STEP.FT                 0.1000: 
NULL.                -999.2500: 
COMP.          Pioneer Natural Resources: COMPANY
WELL.          Flying Horse 12-11: WELL
FLD.           Purgatoire River: FIELD
LOC.           2428' FNL & 308' FWL: LOCATION
PROV.                 Colorado: PROVINCE
CNTY.               Las Animas: COUNTRY
SRVC.                Patterson: SERVICE COMPANY
DATE.          Mon May 30 06:06:20 2005: LOG DATE
UWI.           05 071 08378 00: UNIQUE WELL ID
~Curve Information Block
DEPT.FT            0 000 00 00: Depth
DCAL.in                       : CDL Caliper
RHOB.g/cc                     : CDL Bulk Density
RHOC.g/cc                     : CDL Density Correction
DPOR.pu                       : CDL Density Porosity
GR.GAPI                       : Gamma Ray
NPOR.pu                       : Neutron Porosity
~Parameter Information Block
~A  Depth       DCAL        RHOB        RHOC        DPOR         GR         NPOR    
# ...
  2286.4000      7.8878      2.6003      0.0563      3.0130     62.2963     23.0824
  2286.5000      7.9060      2.5726      0.0358      4.6887     61.3698     23.2455
  2286.6000      7.9060      2.5382      0.0091      6.7730     59.2185     23.7856
  2286.7000      7.9060      2.5191     -0.0213      7.9318     56.5726     23.9191
  2286.8000      7.9045      2.5174      0.0321      8.0375     56.4781     23.3219
  2286.9000      7.9045      2.5229     -0.0153      7.7046     57.6730     22.6499
  2287.0000      7.8930      2.5253      0.0492      7.5579     58.1181     22.5398
  2287.1000      7.8930      2.5111      0.0238      8.4198     59.7731     22.6120
  2287.2000      7.8930      2.4884     -0.0348      9.7922     64.0784     22.4015
  2287.3000      7.8825      2.4837     -0.0125     10.0777     66.8595     22.1773
  2287.4000      7.8825      2.5018      0.0189      8.9791     63.6817     22.4589
  2287.5000      7.8875      2.5225      0.0411      7.7300     57.5843     23.1324
  2287.6000      7.8875      2.5231      0.0649      7.6891     55.3910     23.2639
  2287.7000      7.8875      2.5061      0.0020      8.7227     58.1502     22.7771
  2287.8000      7.8957      2.5009      0.0060      9.0353     62.4277     22.4647
  2287.9000      7.8957      2.5226      0.0585      7.7241     67.4242     22.8026
  2288.0000      7.9065      2.5479      0.0862      6.1850     72.1417     23.4669
  2288.1000      7.9065      2.5536      0.0892      5.8419     74.8387     23.5627
  2288.2000      7.9065      2.5441      0.0968      6.4170     76.6754     22.8777
  2288.3000      7.8650      2.5352      0.0494      6.9547     76.3079     21.9383
  2288.4000      7.8650      2.5382      0.0285      6.7733     71.7995     21.4476
  2288.5000      7.8783      2.5510      0.1113      5.9970     67.3438     21.7724
  2288.6000      7.8783      2.5608      0.0592      5.4075     68.1562     22.4613
  2288.7000      7.8783      2.5556      0.1214      5.7214     74.2006     23.1938
  2288.8000      7.8810      2.5275      0.0794      7.4264     80.6871     23.8733
  2288.9000      7.8810      2.4872      0.0653      9.8649     83.7141     24.1919
  2289.0000      7.8839      2.4602      0.0155     11.5019     82.8787     24.2760
  2289.1000      7.8839      2.4529      0.0518     11.9474     80.2584     24.5392
  2289.2000      7.8839      2.4331      0.0816     13.1449     79.3444     25.1174
  2289.3000      7.8792      2.3688      0.0300     17.0427     81.3369     26.1515
  2289.4000      7.8792      2.2797     -0.0509     22.4433     83.6413     27.7297
  2289.5000      7.8865      2.2134     -0.0502     26.4590     83.4104     29.0810
  2289.6000      7.8865      2.1836     -0.0377     28.2696     82.1043     29.4508
  2289.7000      7.8865      2.1710     -0.0805     29.0303     82.8685     29.4366
  2289.8000      7.8947      2.1634     -0.0300     29.4900     83.3472     29.6462
  2289.9000      7.8947      2.1649     -0.0116     29.4020     79.3163     29.8765
  2290.0000      7.8948      2.1884      0.0706     27.9779     74.6897     29.8928
  2290.1000      7.8948      2.2320      0.1643     25.3349     76.4895     29.7892
  2290.2000      7.8948      2.2764      0.1894     22.6424     82.7272     29.9157
  2290.3000      7.9022      2.3113      0.1525     20.5252     88.4912     30.4069
  2290.4000      7.9022      2.3434      0.0958     18.5802     92.6663     30.8639
  2290.5000      7.9034      2.3754      0.0507     16.6396     93.0347     31.1818
  2290.6000      7.9034      2.3973      0.0490     15.3152     90.3035     31.4857
  2290.7000      7.9034      2.4049      0.0383     14.8545     88.5254     31.4649
  2290.8000      7.9012      2.4074      0.0328     14.7052     88.0255     30.9422
  2290.9000      7.9012      2.4064      0.0909     14.7653     87.9783     30.1425
  2291.0000      7.8948      2.4019     -0.0012     15.0363     90.7451     29.4131
  2291.1000      7.8948      2.4086      0.0271     14.6291     97.1405     28.8546
  2291.2000      7.8948      2.4274      0.0490     13.4895    103.0572     28.3392
  2291.3000      7.8959      2.4390      0.0571     12.7892    104.3728     27.8542
  2291.4000      7.8959      2.4455      0.0108     12.3916    102.2439     27.5237
  2291.5000      7.8630      2.4655      0.0728     11.1825     98.7694     27.6104
  2291.6000      7.8630      2.4878      0.0895      9.8322     93.8820     28.0988
  2291.7000      7.8630      2.4958      0.0516      9.3461     90.4834     28.4652
  2291.8000      7.8542      2.4919      0.0643      9.5799     90.5020     28.3366
  2291.9000      7.8542      2.4750      0.0811     10.6043     92.8157     28.0424
  2292.0000      7.8469      2.4565     -0.0163     11.7269     96.2495     27.4962
  2292.1000      7.8469      2.4574      0.0264     11.6742     99.5202     26.6760
  2292.2000      7.8469      2.4649      0.0449     11.2162    101.3107     26.4282
  2292.3000      7.8537      2.4628     -0.0046     11.3448    100.7021     27.0956
  2292.4000      7.8537      2.4658     -0.0008     11.1644     98.2076     27.6900
  2292.5000      7.8851      2.4849      0.0088     10.0060     94.5022     27.6154
  2292.6000      7.8851      2.5078      0.0411      8.6168     92.3250     27.5793
  2292.7000      7.8851      2.5210      0.0614      7.8181     97.0517     28.0254
  2292.8000      7.9137      2.5262      0.0189      7.5010    106.2500     28.4039
  2292.9000      7.9137      2.5281      0.0966      7.3896    109.6754     28.0561
  2293.0000      7.9007      2.5246      0.0514      7.5993    105.3645     27.1992
  2293.1000      7.9007      2.5179      0.0674      8.0076    100.2119     26.4985
  2293.2000      7.9007      2.5079      0.0590      8.6097     98.3009     25.8508
  2293.3000      7.8517      2.4960      0.0436      9.3364    101.0025     24.9612
  2293.4000      7.8517      2.4907      0.0282      9.6556    107.3067     24.4296
  2293.5000      7.8605      2.4979      0.0580      9.2193    111.7182     24.9890
  2293.6000      7.8605      2.5113      0.0545      8.4052    109.7959     26.2082
  2293.7000      7.8605      2.5154      0.0709      8.1603    104.6948     26.8874
  2293.8000      7.8898      2.5016      0.0127      8.9960    101.4323     26.7206
  2293.9000      7.8898      2.4880      0.0044      9.8158    103.4171     26.2564
  2294.0000      7.8975      2.5008     -0.0124      9.0414    109.3024     25.7260
  2294.1000      7.8975      2.5317      0.0606      7.1711    113.9560     25.5923
  2294.2000      7.8975      2.5504      0.0826      6.0379    116.1744     26.1840
  2294.3000      7.8991      2.5502      0.0538      6.0473    115.1222     26.9078
  2294.4000      7.8991      2.5361      0.1025      6.9048    110.4310     27.2545
  2294.5000      7.8911      2.5080      0.0378      8.6034    105.7841     27.2813
  2294.6000      7.8911      2.4837      0.0083     10.0775    103.8899     27.1342
  2294.7000      7.8911      2.4723      0.0314     10.7721    105.5982     26.9966
  2294.8000      7.8705      2.4558     -0.0068     11.7676    110.0513     26.9480
  2294.9000      7.8705      2.4324     -0.0071     13.1899    114.3608     27.2089
  2295.0000      7.8675      2.4221     -0.0215     13.8120    113.3873     28.0588
  2295.1000      7.8675      2.4317      0.0409     13.2330    105.5881     28.9562
  2295.2000      7.8675      2.4466      0.0494     12.3298     98.2254     29.2104
  2295.3000      7.8678      2.4520      0.0868     12.0013     97.0496     29.2613
  2295.4000      7.8678      2.4554      0.0240     11.7950     96.5488     29.9677
  2295.5000      7.8641      2.4774      0.0550     10.4592     91.9112     30.7972
  2295.6000      7.8641      2.5269      0.0661      7.4604     87.3809     30.4230
  2295.7000      7.8641      2.6146      0.0455      2.1469     86.3020     29.0859
  2295.8000      7.8737      2.7612      0.1468     -6.7371     85.8547     27.7571
  2295.9000      7.8737      2.9395      0.3083    -17.5465     83.5345     26.9254
