~Version Information
VERS.                      2.0: CWLS Log ASCII Standard - VERSION 2.0
WRAP.                       NO: One line per depth step
~Well Information Block
STRT.FT               483.0000: 
STOP.FT              1702.5000: 
STEP.FT                 0.2500: 
NULL.                -999.2500: 
COMP.          Pioneer Natural Resources: COMPANY
WELL.            Mad Dog 42-31: WELL
FLD.           Purgatorie River: FIELD
LOC.           2064' FNL & 479' FEL: LOCATION
PROV.                 Colorado: PROVINCE
CNTY.               Las Animas: COUNTRY
SRVC.                         : SERVICE COMPANY
DATE.          Sun Oct 10 04:26:24 2004: LOG DATE
UWI.           05 071 08195 00: UNIQUE WELL ID
~Curve Information Block
DEPT.FT            0 000 00 00: Depth
LTEN.lb                       : Surface Line Tension
SN.Ohm-m                      : IEL Short Normal
SP.mV                         : IEL Spontaneous Potential
DIR.Ohm-m                     : IEL Induction Resistivity
GR.GAPI                       : Gamma Ray
~Parameter Information Block
~A  Depth       LTEN         SN          SP         DIR          GR     
# ...
   959.0000    649.7108     18.8402   -209.3292     14.8601    137.8448
   959.2500    650.9044     20.2282   -207.8757     15.2377    134.4672
   959.5000    650.9639     21.6061   -206.8095     15.5696    127.8804
   959.7500    649.9908     22.9481   -206.2076     15.9215    123.3224
   960.0000    648.5641     24.2420   -206.0765     16.3698    117.8570
   960.2500    647.4215     25.4909   -206.3609     16.9708    115.2809
   960.5000    646.8584     26.7098   -206.9668     17.7360    112.0739
   960.7500    646.7745     27.9036   -207.7908     18.6158    109.9560
   961.0000    647.0895     29.0268   -208.7426     19.4887    107.0126
   961.2500    647.8210     29.9521   -209.7631     20.1718    105.3228
   961.5000    648.8394     30.4836   -210.8216     20.4733    102.3976
   961.7500    649.6321     30.4246   -211.9016     20.2742     99.5090
   962.0000    649.4711     29.6651   -212.9821     19.5836     93.9992
   962.2500    647.9866     28.2332   -214.0316     18.5258     90.9047
   962.5000    645.5300     26.2847   -214.9977     17.2789     90.2592
   962.7500    642.9207     24.0465   -215.8177     16.0086     93.6270
   963.0000    641.0412     21.7448   -216.4289     14.8241    104.3537
   963.2500    640.5495     19.5489   -216.7742     13.7688    114.5863
   963.5000    641.4288     17.5478   -216.8155     12.8395    132.7696
   963.7500    642.7859     15.7657   -216.5383     12.0198    145.0954
   964.0000    643.7645     14.2022   -215.9658     11.2974    159.9045
   964.2500    644.7967     12.8677   -215.1646     10.6647    165.3786
   964.5000    647.2142     11.7876   -214.2444     10.1129    166.5689
   964.7500    651.2871     10.9766   -213.3481      9.6344    164.3365
   965.0000    655.3442     10.4083   -212.6304      9.2309    160.5796
   965.2500    657.3803     10.0079   -212.2269      8.9117    159.5149
   965.5000    657.1755      9.6777   -212.2228      8.6830    160.4873
   965.7500    656.5341      9.3381   -212.6322      8.5345    162.0950
   966.0000    657.5695      8.9565   -213.3948      8.4376    164.9062
   966.2500    660.5757      8.5463   -214.3872      8.3545    166.9836
   966.5000    663.4040      8.1453   -215.4436      8.2559    170.0669
   966.7500    663.3079      7.7914   -216.3943      8.1344    171.1886
   967.0000    659.6420      7.5112   -217.0822      8.0056    169.6655
   967.2500    654.3211      7.3195   -217.3962      7.8970    166.3681
   967.5000    649.7426      7.2230   -217.2774      7.8313    159.6935
   967.7500    647.0208      7.2220   -216.7323      7.8142    155.4551
   968.0000    646.1169      7.3099   -215.8283      7.8318    151.1260
   968.2500    646.4371      7.4714   -214.6940      7.8595    150.1348
   968.5000    646.8663      7.6845   -213.4964      7.8787    151.6925
   968.7500    646.2658      7.9268   -212.4150      7.8892    154.3621
   969.0000    644.6129      8.1796   -211.6094      7.9044    159.5317
   969.2500    643.0060      8.4257   -211.1857      7.9378    163.0186
   969.5000    642.1351      8.6447   -211.1728      7.9890    167.2686
   969.7500    641.4710      8.8143   -211.5211      8.0422    168.9311
   970.0000    640.4584      8.9211   -212.1231      8.0746    169.3775
   970.2500    639.8099      8.9693   -212.8398      8.0698    168.7081
   970.5000    640.9023      8.9770   -213.5405      8.0286    167.1665
   970.7500    644.1445      8.9600   -214.1314      7.9717    165.8236
   971.0000    648.2860      8.9169   -214.5721      7.9313    162.8545
   971.2500    651.3677      8.8272   -214.8754      7.9366    160.4832
   971.5000    652.5418      8.6675   -215.1055      8.0011    158.0681
   971.7500    652.8387      8.4360   -215.3546      8.1181    158.0040
   972.0000    653.8705      8.1693   -215.7340      8.2674    159.3502
   972.2500    656.0104      7.9381   -216.3441      8.4275    159.7253
   972.5000    658.2421      7.8201   -217.2511      8.5868    157.6478
   972.7500    659.5905      7.8670   -218.4558      8.7458    154.7115
   973.0000    660.1549      8.0859   -219.8760      8.9097    150.1243
   973.2500    660.5762      8.4407   -221.3437      9.0811    148.2930
   973.5000    660.8141      8.8687   -222.6396      9.2563    148.5160
   973.7500    659.8636      9.3024   -223.5398      9.4294    150.5718
   974.0000    656.7523      9.6898   -223.8807      9.5958    155.7652
   974.2500    651.6863     10.0088   -223.6100      9.7526    159.9855
   974.5000    646.3118     10.2719   -222.8025      9.8960    166.0020
   974.7500    642.7831     10.5174   -221.6488     10.0216    168.8960
   975.0000    642.0674     10.7947   -220.3957     10.1339    170.1328
   975.2500    643.0296     11.1458   -219.2937     10.2563    168.1458
   975.5000    643.6015     11.5881   -218.5348     10.4299    160.5589
   975.7500    642.9200     12.1007   -218.2166     10.6945    153.4523
   976.0000    642.0200     12.6243   -218.3335     11.0652    143.7107
   976.2500    642.4989     13.0816   -218.7887     11.5167    140.2599
   976.5000    644.8195     13.4151   -219.4189     11.9887    141.2790
   976.7500    648.0012     13.6226   -220.0315     12.4171    145.1431
   977.0000    650.7498     13.7671   -220.4467     12.7726    152.3311
   977.2500    652.6202     13.9537   -220.5269     13.0700    156.0991
   977.5000    654.0872     14.2869   -220.2019     13.3415    158.0404
   977.7500    655.7050     14.8351   -219.4769     13.6069    156.4908
   978.0000    657.3127     15.6177   -218.4287     13.8738    150.8241
   978.2500    658.2341     16.6094   -217.1845     14.1568    146.0121
   978.5000    658.3021     17.7480   -215.9017     14.4848    139.3728
   978.7500    658.2120     18.9448   -214.7435     14.8858    136.0324
   979.0000    658.5750     20.1028   -213.8575     15.3697    132.4823
   979.2500    659.2153     21.1421   -213.3533     15.9298    130.5139
   979.5000    659.6888     22.0213   -213.2922     16.5541    127.4682
   979.7500    659.9227     22.7396   -213.6789     17.2300    125.5661
   980.0000    660.1865     23.3227   -214.4633     17.9296    124.0897
   980.2500    660.7986     23.8027   -215.5501     18.5993    124.5569
   980.5000    661.6291     24.2052   -216.8212     19.1789    126.7639
   980.7500    661.7252     24.5487   -218.1514     19.6524    127.9664
   981.0000    660.1688     24.8579   -219.4315     20.0720    127.4966
   981.2500    657.6627     25.1779   -220.5754     20.5094    125.6425
   981.5000    656.2517     25.5682   -221.5301     20.9573    122.0752
   981.7500    656.9071     26.0678   -222.2686     21.2763    120.1132
   982.0000    658.4205     26.6507   -222.7936     21.2668    118.0957
   982.2500    659.3782     27.2138   -223.1266     20.8374    116.5749
   982.5000    660.2457     27.6152   -223.3045     20.0913    111.9318
   982.7500    662.4251     27.7363   -223.3704     19.2329    106.6115
   983.0000    665.7893     27.5199   -223.3667     18.4185     96.5411
   983.2500    668.3293     26.9635   -223.3281     17.6999     90.3424
   983.5000    668.2684     26.0864   -223.2728     17.0474     85.2821
   983.7500    665.8195     24.9084   -223.1971     16.4039     85.8951
   984.0000    662.6605     23.4559   -223.0782     15.7284     92.6721
   984.2500    660.0449     21.7812   -222.8673     15.0167    100.0578
   984.5000    657.8203     19.9693   -222.5050     14.2923    112.9680
   984.7500    655.2734     18.1267   -221.9320     13.5866    121.5730
   985.0000    652.4276     16.3630   -221.1088     12.9273    133.6001
   985.2500    650.1678     14.7766   -220.0338     12.3355    141.0545
   985.5000    649.4056     13.4410   -218.7570     11.8178    151.1263
   985.7500    650.5090     12.3905   -217.3828     11.3547    156.5041
   986.0000    653.1914     11.6113   -216.0534     10.9030    161.7114
   986.2500    656.4799     11.0500   -214.9269     10.4222    163.4925
   986.5000    659.0076     10.6353   -214.1494      9.9077    165.1265
   986.7500    659.7971     10.2994   -213.8186      9.3990    166.3792
