~Version Information
VERS.                      2.0: CWLS Log ASCII Standard - VERSION 2.0
WRAP.                       NO: One line per depth step
~Well Information Block
STRT.FT                 0.0000: 
STOP.FT              2234.2500: 
STEP.FT                 0.2500: 
NULL.                -999.2500: 
COMP.          Pioner Natural Resources: COMPANY
WELL.          Casablanca 11-28 Tr: WELL
FLD.           Purgatoire River: FIELD
LOC.           422' FNL & 215' FWL--: LOCATION
PROV.                 Colorado: PROVINCE
CNTY.               Las Animas: COUNTRY
SRVC.                         : SERVICE COMPANY
DATE.          Fri Mar 11 13:02:46 2005: LOG DATE
UWI.           005 071 08314  : UNIQUE WELL ID
~Curve Information Block
DEPT.FT            0 000 00 00: Depth
CCL.                          : Casing Collar Locator
TT3.usec                      : CBL 3' Travel Time
AMP3.mV                       : CBL 3' Amplitude
AMP5.mV                       : CBL 5' Amplitude
GR.GAPI                       : Gamma Ray
~Parameter Information Block
~A  Depth       CCL         TT3         AMP3        AMP5         GR     
# ...
   728.0000      0.0000    770.8130      6.1159      0.4741     94.9837
   728.2500      0.0000    770.8372      6.1212      0.4741     94.8463
   728.5000      0.0000    770.9699      6.1527      0.7352     95.6888
   728.7500      0.0000    771.2722      6.1965      1.1705     98.1073
   729.0000      0.0000    771.8338      6.2348      0.7352    101.1377
   729.2500      0.0000    772.8635      6.2573      0.7352    103.5333
   729.5000      0.0000    774.7361      6.2689      1.3446    105.1122
   729.7500      0.0000    777.7628      6.2843      0.9093    106.4973
   730.0000      0.0000    781.6349      6.3125     -0.0482    107.8326
   730.2500      0.0000    785.0765      6.3445      0.8223    108.4093
   730.5000      0.0000    786.4034      6.3556      1.1705    107.6937
   730.7500      0.0000    784.7656      6.3218      0.5611    106.1916
   731.0000      0.0000    780.8636      6.2331      0.1259    105.0022
   731.2500      0.0000    776.3753      6.0960     -0.3964    104.9631
   731.5000      0.0000    772.7463      5.9283      0.1259    106.2908
   731.7500      0.0000    770.5002      5.7567      0.3000    108.3800
   732.0000      0.0000    769.3972      5.6154     -0.0482    109.9320
   732.2500      0.0000    768.9316      5.5368     -0.0482    109.9525
   732.5000      0.0000    768.6478      5.5349      0.2129    108.6700
   732.7500      0.0000    768.1784      5.5967      0.2129    107.2345
   733.0000      0.0000    767.1594      5.6912      0.3000    106.9360
   733.2500      0.0000    765.2885      5.7878      0.1259    108.8830
   733.5000      0.0000    762.6806      5.8697      0.2129    113.6091
   733.7500      0.0000    760.2116      5.9326      0.1259    120.3221
   734.0000      0.0000    759.0577      5.9725      0.0389    126.8429
   734.2500      0.0000    759.4242      5.9753     -0.0482    130.9290
   734.5000      0.0000    759.7928      5.9240      0.3870    131.8945
   734.7500      0.0000    757.9423      5.8199      0.5611    130.8600
   735.0000      0.0000    753.1800      5.6912      0.9093    129.5070
   735.2500      0.0000    747.7255      5.5730      0.9093    128.7747
   735.5000      0.0000    745.4039      5.4826      1.0834    128.4667
   735.7500      0.0000    748.2903      5.4162      0.4741    127.5219
   736.0000      0.0000    754.8183      5.3666      0.2129    124.7037
   736.2500      0.0000    761.4992      5.3306     -0.0482    119.6795
   736.5000      0.0000    765.8632      5.3010     -0.0482    113.5936
   736.7500      0.0000    767.3104      5.2611      0.3870    108.1373
   737.0000      0.0000    766.0015      5.1958     -0.4834    103.9578
   737.2500      0.0000    761.8650      5.1030     -0.2223    100.2798
   737.5000      0.0000    754.5706      4.9905     -0.2223     96.0787
   737.7500      0.0000    744.0109      4.8698     -0.8316     91.3044
   738.0000      0.0000    730.8683      4.7572     -0.2223     86.9127
   738.2500      0.0000    716.9919      4.6723     -1.2668     84.0720
   738.5000      0.0000    704.9122      4.6283     -0.9187     83.4673
   738.7500      0.0000    696.4965      4.6241     -0.8316     84.8859
   739.0000      0.0000    691.9961      4.6465     -0.6575     87.0359
   739.2500      0.0000    690.4778      4.6818     -0.6575     88.0969
   739.5000      0.0000    691.0292      4.7255     -0.1352     87.0300
   739.7500      0.0000    693.6917      4.7850      0.1259     84.5460
   740.0000      0.0000    699.6376      4.8707     -0.4834     82.7168
   740.2500      0.0000    710.3243      4.9804     -0.3093     83.3003
   740.5000      0.0000    725.8461      5.0931     -0.3093     86.0317
   740.7500      0.0000    743.8839      5.1816      0.0389     88.7210
   741.0000      0.0000    760.7474      5.2352     -0.1352     89.3711
   741.2500      0.0000    773.7036      5.2669      0.2129     87.9459
   741.5000      0.0000    782.2035      5.3010      0.4741     85.8473
   741.7500      0.0000    787.0511      5.3551      0.3000     84.2337
   742.0000      0.0000    788.8184      5.4355      0.7352     83.2424
   742.2500      0.0000    787.1097      5.5438      0.8223     82.4239
   742.5000      0.0000    781.0813      5.6822      1.2575     81.4739
   742.7500      0.0000    770.4230      5.8500      1.1705     80.6774
   743.0000      0.0000    755.7100      6.0419      1.6057     80.7219
   743.2500      0.0000    737.6944      6.2529      1.1705     81.9486
   743.5000      0.0000    716.4595      6.4790      0.5611     83.8689
   743.7500      0.0000    692.1403      6.7110      1.4316     85.5607
   744.0000      0.0000    667.4101      6.9280      1.7798     86.3003
   744.2500      0.0000    648.7427      7.1021      2.2150     85.7467
   744.5000      0.0000    643.3018      7.2138      2.8243     84.0056
   744.7500      0.0000    653.1226      7.2656      2.9114     81.8330
   745.0000      0.0000    672.3911      7.2848      3.1725     80.3168
   745.2500      0.0000    690.8640      7.3086      3.3466     79.8223
   745.5000      0.0000    700.1144      7.3617      3.8689     79.4707
   745.7500      0.0000    697.5957      7.4417      3.6948     78.1217
   746.0000      0.0000    687.4790      7.5262      3.5207     75.7448
   746.2500      0.0000    679.1428      7.5930      3.0855     73.5066
   746.5000      0.0000    682.5870      7.6319      3.2596     72.5700
   746.7500      0.0000    701.6476      7.6427      3.1725     73.0250
   747.0000      0.0000    730.6838      7.6266      2.5632     74.0301
   747.2500      0.0000    758.9385      7.5827      2.7373     74.8554
   747.5000      0.0000    778.4515      7.5097      2.3021     75.5137
   747.7500      0.0000    787.9003      7.4115      2.5632     76.3955
   748.0000      0.0000    790.5436      7.3008      3.0855     77.8174
   748.2500      0.0000    790.2438      7.1981      2.1280     80.2104
   748.5000      0.0000    789.1516      7.1191      1.8668     84.1353
   748.7500      0.0000    787.6583      7.0612      1.7798     89.5105
   749.0000      0.0000    785.5296      7.0038      2.6503     95.0279
   749.2500      0.0000    782.8893      6.9302      1.6057     98.9243
   749.5000      0.0000    780.3866      6.8478      1.3446    100.7869
   749.7500      0.0000    778.6414      6.7787      2.1280    102.7082
   750.0000      0.0000    777.5883      6.7295      1.6057    108.3402
   750.2500      0.0000    776.4487      6.6762      1.1705    120.3241
   750.5000      0.0000    774.4336      6.5830      0.8223    138.1571
   750.7500      0.0000    771.2266      6.4321      0.8223    158.2439
   751.0000      0.0000    766.8268      6.2399      0.7352    176.0880
   751.2500      0.0000    761.6296      6.0485      0.5611    188.7543
   751.5000      0.0000    757.0346      5.8987      1.0834    195.6137
   751.7500      0.0000    755.1164      5.8060      0.5611    197.3963
   752.0000      0.0000    756.7574      5.7561     -0.0482    195.2111
   752.2500      0.0000    760.3927      5.7236     -0.0482    190.3588
   752.5000      0.0000    763.2789      5.6937      0.9093    184.4212
   752.7500      0.0000    763.9523      5.6698      0.9093    179.1315
   753.0000      0.0000    763.2578      5.6625      0.7352    175.8407
   753.2500      0.0000    763.2594      5.6700      0.3870    174.8342
   753.5000      0.0000    765.4031      5.6711      0.2129    175.2215
   753.7500      0.0000    769.6877      5.6410      0.3000    175.6866
   754.0000      0.0000    775.2260      5.5741      0.7352    175.4010
   754.2500      0.0000    780.9881      5.4865      0.3000    174.1966
   754.5000      0.0000    785.9454      5.3981      0.3870    172.0619
   754.7500      0.0000    789.2131      5.3192     -0.8316    168.9629
   755.0000      0.0000    790.5615      5.2561     -0.8316    165.2340
   755.2500      0.0000    790.5243      5.2263      2.0409    161.6882
   755.5000      0.0000    789.7852      5.2621     -0.4834    159.1753
   755.7500      0.0000    788.7358      5.3888      0.3000    158.1625
