~Version Information
VERS.                      2.0: CWLS Log ASCII Standard - VERSION 2.0
WRAP.                       NO: One line per depth step
~Well Information Block
STRT.FT                 0.0000: 
STOP.FT              2384.7500: 
STEP.FT                 0.2500: 
NULL.                -999.2500: 
COMP.          Petrogulf Corporation: COMPANY
WELL.           McDaniel 9-34V: WELL
FLD.           Purgatorie River: FIELD
LOC.           620' FSL & 1800' FEL: LOCATION
STAT.                 Colorado: State
CNTY.               Las Animas: COUNTY
CTRY. USA : Country
SECT. 9 : Section
TOWN. 33S : Township
RANG. 67W : Range
SRVC.                Patterson: SERVICE COMPANY
DATE.          Thu Nov 10 12:28:18 2005: LOG DATE
API. 05-071-08333                         : UNIQUE WELL ID
~Curve Information Block
DEPT.FT            0 000 00 00: Depth
AMP3.mV                       : CBL 3' Amplitude
CCL.                          : Casing Collar Locator
GR.GAPI                       : Gamma Ray
TT3.usec                      : CBL 3' Travel Time
~Parameter Information Block
~A  Depth       AMP3        CCL          GR         TT3     
# ...
   469.0000      8.1952      0.0000     77.0177    432.2697
   469.2500      8.2311      0.0000     77.5427    397.2268
   469.5000      8.3117      0.0000     77.3682    376.8681
   469.7500      8.3738      0.0000     77.5224    369.0950
   470.0000      8.3944      0.0000     78.3726    366.5052
   470.2500      8.3889      0.0000     79.5277    365.1274
   470.5000      8.3791      0.0000     80.4011    363.3139
   470.7500      8.4110      0.0000     80.8843    359.3338
   471.0000      8.5502      0.0000     81.5672    351.8373
   471.2500      8.8030      0.0000     83.2639    342.2565
   471.5000      9.0741      0.0000     86.1866    334.1819
   471.7500      9.2549      0.0000     89.5157    329.4859
   472.0000      9.3246      0.0000     91.7635    327.3026
   472.2500      9.3319      0.0000     91.6176    326.2526
   472.5000      9.3269      0.0000     88.7941    325.6806
   472.7500      9.3525      0.0000     84.4847    325.3744
   473.0000      9.4442      0.0000     80.8422    325.2096
   473.2500      9.5905      0.0000     79.5527    325.0746
   473.5000      9.7250      0.0000     80.6836    324.9017
   473.7500      9.7943      0.0000     82.9168    324.7041
   474.0000      9.8059      0.0000     84.7551    324.5528
   474.2500      9.7717      0.0000     85.3477    324.5024
   474.5000      9.6712      0.0000     84.3274    324.5330
   474.7500      9.5169      0.0000     81.5794    324.5599
   475.0000      9.3932      0.0000     77.7533    324.4984
   475.2500      9.3863      0.0000     74.7215    324.3062
   475.5000      9.5007      0.0000     74.6876    324.0079
   475.7500      9.6723      0.0000     78.3359    323.7059
   476.0000      9.8275      0.0000     83.8708    323.5123
   476.2500      9.9112      0.0000     88.2379    323.4515
   476.5000      9.9050      0.0000     89.7277    323.4685
   476.7500      9.8286      0.0000     89.2906    323.5080
   477.0000      9.7202      0.0000     88.9500    323.5450
   477.2500      9.6204      0.0000     89.1981    323.5739
   477.5000      9.5559      0.0000     88.6291    323.6008
   477.7500      9.5172      0.0000     86.1754    323.6273
   478.0000      9.4476      0.0000     82.8718    323.6310
   478.2500      9.2797      0.0000     80.8642    323.5933
   478.5000      8.9962      0.0000     81.0788    323.5524
   478.7500      8.6426      0.0000     82.4695    323.5888
   479.0000      8.2931      0.0000     83.3841    323.7460
   479.2500      8.0101      0.0000     83.0612    323.9743
   479.5000      7.8058      0.0000     81.7458    324.1510
   479.7500      7.6490      0.0000     80.0307    324.1899
   480.0000      7.5181      0.0000     78.6129    324.1476
   480.2500      7.4035      0.0000     78.3844    324.2030
   480.5000      7.2642      0.0000     79.9527    324.6779
   480.7500      7.0599      0.0000     82.7423    326.4237
   481.0000      6.8240      0.0000     85.2765    331.1174
   481.2500      6.6484      0.0000     86.8923    339.8523
   481.5000      6.6008      0.0000     88.6629    350.6765
   481.7500      6.6520      0.0000     92.0054    359.5995
   482.0000      6.6913      0.0000     96.6460    364.6391
   482.2500      6.6616      0.0000    100.5051    366.6536
   482.5000      6.6276      0.0000    101.7367    367.0794
   482.7500      6.6558      0.0000    100.5807    366.7968
   483.0000      6.6939      0.0000     98.8099    366.2443
   483.2500      6.6139      0.0000     97.6425    365.5841
   483.5000      6.3505      0.0000     96.8848    364.8431
   483.7500      5.9795      0.0000     95.8841    363.9940
   484.0000      5.6386      0.0000     94.3747    362.8709
   484.2500      5.3928      0.0000     92.3621    360.7596
   484.5000      5.2269      0.0000     89.8815    356.0556
   484.7500      5.1433      0.0000     87.0528    347.6121
   485.0000      5.1743      0.0000     84.0722    337.2242
   485.2500      5.2788      0.0000     81.1250    328.7527
   485.5000      5.3311      0.0000     78.4597    324.1196
   485.7500      5.2332      0.0000     76.4821    322.3541
   486.0000      4.9850      0.0000     75.5287    321.8820
   486.2500      4.6750      0.0000     75.4417    321.8186
   486.5000      4.4211      0.0000     75.5662    321.8206
   486.7500      4.2902      0.0000     75.2832    321.8193
   487.0000      4.2706      0.0000     74.5287    321.8650
   487.2500      4.3126      0.0000     73.8060    321.9814
   487.5000      4.3903      0.0000     73.7761    322.1403
   487.7500      4.5043      0.0000     74.8910    322.4966
   488.0000      4.6286      0.0000     77.3802    323.9247
   488.2500      4.6789      0.0000     81.2862    328.1656
   488.5000      4.5335      0.0000     86.0763    335.8875
   488.7500      4.1418      0.0000     90.2997    343.9142
   489.0000      3.5823      0.0000     92.2055    347.6301
   489.2500      2.9200      0.0000     91.1435    346.9468
   489.5000      2.1845      0.0000     88.1719    345.9890
   489.7500      1.5465      0.0000     85.0252    348.7624
   490.0000      1.2420      0.0000     82.5915    357.5300
   490.2500      1.3572      2.0000     80.6649    371.4515
   490.5000      1.7910     -2.0000     78.9758    386.2990
   490.7500      2.3538      0.0000     77.8226    398.5583
   491.0000      2.9093      0.0000     77.4155    411.0039
   491.2500      3.4392      0.0000     76.9984    432.0279
   491.5000      4.0421      0.0000     75.0894    464.6906
   491.7500      4.8031      0.0000     70.6951    498.3183
   492.0000      5.5292      0.0000     64.2387    518.7278
   492.2500      5.9194      0.0000     57.3238    518.8375
   492.5000      5.9690      0.0000     51.6789    497.7758
   492.7500      5.8165      0.0000     48.3903    468.5637
   493.0000      5.4944      0.0000     47.8664    456.2726
   493.2500      5.0402      0.0000     49.9485    468.8348
   493.5000      4.6430      0.0000     53.7070    483.3940
   493.7500      4.5904      0.0000     57.4303    479.8460
   494.0000      4.9977      0.0000     59.3407    473.6156
   494.2500      5.6236      0.0000     58.5714    492.0187
   494.5000      6.0973      0.0000     55.5578    532.6937
   494.7500      6.2891      0.0000     51.7047    564.3208
   495.0000      6.3682      0.0000     48.6349    558.6389
   495.2500      6.5524      0.0000     47.3565    516.7565
   495.5000      6.8839      0.0000     47.8350    470.6027
   495.7500      7.2322      0.0000     49.2799    455.0952
   496.0000      7.4478      0.0000     50.8018    477.8790
   496.2500      7.5014      0.0000     51.8268    516.0461
   496.5000      7.5013      0.0000     52.1131    537.1837
   496.7500      7.5431      0.0000     51.7323    528.0087
   497.0000      7.5786      0.0000     51.1443    508.7157
   497.2500      7.5072      0.0000     51.1132    512.2415
   497.5000      7.3209      0.0000     52.3125    544.6724
   497.7500      7.1196      0.0000     54.9005    581.4865
   498.0000      7.0337      0.0000     58.5131    600.4585
   498.2500      7.1315      0.0000     62.5950    598.0582
   498.5000      7.3527      0.0000     66.5479    584.5364
   498.7500      7.5358      0.0000     69.6699    577.7864
   499.0000      7.5675      0.0000     71.3117    586.9429
   499.2500      7.4990      0.0000     71.3119    600.7052
   499.5000      7.4567      0.0000     70.2854    605.6964
   499.7500      7.4728      0.0000     69.4866    603.2103
   500.0000      7.4638      0.0000     70.2693    600.2640
   500.2500      7.3536      0.0000     73.3820    599.5366
   500.5000      7.1767      0.0000     78.5462    600.6678
   500.7500      7.0420      0.0000     84.6579    602.7305
   501.0000      6.9918      0.0000     90.3823    604.4244
   501.2500      6.9323      0.0000     94.6730    605.7147
   501.5000      6.7454      0.0000     97.0999    608.5951
   501.7500      6.4421      0.0000     97.9070    613.7860
   502.0000      6.1401      0.0000     97.7027    619.1104
   502.2500      5.9254      0.0000     96.9777    621.4956
