~Version Information
VERS.                      2.0: CWLS Log ASCII Standard - VERSION 2.0
WRAP.                       NO: One line per depth step
~Well Information Block
STRT.FT               400.0000: 
STOP.FT              2201.0000: 
STEP.FT                 0.2500: 
NULL.                -999.2500: 
COMP.          Evergreen Operating Corporation: COMPANY
WELL.            Triumph 13-10: WELL
FLD.           Purgatorie River: FIELD
LOC.           1551' FSL & 522' FWL: LOCATION
PROV.                 Colorado: PROVINCE
CNTY.               Las Animas: COUNTRY
SRVC.                Patterson: SERVICE COMPANY
DATE.          Fri Jul 23 20:28:37 2004: LOG DATE
UWI.           05 071 08108 00: UNIQUE WELL ID
~Curve Information Block
DEPT.FT            0 000 00 00: Depth
SN.Ohm-m                      : IEL Short Normal
SP.mV                         : IEL Spontaneous Potential
DIR.Ohm-m                     : IEL Induction Resistivity
GR.GAPI                       : Gamma Ray
~Parameter Information Block
~A  Depth        SN          SP         DIR          GR     
   400.0000   2000.0000   2000.0000     10.3173     70.2859
   400.2500   2000.0000   2000.0000     10.5263     70.5432
   400.5000   2000.0000   2000.0000     10.7444     72.2813
   400.7500   2000.0000   2000.0000     10.8878     74.5051
   401.0000   2000.0000   2000.0000     10.8972     78.5125
   401.2500   2000.0000   2000.0000     10.7708     80.3392
   401.5000   2000.0000   2000.0000     10.5637     79.3760
   401.7500   2000.0000   2000.0000     10.3637     75.7587
   402.0000   2000.0000   2000.0000     10.2615     67.4771
   402.2500   2000.0000   2000.0000     10.3216     61.7592
   402.5000   2000.0000   2000.0000     10.5501     55.1298
   402.7500   2000.0000   2000.0000     10.8554     52.4773
   403.0000   2000.0000   2000.0000     11.0372     50.8774
   403.2500   2000.0000   2000.0000     10.8762     50.8707
   403.5000   2000.0000   2000.0000     10.3175     51.3520
   403.7500   2000.0000   2000.0000      9.5346     51.5900
   404.0000   2000.0000   2000.0000      8.7742     51.9393
   404.2500   2000.0000   2000.0000      8.2025     52.5300
   404.5000   2000.0000   2000.0000      7.8939     54.3025
   404.7500   2000.0000   2000.0000      7.8931     55.9014
   405.0000   2000.0000   2000.0000      8.2829     58.2718
   405.2500   2000.0000   2000.0000      9.2355     59.5559
   405.5000   2000.0000   2000.0000     11.0146     60.9787
   405.7500   2000.0000   2000.0000     13.6983     61.7153
   406.0000   2000.0000   2000.0000     15.9911     56.6055
   406.2500   2000.0000   2000.0000     14.9559     57.6662
   406.5000   2000.0000   2000.0000     11.2197     60.3010
   406.7500   2000.0000   2000.0000      7.9963     62.8968
   407.0000   2000.0000   2000.0000      6.1188     68.0911
   407.2500   2000.0000   2000.0000      5.2273     72.4822
   407.5000   2000.0000   2000.0000      4.9803     80.5272
   407.7500   2000.0000   2000.0000      5.1986     86.5784
   408.0000   2000.0000   2000.0000      5.7680     95.4752
   408.2500   2000.0000   2000.0000      6.4619    100.5356
   408.5000   2000.0000   2000.0000      6.7478    106.2929
   408.7500   2000.0000   2000.0000      6.1230    109.0110
   409.0000   2000.0000   2000.0000      4.9166    111.5571
   409.2500   2000.0000   2000.0000      3.8413    112.0702
   409.5000   2000.0000   2000.0000      3.1905    110.7309
   409.7500   2000.0000   2000.0000      2.9628    108.6219
   410.0000   2000.0000   2000.0000      3.1465    104.9468
   410.2500   2000.0000   2000.0000      3.8580    103.2503
   410.5000   2000.0000   2000.0000      5.5193    103.3956
   410.7500   2000.0000   2000.0000      9.5906    105.5901
   411.0000   2000.0000   2000.0000     24.8000    111.1584
   411.2500   2000.0000   2000.0000 100000.0000    115.2047
   411.5000   2000.0000   2000.0000 100000.0000    119.5122
   411.7500   2000.0000   2000.0000 100000.0000    120.3860
   412.0000   2000.0000   2000.0000 100000.0000    118.7389
   412.2500   2000.0000   2000.0000 100000.0000    116.3224
   412.5000   2000.0000   2000.0000 100000.0000    111.9257
   412.7500   2000.0000   2000.0000 100000.0000    108.8691
   413.0000   2000.0000   2000.0000 100000.0000    104.3771
   413.2500   2000.0000   2000.0000    289.2264    101.6981
   413.5000   2000.0000   2000.0000     73.6585     98.9033
   413.7500   2000.0000   2000.0000     54.7774     98.2190
   414.0000   2000.0000   2000.0000     50.2355     99.0205
   414.2500   2000.0000   2000.0000     48.9016    100.5881
   414.5000   2000.0000   2000.0000     48.1304    104.2195
   414.7500   2000.0000   2000.0000     47.4959    107.2984
   415.0000   2000.0000   2000.0000     47.2421    112.0275
   415.2500   2000.0000   2000.0000     47.6139    114.5325
   415.5000   2000.0000   2000.0000     48.5487    116.7868
   415.7500   2000.0000   2000.0000     49.4362    117.7912
   416.0000   2000.0000   2000.0000     49.0422    120.1727
   416.2500   2000.0000   2000.0000     46.2994    122.9150
   416.5000   2000.0000   2000.0000     41.5547    128.2848
   416.7500   2000.0000   2000.0000     36.3223    131.8905
   417.0000   2000.0000   2000.0000     31.8410    136.1733
   417.2500   2000.0000   2000.0000     28.4963    137.9766
   417.5000   2000.0000   2000.0000     26.1459    138.9545
   417.7500   2000.0000   2000.0000     24.5105    138.4682
   418.0000   2000.0000   2000.0000     23.3746    136.4430
   418.2500   2000.0000   2000.0000     22.6437    134.6715
   418.5000   2000.0000   2000.0000     22.3142    131.8009
   418.7500   2000.0000   2000.0000     22.4055    129.5743
   419.0000   2000.0000   2000.0000     22.8969    125.5748
   419.2500   2000.0000   2000.0000     23.6989    122.9932
   419.5000   2000.0000   2000.0000     24.6616    120.7391
   419.7500   2000.0000   2000.0000     25.6130    120.5797
   420.0000   2000.0000   2000.0000     26.3969    121.0017
   420.2500   2000.0000   2000.0000     26.8929    120.5674
   420.5000   2000.0000   2000.0000     27.0307    118.0209
   420.7500   2000.0000   2000.0000     26.8059    115.5106
   421.0000   2000.0000   2000.0000     26.2805    111.9485
   421.2500   2000.0000   2000.0000     25.5537    110.2718
   421.5000   2000.0000   2000.0000     24.7247    109.0171
   421.7500   2000.0000   2000.0000     23.8682    109.1065
   422.0000   2000.0000   2000.0000     23.0283    111.3679
   422.2500   2000.0000   2000.0000     22.2239    114.8396
   422.5000   2000.0000   2000.0000     21.4601    123.0660
   422.7500   2000.0000   2000.0000     20.7405    129.8667
   423.0000   2000.0000   2000.0000     20.0728    140.2265
   423.2500   2000.0000   2000.0000     19.4665    146.3759
   423.5000   2000.0000   2000.0000     18.9258    153.8475
   423.7500   2000.0000   2000.0000     18.4467    157.6985
   424.0000   2000.0000   2000.0000     18.0177    162.0082
   424.2500   2000.0000   2000.0000     17.6258    163.9296
   424.5000   2000.0000   2000.0000     17.2607    165.3412
   424.7500   2000.0000   2000.0000     16.9157    165.5300
   425.0000   2000.0000   2000.0000     16.5849    165.8051
   425.2500   2000.0000   2000.0000     16.2625    166.6689
   425.5000   2000.0000   2000.0000     15.9481    169.1039
   425.7500   2000.0000   2000.0000     15.6545    170.8610
   426.0000   2000.0000   2000.0000     15.4115    172.2897
   426.2500   2000.0000   2000.0000     15.2561    171.7865
   426.5000   2000.0000   2000.0000     15.2162    168.2029
   426.7500   2000.0000   2000.0000     15.2953    163.9920
   427.0000   2000.0000   2000.0000     15.4705    156.1872
   427.2500   2000.0000   2000.0000     15.7013    151.2707
   427.5000   2000.0000   2000.0000     15.9435    146.5920
   427.7500   2000.0000   2000.0000     16.1566    146.0225
   428.0000   2000.0000   2000.0000     16.3075    148.4193
   428.2500   2000.0000   2000.0000     16.3790    150.8593
   428.5000   2000.0000   2000.0000     16.3844    153.2771
   428.7500   2000.0000   2000.0000     16.3747    153.2885
   429.0000   2000.0000   2000.0000     16.4252    151.1515
   429.2500   2000.0000   2000.0000     16.6040    149.0478
   429.5000   2000.0000   2000.0000     16.9426    146.3780
   429.7500   2000.0000   2000.0000     17.4248    145.4467
   430.0000   2000.0000   2000.0000     18.0005    145.1579
   430.2500   2000.0000   2000.0000     18.6156    145.1816
   430.5000   2000.0000   2000.0000     19.2410    144.6366
   430.7500   2000.0000   2000.0000     19.8805    143.5847
   431.0000   2000.0000   2000.0000     20.5601    140.8540
   431.2500   2000.0000   2000.0000     21.3107    138.3088
   431.5000   2000.0000   2000.0000     22.1569    133.3283
   431.7500   2000.0000   2000.0000     23.1099    129.1219
   432.0000   2000.0000   2000.0000     24.1673    121.7837
   432.2500   2000.0000   2000.0000     25.3173    116.8317
   432.5000   2000.0000   2000.0000     26.5474    110.5161
   432.7500   2000.0000   2000.0000     27.8490    107.4163
   433.0000   2000.0000   2000.0000     29.2139    104.4713
   433.2500   2000.0000   2000.0000     30.6244    103.4815
