~Version Information
 VERS.                                  2.0 : CWLS LAS VERSION
 WRAP.                                   NO : WRAPING MODE
 SWARE .                 MController 2.5.0J : SOFTWARE VERSION
~Well Information
 WELL.                         Leier 17-24V : WELL
 COMP.                Petrogulf Corporation : COMPANY
 FLD.                      Purgatoire River : FIELD
 LOC.                SE/NE Sec 17 T33S R67W : LOCATION
 DATE.                             09/21/05 : DATE(S) LOGGED
 SRVC.       BLANCO Geological Services LLC : SERVICE COMPANY
 STAT.                                   CO : STATE
 CNTY.                           Las Animas : COUNTY
 CTRY.                                  USA : COUNTRY
 API.                       05-071-08409-00 : API NUMBER
 STRT.FT                             1.00 : START DEPTH
 STOP.FT                            2455.00 : STOP DEPTH
 STEP.FT                               1.00 : DEPTH INCREMENT
 NULL.                                -9999 : NULL VALUE
~Curve information
 DEPTH.FT                                   :
 ROP.MIN/FT                                 :
 GAS.UNITS                                  :
~ASCII Log data
# ...
      1596.0         0.27         20.6 
      1597.0         0.23         20.5 
      1598.0         0.18         20.1 
      1599.0         0.20         19.8 
      1600.0         0.17         20.1 
      1601.0         0.17         19.7 
      1602.0         0.17         18.9 
      1603.0         0.17         19.5 
      1604.0         0.17         18.6 
      1605.0         0.20         19.0 
      1606.0         0.20         19.6 
      1607.0         0.37         19.4 
      1608.0         0.20         19.4 
      1609.0         0.20         19.6 
      1610.0         0.40         19.8 
      1611.0         0.32         19.7 
      1612.0         0.27         19.6 
      1613.0         0.37         19.7 
      1614.0         0.30         19.6 
      1615.0         0.27         19.4 
      1616.0         3.12         40.3 
      1617.0         0.30         28.7 
      1618.0         0.27         25.9 
      1619.0         0.33         25.2 
      1620.0         0.38         24.4 
      1621.0         0.67         22.7 
      1622.0         0.47         21.5 
      1623.0         0.23         20.1 
      1624.0         0.23         20.6 
      1625.0         0.20         20.4 
      1626.0         0.40         20.0 
      1627.0         0.37         19.9 
      1628.0         0.32         19.5 
      1629.0         0.33         19.6 
      1630.0         0.43         19.5 
      1631.0         0.40         19.4 
      1632.0         0.37         19.4 
      1633.0         0.37         19.5 
      1634.0         0.33         19.3 
      1635.0         0.48         19.3 
      1636.0         0.40         19.4 
      1637.0         0.33         19.3 
      1638.0         0.43         19.4 
      1639.0         0.23         19.3 
      1640.0         0.20         19.1 
      1641.0         0.23         19.1 
      1642.0         0.23         19.3 
      1643.0         0.23         19.2 
      1644.0         0.23         19.0 
      1645.0         0.23         19.2 
      1646.0         3.93         41.0 
      1647.0         0.30         25.5 
      1648.0         0.27         25.6 
      1649.0         0.27         25.0 
      1650.0         0.23         24.2 
      1651.0         0.23         23.5 
      1652.0         0.23         22.4 
      1653.0         0.23         22.2 
      1654.0         0.27         22.1 
      1655.0         0.28         21.7 
      1656.0         0.27         21.3 
      1657.0         0.27         20.7 
      1658.0         0.20         19.9 
      1659.0         0.27         20.2 
      1660.0         0.23         19.9 
      1661.0         0.37         19.8 
      1662.0         0.27         19.6 
      1663.0         0.33         19.7 
      1664.0         0.40         19.9 
      1665.0         0.33         19.6 
      1666.0         0.25         19.6 
      1667.0         0.20         19.3 
      1668.0         0.23         18.3 
      1669.0         0.37         19.0 
      1670.0         0.43         19.4 
      1671.0         0.40         19.2 
      1672.0         0.50         19.0 
      1673.0         0.43         18.9 
      1674.0         0.27         18.9 
      1675.0         0.30         18.6 
      1676.0         3.93         52.0 
      1677.0         0.33         24.2 
      1678.0         0.27         23.6 
      1679.0         0.23         23.4 
      1680.0         0.23         22.9 
      1681.0         0.33         22.6 
      1682.0         0.37         22.2 
      1683.0         0.33         21.9 
      1684.0         0.40         22.1 
      1685.0         0.32         21.6 
      1686.0         0.30         21.3 
      1687.0         0.27         20.7 
      1688.0         0.17         20.5 
      1689.0         0.23         19.8 
      1690.0         0.23         19.9 
      1691.0         0.23         19.8 
      1692.0         0.23         19.4 
      1693.0         0.20         19.4 
      1694.0         0.23         19.2 
      1695.0         0.23         19.5 
      1696.0         0.17         19.2 
      1697.0         0.20         19.2 
      1698.0         0.23         19.0 
      1699.0         0.25         19.5 
      1700.0         0.23         18.6 
      1701.0         0.20         19.1 
      1702.0         0.23         19.2 
      1703.0         0.20         19.3 
      1704.0         0.17         19.2 
      1705.0         0.27         19.1 
      1706.0         3.88         59.4 
      1707.0         0.30         27.5 
      1708.0         0.43         24.9 
      1709.0         0.35         23.6 
      1710.0         0.30         22.4 
      1711.0         0.30         22.0 
      1712.0         0.23         22.3 
      1713.0         0.27         22.3 
      1714.0         0.23         22.2 
      1715.0         0.23         22.1 
      1716.0         0.27         22.1 
      1717.0         0.23         22.2 
      1718.0         0.23         22.1 
      1719.0         0.20         21.5 
      1720.0         0.25         21.7 
      1721.0         0.20         22.5 
      1722.0         0.20         22.1 
      1723.0         0.23         21.7 
      1724.0         0.27         21.0 
      1725.0         0.30         20.6 
      1726.0         0.17         19.9 
      1727.0         0.17         19.6 
      1728.0         0.17         19.4 
      1729.0         0.23         19.2 
      1730.0         0.17         19.3 
      1731.0         0.20         19.2 
      1732.0         0.25         19.1 
      1733.0         0.23         18.8 
      1734.0         0.27         19.2 
      1735.0         0.30         19.0 
      1736.0         5.07         46.0 
      1737.0         0.30         20.9 
      1738.0         0.20         18.3 
      1739.0         0.30         18.6 
      1740.0         0.30         20.1 
      1741.0         0.27         21.2 
      1742.0         0.30         21.3 
      1743.0         0.23         21.2 
      1744.0         0.27         20.7 
      1745.0         0.23         20.3 
      1746.0         0.23         20.4 
      1747.0         0.30         20.0 
      1748.0         0.25         20.0 
      1749.0         0.23         19.9 
      1750.0         0.23         19.5 
      1751.0         0.20         19.9 
      1752.0         0.23         19.7 
      1753.0         0.23         19.6 
      1754.0         0.27         19.3 
      1755.0         0.30         19.3 
      1756.0         0.37         19.4 
      1757.0         0.30         19.1 
      1758.0         0.30         19.1 
      1759.0         0.30         19.1 
      1760.0         0.28         19.1 
      1761.0         0.23         19.1 
      1762.0         0.17         19.3 
      1763.0         0.17         19.1 
      1764.0         0.20         19.0 
      1765.0         0.30         18.6 
      1766.0         3.72         41.4 
      1767.0         0.40         22.5 
      1768.0         0.37         22.9 
      1769.0         0.33         22.5 
      1770.0         0.27         21.9 
      1771.0         0.22         21.6 
      1772.0         0.23         21.4 
      1773.0         0.20         21.2 
      1774.0         0.20         21.0 
      1775.0         0.27         20.9 
      1776.0         0.23         20.6 
      1777.0         0.23         20.7 
      1778.0         0.27         20.6 
      1779.0         0.23         20.2 
      1780.0         0.33         20.4 
      1781.0         0.40         20.5 
      1782.0         0.30         20.9 
      1783.0         0.23         21.4 
      1784.0         0.18         21.4 
      1785.0         0.17         21.6 
      1786.0         0.13         21.3 
      1787.0         0.23         20.9 
      1788.0         0.23         20.6 
      1789.0         0.17         20.6 
      1790.0         0.13         20.6 
      1791.0         0.30         20.8 
      1792.0         0.20         20.8 
      1793.0         0.20         20.3 
      1794.0         0.23         20.4 
      1795.0         0.33         21.0 
