~Version Information
VERS.                      2.0: CWLS Log ASCII Standard - VERSION 2.0
WRAP.                       NO: One line per depth step
~Well Information Block
STRT.FT                17.7500: 
STOP.FT              1139.0000: 
STEP.FT                 0.2500: 
NULL.                -999.2500: 
COMP.          El Paso E&P Company L.P.: COMPANY
WELL.              VPR "ST" 38: WELL
FLD.           Purgatorie River: FIELD
LOC.           687' FNL & 2121' FEL: LOCATION
CNTY.               Las Animas: COUNTY
SRVC.          Superior Well Services: SERVICE COMPANY
DATE.          Sat Oct 13 22-40-21 2007: LOG DATE
UWI.           05-071-08357-00: UNIQUE WELL ID
STAT.                       CO: STATE
~Curve Information Block
DEPT.FT            0 000 00 00: Depth
CCL.                          : Casing Collar Locator
TT3.usec                      : CBL 3' Travel Time
AMP3.mV                       : CBL 3' Amplitude
GR.GAPI                       : Gamma Ray
~Parameter Information Block
~A  Depth       CCL         TT3         AMP3         GR     
# ...
   888.7500      0.0000    488.1830      4.0944     53.8992
   889.0000      0.0000    477.9658      4.0673     53.7510
   889.2500      0.0000    473.7802      4.0329     53.7890
   889.5000      0.0000    480.8255      4.0034     55.1119
   889.7500      0.0000    497.3164      3.9833     59.6260
   890.0000      0.0000    517.2277      3.9691     63.5300
   890.2500      0.0000    535.9113      3.9535     68.5113
   890.5000      0.0000    553.7062      3.9338     70.1868
   890.7500      0.0000    574.1214      3.9159     69.4725
   891.0000      0.0000    598.6817      3.9114     67.1375
   891.2500      0.0000    623.7762      3.9294     62.4285
   891.5000      0.0000    642.9172      3.9685     59.6034
   891.7500      0.0000    652.5685      4.0161     57.3093
   892.0000      0.0000    655.7710      4.0543     57.5646
   892.2500      0.0000    659.5002      4.0706     60.9004
   892.5000      0.0000    668.0623      4.0629     64.8906
   892.7500      0.0000    679.1285      4.0376     72.6807
   893.0000      0.0000    685.7350      4.0049     78.6135
   893.2500      0.0000    681.2538      3.9742     88.2483
   893.5000      0.0000    663.7809      3.9509     94.8834
   893.7500      0.0000    639.0464      3.9357    103.8068
   894.0000      0.0000    619.4484      3.9258    108.0461
   894.2500      0.0000    616.5495      3.9177    111.1572
   894.5000      0.0000    632.0958      3.9090    111.5733
   894.7500      0.0000    657.2928      3.8980    111.0953
   895.0000      0.0000    680.9738      3.8845    110.5147
   895.2500      0.0000    697.2103      3.8730    109.0100
   895.5000      0.0000    706.2413      3.8738    106.9164
   895.7500      0.0000    711.2728      3.8961    101.0161
   896.0000      0.0000    715.5943      3.9376     95.3785
   896.2500      0.0000    721.1725      3.9840     86.2434
   896.5000      0.0000    728.0023      4.0184     80.8951
   896.7500      0.0000    734.2339      4.0332     74.5672
   897.0000      0.0000    737.6484      4.0342     71.0415
   897.2500      0.0000    737.7537      4.0340     66.0787
   897.5000      0.0000    736.3054      4.0404     63.0628
   897.7500      0.0000    735.1850      4.0487     59.7327
   898.0000      0.0000    733.8804      4.0482     58.7056
   898.2500      0.0000    729.7573      4.0330     59.0602
   898.5000      0.0000    721.0637      4.0070     60.3359
   898.7500      0.0000    709.1761      3.9797     63.2383
   899.0000      0.0000    697.5825      3.9597     65.3956
   899.2500      0.0000    689.0642      3.9506     68.0351
   899.5000      0.0000    684.1727      3.9509     69.0636
   899.7500      0.0000    681.8918      3.9573     69.9266
   900.0000      0.0000    680.9783      3.9678     70.6224
   900.2500      0.0000    680.6471      3.9803     72.2267
   900.5000      0.0000    680.5661      3.9908     73.3386
   900.7500      0.0000    680.6671      3.9949     74.2930
   901.0000      0.0000    681.0348      3.9940     74.1842
   901.2500      0.0000    681.8793      3.9973     72.5038
   901.5000      0.0000    683.4632      4.0152     70.0799
   901.7500      0.0000    685.8802      4.0535     64.3921
   902.0000      0.0000    688.8241      4.1118     59.7398
   902.2500      0.0000    691.7099      4.1862     53.1506
   902.5000      0.0000    694.1732      4.2705     50.0007
   902.7500      0.0000    696.3795      4.3553     48.0171
   903.0000      0.0000    698.6605      4.4302     48.4700
   903.2500      0.0000    701.0141      4.4884     51.1577
   903.5000      0.0000    703.3464      4.5279     53.8240
   903.7500      0.0000    706.3996      4.5482     58.2987
   904.0000      0.0000    711.8430      4.5481     61.1112
   904.2500      0.0000    720.7228      4.5283     64.7520
   904.5000      0.0000    731.9880      4.4944     67.2003
   904.7500      0.0000    743.4036      4.4526     72.0801
   905.0000      0.0000    753.8739      4.4033     76.3342
   905.2500      0.0000    763.7831      4.3444     83.1446
   905.5000      0.0000    773.0871      4.2775     87.0511
   905.7500      0.0000    780.5288      4.2079     91.1709
   906.0000      0.0000    785.1495      4.1388     92.8001
   906.2500      0.0000    787.2297      4.0700     93.4817
   906.5000      0.0000    787.0303      4.0028     92.2647
   906.7500      0.0000    783.4822      3.9422     87.3271
   907.0000      0.0000    775.0579      3.8926     82.5754
   907.2500      0.0000    761.9654      3.8537     75.7431
   907.5000      0.0000    747.0921      3.8229     72.6905
   907.7500      0.0000    734.4682      3.8013     71.2007
   908.0000      0.0000    726.4153      3.7943     72.0845
   908.2500      0.0000    721.8085      3.8060     75.2764
   908.5000      0.0000    716.7404      3.8327     77.8565
   908.7500      0.0000    707.2790      3.8629     81.0489
   909.0000      0.0000    692.5080      3.8869     82.2703
   909.2500      0.0000    675.5660      3.9055     82.7314
   909.5000      0.0000    662.0217      3.9296     82.3550
   909.7500      0.0000    657.3011      3.9696     81.2187
   910.0000      0.0000    664.9196      4.0234     80.5224
   910.2500      0.0000    685.2299      4.0736     80.9687
   910.5000      0.0000    713.8716      4.0986     83.1149
   910.7500      0.0000    741.4799      4.0876     89.2723
   911.0000      0.0000    757.6718      4.0473     94.3782
   911.2500      0.0000    757.8278      3.9962    101.1898
   911.5000      0.0000    746.0591      3.9527    104.2206
   911.7500      0.0000    731.0198      3.9251    105.8198
   912.0000      0.0000    719.3058      3.9091    104.6137
   912.2500      0.0000    712.6931      3.8952     99.2996
   912.5000      0.0000    709.7992      3.8779     94.4185
   912.7500      0.0000    708.7278      3.8570     88.6613
   913.0000      0.0000    708.3254      3.8330     87.7141
   913.2500      0.0000    708.1777      3.8043     90.9520
   913.5000      0.0000    708.2088      3.7710     94.6376
   913.7500      0.0000    708.4321      3.7374     98.8326
   914.0000      0.0000    708.9509      3.7105     99.6865
   914.2500      0.0000    710.1054      3.6961     99.4016
   914.5000      0.0000    712.4022      3.6955     99.8183
   914.7500      0.0000    715.7828      3.7031    102.4414
   915.0000      0.0000    718.5107      3.7100    104.3280
   915.2500      0.0000    717.1104      3.7185    103.5727
   915.5000      0.0000    708.4514      3.7534     99.1077
   915.7500      0.0000    692.6103      3.8428     87.2625
   916.0000      0.0000    673.6859      3.9717     78.2344
   916.2500      0.0000    657.7682      4.0709     67.0395
   916.5000      0.0000    649.7239      4.0753     62.0520
   916.7500      0.0000    650.7464      3.9874     57.3360
   917.0000      0.0000    657.7238      3.8668     55.0747
   917.2500     -2.0000    665.0898      3.7691     52.1672
   917.5000      2.0000    668.3474      3.7144     50.6216
   917.7500      2.0000    666.5061      3.7034     49.5618
   918.0000     -2.0000    661.4090      3.7418     50.1761
   918.2500      0.0000    655.5411      3.8328     53.4511
   918.5000      0.0000    651.1091      3.9403     56.8683
   918.7500      0.0000    649.6243      3.9739     62.4261
   919.0000      0.0000    649.9832      3.8537     65.4864
   919.2500      0.0000    647.6555      3.6043     67.9979
   919.5000      0.0000    638.7737      3.3511     68.1055
   919.7500      0.0000    625.9722      3.2054     66.2861
   920.0000      0.0000    618.5375      3.1793     64.0669
   920.2500      0.0000    625.5186      3.2150     59.7036
   920.5000      0.0000    648.2148      3.2581     56.5928
   920.7500      0.0000    678.8797      3.2916     52.8339
   921.0000      0.0000    706.4385      3.3252     51.2547
   921.2500      0.0000    723.8187      3.3748     49.5286
   921.5000      0.0000    730.1863      3.4471     48.2376
   921.7500      0.0000    727.9195      3.5318     46.2739
   922.0000      0.0000    720.1936      3.6106     45.5283
