~Version Information
VERS.                      2.0: CWLS Log ASCII Standard - VERSION 2.0
WRAP.                       NO: One line per depth step
~Well Information Block
STRT.FT                -9.2500: 
STOP.FT              2685.7500: 
STEP.FT                 0.2500: 
NULL.                -999.2500: 
COMP.          Pioneer Natural Resources: COMPANY
WELL.          Beacon 11-18 Tr: WELL
FLD.           Purgatorie River: FIELD
LOC.           409' FNL & 203' FWL--: LOCATION
PROV.                       CO: PROVINCE
CNTY.               Las Animas: COUNTRY
SRVC.                         : SERVICE COMPANY
DATE.          Fri Jan 21 09:45:44 2005: LOG DATE
UWI.        005 071 08251  : UNIQUE WELL ID
~Curve Information Block
DEPT.FT            0 000 00 00: Depth
CCL.                          : Casing Collar Locator
TT3.usec                      : CBL 3' Travel Time
AMP3.mV                       : CBL 3' Amplitude
GR.GAPI                       : Gamma Ray
~Parameter Information Block
~A  Depth       CCL         TT3         AMP3         GR     
# ...
   158.2500      0.0000    264.6305     61.6522     70.5318
   158.5000      0.0000    264.6817     61.5625     79.1698
   158.7500      0.0000    264.7249     61.4735     88.2099
   159.0000      0.0000    264.7541     61.4018     96.3866
   159.2500      0.0000    264.7624     61.3714    101.0702
   159.5000      0.0000    264.7523     61.3883    100.2680
   159.7500      0.0000    264.7357     61.4393     95.0564
   160.0000      0.0000    264.7260     61.5090     89.2830
   160.2500      0.0000    264.7316     61.5867     86.5273
   160.5000      0.0000    264.7528     61.6625     87.5400
   160.7500      0.0000    264.7823     61.7225     90.3468
   161.0000      0.0000    264.8092     61.7495     92.2883
   161.2500      0.0000    264.8251     61.7325     92.1080
   161.5000      0.0000    264.8296     61.6803     90.7184
   161.7500      0.0000    264.8281     61.6270     90.1730
   162.0000      0.0000    264.8251     61.6149     91.5482
   162.2500      0.0000    264.8202     61.6670     93.6237
   162.5000      0.0000    264.8110     61.7697     94.0391
   162.7500      0.0000    264.7997     61.8819     91.9371
   163.0000      0.0000    264.7942     61.9627     89.0340
   163.2500      0.0000    264.8018     61.9963     87.9255
   163.5000      0.0000    264.8238     61.9936     89.8721
   163.7500      0.0000    264.8541     61.9740     94.4658
   164.0000      0.0000    264.8835     61.9494    100.4899
   164.2500      0.0000    264.9036     61.9242    106.3100
   164.5000      0.0000    264.9096     61.9020    109.9583
   164.7500      0.0000    264.9011     61.8889    110.0138
   165.0000      0.0000    264.8813     61.8895    106.8908
   165.2500      0.0000    264.8556     61.8980    103.1031
   165.5000      0.0000    264.8291     61.8985    101.9551
   165.7500      0.0000    264.8054     61.8818    105.5228
   166.0000      0.0000    264.7870     61.8590    113.2253
   166.2500      0.0000    264.7749     61.8546    121.9910
   166.5000      0.0000    264.7669     61.8848    127.9538
   166.7500      0.0000    264.7563     61.9436    128.4949
   167.0000      0.0000    264.7366     62.0066    123.5268
   167.2500      0.0000    264.7085     62.0421    115.4251
   167.5000      0.0000    264.6800     62.0245    107.6440
   167.7500      0.0000    264.6591     61.9450    102.8676
   168.0000      0.0000    264.6487     61.8135    101.6527
   168.2500      0.0000    264.6490     61.6517    102.2237
   168.5000      0.0000    264.6587     61.4863    101.8119
   168.7500      0.0000    264.6744     61.3500     99.0206
   169.0000      0.0000    264.6888     61.2721     95.1392
   169.2500      0.0000    264.6941     61.2610     92.7571
   169.5000      0.0000    264.6862     61.3004     92.9839
   169.7500      0.0000    264.6650     61.3718     94.4628
   170.0000      0.0000    264.6346     61.4710     95.1140
   170.2500      0.0000    264.6030     61.5952     94.3105
   170.5000      0.0000    264.5786     61.7268     93.0538
   170.7500      0.0000    264.5644     61.8465     92.4802
   171.0000      0.0000    264.5558     61.9556     92.8791
   171.2500      0.0000    264.5474     62.0712     94.0476
   171.5000      0.0000    264.5383     62.2038     95.8522
   171.7500      0.0000    264.5318     62.3484     98.1303
   172.0000      0.0000    264.5304     62.4948    100.4494
   172.2500      0.0000    264.5332     62.6362    102.3449
   172.5000      0.0000    264.5361     62.7696    103.7053
   172.7500      0.0000    264.5334     62.8953    104.6598
   173.0000      0.0000    264.5204     63.0181    105.0170
   173.2500      0.0000    264.4981     63.1412    103.9421
   173.5000      0.0000    264.4743     63.2587    100.6110
   173.7500      0.0000    264.4576     63.3617     95.5411
   174.0000      0.0000    264.4503     63.4570     91.0067
   174.2500      0.0000    264.4468     63.5750     89.5160
   174.5000      0.0000    264.4380     63.7522     91.6930
   174.7500      0.0000    264.4186     63.9992     95.9772
   175.0000      0.0000    264.3900     64.2894    100.5141
   175.2500      0.0000    264.3603     64.5748    104.7932
   175.5000      0.0000    264.3393     64.8113    109.1655
   175.7500      0.0000    264.3313     64.9747    113.4627
   176.0000      0.0000    264.3334     65.0615    116.7704
   176.2500      0.0000    264.3398     65.0821    118.1592
   176.5000      0.0000    264.3477     65.0526    117.2022
   176.7500      0.0000    264.3572     64.9976    114.1675
   177.0000      0.0000    264.3669     64.9599    109.9973
   177.2500      0.0000    264.3723     64.9946    105.7523
   177.5000      0.0000    264.3696     65.1377    101.8710
   177.7500      0.0000    264.3593     65.3772     98.1449
   178.0000      0.0000    264.3472     65.6605     94.5522
   178.2500      0.0000    264.3398     65.9284     91.9458
   178.5000      0.0000    264.3374     66.1408     91.5908
   178.7500      0.0000    264.3358     66.2792     93.8604
   179.0000      0.0000    264.3335     66.3405     97.6159
   179.2500      0.0000    264.3349     66.3329    100.9735
   179.5000      0.0000    264.3452     66.2766    102.3657
   179.7500      0.0000    264.3650     66.2018    100.9235
   180.0000      0.0000    264.3907     66.1419     96.5948
   180.2500      0.0000    264.4176     66.1210     90.3665
   180.5000      0.0000    264.4407     66.1478     84.0560
   180.7500      0.0000    264.4561     66.2145     79.3687
   181.0000      0.0000    264.4630     66.3060     76.8907
   181.2500      0.0000    264.4615     66.4093     75.8487
   181.5000      0.0000    264.4511     66.5166     74.8052
   181.7500      0.0000    264.4336     66.6219     72.7671
   182.0000      0.0000    264.4155     66.7214     69.7806
   182.2500      0.0000    264.4042     66.8177     66.5455
   182.5000      0.0000    264.4023     66.9152     63.7603
   182.7500      0.0000    264.4073     67.0110     61.9413
   183.0000      0.0000    264.4163     67.0926     61.4263
   183.2500      0.0000    264.4274     67.1496     62.1650
   183.5000      0.0000    264.4386     67.1833     63.6490
   183.7500      0.0000    264.4473     67.2045     65.2445
   184.0000      0.0000    264.4525     67.2253     66.6792
   184.2500      0.0000    264.4566     67.2530     68.3645
   184.5000      0.0000    264.4642     67.2847     71.1535
   184.7500      0.0000    264.4785     67.3040     75.4910
   185.0000      0.0000    264.5013     67.2807     80.8064
   185.2500      0.0000    264.5424     67.1523     85.9148
   185.5000      0.0000    264.6472     66.7555     89.9898
   185.7500      0.0000    264.9306     65.7431     93.1220
   186.0000      0.0000    265.5669     63.6218     96.0013
   186.2500      0.0000    266.6888     60.0471     98.8540
   186.5000      0.0000    268.2359     55.2575    100.5860
   186.7500      0.0000    269.9063     50.2154     99.3967
   187.0000      0.0000    271.3130     46.1312     94.6738
   187.2500      0.0000    272.2291     43.6913     88.0374
   187.5000      0.0000    272.6888     42.7300     82.1740
   187.7500      0.0000    272.8820     42.5897     78.8703
   188.0000      2.0000    272.9940     42.6642     78.4789
   188.2500      2.0000    273.1387     42.6172     80.6984
   188.5000     -2.0000    273.3584     42.3588     84.9148
   188.7500      0.0000    273.5979     42.1323     89.8505
   189.0000      0.0000    273.6568     42.6495     93.7990
   189.2500      0.0000    273.2448     44.7685     95.6556
   189.5000      0.0000    272.1899     48.6726     95.5051
   189.7500      0.0000    270.6241     53.4855     94.1100
   190.0000      0.0000    268.9373     57.9725     92.0193
   190.2500      0.0000    267.5299     61.4804     89.3007
   190.5000      0.0000    266.5968     64.0235     85.8712
   190.7500      0.0000    266.1001     65.7924     81.7093
   191.0000      0.0000    265.8855     66.9175     76.8986
   191.2500      0.0000    265.8088     67.5507     71.8535
   191.5000      0.0000    265.7861     67.8918     67.3148
