~Version Information
 VERS.                      2.0: CWLS Log ASCII Standard - VERSION 2.0
 WRAP.                       NO: One line per depth step
 ~Well Information Block
 STRT.FT               762.3000: 
 STOP.FT              2573.7000: 
 STEP.FT                 0.1000: 
 NULL.                -999.2500: 
 COMP.          Petrogulf Corporation: COMPANY
 WELL.               J&P 12-33V: WELL
 FLD.           Purgatorie River: FIELD
 LOC.           2005' FSL & 1928' FEL: LOCATION
 CNTY.               Las Animas: COUNTY
 SRVC.                         : SERVICE COMPANY
 DATE.          Sat Aug 28 11:34:36 2004: LOG DATE
 UWI.           05 071 08092 00: UNIQUE WELL ID
 STAT.                 Colorado: STATE
 PROV.                         :Province
 ~Curve Information Block
 DEPT.FT            0 000 00 00: Depth
 GR.GAPI                       : Gamma Ray
 DCAL.in                       : CDL Caliper
 DPOR.pu                       : CDL Density Porosity
 NPOR.pu                       : Neutron Porosity
 RHOB.g/cc                     : CDL Bulk Density
 RHOC.g/cc                     : CDL Density Correction
 ~Parameter Information Block
 ~A  Depth        GR         DCAL        DPOR        NPOR        RHOB        RHOC    
# ...
  1731.9000    103.7196      8.2062      6.9061     26.9638      2.5361      0.0289
  1732.0000    100.1443      8.2350      7.1117     26.8464      2.5327     -0.0001
  1732.1000    103.1560      8.2350      7.5063     26.7188      2.5261      0.0097
  1732.2000    112.9654      8.2350      7.9632     26.8161      2.5186      0.0302
  1732.3000    119.2215      8.3048      8.5456     27.2661      2.5090      0.0136
  1732.4000    117.9909      8.3048      9.0407     27.5666      2.5008     -0.0203
  1732.5000    115.1562      8.4190      9.2449     27.3879      2.4975      0.0237
  1732.6000    117.4244      8.4190      9.1111     27.2162      2.4997     -0.0016
  1732.7000    125.3088      8.4190      8.7147     27.5752      2.5062      0.0296
  1732.8000    133.3390      8.2658      8.4780     28.1720      2.5101      0.0308
  1732.9000    137.2170      8.2658      8.3502     28.4446      2.5122      0.0495
  1733.0000    136.2470      8.2578      7.7507     28.4012      2.5221      0.0757
  1733.1000    132.8871      8.2578      6.5255     28.5547      2.5423      0.1140
  1733.2000    129.4885      8.2578      5.1248     28.8726      2.5654      0.1407
  1733.3000    125.0961      8.2113      3.7255     29.0417      2.5885      0.1260
  1733.4000    123.2897      8.2113      2.2561     29.0892      2.6128      0.1827
  1733.5000    129.0836      8.2021      1.2664     28.9029      2.6291      0.1917
  1733.6000    137.7571      8.2021      0.9012     28.4426      2.6351      0.1021
  1733.7000    140.9665      8.2021      0.7005     28.3019      2.6384      0.1231
  1733.8000    135.7863      8.1809      0.9295     28.4572      2.6347      0.1647
  1733.9000    129.4695      8.1809      1.9399     28.0930      2.6180      0.1463
  1734.0000    131.0978      8.1821      3.2570     27.3429      2.5963      0.1122
  1734.1000    140.8401      8.1821      4.3739     27.1300      2.5778      0.0628
  1734.2000    149.0304      8.1821      5.3671     27.2752      2.5614      0.0763
  1734.3000    145.4126      8.1811      6.4011     27.0224      2.5444      0.0670
  1734.4000    134.6573      8.1811      6.9811     26.4637      2.5348      0.0547
  1734.5000    126.3182      8.1857      6.8078     26.1082      2.5377      0.0928
  1734.6000    121.2613      8.1857      6.4841     26.1216      2.5430      0.0768
  1734.7000    120.7559      8.1857      6.5806     26.1289      2.5414      0.0864
  1734.8000    124.6149      8.1869      6.9440     26.1098      2.5354      0.1064
  1734.9000    126.8340      8.1869      7.1389     26.4408      2.5322      0.1107
  1735.0000    128.6076      8.1883      7.0694     27.1117      2.5334      0.0869
  1735.1000    133.4079      8.1883      6.9450     27.9257      2.5354      0.0998
  1735.2000    141.0200      8.1883      7.1252     28.8302      2.5324      0.1612
  1735.3000    148.3194      8.1879      7.7883     29.5474      2.5215      0.0769
  1735.4000    148.7678      8.1879      8.6910     29.9917      2.5066      0.0380
  1735.5000    144.6128      8.1895      9.8624     30.1736      2.4873      0.0391
  1735.6000    144.5844      8.1895     11.4369     30.0760      2.4613      0.0245
  1735.7000    146.5012      8.1895     12.5562     29.8344      2.4428      0.0192
  1735.8000    147.0262      8.1987     12.1287     29.4931      2.4499      0.0508
  1735.9000    149.7507      8.1987     10.6229     29.1253      2.4747      0.0943
  1736.0000    155.4871      8.2305      9.2735     28.8802      2.4970      0.1142
  1736.1000    158.6683      8.2305      8.5961     29.0110      2.5082      0.1434
  1736.2000    155.3758      8.2305      8.3266     29.5165      2.5126      0.1015
  1736.3000    152.9209      8.3596      8.4190     29.8471      2.5111      0.1528
  1736.4000    156.4257      8.3596      9.6762     30.0148      2.4903      0.1406
  1736.5000    161.1177      8.4300     12.0096     30.5014      2.4518      0.1144
  1736.6000    165.0394      8.4300     13.8037     30.8791      2.4222      0.0632
  1736.7000    169.8692      8.4300     14.1051     30.6308      2.4173      0.1202
  1736.8000    171.3363      8.2365     13.1526     30.2576      2.4330      0.0631
  1736.9000    167.8265      8.2365     11.1133     29.8853      2.4666      0.1027
  1737.0000    164.3796      8.2419      8.5482     29.1430      2.5090      0.1291
  1737.1000    163.4146      8.2419      6.4420     28.2316      2.5437      0.1818
  1737.2000    163.1092      8.2419      5.5903     27.5193      2.5578      0.2196
  1737.3000    159.1115      8.2470      6.4248     27.1259      2.5440      0.2203
  1737.4000    152.4397      8.2470      8.5694     26.8290      2.5086      0.1418
  1737.5000    150.3761      8.2117     11.0585     26.5896      2.4675      0.0926
  1737.6000    153.5693      8.2117     13.1233     26.8071      2.4335      0.0734
  1737.7000    155.4106      8.2117     14.2363     27.6090      2.4151      0.0170
  1737.8000    154.0792      8.0874     14.1547     28.5297      2.4164      0.0084
  1737.9000    150.5640      8.0874     13.7296     29.3913      2.4235      0.0385
  1738.0000    143.5251      8.0802     14.3701     30.3451      2.4129      0.0543
  1738.1000    134.6079      8.0802     16.2427     30.6594      2.3820      0.0473
  1738.2000    128.7119      8.0802     18.3771     29.8861      2.3468      0.0509
  1738.3000    126.8246      8.1132     20.1486     29.0575      2.3175      0.0669
  1738.4000    127.7536      8.1132     21.7364     29.3339      2.2913      0.0937
  1738.5000    131.3047      8.2052     23.5131     30.6327      2.2620      0.0952
  1738.6000    133.6648      8.2052     25.4098     31.4902      2.2307      0.1104
  1738.7000    130.7933      8.2052     26.3091     31.0835      2.2159      0.1264
  1738.8000    125.6356      8.2130     24.8802     30.1078      2.2395      0.2381
  1738.9000    121.4719      8.2130     21.4510     29.2419      2.2961      0.3390
  1739.0000    119.1186      8.2413     17.2955     28.7033      2.3646      0.3916
  1739.1000    119.5058      8.2413     12.8671     28.4699      2.4377      0.4346
  1739.2000    121.8876      8.2413      8.1830     28.2448      2.5150      0.4651
  1739.3000    123.6539      8.2233      3.8189     27.7880      2.5870      0.4408
  1739.4000    122.0863      8.2233      0.6872     26.9373      2.6387      0.4414
  1739.5000    118.9479      8.0723     -0.4861     25.5677      2.6580      0.4396
  1739.6000    118.4383      8.0723      0.5565     23.9386      2.6408      0.3661
  1739.7000    119.0161      8.0723      3.1233     22.6642      2.5985      0.1484
  1739.8000    117.5991      8.0988      5.6084     21.8819      2.5575      0.0454
  1739.9000    115.5181      8.0988      6.7069     21.1692      2.5393      0.0642
  1740.0000    114.6245      7.9729      5.9740     20.2213      2.5514      0.0644
  1740.1000    114.9028      7.9729      3.6952     19.3723      2.5890      0.0974
  1740.2000    113.2886      7.9729      1.3207     19.0598      2.6282      0.1307
  1740.3000    106.9554      7.9404      0.5989     19.1898      2.6401      0.1328
  1740.4000    100.0703      7.9404      1.9606     19.4841      2.6177      0.1031
  1740.5000     98.5239      7.9382      4.3163     19.7852      2.5788      0.0705
  1740.6000    100.6283      7.9382      6.1866     20.1558      2.5479      0.0324
  1740.7000    104.1021      7.9382      6.8200     20.5955      2.5375      0.0467
  1740.8000    109.0085      7.9392      6.1398     20.6528      2.5487      0.0524
  1740.9000    115.3809      7.9392      4.6629     20.3842      2.5731      0.0567
  1741.0000    122.8609      7.9391      3.5188     20.2550      2.5919      0.0379
  1741.1000    125.9147      7.9391      3.1369     20.0842      2.5982      0.0610
  1741.2000    119.6875      7.9391      2.8894     19.7397      2.6023      0.0490
  1741.3000    109.6290      7.9398      2.6357     19.8297      2.6065      0.0890
  1741.4000    102.6955      7.9398      3.0736     20.2633      2.5993      0.0577
