~Version Information
 VERS.                                  2.0 : CWLS LAS VERSION
 WRAP.                                   NO : WRAPING MODE
 SWARE .                 MController 2.5.0E : SOFTWARE VERSION
~Well Information
 WELL.                      Latiluppe 8-13R : WELL
 COMP.                Petrogulf Corporation : COMPANY
 FLD.                      Purgatorie River : FIELD
 LOC.                 NW/SW Sec 8 T33S R67W : LOCATION
 DATE.                              4/20/04 : DATE(S) LOGGED
 SRVC.       Blanco Geological Services LLC : SERVICE COMPANY
 STAT.                                   CO : STATE
 CNTY.                           Las Animas : COUNTY
 CTRY.                                  USA : COUNTRY
 API.                       05-071-08035-00 : API NUMBER
 STRT.FT                            1036.00 : START DEPTH
 STOP.FT                            2246.00 : STOP DEPTH
 STEP.FT                               1.00 : DEPTH INCREMENT
 NULL.                                -9999 : NULL VALUE
~Curve information
 DEPTH.FT                                   :
 ROP.MIN/FT                                 :
 GAS.UNITS                                  :
~ASCII Log data
# ...
     1836.00        0.267          0.6 
     1837.00        0.267          0.7 
     1838.00        0.300          1.0 
     1839.00        0.333          1.6 
     1840.00        0.267          1.1 
     1841.00        0.233          1.0 
     1842.00        0.267          0.6 
     1843.00        0.267          0.9 
     1844.00        0.250          0.8 
     1845.00        0.267          0.6 
     1846.00        0.200          0.6 
     1847.00        0.200          0.6 
     1848.00        0.200          0.7 
     1849.00        0.233          1.4 
     1850.00        0.200          1.3 
     1851.00        0.167          1.3 
     1852.00        0.167          1.0 
     1853.00        0.200          0.6 
     1854.00        0.200          0.7 
     1855.00        3.017          1.7 
     1856.00        0.433          0.7 
     1857.00        0.367          0.6 
     1858.00        0.667          0.3 
     1859.00        0.383          0.5 
     1860.00        0.267          0.5 
     1861.00        0.233          0.1 
     1862.00        0.267          0.1 
     1863.00        0.233          0.3 
     1864.00        0.300          0.4 
     1865.00        0.300          0.1 
     1866.00        0.233          0.4 
     1867.00        0.300          0.2 
     1868.00        0.300          0.3 
     1869.00        0.300          0.4 
     1870.00        0.300          0.1 
     1871.00        0.283          0.2 
     1872.00        0.300          0.4 
     1873.00        0.300          0.8 
     1874.00        0.267          0.5 
     1875.00        0.267          0.6 
     1876.00        0.200          0.2 
     1877.00        0.333          0.7 
     1878.00        0.267          0.6 
     1879.00        0.233          0.6 
     1880.00        0.233          0.8 
     1881.00        0.200          1.2 
     1882.00        0.233          0.6 
     1883.00        0.233          0.8 
     1884.00        0.217          0.9 
     1885.00        2.733          1.0 
     1886.00        0.617          0.9 
     1887.00        0.267          0.4 
     1888.00        0.300          0.5 
     1889.00        0.267          0.2 
     1890.00        0.267          0.1 
     1891.00        0.233          0.4 
     1892.00        0.300          0.6 
     1893.00        0.433          0.6 
     1894.00        0.500          0.3 
     1895.00        0.300          0.4 
     1896.00        0.317          0.0 
     1897.00        0.233          0.2 
     1898.00        0.200          0.0 
     1899.00        0.233          0.2 
     1900.00        0.233          0.2 
     1901.00        0.267          0.0 
     1902.00        0.267          0.0 
     1903.00        0.267          0.1 
     1904.00        0.267          0.1 
     1905.00        0.233          0.3 
     1906.00        0.233          0.3 
     1907.00        0.267          0.2 
     1908.00        0.233          0.2 
     1909.00        0.350          0.0 
     1910.00        0.267          0.2 
     1911.00        0.300          0.1 
     1912.00        0.267          0.3 
     1913.00        0.233          0.0 
     1914.00        0.267          0.5 
     1915.00        3.417          0.5 
     1916.00        0.433          0.0 
     1917.00        0.333          0.1 
     1918.00        0.333          0.3 
     1919.00        0.367          0.4 
     1920.00        0.367          0.4 
     1921.00        0.317          0.3 
     1922.00        0.300          0.3 
     1923.00        0.267          0.4 
     1924.00        0.200          0.1 
     1925.00        0.100          0.6 
     1926.00        0.267          0.5 
     1927.00        0.300          0.4 
     1928.00        0.300          0.5 
     1929.00        0.233          0.3 
     1930.00        0.367          0.1 
     1931.00        0.333          0.0 
     1932.00        0.300          0.3 
     1933.00        0.350          0.2 
     1934.00        0.300          0.1 
     1935.00        0.367          0.0 
     1936.00        0.333          0.0 
     1937.00        0.300          0.1 
     1938.00        0.333          0.1 
     1939.00        0.333          0.2 
     1940.00        0.300          0.0 
     1941.00        0.300          0.2 
     1942.00        0.267          0.3 
     1943.00        0.200          0.1 
     1944.00        0.283          0.2 
     1945.00        3.167          0.5 
     1946.00        0.550          0.0 
     1947.00        0.433          0.0 
     1948.00        0.333          0.4 
     1949.00        0.333          0.5 
     1950.00        0.333          0.3 
     1951.00        0.233          0.6 
     1952.00        0.233          0.4 
     1953.00        0.267          0.3 
     1954.00        0.200          0.5 
     1955.00        0.167          0.7 
     1956.00        0.200          0.6 
     1957.00        0.250          0.7 
     1958.00        0.233          0.8 
     1959.00        0.200          0.3 
     1960.00        0.233          0.3 
     1961.00        0.267          0.5 
     1962.00        0.267          0.5 
     1963.00        0.267          1.9 
     1964.00        0.267          2.6 
     1965.00        0.267          3.2 
     1966.00        0.233          3.9 
     1967.00        0.233          3.7 
     1968.00        0.233          3.2 
     1969.00        0.233          3.2 
     1970.00        0.233          3.2 
     1971.00        0.250          3.2 
     1972.00        0.300          3.2 
     1973.00        0.267          3.1 
     1974.00        0.267          3.0 
     1975.00        3.750          3.5 
     1976.00        0.333          2.9 
     1977.00        0.200          2.9 
     1978.00        0.100          3.0 
     1979.00        0.267          2.8 
     1980.00        0.267          2.8 
     1981.00        0.300          3.0 
     1982.00        0.233          2.8 
     1983.00        0.250          2.9 
     1984.00        0.233          3.0 
     1985.00        0.300          2.8 
     1986.00        0.333          2.6 
     1987.00        0.267          3.0 
     1988.00        0.233          2.5 
     1989.00        0.267          3.1 
     1990.00        0.233          3.3 
     1991.00        0.200          2.9 
     1992.00        0.233          2.8 
     1993.00        0.233          2.9 
     1994.00        0.267          3.0 
     1995.00        0.200          2.9 
     1996.00        0.200          2.9 
     1997.00        0.250          2.7 
     1998.00        0.267          2.7 
     1999.00        0.300          2.7 
     2000.00        0.267          3.1 
     2001.00        0.233          2.5 
     2002.00        0.200          2.7 
     2003.00        0.200          2.7 
     2004.00        0.267          2.6 
     2005.00        2.717          3.2 
     2006.00        0.467          2.5 
     2007.00        0.267          2.5 
     2008.00        0.233          2.5 
     2009.00        0.300          2.8 
     2010.00        0.300          2.7 
     2011.00        0.300          3.0 
     2012.00        0.250          2.6 
     2013.00        0.200          2.5 
     2014.00        0.167          2.6 
     2015.00        0.200          2.8 
     2016.00        0.233          2.4 
     2017.00        0.300          2.5 
     2018.00        0.267          2.4 
     2019.00        0.267          2.6 
     2020.00        0.233          2.3 
     2021.00        0.200          2.3 
     2022.00        0.200          2.6 
     2023.00        0.200          2.2 
     2024.00        0.200          2.4 
     2025.00        0.167          2.4 
     2026.00        0.267          2.6 
     2027.00        0.200          2.6 
     2028.00        0.250          2.7 
     2029.00        0.200          2.9 
     2030.00        0.200          2.9 
     2031.00        0.233          2.7 
     2032.00        0.200          2.2 
     2033.00        0.167          2.5 
     2034.00        0.267          2.7 
     2035.00        2.850          3.1 
