~Version Information
VERS.                      2.0: CWLS Log ASCII Standard - VERSION 2.0
WRAP.                       NO: One line per depth step
~Well Information Block
STRT.FT               920.0000: 
STOP.FT              3300.2000: 
STEP.FT                 0.1000: 
NULL.                -999.2500: 
COMP.          Pioneer Natural Resources: COMPANY
WELL.              Vespar 43-7: WELL
FLD.           Purgatoire River: FIELD
LOC.           2338' FSL & 1141' FEL: LOCATION
PROV.                 Colorado: PROVINCE
CNTY.               Las Animas: COUNTRY
SRVC.                Patterson: SERVICE COMPANY
DATE.          Wed Jan 26 13:38:02 2005: LOG DATE
UWI.           05 071 07955 00: UNIQUE WELL ID
~Curve Information Block
DEPT.FT            0 000 00 00: Depth
DCAL.in                       : CDL Caliper
RHOB.g/cc                     : CDL Bulk Density
RHOC.g/cc                     : CDL Density Correction
DPOR.pu                       : CDL Density Porosity
NPOR.pu                       : Neutron Porosity
GR.GAPI                       : Gamma Ray
~Parameter Information Block
~A  Depth       DCAL        RHOB        RHOC        DPOR        NPOR         GR     
# ...
  1707.2000      7.9833      2.4817      0.0586     10.2028     17.4800     78.2436
  1707.3000      7.9831      2.4555      0.0535     11.7881     17.7296     77.7331
  1707.4000      7.9831      2.4482      0.0286     12.2333     18.1532     75.2841
  1707.5000      7.9857      2.4523      0.0775     11.9843     18.9504     73.5176
  1707.6000      7.9857      2.4482      0.0325     12.2324     20.0297     73.9204
  1707.7000      7.9857      2.4463     -0.0317     12.3425     20.9531     74.6637
  1707.8000      7.9865      2.4665     -0.0078     11.1205     21.4509     72.2157
  1707.9000      7.9865      2.5004      0.0499      9.0663     21.9322     70.2708
  1708.0000      7.9854      2.5248      0.0830      7.5883     22.9517     75.7367
  1708.1000      7.9854      2.5244      0.1107      7.6113     24.4878     85.7918
  1708.2000      7.9854      2.4970      0.0695      9.2753     25.8115     91.6425
  1708.3000      7.9857      2.4496      0.0227     12.1469     26.4398     92.0476
  1708.4000      7.9857      2.3972      0.0167     15.3201     26.8787     93.2597
  1708.5000      7.9901      2.3581      0.0057     17.6919     27.4963     97.4623
  1708.6000      7.9901      2.3437      0.0044     18.5660     27.9311    101.8194
  1708.7000      7.9901      2.3557     -0.0424     17.8389     27.9080    104.4883
  1708.8000      8.0020      2.3865      0.0475     15.9688     27.8160    107.2544
  1708.9000      8.0020      2.4220      0.0165     13.8155     27.9202    111.7777
  1709.0000      8.0269      2.4542      0.1279     11.8675     27.8254    116.1103
  1709.1000      8.0269      2.4816      0.1567     10.2089     27.3216    118.8253
  1709.2000      8.0269      2.5029      0.2639      8.9122     26.7111    123.5055
  1709.3000      8.0563      2.5143      0.2981      8.2267     26.3567    131.2394
  1709.4000      8.0563      2.5100      0.3351      8.4857     26.3375    136.8421
  1709.5000      8.0703      2.4927      0.2826      9.5321     26.4614    138.9009
  1709.6000      8.0703      2.4822      0.1568     10.1688     26.1339    140.7327
  1709.7000      8.0703      2.4913      0.1581      9.6171     24.9294    142.3249
  1709.8000      8.0726      2.5051      0.0791      8.7836     23.7064    139.4984
  1709.9000      8.0726      2.5111      0.0647      8.4188     23.2483    134.2836
  1710.0000      8.0727      2.5102      0.1171      8.4728     23.1120    130.5233
  1710.1000      8.0727      2.5080      0.0787      8.6074     22.7084    126.4847
  1710.2000      8.0727      2.5148      0.0801      8.1961     22.2465    123.0000
  1710.3000      8.0749      2.5292      0.0950      7.3242     22.3334    124.3872
  1710.4000      8.0749      2.5359      0.0975      6.9124     22.9589    131.5952
  1710.5000      8.0815      2.5196      0.0668      7.9020     23.4449    139.0488
  1710.6000      8.0815      2.4793      0.0667     10.3432     23.4336    140.7816
  1710.7000      8.0815      2.4334     -0.0248     13.1297     23.3534    135.2420
  1710.8000      8.0888      2.3992      0.0219     15.1999     23.5441    124.7478
  1710.9000      8.0888      2.3818     -0.0081     16.2575     23.5370    116.1434
  1711.0000      8.0925      2.3801      0.0286     16.3562     23.0149    114.3870
  1711.1000      8.0925      2.3854      0.0576     16.0334     22.5487    115.5881
  1711.2000      8.0925      2.3876      0.0605     15.9015     22.5290    115.9399
  1711.3000      8.0939      2.3886      0.0450     15.8426     22.6294    118.4594
  1711.4000      8.0939      2.3972      0.0524     15.3205     22.5753    124.8290
  1711.5000      8.0958      2.4140      0.1068     14.3045     22.4701    130.0021
  1711.6000      8.0958      2.4293      0.0895     13.3770     22.5088    131.2127
  1711.7000      8.0958      2.4365      0.1204     12.9398     22.4974    132.7604
  1711.8000      8.0985      2.4387      0.0527     12.8077     22.2742    136.5457
  1711.9000      8.0985      2.4460      0.0590     12.3658     22.3421    139.0588
  1712.0000      8.1005      2.4631      0.0486     11.3293     22.9804    141.8357
  1712.1000      8.1005      2.4822      0.1024     10.1722     23.8404    145.1445
  1712.2000      8.1005      2.4937      0.0341      9.4734     24.5085    142.4805
  1712.3000      8.1000      2.4998      0.0440      9.1031     24.6930    134.2074
  1712.4000      8.1000      2.5028      0.0919      8.9221     24.5578    125.9198
  1712.5000      8.0991      2.5032      0.0698      8.8974     24.7651    121.2037
  1712.6000      8.0991      2.5068      0.0805      8.6793     25.5561    121.0370
  1712.7000      8.0991      2.5089      0.0388      8.5519     26.3963    122.0375
  1712.8000      8.0963      2.4945      0.0746      9.4228     26.7691    120.7791
  1712.9000      8.0963      2.4628      0.0190     11.3430     26.6532    119.1725
  1713.0000      8.0930      2.4341      0.0183     13.0832     26.3669    120.5682
  1713.1000      8.0930      2.4285      0.0383     13.4239     26.2981    123.8778
  1713.2000      8.0930      2.4488      0.0184     12.1915     26.4584    126.8223
  1713.3000      8.0960      2.4875      0.0310      9.8465     26.4952    127.2133
  1713.4000      8.0960      2.5363      0.0655      6.8920     26.0789    124.9737
  1713.5000      8.1054      2.5806      0.1736      4.2063     25.3374    125.0209
  1713.6000      8.1054      2.5961      0.2449      3.2664     24.7131    128.6380
  1713.7000      8.1054      2.5787      0.2056      4.3224     24.4232    132.6884
  1713.8000      8.1177      2.5624      0.1431      5.3081     24.4263    132.6377
  1713.9000      8.1177      2.5745      0.2222      4.5733     24.4306    124.3063
  1714.0000      8.1275      2.5897      0.3463      3.6551     24.1889    115.9493
  1714.1000      8.1275      2.5570      0.2756      5.6374     23.7242    119.4829
  1714.2000      8.1275      2.4640      0.1300     11.2729     23.1751    129.6500
  1714.3000      8.1453      2.3486      0.0016     18.2654     22.8302    133.7921
  1714.4000      8.1453      2.2550     -0.0333     23.9386     22.8867    132.2790
  1714.5000      8.1925      2.2096     -0.0854     26.6913     23.2165    131.6297
  1714.6000      8.1925      2.2158     -0.0194     26.3144     23.4886    131.5642
  1714.7000      8.1925      2.2320      0.0836     25.3356     23.6395    131.7616
  1714.8000      8.2721      2.2194      0.0763     26.0955     23.8385    134.3023
  1714.9000      8.2721      2.2199      0.0622     26.0673     24.0872    135.9108
  1715.0000      8.3899      2.2950      0.2607     21.5123     24.3637    133.1175
  1715.1000      8.3899      2.4200      0.4545     13.9415     24.8422    129.8607
  1715.2000      8.3899      2.5215      0.4713      7.7907     25.8065    131.2176
  1715.3000      8.5771      2.5575      0.4739      5.6069     27.2515    134.7690
  1715.4000      8.5771      2.5227      0.3979      7.7163     28.7994    136.5465
  1715.5000      8.7632      2.4533      0.2457     11.9204     29.6052    139.1524
  1715.6000      8.7632      2.4252      0.0605     13.6246     29.4011    140.7557
  1715.7000      8.7632      2.4757      0.1348     10.5647     29.0239    136.6806
  1715.8000      8.7109      2.5452      0.2596      6.3535     28.9541    131.4511
  1715.9000      8.7109      2.5512      0.2416      5.9893     28.8331    131.2268
  1716.0000      8.4062      2.4856      0.1533      9.9662     28.6927    132.5068
  1716.1000      8.4062      2.4136      0.0540     14.3293     28.8006    130.6949
  1716.2000      8.4062      2.3929      0.1576     15.5831     28.7263    130.4834
  1716.3000      8.1853      2.4105      0.2445     14.5163     28.1527    134.9591
  1716.4000      8.1853      2.4229      0.2791     13.7626     27.4966    139.7150
  1716.5000      8.1298      2.4164      0.2589     14.1601     27.0372    143.7722
  1716.6000      8.1298      2.3895      0.2441     15.7874     26.5687    147.2230
  1716.7000      8.1298      2.3387      0.1152     18.8661     25.7024    144.9960
