~Version Information
VERS.                      2.0: CWLS Log ASCII Standard - VERSION 2.0
WRAP.                       NO: One line per depth step
~Well Information Block
STRT.FT               375.0000: 
STOP.FT              2637.0000: 
STEP.FT                 0.1000: 
NULL.                -999.2500: 
COMP.          Pioneer Natural Resources: COMPANY
WELL.            Cortina 23-25: WELL
FLD.           Purgatoire River: FIELD
LOC.           2344' FWL & 2526' FSL----: LOCATION
PROV.                 Colorado: PROVINCE
CNTY.               Las Animas: COUNTRY
SRVC.                Patterson: SERVICE COMPANY
DATE.          Thu Mar 24 07:44:45 2005: LOG DATE
UWI.           05 071 08340 00: UNIQUE WELL ID
~Curve Information Block
DEPT.FT            0 000 00 00: Depth
DCAL.in                       : CDL Caliper
DPOR.pu                       : CDL Density Porosity
NPOR.pu                       : Neutron Porosity
RHOB.g/cc                     : CDL Bulk Density
RHOC.g/cc                     : CDL Density Correction
GR.GAPI                       : Gamma Ray
~Parameter Information Block
~A  Depth       DCAL        DPOR        NPOR        RHOB        RHOC         GR     
# ...
  1872.6000      8.1000      3.8195     27.9681      2.5870      0.1263    141.9650
  1872.7000      8.1000      3.6219     27.7975      2.5902      0.1507    122.4716
  1872.8000      8.0989      5.4072     27.0694      2.5608      0.0763    124.1792
  1872.9000      8.0989      8.4045     26.4954      2.5113      0.0351    135.2665
  1873.0000      8.0916     11.1545     26.2601      2.4660      0.0039    145.5557
  1873.1000      8.0916     13.2602     26.0788      2.4312     -0.0045    156.2155
  1873.2000      8.0916     14.9080     26.0133      2.4040      0.0075    168.0788
  1873.3000      8.0827     15.2825     26.3398      2.3978     -0.0479    173.3699
  1873.4000      8.0827     13.0486     26.9604      2.4347     -0.0461    179.8105
  1873.5000      8.0800      8.8738     27.4835      2.5036      0.0760    193.7020
  1873.6000      8.0800      5.1749     27.4525      2.5646      0.0877    196.1162
  1873.7000      8.0800      3.1491     27.0466      2.5980      0.1361    180.0874
  1873.8000      8.0888      2.4494     26.9247      2.6096      0.1483    167.4690
  1873.9000      8.0888      2.4556     26.9988      2.6095      0.1787    167.4453
  1874.0000      8.1088      2.9852     27.0453      2.6007      0.1857    162.4938
  1874.1000      8.1088      4.1533     27.2560      2.5815      0.1946    155.2222
  1874.2000      8.1088      5.3727     27.3615      2.5614      0.1047    163.7529
  1874.3000      8.1214      5.9485     27.4322      2.5519      0.1062    175.2134
  1874.4000      8.1214      6.4608     27.8968      2.5434      0.0654    170.5307
  1874.5000      8.1148      7.2275     28.2206      2.5307     -0.0080    156.6447
  1874.6000      8.1148      7.6494     27.9879      2.5238      0.0121    152.8099
  1874.7000      8.1148      8.3370     27.6943      2.5124      0.0551    167.8789
  1874.8000      8.1060     10.1375     27.7500      2.4827     -0.0192    183.9569
  1874.9000      8.1060     12.0872     28.1053      2.4506     -0.0093    179.9004
  1875.0000      8.1034     13.1451     28.2533      2.4331     -0.0080    159.6479
  1875.1000      8.1034     13.5948     27.9340      2.4257      0.0295    148.9784
  1875.2000      8.1034     13.8515     27.6690      2.4215      0.0425    159.1356
  1875.3000      8.1039     13.3501     27.6912      2.4297      0.0664    174.7828
  1875.4000      8.1039     11.5242     27.5165      2.4599      0.0781    177.5690
  1875.5000      8.1078      8.8916     27.0565      2.5033      0.1423    161.1264
  1875.6000      8.1078      6.3634     26.7714      2.5450      0.1762    140.6656
  1875.7000      8.1078      4.1118     26.7979      2.5822      0.2044    134.2058
  1875.8000      8.1215      2.0923     26.9544      2.6155      0.2728    136.9604
  1875.9000      8.1215      0.8757     27.0757      2.6356      0.2962    133.4630
  1876.0000      8.1457      0.8222     27.2261      2.6364      0.2636    128.8185
  1876.1000      8.1457      1.4537     27.3210      2.6260      0.2371    139.0623
  1876.2000      8.1457      2.2786     27.0141      2.6124      0.1769    158.9898
  1876.3000      8.1473      3.1340     26.4440      2.5983      0.1297    167.8179
  1876.4000      8.1473      3.7171     26.1124      2.5887      0.0654    162.0643
  1876.5000      8.1117      3.7508     26.2297      2.5881      0.0507    153.3576
  1876.6000      8.1117      3.7154     26.3981      2.5887      0.0725    145.3394
  1876.7000      8.1117      4.0828     26.2508      2.5826      0.0717    139.4241
  1876.8000      8.0839      4.1004     26.2052      2.5823      0.0013    140.4278
  1876.9000      8.0839      3.4238     26.6338      2.5935      0.0913    144.0768
  1877.0000      8.0794      2.7797     27.1813      2.6041      0.0640    142.3532
  1877.1000      8.0794      2.3463     27.4558      2.6113      0.0973    136.6030
  1877.2000      8.0794      2.1037     27.6257      2.6153      0.0592    135.1541
  1877.3000      8.0804      1.7866     27.9264      2.6205      0.0588    143.0777
  1877.4000      8.0804      1.0107     28.0151      2.6333      0.0739    150.1295
  1877.5000      8.0825      0.4560     27.4384      2.6425      0.0944    149.6287
  1877.6000      8.0825      0.7855     26.5640      2.6370      0.0956    152.6411
  1877.7000      8.0825      1.3455     25.9969      2.6278      0.0843    159.6967
  1877.8000      8.0880      1.4016     25.5253      2.6269      0.0700    161.6953
  1877.9000      8.0880      1.5171     24.9329      2.6250      0.0851    159.2025
  1878.0000      8.0908      2.6140     24.8482      2.6069      0.0806    151.9069
  1878.1000      8.0908      4.1622     25.2053      2.5813      0.0662    137.3040
  1878.2000      8.0908      5.0010     25.1029      2.5675      0.0354    121.0532
  1878.3000      8.0858      4.9881     24.5389      2.5677      0.0463    109.8228
  1878.4000      8.0858      4.5258     24.1967      2.5753      0.0137    104.7416
  1878.5000      8.0812      4.0718     24.3186      2.5828      0.0879    101.7963
  1878.6000      8.0812      3.9011     24.5054      2.5856      0.0296    101.3878
  1878.7000      8.0812      3.8898     24.4419      2.5858      0.0638    107.4709
  1878.8000      8.0791      4.1138     24.4742      2.5821      0.0455    119.8309
  1878.9000      8.0791      4.2050     24.6877      2.5806      0.0172    136.4649
  1879.0000      8.0764      3.8116     24.7756      2.5871      0.0671    157.5745
  1879.1000      8.0764      3.5458     25.0481      2.5915      0.0587    174.9458
  1879.2000      8.0764      3.6950     25.6269      2.5890      0.0495    178.9756
  1879.3000      8.0741      3.8031     25.7299      2.5872      0.0264    170.8019
  1879.4000      8.0741      4.1467     25.4045      2.5816      0.0924    156.0334
  1879.5000      8.0741      5.8135     25.3331      2.5541      0.0439    144.8931
  1879.6000      8.0741      8.7427     25.5053      2.5057     -0.0003    140.2580
  1879.7000      8.0741     11.9910     25.8489      2.4521     -0.0185    139.7827
  1879.8000      8.0759     15.3073     26.2774      2.3974      0.0020    145.9067
  1879.9000      8.0759     18.4053     26.6309      2.3463     -0.0177    158.6730
  1880.0000      8.0776     19.8607     27.0619      2.3223     -0.0581    171.5690
  1880.1000      8.0776     18.7541     27.5039      2.3406      0.0098    175.7581
  1880.2000      8.0776     16.0188     27.7270      2.3857      0.0542    171.1552
  1880.3000      8.0814     12.8701     27.7874      2.4376      0.0932    165.4513
  1880.4000      8.0814     10.2671     27.6072      2.4806      0.1821    162.3718
  1880.5000      8.0933      9.5386     27.3461      2.4926      0.2347    163.3331
  1880.6000      8.0933     11.0409     27.4438      2.4678      0.2466    171.8828
  1880.7000      8.0933     13.3741     27.6652      2.4293      0.2571    183.9652
  1880.8000      8.1166     14.5949     27.8058      2.4092      0.1988    187.1208
  1880.9000      8.1166     13.8840     28.3740      2.4209      0.1919    177.5660
  1881.0000      8.1413     12.8736     29.3332      2.4376      0.2350    164.6110
  1881.1000      8.1413     13.7276     30.1838      2.4235      0.1603    161.5034
  1881.2000      8.1413     15.9689     31.0757      2.3865      0.1296    174.8943
  1881.3000      8.1566     17.8918     31.8901      2.3548      0.1297    192.5260
  1881.4000      8.1566     19.2161     32.2282      2.3329      0.1365    198.0974
  1881.5000      8.1774     20.6067     32.3494      2.3100      0.1358    184.9668
  1881.6000      8.1774     22.4338     32.4023      2.2798      0.1626    162.1053
  1881.7000      8.1774     24.8539     32.3107      2.2399      0.1301    144.7314
  1881.8000      8.2058     27.8479     32.2305      2.1905      0.1233    141.2324
  1881.9000      8.2058     31.0943     32.2578      2.1369      0.0639    152.6773
  1882.0000      8.2070     33.9925     32.3018      2.0891      0.0529    165.9398
  1882.1000      8.2070     35.9786     32.2541      2.0564     -0.0043    165.9627
