~Version Information
VERS.                      2.0: CWLS Log ASCII Standard - VERSION 2.0
WRAP.                       NO: One line per depth step
~Well Information Block
STRT.FT               -12.5000: 
STOP.FT              2284.7500: 
STEP.FT                 0.2500: 
NULL.                -999.2500: 
COMP.          Pioneer Natural Resources: COMPANY
WELL.          Hill Climb 22-2: WELL
FLD.           Purgatorie River: FIELD
LOC.           1820' FNL & 2193' FWL--: LOCATION
PROV.                       CO: PROVINCE
CNTY.               Las Animas: COUNTRY
SRVC.                         : SERVICE COMPANY
DATE.          Fri Oct 22 11:44:16 2004: LOG DATE
UWI.                          : UNIQUE WELL ID
~Curve Information Block
DEPT.FT            0 000 00 00: Depth
GR.GAPI                       : Gamma Ray
CCL.                          : Casing Collar Locator
TT3.usec                      : CBL 3' Travel Time
AMP3.mV                       : CBL 3' Amplitude
~Parameter Information Block
~A  Depth        GR         CCL         TT3         AMP3    
# ...
   456.5000     93.0892      0.0000    265.2622     65.7824
   456.7500     92.1279      0.0000    264.6774     65.3499
   457.0000     91.5131      0.0000    263.5999     66.2231
   457.2500     91.5544      0.0000    262.2072     68.5796
   457.5000     91.7529      0.0000    260.8517     72.0523
   457.7500     91.7044      0.0000    259.8288     75.8068
   458.0000     91.5781      0.0000    259.2205     78.9460
   458.2500     91.7139      0.0000    258.9308     81.0108
   458.5000     91.9342      0.0000    258.8157     82.1052
   458.7500     91.4858      0.0000    258.7726     82.6043
   459.0000     89.9958      0.0000    258.7542     82.8341
   459.2500     88.3827      0.0000    258.7458     82.9643
   459.5000     88.2125      0.0000    258.7437     83.0532
   459.7500     90.1203      0.0000    258.7450     83.1102
   460.0000     93.3355      0.0000    258.7445     83.1323
   460.2500     96.5916      0.0000    258.7379     83.1150
   460.5000     98.9530      0.0000    258.7249     83.0594
   460.7500     99.8918      0.0000    258.7093     82.9817
   461.0000     99.1054      0.0000    258.6950     82.9117
   461.2500     96.3748      0.0000    258.6830     82.8795
   461.5000     91.7960      0.0000    258.6739     82.9002
   461.7500     86.5768      0.0000    258.6692     82.9686
   462.0000     83.0884      0.0000    258.6680     83.0656
   462.2500     83.1056      0.0000    258.6657     83.1672
   462.5000     86.0367      0.0000    258.6600     83.2470
   462.7500     89.3842      0.0000    258.6545     83.2757
   463.0000     90.7477      0.0000    258.6536     83.2372
   463.2500     89.2998      0.0000    258.6552     83.1536
   463.5000     85.7900      0.0000    258.6522     83.0768
   463.7500     81.4439      0.0000    258.6399     83.0419
   464.0000     76.9263      0.0000    258.6232     83.0413
   464.2500     72.4918      0.0000    258.6128     83.0489
   464.5000     68.7839      0.0000    258.6157     83.0525
   464.7500     66.8178      0.0000    258.6296     83.0547
   465.0000     67.1076      0.0000    258.6473     83.0594
   465.2500     68.9829      0.0000    258.6647     83.0656
   465.5000     70.7469      0.0000    258.6822     83.0653
   465.7500     70.6459      0.0000    258.7003     83.0487
   466.0000     68.1339      0.0000    258.7173     83.0220
   466.2500     64.3897      0.0000    258.7286     83.0117
   466.5000     61.4813      0.0000    258.7305     83.0330
   466.7500     60.9195      0.0000    258.7240     83.0634
   467.0000     62.9575      0.0000    258.7151     83.0637
   467.2500     66.8905      0.0000    258.7087     83.0205
   467.5000     71.7204      0.0000    258.7036     82.9562
   467.7500     76.7533      0.0000    258.6960     82.9030
   468.0000     81.9671      0.0000    258.6861     82.8794
   468.2500     87.7792      0.0000    258.6774     82.8826
   468.5000     94.2390      0.0000    258.6745     82.8981
   468.7500    100.5232      0.0000    258.6813     82.9173
   469.0000    105.5390      0.0000    258.6989     82.9438
   469.2500    108.9880      0.0000    258.7239     82.9763
   469.5000    111.4449      0.0000    258.7500     82.9930
   469.7500    113.1436      0.0000    258.7720     82.9637
   470.0000    113.0257      0.0000    258.7869     82.8782
   470.2500    109.7041      0.0000    258.7933     82.7587
   470.5000    103.5632      0.0000    258.7909     82.6504
   470.7500     97.1308      0.0000    258.7802     82.5990
   471.0000     92.9386      0.0000    258.7617     82.6264
   471.2500     91.5281      0.0000    258.7398     82.7180
   471.5000     91.7791      0.0000    258.7237     82.8305
   471.7500     92.5468      0.0000    258.7208     82.9179
   472.0000     93.5993      0.0000    258.7297     82.9565
   472.2500     95.2230      0.0000    258.7419     82.9564
   472.5000     97.3484      0.0000    258.7493     82.9478
   472.7500     99.3755      0.0000    258.7500     82.9500
   473.0000    100.8350      0.0000    258.7477     82.9617
   473.2500    101.7339      0.0000    258.7472     82.9809
   473.5000    102.0684      0.0000    258.7484     83.0159
   473.7500    101.4110      0.0000    258.7466     83.0625
   474.0000     99.2330      0.0000    258.7400     83.0854
   474.2500     95.5218      0.0000    258.7344     83.0396
   474.5000     91.1755      0.0000    258.7363     82.9141
   474.7500     87.7984      0.0000    258.7448     82.7554
   475.0000     86.6353      0.0000    258.7513     82.6428
   475.2500     87.3920      0.0000    258.7486     82.6267
   475.5000     88.4477      0.0000    258.7372     82.6873
   475.7500     88.4834      0.0000    258.7257     82.7659
   476.0000     87.6648      0.0000    258.7225     82.8280
   476.2500     87.1901      0.0000    258.7272     82.8828
   476.5000     88.1213      0.0000    258.7306     82.9526
   476.7500     90.7190      0.0000    258.7244     83.0397
   477.0000     94.2972      0.0000    258.7120     83.1149
   477.2500     97.4453      0.0000    258.7067     83.1308
   477.5000     98.8043      0.0000    258.7195     83.0571
   477.7500     97.8336      0.0000    258.7488     82.9089
   478.0000     94.6815      0.0000    258.7807     82.7386
   478.2500     89.6970      0.0000    258.7991     82.6082
   478.5000     83.6722      0.0000    258.7961     82.5625
   478.7500     78.2813      0.0000    258.7770     82.6080
   479.0000     75.4698      0.0000    258.7538     82.7092
   479.2500     75.9936      0.0000    258.7351     82.8164
   479.5000     78.6740      0.0000    258.7245     82.8989
   479.7500     81.6854      0.0000    258.7229     82.9445
   480.0000     84.7198      0.0000    258.7300     82.9414
   480.2500     89.0245      0.0000    258.7430     82.8839
   480.5000     95.0268      0.0000    258.7549     82.7956
   480.7500    101.1987      0.0000    258.7578     82.7223
   481.0000    106.1306      0.0000    258.7493     82.6952
   481.2500    110.6821      0.0000    258.7357     82.7103
   481.5000    116.8791      0.0000    258.7266     82.7417
   481.7500    125.0523      0.0000    258.7271     82.7652
   482.0000    132.9322      0.0000    258.7347     82.7772
   482.2500    137.5206      0.0000    258.7415     82.7966
   482.5000    137.4005      0.0000    258.7397     82.8412
   482.7500    133.5180      0.0000    258.7256     82.9077
   483.0000    128.4176      0.0000    258.7032     82.9786
   483.2500    124.8484      0.0000    258.6808     83.0396
   483.5000    124.6125      0.0000    258.6663     83.0747
   483.7500    128.1348      0.0000    258.6640     83.0622
   484.0000    134.3547      0.0000    258.6734     82.9983
   484.2500    140.7717      0.0000    258.6886     82.9136
   484.5000    144.5934      0.0000    258.7013     82.8491
   484.7500    144.9245      0.0000    258.7078     82.8217
   485.0000    143.6279      0.0000    258.7109     82.8189
   485.2500    143.2640      0.0000    258.7158     82.8171
   485.5000    144.1596      0.0000    258.7262     82.8026
   485.7500    143.8451      0.0000    258.7418     82.7830
   486.0000    139.3488      0.0000    258.7589     82.7740
   486.2500    129.8099      0.0000    258.7731     82.7785
   486.5000    116.9296      0.0000    258.7826     82.7891
   486.7500    103.4053      0.0000    258.7868     82.8093
   487.0000     91.3023      0.0000    258.7852     82.8500
   487.2500     81.5214      0.0000    258.7780     82.9054
   487.5000     74.0147      0.0000    258.7682     82.9507
   487.7500     68.1789      0.0000    258.7596     82.9666
   488.0000     63.3416      0.0000    258.7533     82.9520
   488.2500     59.2713      0.0000    258.7484     82.9171
   488.5000     56.2002      0.0000    258.7451     82.8760
   488.7500     54.1489      0.0000    258.7439     82.8401
   489.0000     52.4851      0.0000    258.7449     82.8111
   489.2500     50.5076      0.0000    258.7483     82.7886
   489.5000     48.2795      0.0000    258.7538     82.7845
   489.7500     46.4589      0.0000    258.7581     82.8168
