~Version Information
VERS.                      2.0: CWLS Log ASCII Standard - VERSION 2.0
WRAP.                       NO: One line per depth step
~Well Information Block
STRT.FT               780.0000: 
STOP.FT              3152.2000: 
STEP.FT                 0.1000: 
NULL.                -999.2500: 
COMP.          Pioneer Natural Resources: COMPANY
WELL.            Paradise 13-8: WELL
FLD.           Purgatoire River: FIELD
LOC.           1896' FSL & 1120' FWL: LOCATION
PROV.                 Colorado: PROVINCE
CNTY.               Las Animas: COUNTRY
SRVC.                Patterson: SERVICE COMPANY
DATE.          Sat Jan 22 20:51:32 2005: LOG DATE
UWI.           05 071 07946 00: UNIQUE WELL ID
~Curve Information Block
DEPT.FT            0 000 00 00: Depth
DCAL.in                       : CDL Caliper
RHOB.g/cc                     : CDL Bulk Density
RHOC.g/cc                     : CDL Density Correction
DPOR.pu                       : CDL Density Porosity
NPOR.pu                       : Neutron Porosity
GR.GAPI                       : Gamma Ray
~Parameter Information Block
~A  Depth       DCAL        RHOB        RHOC        DPOR        NPOR         GR     
# ...
  2028.0000      7.9235      2.3615     -0.0084     17.4839     30.3088    140.4104
  2028.1000      7.9235      2.3503     -0.0292     18.1647     30.6946    141.7046
  2028.2000      7.9235      2.3602      0.0014     17.5658     30.6806    134.0480
  2028.3000      7.9204      2.3821      0.0638     16.2380     30.4806    124.4471
  2028.4000      7.9204      2.3969      0.1073     15.3410     30.8064    125.1686
  2028.5000      7.9185      2.4088      0.0742     14.6161     30.9948    131.5704
  2028.6000      7.9185      2.4409      0.0975     12.6706     30.4391    135.8019
  2028.7000      7.9185      2.4849      0.1835     10.0062     29.7308    141.4142
  2028.8000      7.9174      2.5074      0.1295      8.6445     29.1460    148.5970
  2028.9000      7.9174      2.5030      0.0956      8.9117     28.5565    149.4380
  2029.0000      7.9157      2.4943      0.0657      9.4339     28.1905    144.4472
  2029.1000      7.9157      2.5036      0.0338      8.8721     28.0238    140.7223
  2029.2000      7.9157      2.5266      0.1008      7.4784     27.9141    136.2451
  2029.3000      7.9146      2.5425      0.0823      6.5128     28.1939    128.0180
  2029.4000      7.9146      2.5489      0.0634      6.1302     28.7991    122.4840
  2029.5000      7.9165      2.5555      0.0871      5.7270     28.9600    124.9405
  2029.6000      7.9165      2.5663      0.0870      5.0722     28.5293    130.2816
  2029.7000      7.9165      2.5788      0.0979      4.3128     27.9915    129.2697
  2029.8000      7.9180      2.5949      0.1327      3.3372     27.4919    123.2484
  2029.9000      7.9180      2.6242      0.1062      1.5636     27.2162    120.3836
  2030.0000      7.9197      2.6677      0.1194     -1.0757     27.3836    123.2546
  2030.1000      7.9197      2.7079      0.1202     -3.5102     27.4775    129.0855
  2030.2000      7.9197      2.7275      0.1238     -4.6943     27.1677    131.9785
  2030.3000      7.9202      2.7226      0.1467     -4.4001     26.9217    129.9418
  2030.4000      7.9202      2.6981      0.1383     -2.9145     26.9339    126.8223
  2030.5000      7.9184      2.6631      0.0689     -0.7949     26.6612    123.7795
  2030.6000      7.9184      2.6266      0.0411      1.4210     25.9374    122.7765
  2030.7000      7.9184      2.5960     -0.0086      3.2757     25.3785    126.6114
  2030.8000      7.9162      2.5713      0.0153      4.7699     25.4732    132.7144
  2030.9000      7.9162      2.5456     -0.0400      6.3268     25.9521    136.5954
  2031.0000      7.9156      2.5265     -0.1001      7.4872     26.2608    134.8435
  2031.1000      7.9156      2.5209     -0.0104      7.8234     26.3561    129.0157
  2031.2000      7.9156      2.5176      0.0117      8.0272     25.9456    125.8809
  2031.3000      7.9154      2.5183      0.0297      7.9797     24.9209    126.5512
  2031.4000      7.9154      2.5319      0.0703      7.1567     24.4043    126.5494
  2031.5000      7.9142      2.5489      0.0816      6.1245     24.9608    127.7748
  2031.6000      7.9142      2.5620      0.1221      5.3315     25.6791    132.2506
  2031.7000      7.9142      2.5707      0.1082      4.8062     25.9920    134.7687
  2031.8000      7.9121      2.5753      0.1063      4.5270     25.9332    130.9655
  2031.9000      7.9121      2.5845      0.0594      3.9725     25.7298    122.9334
  2032.0000      7.9117      2.6007      0.1049      2.9858     25.8824    115.8316
  2032.1000      7.9117      2.6075      0.0962      2.5785     26.2891    114.2226
  2032.2000      7.9117      2.5946      0.0892      3.3554     26.3840    117.1196
  2032.3000      7.9142      2.5751      0.0731      4.5407     25.9470    120.2337
  2032.4000      7.9142      2.5619      0.0781      5.3388     25.2538    120.1029
  2032.5000      7.9155      2.5510      0.0401      6.0000     25.1687    116.0164
  2032.6000      7.9155      2.5371      0.0440      6.8413     25.9690    114.2354
  2032.7000      7.9155      2.5326      0.0004      7.1160     26.5099    121.0315
  2032.8000      7.9123      2.5566      0.0076      5.6618     26.4122    128.7078
  2032.9000      7.9123      2.5992      0.0702      3.0787     26.6043    124.5800
  2033.0000      7.9072      2.6286      0.0966      1.2949     27.2594    114.0533
  2033.1000      7.9072      2.6316      0.0806      1.1153     27.9750    111.3011
  2033.2000      7.9072      2.6080      0.0768      2.5452     28.7438    114.6066
  2033.3000      7.9051      2.5634      0.0510      5.2461     29.3096    113.4233
  2033.4000      7.9051      2.5221      0.0281      7.7498     28.9986    106.4601
  2033.5000      7.9057      2.5078      0.0473      8.6172     27.9760     99.5523
  2033.6000      7.9057      2.5236      0.0470      7.6576     27.3532    100.0775
  2033.7000      7.9057      2.5574      0.0537      5.6151     27.6368    108.7423
  2033.8000      7.9073      2.5893      0.0837      3.6803     28.0951    114.3580
  2033.9000      7.9073      2.6059      0.1304      2.6747     28.0523    112.0995
  2034.0000      7.9098      2.6083      0.1123      2.5292     27.8498    111.3311
  2034.1000      7.9098      2.5986      0.1337      3.1182     28.0457    111.1609
  2034.2000      7.9098      2.5714      0.0951      4.7644     28.0746    102.0730
  2034.3000      7.9131      2.5355      0.0498      6.9364     27.3313     86.6866
  2034.4000      7.9131      2.5020      0.1077      8.9686     26.3956     75.8353
  2034.5000      7.9134      2.4579      0.0111     11.6422     25.7046     75.2927
  2034.6000      7.9134      2.4007     -0.0478     15.1092     25.3041     78.1208
  2034.7000      7.9134      2.3512     -0.0643     18.1101     25.8749     77.3627
  2034.8000      7.9102      2.3147      0.0551     20.3187     27.8259     77.9322
  2034.9000      7.9102      2.2714      0.0318     22.9474     29.9610     84.1864
  2035.0000      7.9075      2.2184      0.0062     26.1582     30.7451     92.9066
  2035.1000      7.9075      2.1745      0.0391     28.8172     30.4403     99.8766
  2035.2000      7.9075      2.1449      0.0709     30.6121     30.2490    101.2959
  2035.3000      7.9129      2.1119      0.0879     32.6115     30.3731     97.6612
  2035.4000      7.9129      2.0604      0.0069     35.7320     30.6377     95.7821
  2035.5000      7.9309      2.0014      0.0001     39.3120     31.1802     98.9653
  2035.6000      7.9309      1.9490      0.0094     42.4862     31.9864    104.8530
  2035.7000      7.9309      1.9040      0.0021     45.2119     32.9662    111.9768
  2035.8000      7.9475      1.8690     -0.0325     47.3354     34.0025    115.1339
  2035.9000      7.9475      1.8452      0.0281     48.7772     34.6455    107.7481
  2036.0000      7.9468      1.8152      0.0802     50.5928     34.4921     93.6858
  2036.1000      7.9468      1.7572      0.0472     54.1118     34.0103     83.1426
  2036.2000      7.9468      1.6790     -0.0293     58.8459     33.8502     80.4347
  2036.3000      7.9416      1.6115     -0.0288     62.9423     34.0041     81.8373
  2036.4000      7.9416      1.5634      0.0289     65.8566     34.6340     80.9850
  2036.5000      7.9388      1.5138      0.0250     68.8632     35.6654     78.7925
  2036.6000      7.9388      1.4512     -0.0147     72.6554     36.2724     77.8302
  2036.7000      7.9388      1.3994     -0.0801     75.7936     36.1115     72.1437
  2036.8000      7.9316      1.3837     -0.0025     76.7465     35.5764     61.2945
  2036.9000      7.9316      1.3934      0.0461     76.1568     35.2458     53.5280
  2037.0000      7.9208      1.4079      0.0477     75.2759     35.3146     51.2336
  2037.1000      7.9208      1.4200      0.0877     74.5476     35.4139     50.7023
  2037.2000      7.9208      1.4252      0.0859     74.2290     35.3045     49.2894
  2037.3000      7.9145      1.4216      0.0968     74.4479     35.1893     46.6068
  2037.4000      7.9145      1.4148      0.0766     74.8606     35.1303     45.3285
  2037.5000      7.9227      1.4219      0.0444     74.4292     34.9603     48.4744
