~Version Information
VERS.                      2.0: CWLS Log ASCII Standard - VERSION 2.0
WRAP.                       NO: One line per depth step
~Well Information Block
STRT.FT               928.1000: 
STOP.FT              2417.7000: 
STEP.FT                 0.1000: 
NULL.                -999.2500: 
COMP.          Pioneer Natural Resources: COMPANY
WELL.            Chevron 13-13: WELL
FLD.           Purgatoire River: FIELD
LOC.           1560' FSL & 711' FWL--: LOCATION
CNTY.               Las Animas: COUNTY
SRVC.          Superior Well Services: SERVICE COMPANY
DATE.          Mon Feb 12 14:51:53 2007: LOG DATE
UWI.           05 071 08319 00: UNIQUE WELL ID
STAT.                 Colorado: STATE
~Curve Information Block
DEPT.FT            0 000 00 00: Depth
DIR.Ohm-m                     : IEL Induction Resistivity
GR.GAPI                       : Gamma Ray
SN.Ohm-m                      : IEL Short Normal
SP.mV                         : IEL Spontaneous Potential
~Parameter Information Block
~A  Depth       DIR          GR          SN          SP     
# ...
  1437.3000      7.0298     98.1249      8.8602    -43.6439
  1437.4000      7.0298     99.4124      8.8602    -43.6439
  1437.5000      6.9705    100.6602      8.7201    -43.5983
  1437.6000      6.9705    101.8686      8.7201    -43.5983
  1437.7000      6.9705    103.0174      8.7201    -43.5983
  1437.8000      6.9026    104.0685      8.5367    -43.5454
  1437.9000      6.9026    104.9720      8.5367    -43.5454
  1438.0000      6.8410    105.6737      8.3487    -43.4863
  1438.1000      6.8410    106.1328      8.3487    -43.4863
  1438.2000      6.8410    106.3287      8.3487    -43.4863
  1438.3000      6.7948    106.2772      8.1535    -43.4201
  1438.4000      6.7948    106.0338      8.1535    -43.4201
  1438.5000      6.7646    105.6920      7.8495    -43.3449
  1438.6000      6.7646    105.3712      7.8495    -43.3449
  1438.7000      6.7646    105.1977      7.8495    -43.3449
  1438.8000      6.7436    105.2873      7.3591    -43.2585
  1438.9000      6.7436    105.7230      7.3591    -43.2585
  1439.0000      6.7238    106.5431      6.7590    -43.1593
  1439.1000      6.7238    107.7314      6.7590    -43.1593
  1439.2000      6.7238    109.2232      6.7590    -43.1593
  1439.3000      6.6998    110.9131      6.1323    -43.0474
  1439.4000      6.6998    112.6746      6.1323    -43.0474
  1439.5000      6.6704    114.3785      5.6344    -42.9244
  1439.6000      6.6704    115.9085      5.6344    -42.9244
  1439.7000      6.6704    117.1760      5.6344    -42.9244
  1439.8000      6.6355    118.1264      5.4768    -42.7944
  1439.9000      6.6355    118.7394      5.4768    -42.7944
  1440.0000      6.5925    119.0285      5.6657    -42.6634
  1440.1000      6.5925    119.0300      5.6657    -42.6634
  1440.2000      6.5925    118.7987      5.6657    -42.6634
  1440.3000      6.5355    118.3979      6.0469    -42.5388
  1440.4000      6.5355    117.8962      6.0469    -42.5388
  1440.5000      6.4566    117.3585      6.3953    -42.4283
  1440.6000      6.4566    116.8495      6.3953    -42.4283
  1440.7000      6.4566    116.4291      6.3953    -42.4283
  1440.8000      6.3504    116.1508      6.5533    -42.3389
  1440.9000      6.3504    116.0612      6.5533    -42.3389
  1441.0000      6.2180    116.1985      6.5432    -42.2748
  1441.1000      6.2180    116.5864      6.5432    -42.2748
  1441.2000      6.2180    117.2306      6.5432    -42.2748
  1441.3000      6.0696    118.1159      6.4814    -42.2371
  1441.4000      6.0696    119.2029      6.4814    -42.2371
  1441.5000      5.9219    120.4297      6.4920    -42.2229
  1441.6000      5.9219    121.7168      6.4920    -42.2229
  1441.7000      5.9219    122.9806      6.4920    -42.2229
  1441.8000      5.7933    124.1442      6.6231    -42.2260
  1441.9000      5.7933    125.1494      6.6231    -42.2260
  1442.0000      5.7006    125.9638      6.8184    -42.2384
  1442.1000      5.7006    126.5867      6.8184    -42.2384
  1442.2000      5.7006    127.0401      6.8184    -42.2384
  1442.3000      5.6572    127.3622      6.9665    -42.2522
  1442.4000      5.6572    127.5904      6.9665    -42.2522
  1442.5000      5.6733    127.7495      7.0446    -42.2625
  1442.6000      5.6733    127.8391      7.0446    -42.2625
  1442.7000      5.6733    127.8346      7.0446    -42.2625
  1442.8000      5.7559    127.6846      7.1045    -42.2683
  1442.9000      5.7559    127.3201      7.1045    -42.2683
  1443.0000      5.9078    126.6646      7.1776    -42.2739
  1443.1000      5.9078    125.6453      7.1776    -42.2739
  1443.2000      5.9078    124.2057      7.1776    -42.2739
  1443.3000      6.1270    122.3117      7.2307    -42.2881
  1443.4000      6.1270    119.9621      7.2307    -42.2881
  1443.5000      6.4064    117.1899      7.2116    -42.3219
  1443.6000      6.4064    114.0643      7.2116    -42.3219
  1443.7000      6.4064    110.6902      7.2116    -42.3219
  1443.8000      6.7347    107.2015      7.1338    -42.3866
  1443.9000      6.7347    103.7513      7.1338    -42.3866
  1444.0000      7.0985    100.5020      7.0436    -42.4904
  1444.1000      7.0985     97.6115      7.0436    -42.4904
  1444.2000      7.0985     95.2225      7.0436    -42.4904
  1444.3000      7.4859     93.4507      7.0754    -42.6372
  1444.4000      7.4859     92.3787      7.0754    -42.6372
  1444.5000      7.8869     92.0526      7.3976    -42.8258
  1444.6000      7.8869     92.4831      7.3976    -42.8258
  1444.7000      7.8869     93.6401      7.3976    -42.8258
  1444.8000      8.2922     95.4606      8.0568    -43.0507
  1444.9000      8.2922     97.8490      8.0568    -43.0507
  1445.0000      8.6896    100.6824      9.1191    -43.3034
  1445.1000      8.6896    103.8173      9.1191    -43.3034
  1445.2000      8.6896    107.0987      9.1191    -43.3034
  1445.3000      9.0624    110.3713     10.3396    -43.5743
  1445.4000      9.0624    113.4928     10.3396    -43.5743
  1445.5000      9.3927    116.3432     11.2668    -43.8542
  1445.6000      9.3927    118.8328     11.2668    -43.8542
  1445.7000      9.3927    120.9047     11.2668    -43.8542
  1445.8000      9.6688    122.5284     11.9522    -44.1343
  1445.9000      9.6688    123.6950     11.9522    -44.1343
  1446.0000      9.8913    124.4066     12.4535    -44.4068
  1446.1000      9.8913    124.6696     12.4535    -44.4068
  1446.2000      9.8913    124.4887     12.4535    -44.4068
  1446.3000     10.0734    123.8663     12.6898    -44.6640
  1446.4000     10.0734    122.8101     12.6898    -44.6640
  1446.5000     10.2345    121.3359     12.7393    -44.8983
  1446.6000     10.2345    119.4763     12.7393    -44.8983
  1446.7000     10.2345    117.2855     12.7393    -44.8983
  1446.8000     10.3927    114.8360     12.6982    -45.1020
  1446.9000     10.3927    112.2196     12.6982    -45.1020
  1447.0000     10.5601    109.5355     12.6104    -45.2678
  1447.1000     10.5601    106.8847     12.6104    -45.2678
  1447.2000     10.5601    104.3624     12.6104    -45.2678
  1447.3000     10.7426    102.0505     12.4817    -45.3911
  1447.4000     10.7426    100.0190     12.4817    -45.3911
  1447.5000     10.9444     98.3235     12.3711    -45.4705
  1447.6000     10.9444     97.0078     12.3711    -45.4705
  1447.7000     10.9444     96.1071     12.3711    -45.4705
  1447.8000     11.1730     95.6455     12.4069    -45.5093
  1447.9000     11.1730     95.6362     12.4069    -45.5093
  1448.0000     11.4396     96.0794     12.6871    -45.5161
  1448.1000     11.4396     96.9592     12.6871    -45.5161
  1448.2000     11.4396     98.2389     12.6871    -45.5161
  1448.3000     11.7535     99.8634     13.2251    -45.5042
  1448.4000     11.7535    101.7546     13.2251    -45.5042
  1448.5000     12.1113    103.8214     13.8171    -45.4896
  1448.6000     12.1113    105.9603     13.8171    -45.4896
  1448.7000     12.1113    108.0636     13.8171    -45.4896
  1448.8000     12.4899    110.0280     14.2603    -45.4887
  1448.9000     12.4899    111.7566     14.2603    -45.4887
  1449.0000     12.8494    113.1704     14.5043    -45.5162
  1449.1000     12.8494    114.2081     14.5043    -45.5162
  1449.2000     12.8494    114.8313     14.5043    -45.5162
  1449.3000     13.1485    115.0268     14.5928    -45.5816
  1449.4000     13.1485    114.8058     14.5928    -45.5816
  1449.5000     13.3611    114.1981     14.6089    -45.6885
  1449.6000     13.3611    113.2530     14.6089    -45.6885
  1449.7000     13.3611    112.0291     14.6089    -45.6885
  1449.8000     13.4833    110.5915     14.5643    -45.8334
  1449.9000     13.4833    109.0072     14.5643    -45.8334
  1450.0000     13.5269    107.3422     14.4607    -46.0051
  1450.1000     13.5269    105.6614     14.4607    -46.0051
  1450.2000     13.5269    104.0309     14.4607    -46.0051
  1450.3000     13.5094    102.5198     14.2943    -46.1861
  1450.4000     13.5094    101.2016     14.2943    -46.1861
  1450.5000     13.4489    100.1497     14.0907    -46.3534
  1450.6000     13.4489     99.4375     14.0907    -46.3534
