~Version Information
VERS.                      2.0: CWLS Log ASCII Standard - VERSION 2.0
WRAP.                       NO: One line per depth step
~Well Information Block
STRT.FT                -7.5000: 
STOP.FT              1545.0000: 
STEP.FT                 0.2500: 
NULL.                -999.2500: 
COMP.          Pioneer Natural Resources: COMPANY
WELL.          Kristin 22-23 Tr: WELL
FLD.           Purgatorie River: FIELD
LOC.           2273' FNL & 2029' FWL--: LOCATION
PROV.                       CO: PROVINCE
CNTY.               Las Animas: COUNTRY
SRVC.                         : SERVICE COMPANY
DATE.          Tue Jan 25 11:16:36 2005: LOG DATE
UWI.           071-08259      : UNIQUE WELL ID
~Curve Information Block
DEPT.FT            0 000 00 00: Depth
CCL.                          : Casing Collar Locator
TT3.usec                      : CBL 3' Travel Time
AMP3.mV                       : CBL 3' Amplitude
GR.GAPI                       : Gamma Ray
~Parameter Information Block
~A  Depth       CCL         TT3         AMP3         GR     
# ...
    93.0000      0.0000    757.4741      6.5584    108.5814
    93.2500      0.0000    757.4315      6.5223    111.6528
    93.5000      0.0000    757.6469      6.4654    109.6516
    93.7500      0.0000    758.1252      6.3822    104.4907
    94.0000      0.0000    759.1395      6.2762     99.3364
    94.2500      0.0000    761.3127      6.1685     96.4723
    94.5000      0.0000    765.1797      6.0895     95.8348
    94.7500      0.0000    770.3055      6.0579     95.3874
    95.0000      0.0000    775.0884      6.0679     92.8331
    95.2500      0.0000    777.9967      6.1002     87.3301
    95.5000      0.0000    779.0504      6.1377     80.2093
    95.7500      0.0000    779.6737      6.1681     74.2465
    96.0000      0.0000    781.1213      6.1808     71.6799
    96.2500      0.0000    783.2877      6.1731     72.4756
    96.5000      0.0000    784.7852      6.1553     74.6286
    96.7500      0.0000    783.9983      6.1429     76.1822
    97.0000      0.0000    780.6121      6.1422     76.6758
    97.2500      0.0000    776.5033      6.1438     76.8086
    97.5000      0.0000    774.7206      6.1269     77.3492
    97.7500      0.0000    777.0707      6.0700     78.5205
    98.0000      0.0000    782.6721      5.9644     79.9790
    98.2500      0.0000    788.9176      5.8193     81.1743
    98.5000      0.0000    793.5898      5.6557     81.8545
    98.7500      0.0000    795.9114      5.4933     82.2930
    99.0000      0.0000    795.9742      5.3434     83.0223
    99.2500      0.0000    793.7647      5.2113     84.3484
    99.5000      0.0000    789.0419      5.0988     86.0207
    99.7500      0.0000    782.0941      4.9979     87.3503
   100.0000      0.0000    774.3192      4.8898     87.8923
   100.2500      0.0000    767.6640      4.7573     88.0416
   100.5000      0.0000    763.3572      4.6020     88.7208
   100.7500      0.0000    761.2990      4.4466     90.4710
   101.0000      0.0000    760.5679      4.3207     93.0929
   101.2500      0.0000    760.1484      4.2400     96.1254
   101.5000      0.0000    759.1148      4.1962     99.2881
   101.7500      0.0000    756.5818      4.1716    102.2731
   102.0000      0.0000    752.1626      4.1632    104.4363
   102.2500      0.0000    746.8342      4.1919    105.0839
   102.5000      0.0000    742.9793      4.2807    104.1059
   102.7500      0.0000    742.7889      4.4266    102.0946
   103.0000      0.0000    746.3404      4.5949     99.6726
   103.2500      0.0000    751.5622      4.7433     96.8102
   103.5000      0.0000    756.0830      4.8537     93.0533
   103.7500      0.0000    758.8054      4.9440     88.3991
   104.0000      0.0000    759.9379      5.0506     83.7073
   104.2500      0.0000    760.1531      5.1958     80.1308
   104.5000      0.0000    759.8997      5.3701     78.2233
   104.7500      0.0000    759.1786      5.5423     77.6147
   105.0000      0.0000    757.7526      5.6883     77.3754
   105.2500      0.0000    755.7144      5.8055     76.6485
   105.5000      0.0000    753.9805      5.9028     75.0469
   105.7500      0.0000    754.0051      5.9804     72.5286
   106.0000      0.0000    756.6613      6.0260     69.0898
   106.2500      0.0000    761.3321      6.0277     64.8475
   106.5000      0.0000    766.2437      5.9893     60.2651
   106.7500      0.0000    769.7401      5.9304     55.8701
   107.0000      0.0000    771.2266      5.8750     51.8364
   107.2500      0.0000    770.9553      5.8412     48.2142
   107.5000      0.0000    769.2529      5.8374     45.4465
   107.7500      0.0000    766.3772      5.8656     44.1723
   108.0000      0.0000    762.9166      5.9264     44.4513
   108.2500      0.0000    759.7394      6.0172     45.5416
   108.5000      0.0000    757.5214      6.1226     46.5939
   108.7500      0.0000    756.6346      6.2115     47.2066
   109.0000      0.0000    757.3062      6.2513     47.1079
   109.2500      0.0000    759.3542      6.2279     45.9288
   109.5000      0.0000    761.7570      6.1532     43.8956
   109.7500      0.0000    763.1451      6.0563     42.3843
   110.0000      0.0000    763.2178      5.9699     43.2365
   110.2500      0.0000    763.3749      5.9178     47.4900
   110.5000      0.0000    765.3812      5.9070     54.7803
   110.7500      0.0000    769.3392      5.9281     63.6924
   111.0000      0.0000    773.3581      5.9650     72.5990
   111.2500      0.0000    775.3528      6.0076     80.3504
   111.5000      0.0000    774.8099      6.0499     86.3789
   111.7500      0.0000    772.5848      6.0761     90.3875
   112.0000      0.0000    769.6525      6.0561     92.2117
   112.2500      0.0000    766.8044      5.9658     91.9953
   112.5000      0.0000    764.9832      5.8119     90.4448
   112.7500      0.0000    764.7974      5.6328     88.8529
   113.0000      0.0000    765.6328      5.4734     88.5337
   113.2500      0.0000    765.9741      5.3560     89.8776
   113.5000      0.0000    764.8708      5.2746     92.0579
   113.7500      0.0000    762.7650      5.2115     93.8783
   114.0000      0.0000    760.8083      5.1589     94.8102
   114.2500      0.0000    759.7431      5.1254     95.0953
   114.5000      0.0000    759.5690      5.1245     95.1571
   114.7500      0.0000    759.9007      5.1612     95.1764
   115.0000      0.0000    760.3374      5.2314     95.0569
   115.2500      0.0000    760.5960      5.3284     94.5452
   115.5000      0.0000    760.5582      5.4459     93.2813
   115.7500      0.0000    760.2961      5.5763     90.8011
   116.0000      0.0000    760.0164      5.7071     86.8201
   116.2500      0.0000    759.9875      5.8197     81.7349
   116.5000      0.0000    760.5619      5.8935     76.7249
   116.7500      0.0000    762.1655      5.9159     73.1250
   117.0000      0.0000    764.8572      5.8862     71.5736
   117.2500      0.0000    767.5845      5.8152     71.6645
   117.5000      0.0000    768.3366      5.7354     72.3887
   117.7500      0.0000    765.8704      5.7034     72.9075
   118.0000      0.0000    761.3375      5.7568     72.9363
   118.2500      0.0000    757.5463      5.8565     72.6950
   118.5000      0.0000    756.5587      5.9039     72.7789
   118.7500      0.0000    758.4385      5.8323     73.8474
   119.0000      0.0000    762.0850      5.6614     76.2019
   119.2500      0.0000    766.4242      5.4630     79.8784
   119.5000     -2.0000    770.1147      5.2969     85.0674
   119.7500      0.0000    770.1732      5.1835     91.8589
   120.0000      0.0000    762.0518      5.1217     99.4977
   120.2500      0.0000    742.9883      5.1192    106.4390
   120.5000      0.0000    716.4671      5.1918    111.3215
   120.7500      0.0000    692.0332      5.3278    113.6262
   121.0000      0.0000    678.2827      5.4746    113.5692
   121.2500      0.0000    676.3726      5.5799    111.7938
   121.5000      0.0000    682.4224      5.6313    108.9684
   121.7500      0.0000    694.2379      5.6478    105.3083
   122.0000      0.0000    711.6843      5.6545    100.8998
   122.2500      0.0000    732.0555      5.6769     96.8449
   122.5000      0.0000    749.7474      5.7343     95.3218
   122.7500      0.0000    760.7533      5.8254     97.6588
   123.0000      0.0000    765.2589      5.9264    102.6874
   123.2500      0.0000    766.0467      6.0079    107.7522
   123.5000      0.0000    765.7378      6.0558    111.2190
   123.7500      0.0000    765.6464      6.0805    113.4090
   124.0000      0.0000    766.0912      6.1078    115.2371
   124.2500      0.0000    766.5110      6.1589    116.7646
   124.5000      0.0000    764.6755      6.2324    117.3360
   124.7500      0.0000    757.0486      6.3066    116.4507
   125.0000      0.0000    742.5627      6.3610    114.2091
   125.2500      0.0000    726.7550      6.3933    111.3897
   125.5000      0.0000    719.4659      6.4131    108.9457
   125.7500      0.0000    726.0170      6.4204    106.7387
   126.0000      0.0000    741.9379      6.3977    103.1997
   126.2500      0.0000    757.9483      6.3276     97.2110
