~Version Information
VERS.                      2.0: CWLS Log ASCII Standard - VERSION 2.0
WRAP.                       NO: One line per depth step
~Well Information Block
STRT.FT                -8.2500: 
STOP.FT              2356.2500: 
STEP.FT                 0.2500: 
NULL.                -999.2500: 
COMP.          Petrogulf Corporation: COMPANY
WELL.             State 16-12V: WELL
FLD.           Purgatorie River: FIELD
LOC.           1992' FNL & 1237' FWL: LOCATION
PROV.                 Colorado: PROVINCE
CNTY.               Las Animas: COUNTRY
SRVC.                Patterson: SERVICE COMPANY
DATE.          Thu Aug 11 14:44:06 2005: LOG DATE
UWI.                          : UNIQUE WELL ID
~Curve Information Block
DEPT.FT            0 000 00 00: Depth
GR.GAPI                       : Gamma Ray
CCL.                          : Casing Collar Locator
TT3.usec                      : CBL 3' Travel Time
AMP3.mV                       : CBL 3' Amplitude
~Parameter Information Block
~A  Depth        GR         CCL         TT3         AMP3    
# ...
   628.2500     79.1931      0.0000    808.5206      9.2864
   628.5000     77.6100      0.0000    803.9536      9.1049
   628.7500     76.9342      0.0000    797.3082      8.8261
   629.0000     76.3641      0.0000    792.8604      8.5855
   629.2500     75.3731      0.0000    795.5017      8.4185
   629.5000     74.4942      0.0000    801.1265      8.2709
   629.7500     74.8234      0.0000    801.9269      8.1272
   630.0000     76.7217      0.0000    798.6537      8.0205
   630.2500     79.1819      0.0000    794.3452      7.9425
   630.5000     80.6094      0.0000    782.2855      7.8230
   630.7500     80.1524      0.0000    754.1323      7.6043
   631.0000     78.2553      0.0000    718.4142      7.3188
   631.2500     76.1249      0.0000    702.8671      7.0457
   631.5000     74.8326      0.0000    734.0763      6.7902
   631.7500     74.6746      0.0000    806.1068      6.5263
   632.0000     74.9881      0.0000    868.0834      6.2981
   632.2500     74.7145      0.0000    875.7001      6.1514
   632.5000     73.5248      0.0000    855.0193      6.1109
   632.7500     72.3959      0.0000    864.4919      6.2606
   633.0000     72.8225      2.0000    907.8364      6.7157
   633.2500     75.3448      2.0000    936.1412      7.5424
   633.5000     79.0164      0.0000    915.3565      8.7771
   633.7500     82.4542      0.0000    851.9678     10.4556
   634.0000     85.1120      0.0000    780.6013     12.4524
   634.2500     87.1566      0.0000    747.2704     14.3563
   634.5000     88.4131      0.0000    775.9434     15.7881
   634.7500     88.1716      0.0000    846.0261     16.6840
   635.0000     86.1599      0.0000    920.6454     17.1550
   635.2500     83.1390      0.0000    983.8316     17.4399
   635.5000     80.2170      0.0000   1034.9323     17.8269
   635.7500     77.8951      0.0000   1075.6442     18.3282
   636.0000     76.0630      0.0000   1108.3307     18.6482
   636.2500     74.6752      0.0000   1122.0243     18.5699
   636.5000     74.0891      0.0000   1088.8784     18.2053
   636.7500     74.8403      0.0000    991.6908     17.7679
   637.0000     77.3085      0.0000    858.7613     17.2776
   637.2500     81.4670      0.0000    748.9375     16.6572
   637.5000     86.6609      0.0000    692.8926     15.9482
   637.7500     91.6320      0.0000    680.1043     15.2240
   638.0000     95.0285      0.0000    693.0497     14.4394
   638.2500     96.1616      0.0000    719.1133     13.5547
   638.5000     95.3776      0.0000    744.6340     12.6493
   638.7500     93.5971      0.0000    769.2675     11.7900
   639.0000     91.2670      0.0000    805.4277     10.9697
   639.2500     87.9366      0.0000    847.3226     10.2187
   639.5000     83.1852      0.0000    884.2631      9.6269
   639.7500     77.6837      0.0000    926.8015      9.2293
   640.0000     72.8749      0.0000    973.5463      8.9493
   640.2500     69.7968      0.0000    997.9357      8.7158
   640.5000     68.5713      0.0000    989.4510      8.5691
   640.7500     68.7925      0.0000    966.9947      8.5579
   641.0000     70.0387      0.0000    944.5129      8.6040
   641.2500     72.1217      0.0000    912.9162      8.5909
   641.5000     75.0670      0.0000    864.8424      8.5153
   641.7500     78.8542      0.0000    812.7072      8.4559
   642.0000     83.1622      0.0000    767.7365      8.4779
   642.2500     87.3383      0.0000    728.8949      8.6087
   642.5000     90.4968      0.0000    702.5775      8.8128
   642.7500     91.7177      0.0000    703.6125      8.9754
   643.0000     90.4124      0.0000    735.7985      8.9889
   643.2500     86.7629      0.0000    783.9384      8.8806
   643.5000     81.9471      0.0000    825.4888      8.7738
   643.7500     77.8300      0.0000    848.0357      8.7138
   644.0000     76.0805      0.0000    849.8105      8.6223
   644.2500     77.2920      0.0000    832.3740      8.4214
   644.5000     80.8078      0.0000    802.1887      8.1475
   644.7500     85.3230      0.0000    770.4846      7.9240
   645.0000     89.6499      0.0000    746.1592      7.8189
   645.2500     92.9903      0.0000    732.2023      7.7643
   645.5000     94.5999      0.0000    729.1305      7.6538
   645.7500     93.5630      0.0000    735.3239      7.4697
   646.0000     89.4561      0.0000    744.3389      7.2723
   646.2500     83.3446      0.0000    750.1644      7.1167
   646.5000     77.6366      0.0000    752.4104      7.0325
   646.7500     74.5660      0.0000    753.2109      7.0320
   647.0000     74.8217      0.0000    753.6365      7.0805
   647.2500     77.5679      0.0000    753.7432      7.1136
   647.5000     81.3973      0.0000    753.4890      7.1134
   647.7500     85.1076      0.0000    752.5759      7.1102
   648.0000     87.9098      0.0000    749.3529      7.1277
   648.2500     89.3502      0.0000    740.4761      7.1657
   648.5000     89.2697      0.0000    724.7747      7.2130
   648.7500     87.9820      0.0000    708.5579      7.2649
   649.0000     86.3948      0.0000    699.9645      7.3301
   649.2500     85.5433      0.0000    698.1783      7.4133
   649.5000     85.6368      0.0000    699.5167      7.4929
   649.7500     85.6199      0.0000    705.7892      7.5351
   650.0000     83.9607      0.0000    711.6412      7.5457
   650.2500     80.0039      0.0000    696.6791      7.5738
   650.5000     74.6049      0.0000    643.6011      7.6498
   650.7500     69.5651      0.0000    559.2869      7.7563
   651.0000     66.4699      0.0000    472.6835      7.8423
   651.2500     65.9709      0.0000    410.6495      7.8477
   651.5000     67.9071      0.0000    378.9945      7.7757
   651.7500     71.6724      0.0000    367.3954      7.7192
   652.0000     76.3690      0.0000    364.3674      7.7419
   652.2500     81.0722      0.0000    363.9280      7.7875
   652.5000     85.1842      0.0000    364.1370      7.7674
   652.7500     88.3616      0.0000    364.6926      7.6682
   653.0000     90.1957      0.0000    366.5243      7.5255
   653.2500     90.3730      0.0000    374.0049      7.3639
   653.5000     89.2059      0.0000    398.0806      7.2029
   653.7500     87.5273      0.0000    450.4901      7.0662
   654.0000     85.8280      0.0000    522.8812      6.9766
   654.2500     83.8311      0.0000    580.8036      6.9643
   654.5000     81.1594      0.0000    602.4847      7.0485
   654.7500     78.1786      0.0000    614.0945      7.1840
   655.0000     75.9344      0.0000    663.0015      7.2669
   655.2500     75.4274      0.0000    760.6386      7.2487
   655.5000     77.1457      0.0000    865.4099      7.1910
   655.7500     81.0861      0.0000    924.3712      7.1389
   656.0000     86.6885      0.0000    924.8590      7.0517
   656.2500     92.5685      0.0000    897.6918      6.9250
   656.5000     96.7591      0.0000    870.2714      6.8437
   656.7500     97.7539      0.0000    840.8246      6.8563
   657.0000     95.4635      0.0000    804.0662      6.9406
   657.2500     91.1498      0.0000    771.0099      7.1126
   657.5000     86.5251      0.0000    750.0544      7.4010
   657.7500     82.8104      0.0000    732.1604      7.7285
   658.0000     80.3211      0.0000    705.2551      7.9888
   658.2500     78.6145      0.0000    668.2112      8.2104
   658.5000     76.9207      0.0000    631.8721      8.4793
   658.7500     74.6456      0.0000    614.6796      8.7267
   659.0000     71.8550      0.0000    625.2617      8.8035
   659.2500     69.4092      0.0000    650.1213      8.7691
   659.5000     68.3519      0.0000    670.9247      8.8809
   659.7500     69.0327      0.0000    682.4227      9.2739
   660.0000     70.9646      0.0000    692.7251      9.8436
   660.2500     73.5193      0.0000    716.4884     10.4622
   660.5000     76.4210      0.0000    757.7259     11.1190
   660.7500     79.5002      0.0000    796.5327     11.7813
   661.0000     82.2849      0.0000    809.8277     12.3286
   661.2500     84.1363      0.0000    802.3926     12.7035
   661.5000     84.8919      0.0000    797.6565     12.9363
