~Version Information
VERS.                      2.0: CWLS Log ASCII Standard - VERSION 2.0
WRAP.                       NO: One line per depth step
~Well Information Block
STRT.FT                -7.5000: 
STOP.FT              1716.7500: 
STEP.FT                 0.2500: 
NULL.                -999.2500: 
COMP.          Pioneer Natural Resources: COMPANY
WELL.          Lookout Point 31-23 Tr: WELL
FLD.           Purgatorie River: FIELD
LOC.           541' FNL & 1786' FEL--------: LOCATION
PROV.                       CO: PROVINCE
CNTY.               Las Animas: COUNTRY
SRVC.                         : SERVICE COMPANY
DATE.          Fri Jan 28 08:30:47 2005: LOG DATE
UWI.         005 071 08260 : UNIQUE WELL ID
~Curve Information Block
DEPT.FT            0 000 00 00: Depth
CCL.                          : Casing Collar Locator
TT3.usec                      : CBL 3' Travel Time
AMP3.mV                       : CBL 3' Amplitude
GR.GAPI                       : Gamma Ray
~Parameter Information Block
~A  Depth       CCL         TT3         AMP3         GR     
# ...
  1567.0000      0.0000    589.0117      4.8634    109.7405
  1567.2500      0.0000    608.1936      4.8899    106.6401
  1567.5000      2.0000    622.1550      5.0863    101.2758
  1567.7500      2.0000    635.9846      5.3764     96.2578
  1568.0000      0.0000    654.0037      5.6168     93.9180
  1568.2500      0.0000    675.0463      5.7283     95.5534
  1568.5000      0.0000    693.1530      5.7506    101.3311
  1568.7500      0.0000    701.7860      5.7462    110.0567
  1569.0000      0.0000    697.0469      5.6880    119.3681
  1569.2500      0.0000    678.7719      5.5022    126.7730
  1569.5000      0.0000    650.4030      5.1994    130.6978
  1569.7500      0.0000    617.3754      4.9008    130.9333
  1570.0000      0.0000    584.6987      4.7427    128.6008
  1570.2500      0.0000    556.2549      4.8078    125.7343
  1570.5000      0.0000    536.3747      5.1220    124.3828
  1570.7500      0.0000    530.4842      5.6386    125.2514
  1571.0000      0.0000    542.5253      6.2116    126.5613
  1571.2500      0.0000    571.0332      6.6487    124.7738
  1571.5000      0.0000    608.1276      6.8352    117.7423
  1571.7500      0.0000    643.6223      6.8174    107.2132
  1572.0000      0.0000    671.1179      6.7562     97.4679
  1572.2500      0.0000    690.1680      6.7864     91.8485
  1572.5000      0.0000    702.9627      6.9207     91.2602
  1572.7500      0.0000    709.5436      7.0919     95.0338
  1573.0000      0.0000    706.2487      7.2483    101.7781
  1573.2500      0.0000    688.9509      7.3621    109.7077
  1573.5000      0.0000    658.7036      7.3850    117.0624
  1573.7500      0.0000    624.3259      7.2708    122.4427
  1574.0000      0.0000    598.5065      7.0461    125.0536
  1574.2500      0.0000    590.6404      6.7995    125.2293
  1574.5000      0.0000    602.5995      6.5887    124.4264
  1574.7500      0.0000    629.2036      6.3971    124.1203
  1575.0000      0.0000    661.2256      6.2021    124.7328
  1575.2500      0.0000    689.4880      6.0366    125.7308
  1575.5000      0.0000    708.7772      5.9485    126.5472
  1575.7500      0.0000    719.0069      5.9344    127.1165
  1576.0000      0.0000    723.0496      5.9486    127.4212
  1576.2500      0.0000    723.7559      5.9543    126.8896
  1576.5000      0.0000    722.4056      5.9407    124.6839
  1576.7500      0.0000    718.5924      5.9099    120.4375
  1577.0000      0.0000    710.8890      5.8696    114.4958
  1577.2500      0.0000    698.0258      5.8303    107.7699
  1577.5000      0.0000    679.9180      5.7986    101.5175
  1577.7500      0.0000    657.5319      5.7784     96.9892
  1578.0000      0.0000    631.9221      5.7798     95.1415
  1578.2500      0.0000    604.1284      5.8232     96.5100
  1578.5000      0.0000    576.3266      5.9300    100.7635
  1578.7500      0.0000    552.2119      6.1008    106.3366
  1579.0000      0.0000    535.3475      6.2966    111.1491
  1579.2500      0.0000    527.0464      6.4578    113.9324
  1579.5000      0.0000    526.0256      6.5573    114.6604
  1579.7500      0.0000    529.9633      6.6153    113.9158
  1580.0000      0.0000    537.2427      6.6389    112.1849
  1580.2500      0.0000    547.5162      6.5729    109.7311
  1580.5000      0.0000    560.8726      6.3433    106.8832
  1580.7500      0.0000    576.4078      5.9464    104.1427
  1581.0000      0.0000    592.0234      5.4864    101.8050
  1581.2500      0.0000    606.3858      5.1323     99.6248
  1581.5000      0.0000    620.4273      5.0258     97.1145
  1581.7500      0.0000    635.5581      5.1902     94.1366
  1582.0000      0.0000    650.8859      5.5078     90.9742
  1582.2500      0.0000    663.6140      5.7921     87.7509
  1582.5000      0.0000    671.8127      5.8995     84.0543
  1582.7500      0.0000    675.6849      5.7987     79.3994
  1583.0000      0.0000    676.4874      5.5695     74.0382
  1583.2500      0.0000    675.1495      5.3457     69.0614
  1583.5000      0.0000    671.9666      5.2406     65.5449
  1583.7500      0.0000    666.8710      5.2824     63.7230
  1584.0000      0.0000    659.6074      5.3985     63.2270
  1584.2500      0.0000    650.2281      5.4795     63.8973
  1584.5000      0.0000    640.1130      5.4751     65.8870
  1584.7500      0.0000    631.5882      5.4215     69.1335
  1585.0000      0.0000    624.5828      5.3872     73.1227
  1585.2500      0.0000    613.9875      5.4163     76.9425
  1585.5000      0.0000    593.3979      5.5095     79.4645
  1585.7500      0.0000    563.1483      5.6341     80.0577
  1586.0000      0.0000    532.2105      5.7451     79.2854
  1586.2500      0.0000    509.3586      5.8019     78.4245
  1586.5000      0.0000    494.5129      5.7757     78.2910
  1586.7500      0.0000    483.0497      5.6665     78.7948
  1587.0000      0.0000    477.1006      5.5370     79.3405
  1587.2500      0.0000    486.2780      5.5140     79.2670
  1587.5000      0.0000    515.2464      5.6990     78.2369
  1587.7500      0.0000    554.2628      6.0569     76.5803
  1588.0000      0.0000    585.3093      6.4253     74.9669
  1588.2500      0.0000    597.2439      6.6507     73.3907
  1588.5000      0.0000    593.7663      6.7079     70.8463
  1588.7500      0.0000    586.7648      6.6811     66.5285
  1589.0000      0.0000    583.7314      6.6436     61.1451
  1589.2500      0.0000    583.7689      6.5724     56.6142
  1589.5000      0.0000    584.8811      6.3937     54.6676
  1589.7500      0.0000    589.8420      6.0989     55.9513
  1590.0000      0.0000    601.6406      5.7939     59.9743
  1590.2500      0.0000    616.4907      5.6139     65.3717
  1590.5000      0.0000    625.3434      5.5810     70.3266
  1590.7500      0.0000    621.6701      5.5607     73.1212
  1591.0000      0.0000    606.3456      5.3949     72.7946
  1591.2500      0.0000    586.3202      5.0816     69.7629
  1591.5000      0.0000    570.1200      4.7936     65.7930
  1591.7500      0.0000    563.8467      4.7175     62.9009
  1592.0000      0.0000    569.4185      4.9002     61.9935
  1592.2500      0.0000    584.5514      5.2398     62.5391
  1592.5000      0.0000    603.8934      5.5783     63.4196
  1592.7500      0.0000    621.4701      5.7826     63.9407
  1593.0000      0.0000    633.5873      5.7814     64.1869
  1593.2500      0.0000    639.7938      5.5917     64.6765
  1593.5000      0.0000    641.1188      5.3361     65.6113
  1593.7500      0.0000    637.6165      5.1840     66.2937
  1594.0000      0.0000    628.0220      5.2095     65.5220
  1594.2500      0.0000    612.2145      5.3132     62.8283
  1594.5000      0.0000    594.0203      5.3314     59.1024
  1594.7500      0.0000    580.3946      5.2225     55.6528
  1595.0000      0.0000    576.6118      5.1050     52.9943
  1595.2500      0.0000    581.9444      5.1113     51.1262
  1595.5000      0.0000    590.1216      5.2512     50.7252
  1595.7500      0.0000    593.8918      5.4313     53.0282
  1596.0000      0.0000    589.6204      5.5774     58.1804
  1596.2500      0.0000    578.8212      5.7103     64.4316
  1596.5000      0.0000    566.2542      5.9021     69.4769
  1596.7500      0.0000    556.3622      6.1744     72.2512
  1597.0000      0.0000    550.9537      6.4659     73.1789
  1597.2500      0.0000    549.7914      6.6941     73.1879
  1597.5000      0.0000    552.8429      6.8223     73.0707
  1597.7500      0.0000    561.6339      6.8708     73.5159
  1598.0000      0.0000    578.1151      6.8884     74.7372
  1598.2500      0.0000    601.5991      6.9078     75.7570
  1598.5000      0.0000    626.9339      6.9095     75.0016
  1598.7500      0.0000    646.8341      6.8278     72.2421
  1599.0000      0.0000    656.8802      6.6161     69.3427
  1599.2500      0.0000    658.0798      6.3217     68.4622
  1599.5000      0.0000    654.8019      6.0860     69.8127
  1599.7500      0.0000    650.9376      6.0404     71.5502
  1600.0000      0.0000    647.8693      6.1854     71.6445
  1600.2500      0.0000    644.8320      6.3794     69.6559
