~Version Information
VERS.                      2.0: CWLS Log ASCII Standard - VERSION 2.0
WRAP.                       NO: One line per depth step
~Well Information Block
STRT.FT               375.0000: 
STOP.FT              2795.7000: 
STEP.FT                 0.1000: 
NULL.                -999.2500: 
COMP.          Pioneer Natural Resources: COMPANY
WELL.              Getem 21-23: WELL
FLD.           Purgatoire River: FIELD
LOC.           2623' FWL & 790' FNL--: LOCATION
PROV.                 Colorado: PROVINCE
CNTY.               Las Animas: COUNTRY
SRVC.                Patterson: SERVICE COMPANY
DATE.          Mon Jun 20 07:26:21 2005: LOG DATE
UWI.           05 071 08411 00: UNIQUE WELL ID
~Curve Information Block
DEPT.FT            0 000 00 00: Depth
DCAL.in                       : CDL Caliper
RHOB.g/cc                     : CDL Bulk Density
RHOC.g/cc                     : CDL Density Correction
DPOR.pu                       : CDL Density Porosity
NPOR.pu                       : Neutron Porosity
GR.GAPI                       : Gamma Ray
~Parameter Information Block
~A  Depth       DCAL        RHOB        RHOC        DPOR        NPOR         GR     
# ...
  2602.2000      7.8463      2.5443      0.0774      6.4083     24.1098    107.4967
  2602.3000      7.8486      2.5622      0.0442      5.3217     23.6381    105.9169
  2602.4000      7.8486      2.5812      0.1003      4.1718     23.3608    106.1523
  2602.5000      7.8522      2.5948      0.0632      3.3450     23.3636    107.2208
  2602.6000      7.8522      2.5968      0.1070      3.2247     23.1472    106.4493
  2602.7000      7.8522      2.5854      0.0827      3.9131     22.6623    103.2238
  2602.8000      7.8535      2.5673      0.0774      5.0097     22.6470     99.6405
  2602.9000      7.8535      2.5378      0.0984      6.7980     23.5621     96.9107
  2603.0000      7.8529      2.4726      0.0332     10.7526     24.7469     96.3260
  2603.1000      7.8529      2.3713     -0.0045     16.8936     25.2194     96.0364
  2603.2000      7.8529      2.2787     -0.0983     22.5051     24.9642     92.1071
  2603.3000      7.8500      2.2348     -0.0456     25.1612     24.7240     85.7380
  2603.4000      7.8500      2.2208      0.0083     26.0147     24.7817     83.0426
  2603.5000      7.8414      2.1876     -0.0350     28.0261     25.1497     88.9313
  2603.6000      7.8414      2.1176     -0.0298     32.2694     25.9017     99.0546
  2603.7000      7.8414      2.0389     -0.0501     37.0377     26.9164    105.0005
  2603.8000      7.8241      1.9936      0.0691     39.7815     27.8432    105.5396
  2603.9000      7.8241      1.9884      0.1689     40.0968     28.3993    104.1187
  2604.0000      7.8000      1.9996      0.2008     39.4178     28.7586    101.8929
  2604.1000      7.8000      2.0189      0.2004     38.2456     29.2020     97.2555
  2604.2000      7.8000      2.0599      0.1762     35.7630     29.5802     89.0303
  2604.3000      7.7873      2.1255      0.1922     31.7890     29.6975     79.3309
  2604.4000      7.7873      2.1955      0.2345     27.5432     29.4557     73.1837
  2604.5000      7.8136      2.2577      0.2577     23.7758     28.5966     73.5308
  2604.6000      7.8136      2.3282      0.2601     19.5036     27.1915     75.4346
  2604.7000      7.8136      2.4205      0.2937     13.9114     25.7937     73.0916
  2604.8000      7.9034      2.5143      0.2793      8.2266     24.8787     69.9086
  2604.9000      7.9034      2.5798      0.2305      4.2539     24.7124     67.3258
  2605.0000      8.0662      2.6070      0.1888      2.6086     25.0329     63.2776
  2605.1000      8.0662      2.5954      0.1832      3.3107     25.2054     59.7167
  2605.2000      8.0662      2.5482      0.1564      6.1694     24.7910     58.0189
  2605.3000      8.2640      2.4856      0.0680      9.9648     24.0393     55.5232
  2605.4000      8.2640      2.4369      0.0288     12.9151     23.7825     49.2321
  2605.5000      8.3269      2.4198     -0.0290     13.9530     24.3321     40.8605
  2605.6000      8.3269      2.4307      0.0013     13.2895     24.8253     37.5271
  2605.7000      8.3269      2.4505      0.0063     12.0894     24.4262     42.9388
  2605.8000      8.1414      2.4657      0.0189     11.1683     23.6051     53.2316
  2605.9000      8.1414      2.4720      0.1101     10.7853     23.1995     63.5968
  2606.0000      7.8897      2.4684      0.1119     11.0036     23.3651     70.5054
  2606.1000      7.8897      2.4657      0.1135     11.1713     23.7468     71.2283
  2606.2000      7.8897      2.4805      0.1102     10.2750     23.8706     66.1202
  2606.3000      7.7633      2.5118      0.2270      8.3774     23.8673     59.4972
  2606.4000      7.7633      2.5387      0.2290      6.7431     24.1356     54.4825
  2606.5000      7.7355      2.5518      0.1919      5.9539     24.2148     51.9375
  2606.6000      7.7355      2.5559      0.1912      5.7020     23.6539     54.2038
  2606.7000      7.7355      2.5583      0.1610      5.5546     23.2870     60.1005
  2606.8000      7.7327      2.5708      0.1432      4.8027     23.7236     62.1482
  2606.9000      7.7327      2.5975      0.1479      3.1814     24.0977     58.4230
  2607.0000      7.7415      2.6276      0.1805      1.3593     23.7324     54.7220
  2607.1000      7.7415      2.6486      0.1669      0.0853     23.3546     53.1143
  2607.2000      7.7415      2.6574      0.1879     -0.4469     23.5310     54.3611
  2607.3000      7.7647      2.6597      0.1853     -0.5902     24.0720     59.7288
  2607.4000      7.7647      2.6677      0.1347     -1.0712     24.7787     64.3281
  2607.5000      7.7891      2.6819      0.1644     -1.9332     25.0637     65.2804
  2607.6000      7.7891      2.6860      0.1190     -2.1801     24.3193     65.0249
  2607.7000      7.7891      2.6710      0.1326     -1.2723     23.2159     61.5061
  2607.8000      7.8033      2.6449      0.0915      0.3099     22.6868     53.2615
  2607.9000      7.8033      2.6239      0.0625      1.5801     22.7120     44.2963
  2608.0000      7.8074      2.6185      0.0631      1.9071     22.9810     38.5121
  2608.1000      7.8074      2.6254      0.0393      1.4939     23.4314     38.1897
  2608.2000      7.8074      2.6322      0.0567      1.0780     24.0081     41.9205
  2608.3000      7.8078      2.6247      0.0973      1.5352     24.1515     47.6270
  2608.4000      7.8078      2.6113      0.0271      2.3452     23.5396     54.7969
  2608.5000      7.8102      2.6143      0.0522      2.1656     22.7484     62.1548
  2608.6000      7.8102      2.6264      0.0656      1.4306     22.2667     67.1055
  2608.7000      7.8102      2.6300      0.0574      1.2146     21.8239     66.7254
  2608.8000      7.8129      2.6247      0.0384      1.5350     21.1747     63.2699
  2608.9000      7.8129      2.6200      0.0323      1.8202     20.6634     61.3239
  2609.0000      7.8113      2.6185      0.0851      1.9085     20.5108     58.9496
  2609.1000      7.8113      2.6165      0.0570      2.0323     20.7177     52.1907
  2609.2000      7.8113      2.6171      0.0420      1.9946     21.3522     44.3812
  2609.3000      7.8074      2.6168      0.0763      2.0101     21.9906     40.1587
  2609.4000      7.8074      2.6106      0.0335      2.3884     22.0316     39.6671
  2609.5000      7.8042      2.6099      0.0377      2.4275     21.6332     41.5145
  2609.6000      7.8042      2.6171      0.0510      1.9958     21.5984     44.1063
  2609.7000      7.8042      2.6158      0.0631      2.0745     21.9030     45.8963
  2609.8000      7.8002      2.6054      0.0272      2.7023     21.7162     47.8797
  2609.9000      7.8002      2.6032      0.0274      2.8390     21.2857     51.8935
  2610.0000      7.7946      2.6078      0.0818      2.5593     21.4340     57.3271
  2610.1000      7.7946      2.6079      0.0444      2.5517     21.9225     60.8110
  2610.2000      7.7946      2.6087      0.0433      2.5038     22.1610     60.3983
  2610.3000      7.7902      2.6100      0.0553      2.4252     22.2070     59.2686
  2610.4000      7.7902      2.5961      0.0927      3.2682     22.0605     59.7031
  2610.5000      7.7874      2.5656      0.0175      5.1143     21.5815     60.3165
  2610.6000      7.7874      2.5421     -0.0020      6.5406     21.2737     60.1273
  2610.7000      7.7874      2.5413      0.0275      6.5866     21.5560     59.3317
  2610.8000      7.7879      2.5502      0.0558      6.0481     21.8372     59.7977
  2610.9000      7.7879      2.5465      0.0521      6.2729     21.8177     63.7115
  2611.0000      7.7893      2.5231      0.0356      7.6880     22.1032     69.8209
  2611.1000      7.7893      2.4840      0.0220     10.0607     22.8826     73.0512
  2611.2000      7.7893      2.4355      0.0175     12.9995     23.6888     71.9145
  2611.3000      7.7891      2.3921     -0.0015     15.6295     24.1165     72.1321
  2611.4000      7.7891      2.3707     -0.0067     16.9244     24.2980     79.2558
  2611.5000      7.7888      2.3697      0.0195     16.9874     24.6916     89.5591
  2611.6000      7.7888      2.3681      0.0330     17.0834     25.3944     94.8109
  2611.7000      7.7888      2.3497      0.0488     18.1970     26.1149     95.4740
