~Version Information
VERS.                      2.0: CWLS Log ASCII Standard - VERSION 2.0
WRAP.                       NO: One line per depth step
~Well Information Block
STRT.FT                -7.0000: 
STOP.FT              1656.2500: 
STEP.FT                 0.2500: 
NULL.                -999.2500: 
COMP.          Pioneer Natural Resources: COMPANY
WELL.               Elmo 14-21: WELL
FLD.           Purgatorie River: FIELD
LOC.           623' FSL & 450' FWL--: LOCATION
PROV.                       CO: PROVINCE
CNTY.               Las Animas: COUNTRY
SRVC.          Patterson Wireline: SERVICE COMPANY
DATE.          Mon Jun 27 15:45:41 2005: LOG DATE
UWI.           05 071 08360 00: UNIQUE WELL ID
~Curve Information Block
DEPT.FT            0 000 00 00: Depth
CCL.                          : Casing Collar Locator
TT3.usec                      : CBL 3' Travel Time
AMP3.mV                       : CBL 3' Amplitude
GR.GAPI                       : Gamma Ray
~Parameter Information Block
~A  Depth       CCL         TT3         AMP3         GR     
# ...
  1098.5000      0.0000    769.7660      5.5749     98.1888
  1098.7500      0.0000    767.5638      5.6629     93.6453
  1099.0000      0.0000    761.3273      5.5615     89.7602
  1099.2500      0.0000    747.4149      5.3311     86.8377
  1099.5000      0.0000    728.3613      5.0777     84.3584
  1099.7500      0.0000    711.0412      4.8810     81.1936
  1100.0000      0.0000    700.8437      4.7561     76.7685
  1100.2500      0.0000    698.1362      4.6795     71.8957
  1100.5000      0.0000    700.3499      4.6334     68.1385
  1100.7500      0.0000    706.0788      4.6211     66.5720
  1101.0000      0.0000    716.3216      4.6560     67.3719
  1101.2500      0.0000    732.4819      4.7408     70.1508
  1101.5000      0.0000    753.8591      4.8554     74.2251
  1101.7500      0.0000    776.8585      4.9682     78.7337
  1102.0000      0.0000    796.5274      5.0551     82.8953
  1102.2500      0.0000    809.1802      5.0987     86.2396
  1102.5000      0.0000    813.8865      5.0778     88.6114
  1102.7500      0.0000    812.1960      4.9778     90.0979
  1103.0000      0.0000    807.0187      4.8161     90.9433
  1103.2500      0.0000    801.0926      4.6463     91.3102
  1103.5000      0.0000    794.3660      4.5208     91.0467
  1103.7500      0.0000    781.5676      4.4496     89.8586
  1104.0000      0.0000    754.4628      4.4002     87.8287
  1104.2500      0.0000    710.2080      4.3342     85.8074
  1104.5000      0.0000    658.4872      4.2408     85.1256
  1104.7500      0.0000    618.7000      4.1495     86.3202
  1105.0000      0.0000    608.5242      4.1171     87.8990
  1105.2500      0.0000    633.2194      4.1868     87.2827
  1105.5000      0.0000    682.6437      4.3451     83.7680
  1105.7500      0.0000    736.8805      4.5228     79.9828
  1106.0000      0.0000    776.8843      4.6517     79.7532
  1106.2500      0.0000    793.4516      4.7158     85.0097
  1106.5000      0.0000    789.6331      4.7484     95.0692
  1106.7500      0.0000    776.8209      4.7910    107.9356
  1107.0000      0.0000    767.4462      4.8562    121.3846
  1107.2500      0.0000    768.3502      4.9138    133.2756
  1107.5000      0.0000    778.9810      4.9096    141.9745
  1107.7500      0.0000    794.4888      4.8099    146.9043
  1108.0000      0.0000    809.3354      4.6403    148.3873
  1108.2500      0.0000    818.8802      4.4664    146.9306
  1108.5000      0.0000    820.3717      4.3284    142.9837
  1108.7500      0.0000    814.0946      4.2045    137.3605
  1109.0000      0.0000    803.2186      4.0498    131.5408
  1109.2500      0.0000    791.8187      3.8511    127.2724
  1109.5000      0.0000    782.2901      3.6374    125.6798
  1109.7500      0.0000    774.0869      3.4606    126.7468
  1110.0000      0.0000    764.8926      3.3730    129.6183
  1110.2500      0.0000    753.2907      3.4021    132.9716
  1110.5000      0.0000    740.6820      3.5360    134.8693
  1110.7500      0.0000    730.5796      3.7428    133.0357
  1111.0000      0.0000    725.7336      3.9979    126.3495
  1111.2500      0.0000    725.6488      4.2810    116.0581
  1111.5000      0.0000    726.5927      4.5559    104.8018
  1111.7500      0.0000    724.1429      4.7779     94.3086
  1112.0000      0.0000    716.5735      4.9260     84.5328
  1112.2500      0.0000    705.9821      5.0129     74.9852
  1112.5000      0.0000    695.8088      5.0616     66.1853
  1112.7500      0.0000    687.7548      5.0811     59.4204
  1113.0000      0.0000    681.5497      5.0628     55.3926
  1113.2500      0.0000    676.6956      4.9927     53.5403
  1113.5000      0.0000    673.2344      4.8657     52.7323
  1113.7500      0.0000    671.2096      4.6956     52.3381
  1114.0000      0.0000    670.2711      4.5119     52.4608
  1114.2500      0.0000    669.9187      4.3485     53.3538
  1114.5000      0.0000    669.8170      4.2291     54.9225
  1114.7500      0.0000    669.8513      4.1593     56.8023
  1115.0000      0.0000    670.0165      4.1314     58.6167
  1115.2500      0.0000    670.3660      4.1397     59.8779
  1115.5000      0.0000    671.0721      4.1910     59.9419
  1115.7500      0.0000    672.5264      4.2947     58.7208
  1116.0000      0.0000    675.2813      4.4397     57.5237
  1116.2500      0.0000    679.7386      4.5900     58.6906
  1116.5000      0.0000    685.8013      4.7080     64.1030
  1116.7500      0.0000    692.8506      4.7784     73.9479
  1117.0000      0.0000    700.0902      4.8029     86.7389
  1117.2500      0.0000    706.9438      4.7790    100.5228
  1117.5000      0.0000    713.6121      4.6962    114.1460
  1117.7500      0.0000    721.7666      4.5606    126.9523
  1118.0000      0.0000    734.1667      4.4251    137.2372
  1118.2500      0.0000    752.2820      4.3769    142.2921
  1118.5000      0.0000    773.9356      4.4720    140.9191
  1118.7500      0.0000    794.2269      4.6811    135.2574
  1119.0000      0.0000    809.3464      4.9109    129.3286
  1119.2500      0.0000    819.1517      5.0816    126.0146
  1119.5000      0.0000    826.1271      5.1801    125.7815
  1119.7500      0.0000    832.5623      5.2479    127.8183
  1120.0000      0.0000    838.8213      5.3354    131.5164
  1120.2500      0.0000    843.6517      5.4653    136.6186
  1120.5000      0.0000    845.5615      5.6170    142.4839
  1120.7500      0.0000    843.9615      5.7306    147.6739
  1121.0000      0.0000    839.6113      5.7335    150.3697
  1121.2500      0.0000    834.2994      5.5785    149.4167
  1121.5000      0.0000    829.6438      5.2664    145.2874
  1121.7500      0.0000    825.2711      4.8469    139.8615
  1122.0000      0.0000    817.8226      4.3959    134.9094
  1122.2500      0.0000    802.6190      3.9768    130.9546
  1122.5000      0.0000    777.8464      3.6169    127.6115
  1122.7500      0.0000    747.5719      3.3316    124.4614
  1123.0000      0.0000    719.7169      3.1628    121.4088
  1123.2500      0.0000    700.6420      3.1656    118.6693
  1123.5000      0.0000    692.0576      3.3453    116.5854
  1123.7500      0.0000    692.2960      3.6241    115.2643
  1124.0000      0.0000    698.8667      3.8873    114.3784
  1124.2500      0.0000    709.5374      4.0622    113.3242
  1124.5000      0.0000    722.0571      4.1486    111.5495
  1124.7500      0.0000    733.8309      4.1843    109.0081
  1125.0000      0.0000    742.5275      4.1940    106.5025
  1125.2500      0.0000    747.3041      4.1688    105.1556
  1125.5000      0.0000    748.9940      4.0893    105.3110
  1125.7500      0.0000    749.1400      3.9674    106.3503
  1126.0000      0.0000    749.5854      3.8594    107.5222
  1126.2500      0.0000    752.2552      3.8204    108.4305
  1126.5000      0.0000    757.4784      3.8498    108.8614
  1126.7500      0.0000    762.7339      3.8990    108.7814
  1127.0000      0.0000    764.7454      3.9214    108.6579
  1127.2500      0.0000    763.1089      3.8989    109.4209
  1127.5000      0.0000    760.9229      3.8323    111.7083
  1127.7500     -2.0000    761.4858      3.7220    114.8399
  1128.0000      0.0000    764.6317      3.5612    116.8297
  1128.2500      0.0000    766.4214      3.3632    116.0289
  1128.5000      0.0000    762.3336      3.2030    112.7468
  1128.7500      0.0000    750.5629      3.1970    108.9643
  1129.0000      0.0000    732.3564      3.4073    106.7334
  1129.2500      0.0000    710.6791      3.7806    106.9152
  1129.5000      0.0000    690.1738      4.2071    108.9610
  1129.7500      0.0000    677.1099      4.6188    111.5457
  1130.0000      0.0000    675.8226      5.0047    113.4374
  1130.2500      0.0000    683.7896      5.3557    114.0070
  1130.5000      0.0000    691.9670      5.6329    113.3561
  1130.7500      0.0000    691.5772      5.7931    112.1701
  1131.0000      0.0000    680.5212      5.8242    111.0846
  1131.2500      0.0000    664.0234      5.7462    109.9253
  1131.5000      0.0000    650.3900      5.5808    107.9858
  1131.7500      0.0000    645.2145      5.3290    105.2395
