~Version Information
VERS.                      2.0: CWLS Log ASCII Standard - VERSION 2.0
WRAP.                       NO: One line per depth step
~Well Information Block
STRT.FT               664.0000: 
STOP.FT              1113.5000: 
STEP.FT                 0.1000: 
NULL.                -999.2500: 
COMP.          Petrogulf Corporation: COMPANY
WELL.          Great Plains 22-21R: WELL
FLD.           Purgatorie River: FIELD
LOC.           73' FNL & 1992' FWL: LOCATION
PROV.                 Colorado: PROVINCE
CNTY.               Las Animas: COUNTRY
SRVC.                Patterson: SERVICE COMPANY
DATE.          Thu Sep 08 08:02:28 2005: LOG DATE
UWI.                          : UNIQUE WELL ID
~Curve Information Block
DEPT.FT            0 000 00 00: Depth
DCAL.in                       : CDL Caliper
RHOB.g/cc                     : CDL Bulk Density
RHOC.g/cc                     : CDL Density Correction
DPOR.pu                       : CDL Density Porosity
GR.GAPI                       : Gamma Ray
NPOR.pu                       : Neutron Porosity
~Parameter Information Block
~A  Depth       DCAL        RHOB        RHOC        DPOR         GR         NPOR    
# ...
   923.2000      8.0977      2.6995      0.1011     -3.0000    128.1734     29.4279
   923.3000      8.1208      2.7969      0.1353     -8.9054    116.7264     29.8473
   923.4000      8.1208      2.9050      0.1323    -15.4561    105.7996     30.0191
   923.5000      8.1451      3.0260      0.1056    -22.7855     94.9845     29.9889
   923.6000      8.1451      3.1477      0.1465    -30.1606     84.5943     29.7088
   923.7000      8.1451      3.2476      0.1767    -36.2175     75.0375     29.2002
   923.8000      8.0451      3.3029      0.1034    -39.5678     65.3985     28.5370
   923.9000      8.0451      3.2940      0.0301    -39.0284     57.3036     27.8999
   924.0000      7.9542      3.2161      0.0160    -34.3110     53.9741     27.3669
   924.1000      7.9542      3.0974     -0.0712    -27.1134     56.3758     26.7734
   924.2000      7.9542      2.9750     -0.0171    -19.6941     62.5923     26.1626
   924.3000      7.9485      2.8501     -0.0639    -12.1270     70.8287     25.6901
   924.4000      7.9485      2.7174     -0.1419     -4.0834     80.0668     25.5775
   924.5000      7.9619      2.5935     -0.1724      3.4224     88.9989     26.0168
   924.6000      7.9619      2.4863     -0.1659      9.9191     96.1091     26.8206
   924.7000      7.9619      2.3895     -0.1341     15.7880    102.0986     27.6588
   924.8000      7.9778      2.3152     -0.1349     20.2936    109.8468     28.2987
   924.9000      7.9778      2.2898     -0.0556     21.8278    119.2439     28.7473
   925.0000      8.1245      2.3099      0.1040     20.6105    127.5357     29.2351
   925.1000      8.1245      2.3407      0.1732     18.7473    132.7497     29.8350
   925.2000      8.1245      2.3553      0.1436     17.8611    135.4357     30.3564
   925.3000      8.2873      2.3537      0.0972     17.9550    139.6953     30.6437
   925.4000      8.2873      2.3531      0.0754     17.9928    148.2819     30.4892
   925.5000      8.2359      2.3634      0.1102     17.3681    155.4174     29.8395
   925.6000      8.2359      2.3751      0.1438     16.6582    156.1101     29.2545
   925.7000      8.2359      2.3808      0.1314     16.3164    154.5723     29.2694
   925.8000      8.2081      2.3915      0.1073     15.6641    154.1659     29.6996
   925.9000      8.2081      2.4182      0.1250     14.0478    154.7259     30.1387
   926.0000      8.1858      2.4491      0.1519     12.1736    157.0516     30.4690
   926.1000      8.1858      2.4657      0.1891     11.1713    160.3545     30.7737
   926.2000      8.1858      2.4679      0.1751     11.0345    163.3702     31.1663
   926.3000      8.1852      2.4691      0.1666     10.9618    164.6920     31.5121
   926.4000      8.1852      2.4760      0.1823     10.5428    162.5090     31.4380
   926.5000      8.1735      2.4843      0.1830     10.0440    158.3520     30.9557
   926.6000      8.1735      2.4876      0.1674      9.8416    156.3157     30.5015
   926.7000      8.1735      2.4897      0.1323      9.7143    156.1095     30.0462
   926.8000      8.1900      2.5006      0.1167      9.0526    154.1933     29.2282
   926.9000      8.1900      2.5160      0.1654      8.1201    152.0663     28.2571
   927.0000      8.2004      2.5224      0.1657      7.7349    152.5381     27.6996
   927.1000      8.2004      2.5155      0.1322      8.1491    154.4619     27.7588
   927.2000      8.2004      2.4973      0.1329      9.2562    154.5738     28.2547
   927.3000      8.1477      2.4742      0.0853     10.6571    152.2294     28.9215
   927.4000      8.1477      2.4630      0.0798     11.3345    151.1028     29.4007
   927.5000      8.0740      2.4714      0.0743     10.8250    153.4721     29.5032
   927.6000      8.0740      2.4832      0.1245     10.1113    154.5655     29.4307
   927.7000      8.0740      2.4816      0.0922     10.2063    149.8685     29.3663
   927.8000      8.0099      2.4664      0.0745     11.1253    145.1044     29.3426
   927.9000      8.0099      2.4486      0.0743     12.2056    146.4046     29.2943
   928.0000      7.9994      2.4459      0.0145     12.3720    150.8667     29.0704
   928.1000      7.9994      2.4671      0.0583     11.0873    153.9683     28.7649
   928.2000      7.9994      2.4973      0.0736      9.2550    153.9814     28.8185
   928.3000      8.0319      2.5194      0.0751      7.9137    151.8686     29.3501
   928.4000      8.0319      2.5299      0.0752      7.2767    150.9303     29.8550
   928.5000      8.0048      2.5260      0.0652      7.5129    152.4863     30.0632
   928.6000      8.0048      2.5075      0.0545      8.6366    155.2829     30.1746
   928.7000      8.0048      2.4915     -0.0011      9.6073    159.7816     30.2885
   928.8000      8.0176      2.4914      0.0811      9.6099    164.6532     30.2375
   928.9000      8.0176      2.4920      0.0557      9.5764    165.3524     29.7292
   929.0000      8.0538      2.4810      0.0178     10.2427    160.9105     28.8296
   929.1000      8.0538      2.4672      0.0275     11.0797    155.3911     28.1568
   929.2000      8.0538      2.4628      0.0041     11.3427    151.8230     28.0192
   929.3000      8.1034      2.4712      0.0606     10.8390    148.8994     27.9976
   929.4000      8.1034      2.4804      0.0752     10.2816    144.8308     27.9087
   929.5000      8.1521      2.4747      0.0764     10.6270    142.7551     27.9803
   929.6000      8.1521      2.4567      0.0395     11.7163    146.1597     28.2514
   929.7000      8.1521      2.4464      0.0183     12.3410    150.6123     28.5697
   929.8000      8.1843      2.4516      0.0166     12.0224    150.5749     28.8202
   929.9000      8.1843      2.4627      0.0295     11.3531    147.9896     28.9410
   930.0000      8.1724      2.4715      0.0203     10.8206    144.9033     28.9899
   930.1000      8.1724      2.4779      0.0314     10.4278    141.8224     29.0628
   930.2000      8.1724      2.4831      0.0377     10.1155    141.3929     29.0577
   930.3000      8.1680      2.4882      0.0128      9.8067    144.2415     28.9364
   930.4000      8.1680      2.4927      0.0423      9.5334    147.3748     28.9065
   930.5000      8.1618      2.4970      0.0499      9.2753    148.7631     28.8945
   930.6000      8.1618      2.5067      0.0321      8.6829    150.5414     28.4586
   930.7000      8.1618      2.5224      0.0714      7.7363    153.9873     27.5058
   930.8000      8.1256      2.5353      0.0551      6.9524    156.0741     26.7156
   930.9000      8.1256      2.5403      0.0437      6.6501    153.6725     26.6824
   931.0000      8.0580      2.5444      0.0450      6.3995    148.8599     27.0910
   931.1000      8.0580      2.5628      0.0206      5.2866    146.1180     27.2521
   931.2000      8.0580      2.5965      0.0861      3.2404    143.5247     26.9758
   931.3000      8.0136      2.6241      0.0903      1.5674    139.0987     26.7225
   931.4000      8.0136      2.6286      0.0877      1.2983    134.1894     26.7166
   931.5000      8.0036      2.6127      0.0701      2.2615    126.2732     26.5744
   931.6000      8.0036      2.5908      0.0593      3.5899    115.6784     26.1305
   931.7000      8.0036      2.5837      0.0200      4.0186    106.7406     25.5149
   931.8000      7.9736      2.6017      0.0895      2.9265     98.9495     24.7832
   931.9000      7.9736      2.6310      0.0773      1.1544     89.9489     24.0169
   932.0000      7.9689      2.6548      0.0591     -0.2922     81.0452     23.2265
   932.1000      7.9689      2.6649      0.1058     -0.9043     75.6900     22.3201
   932.2000      7.9689      2.6504      0.1446     -0.0229     75.8715     21.6655
   932.3000      7.9568      2.6085      0.1042      2.5139     80.7252     21.8112
   932.4000      7.9568      2.5597      0.0394      5.4701     87.4968     22.4578
   932.5000      7.9575      2.5253      0.0605      7.5582     95.6202     22.7191
   932.6000      7.9575      2.5041      0.0933      8.8447    105.8865     22.3016
   932.7000      7.9575      2.4854      0.0373      9.9730    117.0848     21.7683
