~Version Information
VERS.                      2.0: CWLS Log ASCII Standard - VERSION 2.0
WRAP.                       NO: One line per depth step
~Well Information Block
STRT.FT               952.6000: 
STOP.FT              2511.5000: 
STEP.FT                 0.1000: 
NULL.                -999.2500: 
COMP.          Petrogulf Corporation: COMPANY
WELL.             Royal 8-33 V: WELL
FLD.           Purgatoire River: FIELD
LOC.           2365' FSL & 2336' FEL: LOCATION
PROV.                 Colorado: PROVINCE
CNTY.               Las Animas: COUNTRY
SRVC.                Patterson: SERVICE COMPANY
DATE.          Fri Dec 05 09:15:49 2003: LOG DATE
UWI.                          : UNIQUE WELL ID
~Curve Information Block
DEPT.FT            0 000 00 00: Depth
DCAL.in                       : CDL Caliper
RHOB.g/cc                     : CDL Bulk Density
RHOC.g/cc                     : CDL Density Correction
DPOR.pu                       : CDL Density Porosity
GR.GAPI                       : Gamma Ray
NPOR.pu                       : Neutron Porosity
~Parameter Information Block
~A  Depth       DCAL        RHOB        RHOC        DPOR         GR         NPOR    
# ...
  1586.2000      8.1167      2.5465      0.0680      6.2741     59.3085     10.5089
  1586.3000      8.1248      2.5404      0.0462      6.6454     63.2185     10.3369
  1586.4000      8.1248      2.5454      0.0476      6.3374     60.9051      9.6935
  1586.5000      8.1260      2.5622      0.1034      5.3223     56.5189      9.1975
  1586.6000      8.1260      2.5745      0.1006      4.5745     55.9028      9.1134
  1586.7000      8.1260      2.5623      0.1268      5.3173     59.1376      9.3179
  1586.8000      8.1421      2.5345     -0.0046      6.9994     63.6189      9.5812
  1586.9000      8.1421      2.5250      0.0282      7.5749     65.2346      9.7547
  1587.0000      8.1417      2.5381      0.0411      6.7818     61.1924      9.8222
  1587.1000      8.1417      2.5457      0.0915      6.3205     55.4955      9.8397
  1587.2000      8.1417      2.5354      0.0301      6.9449     55.3367      9.6532
  1587.3000      8.1347      2.5183      0.0498      7.9839     60.1544      9.4821
  1587.4000      8.1347      2.5025      0.0365      8.9374     63.6140      9.6670
  1587.5000      8.1344      2.4989      0.0050      9.1592     64.2230      9.6598
  1587.6000      8.1344      2.5162      0.0820      8.1085     63.2184      9.1078
  1587.7000      8.1344      2.5394      0.1098      6.7045     61.3278      8.6113
  1587.8000      8.1250      2.5472      0.1015      6.2314     59.5951      8.7400
  1587.9000      8.1250      2.5387      0.0729      6.7476     59.2417      9.3238
  1588.0000      8.1107      2.5233      0.1007      7.6785     58.7668      9.8405
  1588.1000      8.1107      2.5165      0.0044      8.0917     56.2779     10.1677
  1588.2000      8.1107      2.5334      0.0347      7.0695     53.6423     10.4194
  1588.3000      8.1084      2.5606      0.0901      5.4182     54.3641     10.5687
  1588.4000      8.1084      2.5745      0.0702      4.5774     57.4311     10.6118
  1588.5000      8.1135      2.5762      0.0542      4.4718     58.7199     10.8509
  1588.6000      8.1135      2.5727      0.0911      4.6861     57.6991     11.7356
  1588.7000      8.1135      2.5590      0.1118      5.5155     55.5718     13.5114
  1588.8000      8.1306      2.5541     -0.0180      5.8122     53.2771     15.6347
  1588.9000      8.1306      2.5857      0.0550      3.8951     52.6852     17.1720
  1589.0000      8.1162      2.6213      0.1780      1.7416     55.9954     18.3055
  1589.1000      8.1162      2.6074      0.0961      2.5791     62.9076     19.6341
  1589.2000      8.1162      2.5547      0.0491      5.7741     68.0227     20.9684
  1589.3000      8.1237      2.5067      0.0205      8.6830     69.3036     21.9801
  1589.4000      8.1237      2.4904     -0.0275      9.6742     71.3949     22.5602
  1589.5000      8.1282      2.5075     -0.0110      8.6338     78.5347     22.7702
  1589.6000      8.1282      2.5293      0.1433      7.3133     89.3901     22.8768
  1589.7000      8.1282      2.5341      0.0457      7.0257     99.2588     22.8120
  1589.8000      8.1322      2.5321      0.0996      7.1456    108.8190     22.5308
  1589.9000      8.1322      2.5305      0.0446      7.2399    118.5293     22.5188
  1590.0000      8.1268      2.5289      0.1403      7.3366    125.7275     22.7623
  1590.1000      8.1268      2.5279      0.0861      7.3988    131.6506     22.8694
  1590.2000      8.1268      2.5330      0.0401      7.0916    136.4525     22.9043
  1590.3000      8.1232      2.5426      0.1217      6.5116    135.9866     22.9130
  1590.4000      8.1232      2.5466      0.0881      6.2661    129.3142     22.8398
  1590.5000      8.1419      2.5518      0.1231      5.9539    123.7129     22.6976
  1590.6000      8.1419      2.5661      0.1547      5.0838    124.5546     22.3979
  1590.7000      8.1419      2.5864      0.1238      3.8524    128.3940     21.7770
  1590.8000      8.1567      2.5986      0.2083      3.1149    127.5354     21.0141
  1590.9000      8.1567      2.5808      0.1425      4.1954    119.4639     20.4524
  1591.0000      8.1483      2.5438      0.0511      6.4373    110.7769     19.9395
  1591.1000      8.1483      2.5249      0.0829      7.5813    108.6801     18.9088
  1591.2000      8.1483      2.5387      0.0482      6.7444    114.7362     17.3818
  1591.3000      8.1565      2.5639      0.1507      5.2191    124.2448     16.0672
  1591.4000      8.1565      2.5752      0.1054      4.5321    131.4767     15.1853
  1591.5000      8.1693      2.5790      0.1426      4.3022    134.5356     14.4234
  1591.6000      8.1693      2.5905      0.1270      3.6068    133.1615     13.8298
  1591.7000      8.1693      2.6133      0.1583      2.2266    128.2408     13.5704
  1591.8000      8.1546      2.6440      0.1496      0.3607    122.3262     13.6356
  1591.9000      8.1546      2.6768      0.1854     -1.6256    115.0957     13.8599
  1592.0000      8.1538      2.7000      0.1673     -3.0300    105.8167     13.5755
  1592.1000      8.1538      2.6986      0.1290     -2.9439     95.8173     12.5480
  1592.2000      8.1538      2.6692      0.1601     -1.1610     87.4642     11.7015
  1592.3000      8.1637      2.6287      0.0837      1.2931     82.5138     11.6495
  1592.4000      8.1637      2.5994      0.0326      3.0667     78.7350     12.0546
  1592.5000      8.1611      2.5841      0.0505      3.9938     74.2387     12.5484
  1592.6000      8.1611      2.5792      0.0198      4.2901     71.7596     13.1229
  1592.7000      8.1611      2.5869      0.0629      3.8249     72.1986     13.8458
  1592.8000      8.1606      2.5933      0.0927      3.4335     74.5768     14.9119
  1592.9000      8.1606      2.5879      0.0414      3.7654     76.5044     16.5360
  1593.0000      8.1411      2.5873     -0.0076      3.7990     76.2516     17.8536
  1593.1000      8.1411      2.5980      0.0675      3.1522     75.7175     18.1077
  1593.2000      8.1411      2.6001      0.1617      3.0242     77.7459     18.3151
  1593.3000      8.1274      2.5937      0.0291      3.4144     81.9028     19.3968
  1593.4000      8.1274      2.5962      0.0569      3.2617     85.3014     20.4218
  1593.5000      8.1273      2.6047      0.0813      2.7445     86.7783     20.7286
  1593.6000      8.1273      2.6104      0.1160      2.4026     90.1220     21.1716
  1593.7000      8.1273      2.6112      0.1072      2.3528     98.4865     22.1027
  1593.8000      8.1305      2.6111      0.0853      2.3566    109.5113     22.8693
  1593.9000      8.1305      2.6138      0.1224      2.1968    117.4631     23.1395
  1594.0000      8.1202      2.6128      0.1536      2.2573    119.1288     23.1584
  1594.1000      8.1202      2.6105      0.0836      2.3955    120.3307     23.1072
  1594.2000      8.1202      2.6128      0.1409      2.2519    125.9678     22.9488
  1594.3000      8.1116      2.6028      0.1818      2.8619    131.7136     22.8173
  1594.4000      8.1116      2.5768      0.0817      4.4391    131.5120     23.0128
  1594.5000      8.1284      2.5594      0.0634      5.4888    125.5135     23.3679
  1594.6000      8.1284      2.5544      0.1053      5.7919    123.0410     23.4201
  1594.7000      8.1284      2.5497      0.1013      6.0815    132.8811     22.9731
  1594.8000      8.1376      2.5474      0.1342      6.2206    150.5771     21.9979
  1594.9000      8.1376      2.5529      0.1085      5.8878    161.1405     20.8392
  1595.0000      8.1603      2.5648      0.1079      5.1609    154.8624     19.9143
  1595.1000      8.1603      2.5793      0.1659      4.2839    135.3463     19.2065
  1595.2000      8.1603      2.5951      0.1118      3.3294    115.8488     18.5883
  1595.3000      8.1889      2.6079      0.1962      2.5491    107.9146     17.7735
  1595.4000      8.1889      2.6089      0.1317      2.4931    111.4479     16.8070
  1595.5000      8.1831      2.6101      0.1225      2.4197    115.4520     16.3005
  1595.6000      8.1831      2.6399      0.1351      0.6144    110.1598     16.1502
  1595.7000      8.1831      2.7021      0.1897     -3.1555    102.5603     15.9623
