~Version Information
VERS.                      2.0: CWLS Log ASCII Standard - VERSION 2.0
WRAP.                       NO: One line per depth step
~Well Information Block
STRT.FT               546.2500: 
STOP.FT              2496.7500: 
STEP.FT                 0.2500: 
NULL.                -999.2500: 
COMP.          Petrogulf Corporation: COMPANY
WELL.               Egan 9-11V: WELL
FLD.           Purgatorie River: FIELD
LOC.           724' FNL & 1379' FWL: LOCATION
PROV.                 Colorado: PROVINCE
CNTY.               Las Animas: COUNTRY
SRVC.          Patterson Wireline: SERVICE COMPANY
DATE.          Fri Jul 11 23:32:41 2003: LOG DATE
UWI.           05 071 07875 00: UNIQUE WELL ID
~Curve Information Block
DEPT.FT            0 000 00 00: Depth
SP.mV                         : DIL Spontaneous Potential
RILD.Ohm-m                    : DIL Deep Resistivity
RILM.Ohm-m                    : DIL Medium Resistivity
RLL3.Ohm-m                    : DIL Shallow Resistivity
GR.GAPI                       : Gamma Ray
~Parameter Information Block
~A  Depth        SP         RILD        RILM        RLL3         GR     
# ...
  2086.2500    -60.8036     12.1767     13.1940     14.3237    154.4059
  2086.5000    -60.8339     12.3732     13.3542     14.7283    158.6015
  2086.7500    -60.9917     12.6304     13.6239     15.7789    160.6625
  2087.0000    -61.3037     12.9616     14.0172     17.6381    163.0162
  2087.2500    -61.7734     13.3800     14.5491     20.8955    164.0435
  2087.5000    -62.3789     13.8927     15.2355     27.6376    164.1429
  2087.7500    -63.0861     14.4984     16.0924     42.6707    162.6695
  2088.0000    -63.8623     15.1898     17.1348     73.7265    156.9720
  2088.2500    -64.6825     15.9570     18.3734    129.6820    150.2083
  2088.5000    -65.5312     16.7870     19.8096    217.1453    135.1483
  2088.7500    -66.4026     17.6578     21.4284    336.6250    122.2218
  2089.0000    -67.3003     18.5322     23.1885    478.9721    100.2699
  2089.2500    -68.2323     19.3582     25.0125    622.9276     85.3052
  2089.5000    -69.1982     20.0797     26.7815    736.9551     64.8946
  2089.7500    -70.1787     20.6499     28.3412    788.7956     54.0703
  2090.0000    -71.1336     21.0387     29.5265    760.1519     43.7102
  2090.2500    -72.0135     21.2330     30.2012    657.1755     40.9200
  2090.5000    -72.7795     21.2347     30.2991    508.6048     42.0267
  2090.7500    -73.4204     21.0587     29.8436    352.2733     45.5509
  2091.0000    -73.9548     20.7302     28.9358    219.0140     54.1703
  2091.2500    -74.4155     20.2757     27.7169    123.5432     61.9589
  2091.5000    -74.8292     19.7138     26.3286     65.2554     76.3166
  2091.7500    -75.2046     19.0517     24.8858     35.0207     86.9199
  2092.0000    -75.5359     18.2922     23.4665     22.2495    101.9061
  2092.2500    -75.8112     17.4467     22.1147     18.8607    109.5703
  2092.5000    -76.0230     16.5445     20.8495     19.9713    115.6629
  2092.7500    -76.1776     15.6303     19.6750     22.8266    116.3369
  2093.0000    -76.2998     14.7546     18.5883     25.6245    114.8840
  2093.2500    -76.4264     13.9617     17.5856     27.0733    114.1033
  2093.5000    -76.5914     13.2819     16.6651     26.5789    114.7620
  2093.7500    -76.8114     12.7293     15.8278     24.4254    116.2843
  2094.0000    -77.0822     12.3035     15.0773     21.4923    119.6848
  2094.2500    -77.3819     11.9945     14.4182     18.6762    122.8122
  2094.5000    -77.6791     11.7876     13.8550     16.4871    129.0905
  2094.7500    -77.9426     11.6677     13.3909     15.0124    133.9183
  2095.0000    -78.1557     11.6202     13.0277     14.0897    140.2701
  2095.2500    -78.3231     11.6305     12.7654     13.4936    142.9017
  2095.5000    -78.4658     11.6836     12.6020     13.0866    144.2950
  2095.7500    -78.6036     11.7628     12.5335     12.9334    144.3209
  2096.0000    -78.7377     11.8501     12.5535     13.3347    144.3864
  2096.2500    -78.8447     11.9268     12.6527     14.7362    144.4881
  2096.5000    -78.8867     11.9765     12.8186     17.5183    143.2844
  2096.7500    -78.8316     11.9896     13.0342     21.7324    140.4065
  2097.0000    -78.6720     11.9676     13.2790     26.8779    132.0323
  2097.2500    -78.4289     11.9247     13.5297     31.8418    124.4657
  2097.5000    -78.1404     11.8837     13.7623     35.1781    113.1294
  2097.7500    -77.8443     11.8689     13.9555     35.7908    107.2707
  2098.0000    -77.5640     11.8988     14.0945     33.6207    102.1630
  2098.2500    -77.3035     11.9810     14.1729     29.6638    100.9843
  2098.5000    -77.0492     12.1107     14.1940     25.2290    102.0120
  2098.7500    -76.7803     12.2719     14.1684     21.2008    104.5095
  2099.0000    -76.4834     12.4398     14.1113     17.9413    110.9544
  2099.2500    -76.1634     12.5847     14.0378     15.5973    116.7324
  2099.5000    -75.8406     12.6760     13.9602     14.2794    126.1342
  2099.7500    -75.5404     12.6877     13.8853     14.0211    131.4909
  2100.0000    -75.2833     12.6032     13.8133     14.7301    135.8022
  2100.2500    -75.0825     12.4208     13.7386     16.2029    135.7054
  2100.5000    -74.9427     12.1553     13.6505     18.1161    132.4750
  2100.7500    -74.8541     11.8352     13.5363     19.9865    129.7885
  2101.0000    -74.7868     11.4944     13.3833     21.2263    127.1953
  2101.2500    -74.6928     11.1634     13.1825     21.3849    127.1354
  2101.5000    -74.5184     10.8627     12.9308     20.4498    129.8504
  2101.7500    -74.2216     10.6017     12.6317     18.9077    133.1029
  2102.0000    -73.7846     10.3807     12.2954     17.4135    138.0701
  2102.2500    -73.2171     10.1949     11.9363     16.3176    139.8206
  2102.5000    -72.5492     10.0378     11.5715     15.4963    138.5211
  2102.7500    -71.8199      9.9031     11.2176     14.6280    135.5052
  2103.0000    -71.0656      9.7851     10.8898     13.5829    130.2070
  2103.2500    -70.3141      9.6799     10.6005     12.5285    127.6148
  2103.5000    -69.5865      9.5859     10.3592     11.7284    126.6144
  2103.7500    -68.9043      9.5049     10.1731     11.3238    127.9626
  2104.0000    -68.2915      9.4405     10.0471     11.2867    131.8788
  2104.2500    -67.7689      9.3977      9.9851     11.5004    134.6799
  2104.5000    -67.3440      9.3816      9.9897     11.8421    137.6497
  2104.7500    -67.0081      9.3985     10.0632     12.2258    138.4760
  2105.0000    -66.7402      9.4550     10.2076     12.6277    138.4650
  2105.2500    -66.5161      9.5575     10.4243     13.1123    138.2973
  2105.5000    -66.3148      9.7105     10.7139     13.8360    138.6972
  2105.7500    -66.1247      9.9146     11.0753     14.9932    139.1809
  2106.0000    -65.9488     10.1656     11.5047     16.7152    138.4731
  2106.2500    -65.8066     10.4552     11.9937     19.0012    135.9037
  2106.5000    -65.7299     10.7717     12.5276     21.7411    128.3794
  2106.7500    -65.7478     11.1004     13.0833     24.7696    121.8003
  2107.0000    -65.8699     11.4219     13.6282     27.8057    112.3712
  2107.2500    -66.0792     11.7111     14.1207     30.3221    107.8461
  2107.5000    -66.3397     11.9387     14.5143     31.6493    104.4964
  2107.7500    -66.6137     12.0770     14.7641     31.4116    103.9013
  2108.0000    -66.8800     12.1073     14.8364     29.8467    103.7431
  2108.2500    -67.1426     12.0249     14.7170     27.5768    103.6943
  2108.5000    -67.4270     11.8392     14.4155     25.0866    104.4316
  2108.7500    -67.7654     11.5705     13.9627     22.4983    106.2319
  2109.0000    -68.1765     11.2434     13.4030     19.7792    111.5097
  2109.2500    -68.6493     10.8820     12.7851     17.0296    116.3591
  2109.5000    -69.1395     10.5065     12.1532     14.5296    124.0297
  2109.7500    -69.5828     10.1328     11.5425     12.5554    128.4661
  2110.0000    -69.9199      9.7736     10.9777     11.1970    133.4619
  2110.2500    -70.1207      9.4392     10.4741     10.3523    135.8971
  2110.5000    -70.1926      9.1370     10.0393      9.8591    138.5857
  2110.7500    -70.1722      8.8725      9.6754      9.6069    139.5350
  2111.0000    -70.1068      8.6493      9.3812      9.5510    139.1684
  2111.2500    -70.0354      8.4697      9.1530      9.6633    137.8851
  2111.5000    -69.9772      8.3347      8.9859      9.8870    135.4543
  2111.7500    -69.9322      8.2431      8.8737     10.1354    134.1222
  2112.0000    -69.8916      8.1910      8.8097     10.3338    133.2297
  2112.2500    -69.8522      8.1711      8.7856     10.4718    133.4984
  2112.5000    -69.8251      8.1726      8.7922     10.6286    134.5134
  2112.7500    -69.8306      8.1823      8.8183     10.9427    134.5839
  2113.0000    -69.8823      8.1870      8.8515     11.5330    132.2433
  2113.2500    -69.9720      8.1750      8.8783     12.4075    129.2011
  2113.5000    -70.0685      8.1378      8.8854     13.4151    124.4632
  2113.7500    -70.1301      8.0709      8.8611     14.2872    122.4606
  2114.0000    -70.1227      7.9751      8.7974     14.7557    122.0093
