~Version Information
 VERS.                                  2.0 : CWLS LAS VERSION
 WRAP.                                   NO : WRAPING MODE
 SWARE .                 MController 2.5.0J : SOFTWARE VERSION
~Well Information
 WELL.                      Victory 12-14Tr : WELL
 COMP.    Pioneer Natural Resources USA Inc : COMPANY
 FLD.                      Purgatoire River : FIELD
 LOC.                SW/NW Sec 14 T32S R66W : LOCATION
 DATE.                           7/16-17/05 : DATE(S) LOGGED
 SRVC.       BLANCO Geological Services LLC : SERVICE COMPANY
 STAT.                                   CO : STATE
 CNTY.                           Las Animas : COUNTY
 CTRY.                                  USA : COUNTRY
 API.                       05-071-08433-00 : API NUMBER
 STRT.FT                             797.00 : START DEPTH
 STOP.FT                            1900.00 : STOP DEPTH
 STEP.FT                               1.00 : DEPTH INCREMENT
 NULL.                                -9999 : NULL VALUE
~Curve information
 DEPTH.FT                                   :
 ROP.MIN/FT                                 :
 GAS.UNITS                                  :
~ASCII Log data
# ...
      1597.0         0.27        132.1 
      1598.0         0.23        121.9 
      1599.0         0.28        118.2 
      1600.0         0.23        118.1 
      1601.0         0.23        112.7 
      1602.0         0.27        111.6 
      1603.0         0.20        109.0 
      1604.0         0.20        106.1 
      1605.0         0.23        106.0 
      1606.0         0.27        103.5 
      1607.0         0.23        101.2 
      1608.0         0.27         98.5 
      1609.0         0.13        102.2 
      1610.0         0.10        102.2 
      1611.0         0.10        105.3 
      1612.0         0.17        107.2 
      1613.0         0.27         95.2 
      1614.0         0.27         78.2 
      1615.0         0.18         78.2 
      1616.0         4.02        355.6 
      1617.0         0.47        178.5 
      1618.0         0.30        158.5 
      1619.0         0.30        148.5 
      1620.0         0.30        149.7 
      1621.0         0.33        144.2 
      1622.0         0.27        138.8 
      1623.0         0.27        129.4 
      1624.0         0.35        123.5 
      1625.0         0.23        115.4 
      1626.0         0.23        105.2 
      1627.0         0.17        100.7 
      1628.0         0.20         98.0 
      1629.0         0.17         97.9 
      1630.0         0.20         97.9 
      1631.0         0.17         98.1 
      1632.0         0.20         98.5 
      1633.0         0.20         98.9 
      1634.0         0.17         99.8 
      1635.0         0.17        100.6 
      1636.0         0.20        100.7 
      1637.0         0.17        100.9 
      1638.0         0.20        100.0 
      1639.0         0.23         99.6 
      1640.0         0.20         99.6 
      1641.0         0.25         99.2 
      1642.0         0.20         97.1 
      1643.0         0.20         92.5 
      1644.0         0.20         77.9 
      1645.0         0.13         75.8 
      1646.0         5.55        190.1 
      1647.0         0.35        167.0 
      1648.0         0.33        167.9 
      1649.0         0.30        154.8 
      1650.0         0.30        145.2 
      1651.0         0.33        142.6 
      1652.0         0.27        134.2 
      1653.0         0.20        127.8 
      1654.0         0.27        117.7 
      1655.0         0.27        117.2 
      1656.0         0.23        112.4 
      1657.0         0.27        106.5 
      1658.0         0.20        106.5 
      1659.0         0.13        111.7 
      1660.0         0.20        114.9 
      1661.0         0.28        115.8 
      1662.0         0.30        115.8 
      1663.0         0.30        114.7 
      1664.0         0.27        113.3 
      1665.0         0.27        112.0 
      1666.0         0.27        109.9 
      1667.0         0.23        109.6 
      1668.0         0.23        102.9 
      1669.0         0.13        101.9 
      1670.0         0.27        105.4 
      1671.0         0.30        113.6 
      1672.0         0.33        120.3 
      1673.0         0.32        101.1 
      1674.0         0.13         86.1 
      1675.0         0.80         87.3 
      1676.0         1.17        197.1 
      1677.0         0.60        243.6 
      1678.0         0.55        242.5 
      1679.0         0.40        205.1 
      1680.0         0.33        177.0 
      1681.0         0.30        154.3 
      1682.0         0.30        148.7 
      1683.0         0.27        150.2 
      1684.0         0.17        144.2 
      1685.0         0.27        136.6 
      1686.0         0.17        135.9 
      1687.0         0.13        135.9 
      1688.0         0.13        143.7 
      1689.0         0.17        143.7 
      1690.0         0.27        149.7 
      1691.0         0.27        150.2 
      1692.0         0.22        150.3 
      1693.0         0.27        142.0 
      1694.0         0.23        136.8 
      1695.0         0.23        132.7 
      1696.0         0.30        127.2 
      1697.0         0.20        122.3 
      1698.0         0.30        119.9 
      1699.0         0.23        115.6 
      1700.0         0.23        115.6 
      1701.0         0.20        121.4 
      1702.0         0.23        121.4 
      1703.0         0.23        119.8 
      1704.0         0.27        106.5 
      1705.0         0.17         91.5 
      1706.0         2.02        198.8 
      1707.0         0.47        227.0 
      1708.0         0.30        213.6 
      1709.0         0.27        197.3 
      1710.0         0.17        178.6 
      1711.0         0.13        176.6 
      1712.0         0.22        161.2 
      1713.0         0.40        158.4 
      1714.0         0.33        157.2 
      1715.0         0.27        162.7 
      1716.0         0.40        163.2 
      1717.0         0.27        156.6 
      1718.0         0.40        150.7 
      1719.0         0.27        141.3 
      1720.0         0.17        130.1 
      1721.0         0.17        126.6 
      1722.0         0.17        123.9 
      1723.0         0.17        122.5 
      1724.0         0.28        119.1 
      1725.0         0.20        114.1 
      1726.0         0.17        113.6 
      1727.0         0.20        109.3 
      1728.0         0.20        109.3 
      1729.0         0.17        113.3 
      1730.0         0.13        118.6 
      1731.0         0.20        118.6 
      1732.0         0.17        120.3 
      1733.0         0.23        111.2 
      1734.0         0.27        101.9 
      1735.0         0.80         91.4 
      1736.0         1.38        211.4 
      1737.0         0.43        224.1 
      1738.0         0.30        236.8 
      1739.0         0.37        231.6 
      1740.0         0.60        204.6 
      1741.0         0.50        153.5 
      1742.0         0.48        144.2 
      1743.0         0.33        148.3 
      1744.0         0.27        147.3 
      1745.0         0.20        145.6 
      1746.0         0.17        141.7 
      1747.0         0.17        141.7 
      1748.0         0.23        134.9 
      1749.0         0.20        128.8 
      1750.0         0.13        129.2 
      1751.0         0.13        129.2 
      1752.0         0.10        129.2 
      1753.0         0.17        134.1 
      1754.0         0.27        142.8 
      1755.0         0.27        145.3 
      1756.0         0.27        147.8 
      1757.0         0.25        151.8 
      1758.0         0.23        151.8 
      1759.0         0.27        136.2 
      1760.0         0.17        124.0 
      1761.0         0.20        121.7 
      1762.0         0.17        124.0 
      1763.0         0.13        133.3 
      1764.0         0.13        133.3 
      1765.0         0.23        134.5 
      1766.0         0.27        133.6 
      1767.0         2.98        258.6 
      1768.0         0.37        252.2 
      1769.0         0.30        212.7 
      1770.0         0.20        190.0 
      1771.0         0.53        169.5 
      1772.0         0.32        151.6 
      1773.0         0.53        161.8 
      1774.0         0.47        166.9 
      1775.0         0.27        160.4 
      1776.0         0.20        160.1 
      1777.0         0.23        154.2 
      1778.0         0.30        150.1 
      1779.0         0.33        138.3 
      1780.0         0.40        138.0 
      1781.0         0.30        131.9 
      1782.0         0.18        125.0 
      1783.0         0.20        125.8 
      1784.0         0.27        132.0 
      1785.0         0.27        132.3 
      1786.0         0.30        128.8 
      1787.0         0.30        120.7 
      1788.0         0.27        113.4 
      1789.0         0.30        108.6 
      1790.0         0.20        105.9 
      1791.0         0.20        105.6 
      1792.0         0.17        105.1 
      1793.0         0.20         97.8 
      1794.0         0.17         96.2 
      1795.0         0.23         83.9 
      1796.0         3.90        235.7 
