~Version Information
VERS.                      2.0: CWLS Log ASCII Standard - VERSION 2.0
WRAP.                       NO: One line per depth step
~Well Information Block
STRT.FT               651.5000: 
STOP.FT              2190.5000: 
STEP.FT                 0.2500: 
NULL.                -999.2500: 
COMP.          Pioneer Natural Resources: COMPANY
WELL.               King 22-13: WELL
FLD.           Purgatoire River: FIELD
LOC.           2419' FNL & 1806' FWL----: LOCATION
PROV.                 Colorado: PROVINCE
CNTY.               Las Animas: COUNTRY
SRVC.                Patterson: SERVICE COMPANY
DATE.          Thu Mar 31 14:33:28 2005: LOG DATE
UWI.           05 071 08318 00: UNIQUE WELL ID
~Curve Information Block
DEPT.FT            0 000 00 00: Depth
SN.Ohm-m                      : IEL Short Normal
SP.mV                         : IEL Spontaneous Potential
DIR.Ohm-m                     : IEL Induction Resistivity
GR.GAPI                       : Gamma Ray
~Parameter Information Block
~A  Depth        SN          SP         DIR          GR     
# ...
   852.5000   2000.0000   2080.0000     17.7883    103.6276
   852.7500   2000.0000   2080.0000     17.8364    100.3501
   853.0000   2000.0000   2080.0000     17.9099     97.9494
   853.2500   2000.0000   2080.0000     18.0036     99.0776
   853.5000   2000.0000   2080.0000     18.1114    104.0557
   853.7500   2000.0000   2080.0000     18.2246    107.8389
   854.0000   2000.0000   2080.0000     18.3346    111.0620
   854.2500   2000.0000   2080.0000     18.4384    110.7760
   854.5000   2000.0000   2080.0000     18.5413    108.1056
   854.7500   2000.0000   2080.0000     18.6539    106.7835
   855.0000   2000.0000   2080.0000     18.7845    108.3661
   855.2500   2000.0000   2080.0000     18.9322    112.1435
   855.5000   2000.0000   2080.0000     19.0873    119.9928
   855.7500   2000.0000   2080.0000     19.2418    124.7488
   856.0000   2000.0000   2080.0000     19.4039    128.2108
   856.2500   2000.0000   2080.0000     19.6074    127.3810
   856.5000   2000.0000   2080.0000     19.9082    122.0869
   856.7500   2000.0000   2080.0000     20.3706    116.6785
   857.0000   2000.0000   2080.0000     21.0493    107.4876
   857.2500   2000.0000   2080.0000     21.9735    102.1857
   857.5000   2000.0000   2080.0000     23.1336     98.2759
   857.7500   2000.0000   2080.0000     24.4691     98.7916
   858.0000   2000.0000   2080.0000     25.8630    101.8532
   858.2500   2000.0000   2080.0000     27.1522    103.1569
   858.5000   2000.0000   2080.0000     28.1645    101.3133
   858.7500   2000.0000   2080.0000     28.7772     97.2721
   859.0000   2000.0000   2080.0000     28.9659     88.1121
   859.2500   2000.0000   2080.0000     28.8069     80.9237
   859.5000   2000.0000   2080.0000     28.4292     69.8762
   859.7500   2000.0000   2080.0000     27.9536     62.6790
   860.0000   2000.0000   2080.0000     27.4585     52.3520
   860.2500   2000.0000   2080.0000     26.9822     46.2029
   860.5000   2000.0000   2080.0000     26.5435     39.3545
   860.7500   2000.0000   2080.0000     26.1582     36.8728
   861.0000   2000.0000   2080.0000     25.8378     36.5126
   861.2500   2000.0000   2080.0000     25.5783     38.8749
   861.5000   2000.0000   2080.0000     25.3525     47.4772
   861.7500   2000.0000   2080.0000     25.1205     56.6468
   862.0000   2000.0000   2080.0000     24.8519     73.2549
   862.2500   2000.0000   2080.0000     24.5468     83.9996
   862.5000   2000.0000   2080.0000     24.2401     96.4724
   862.7500   2000.0000   2080.0000     23.9896    101.6069
   863.0000   2000.0000   2080.0000     23.8589    104.9926
   863.2500   2000.0000   2080.0000     23.9056    105.2726
   863.5000   2000.0000   2080.0000     24.1762    104.6980
   863.7500   2000.0000   2080.0000     24.7032    104.4575
   864.0000   2000.0000   2080.0000     25.4961    103.8088
   864.2500   2000.0000   2080.0000     26.5312    101.9436
   864.5000   2000.0000   2080.0000     27.7444     95.6769
   864.7500   2000.0000   2080.0000     29.0374     89.9583
   865.0000   2000.0000   2080.0000     30.2987     81.9806
   865.2500   2000.0000   2080.0000     31.4275     78.1877
   865.5000   2000.0000   2080.0000     32.3457     74.6041
   865.7500   2000.0000   2080.0000     32.9966     72.9918
   866.0000   2000.0000   2080.0000     33.3389     71.4289
   866.2500   2000.0000   2080.0000     33.3457     71.2777
   866.5000   2000.0000   2080.0000     33.0066     72.7683
   866.7500   2000.0000   2080.0000     32.3279     74.7012
   867.0000   2000.0000   2080.0000     31.3360     78.4300
   867.2500   2000.0000   2080.0000     30.0825     81.2412
   867.5000   2000.0000   2080.0000     28.6441     85.0285
   867.7500   2000.0000   2080.0000     27.1121     86.1086
   868.0000   2000.0000   2080.0000     25.5760     83.9328
   868.2500   2000.0000   2080.0000     24.1086     80.3689
   868.5000   2000.0000   2080.0000     22.7597     74.7456
   868.7500   2000.0000   2080.0000     21.5565     72.5060
   869.0000   2000.0000   2080.0000     20.5081     72.6616
   869.2500   2000.0000   2080.0000     19.6136     75.0209
   869.5000   2000.0000   2080.0000     18.8669     81.3951
   869.7500   2000.0000   2080.0000     18.2591     87.2202
   870.0000   2000.0000   2080.0000     17.7755     97.4178
   870.2500   2000.0000   2080.0000     17.3943    104.2473
   870.5000   2000.0000   2080.0000     17.0875    112.8056
   870.7500   2000.0000   2080.0000     16.8272    116.9787
   871.0000   2000.0000   2080.0000     16.5921    121.6280
   871.2500   2000.0000   2080.0000     16.3726    124.2372
   871.5000   2000.0000   2080.0000     16.1722    127.3977
   871.7500   2000.0000   2080.0000     16.0035    128.4432
   872.0000   2000.0000   2080.0000     15.8821    127.7025
   872.2500   2000.0000   2080.0000     15.8203    125.7378
   872.5000   2000.0000   2080.0000     15.8246    121.1604
   872.7500   2000.0000   2080.0000     15.8976    117.5077
   873.0000   2000.0000   2080.0000     16.0414    112.5964
   873.2500   2000.0000   2080.0000     16.2586    110.7311
   873.5000   2000.0000   2080.0000     16.5494    110.5878
   873.7500   2000.0000   2080.0000     16.9067    111.4893
   874.0000   2000.0000   2080.0000     17.3134    112.6550
   874.2500   2000.0000   2080.0000     17.7433    113.1667
   874.5000   2000.0000   2080.0000     18.1663    114.5367
   874.7500   2000.0000   2080.0000     18.5564    116.1281
   875.0000   2000.0000   2080.0000     18.8999    118.3667
   875.2500   2000.0000   2080.0000     19.2018    118.4434
   875.5000   2000.0000   2080.0000     19.4832    114.5693
   875.7500   2000.0000   2080.0000     19.7712    109.2616
   876.0000   2000.0000   2080.0000     20.0876     99.4995
   876.2500   2000.0000   2080.0000     20.4429     93.9650
   876.5000   2000.0000   2080.0000     20.8390     89.7606
   876.7500   2000.0000   2080.0000     21.2762     89.5222
   877.0000   2000.0000   2080.0000     21.7584     90.3651
   877.2500   2000.0000   2080.0000     22.2912     90.3022
   877.5000   2000.0000   2080.0000     22.8768     89.1988
   877.7500   2000.0000   2080.0000     23.5092     88.7787
   878.0000   2000.0000   2080.0000     24.1768     89.7523
   878.2500   2000.0000   2080.0000     24.8674     91.1406
   878.5000   2000.0000   2080.0000     25.5697     92.9861
   878.7500   2000.0000   2080.0000     26.2675     93.5257
   879.0000   2000.0000   2080.0000     26.9337     93.2804
   879.2500   2000.0000   2080.0000     27.5357     92.9157
   879.5000   2000.0000   2080.0000     28.0491     93.3139
   879.7500   2000.0000   2080.0000     28.4678     94.4325
   880.0000   2000.0000   2080.0000     28.8045     95.9756
   880.2500   2000.0000   2080.0000     29.0834     95.6271
   880.5000   2000.0000   2080.0000     29.3334     92.4085
   880.7500   2000.0000   2080.0000     29.5848     89.6287
   881.0000   2000.0000   2080.0000     29.8702     87.5380
   881.2500   2000.0000   2080.0000     30.2254     88.3481
   881.5000   2000.0000   2080.0000     30.6877     91.7202
   881.7500   2000.0000   2080.0000     31.2868     94.2760
   882.0000   2000.0000   2080.0000     32.0322     97.8055
   882.2500   2000.0000   2080.0000     32.9055    100.1888
   882.5000   2000.0000   2080.0000     33.8639    104.1535
   882.7500   2000.0000   2080.0000     34.8559    106.7588
   883.0000   2000.0000   2080.0000     35.8447    109.0702
   883.2500   2000.0000   2080.0000     36.8272    108.4960
   883.5000   2000.0000   2080.0000     37.8433    104.0515
   883.7500   2000.0000   2080.0000     38.9720     99.7685
   884.0000   2000.0000   2080.0000     40.3168     94.1445
   884.2500   2000.0000   2080.0000     41.9864     91.8285
   884.5000   2000.0000   2080.0000     44.0720     89.9954
   884.7500   2000.0000   2080.0000     46.6202     89.1024
   885.0000   2000.0000   2080.0000     49.6017     87.7429
   885.2500   2000.0000   2080.0000     52.8896     87.1352
   885.5000   2000.0000   2080.0000     56.2751     87.3648
   885.7500   2000.0000   2080.0000     59.5411     88.2440
