~Version Information
VERS.                      2.0: CWLS Log ASCII Standard - VERSION 2.0
WRAP.                       NO: One line per depth step
~Well Information Block
STRT.FT              1684.7500: 
STOP.FT              2367.7500: 
STEP.FT                 0.2500: 
NULL.                -999.2500: 
COMP.          Petrogulf Corporation: COMPANY
WELL.             Norton 9-14V: WELL
FLD.           Purgatorie River: FIELD
LOC.           250' FSL & 225' FWL--: LOCATION
CNTY.               Las Animas: COUNTY
SRVC.                         : SERVICE COMPANY
DATE.          Mon Jan 10 10:00:10 2005: LOG DATE
UWI.                          : UNIQUE WELL ID
STAT.                       CO: STATE
~Curve Information Block
DEPT.FT            0 000 00 00: Depth
CCL.                          : Casing Collar Locator
TT3.usec                      : CBL 3' Travel Time
AMP3.mV                       : CBL 3' Amplitude
GR.GAPI                       : Gamma Ray
~Parameter Information Block
~A  Depth       CCL         TT3         AMP3         GR     
# ...
  2120.2500      0.0000    658.6719     10.2706     61.2343
  2120.5000      0.0000    664.5742     10.2344     61.2247
  2120.7500      0.0000    657.3973     10.3216     61.7247
  2121.0000      0.0000    634.5973     10.4706     62.5850
  2121.2500      0.0000    591.7554     10.6180     62.9717
  2121.5000      0.0000    530.9625     10.7273     62.2940
  2121.7500      0.0000    466.0742     10.7767     60.7509
  2122.0000      0.0000    417.0818     10.7435     58.9842
  2122.2500      0.0000    396.5991     10.6177     57.4150
  2122.5000      0.0000    402.1387     10.4163     56.1147
  2122.7500      0.0000    422.6140     10.1608     55.2828
  2123.0000      0.0000    450.6708      9.8435     55.4338
  2123.2500      0.0000    485.6854      9.4332     56.9075
  2123.5000      0.0000    526.7153      8.9213     59.4185
  2123.7500      0.0000    568.7620      8.3554     62.2189
  2124.0000      0.0000    606.6332      7.8141     64.4997
  2124.2500      0.0000    637.6310      7.3505     65.6884
  2124.5000      0.0000    660.0811      6.9616     65.7529
  2124.7500      0.0000    672.8412      6.6095     65.3758
  2125.0000      0.0000    676.4012      6.2657     65.5411
  2125.2500      0.0000    672.6790      5.9302     66.7133
  2125.5000      0.0000    664.5330      5.6190     68.4847
  2125.7500      0.0000    656.6904      5.3445     69.9942
  2126.0000      0.0000    655.1530      5.1073     70.5105
  2126.2500      0.0000    663.0981      4.8989     69.6348
  2126.5000      0.0000    677.6191      4.7045     67.4664
  2126.7500      0.0000    692.0129      4.5004     64.9315
  2127.0000      0.0000    701.3195      4.2628     63.4839
  2127.2500      0.0000    705.2103      3.9925     64.0063
  2127.5000      0.0000    706.3826      3.7246     66.1348
  2127.7500      0.0000    707.3541      3.4994     68.6616
  2128.0000      0.0000    708.5637      3.3318     70.3759
  2128.2500      0.0000    708.6060      3.2188     70.9872
  2128.5000      0.0000    705.9463      3.1634     71.6612
  2128.7500      0.0000    700.5908      3.1754     74.0063
  2129.0000      0.0000    693.7489      3.2536     78.1728
  2129.2500      0.0000    685.8545      3.3807     82.6982
  2129.5000      0.0000    675.7772      3.5424     86.2437
  2129.7500      0.0000    662.8564      3.7342     88.3883
  2130.0000      0.0000    648.9410      3.9379     88.6379
  2130.2500      0.0000    637.1052      4.1131     85.8549
  2130.5000      0.0000    628.6552      4.2270     79.3612
  2130.7500      0.0000    622.9730      4.2730     70.3722
  2131.0000      0.0000    620.4413      4.2485     62.0251
  2131.2500      2.0000    623.4944      4.1304     57.7045
  2131.5000      2.0000    633.0820      3.8891     58.9096
  2131.7500      0.0000    644.8471      3.5353     64.4387
  2132.0000      0.0000    650.1641      3.1505     71.5201
  2132.2500      0.0000    640.8245      2.8516     77.6481
  2132.5000      0.0000    612.9147      2.7069     81.4418
  2132.7500      0.0000    568.9065      2.6836     82.3159
  2133.0000      0.0000    518.1663      2.6874     80.0945
  2133.2500      0.0000    473.7447      2.6486     75.3480
  2133.5000      0.0000    446.0053      2.5665     69.8145
  2133.7500      0.0000    438.7331      2.4839     65.6461
  2134.0000      0.0000    450.1199      2.4338     63.7930
  2134.2500      0.0000    475.0729      2.4134     63.5238
  2134.5000      0.0000    506.6919      2.3990     63.7369
  2134.7500      0.0000    538.6873      2.3661     64.1334
  2135.0000      0.0000    568.2130      2.2999     64.8932
  2135.2500      0.0000    595.5933      2.2038     65.8181
  2135.5000      0.0000    621.0308      2.0963     66.1937
  2135.7500      0.0000    643.0446      1.9982     65.2988
  2136.0000      0.0000    660.5076      1.9258     62.9238
  2136.2500      0.0000    674.4351      1.8909     59.6132
  2136.5000      0.0000    686.2675      1.8932     56.6212
  2136.7500      0.0000    695.2792      1.9163     55.5405
  2137.0000      0.0000    699.4079      1.9378     57.5784
  2137.2500      0.0000    698.6869      1.9444     62.8590
  2137.5000      0.0000    696.2962      1.9362     70.3981
  2137.7500      0.0000    695.2921      1.9162     78.8662
  2138.0000      0.0000    695.3070      1.8864     87.2976
  2138.2500      0.0000    693.6436      1.8582     94.9494
  2138.5000      0.0000    688.9319      1.8522    100.8941
  2138.7500      0.0000    682.4763      1.8781    104.4627
  2139.0000      0.0000    676.4291      1.9276    106.1358
  2139.2500      0.0000    671.8880      1.9858    107.1624
  2139.5000      0.0000    668.7214      2.0387    108.0701
  2139.7500      0.0000    666.2830      2.0761    108.3509
  2140.0000      0.0000    663.9470      2.0994    107.8738
  2140.2500      0.0000    661.4373      2.1220    107.8338
  2140.5000      0.0000    659.0372      2.1556    109.7979
  2140.7500      0.0000    657.5137      2.1992    113.9999
  2141.0000      0.0000    657.6293      2.2459    118.7735
  2141.2500      0.0000    659.4256      2.2976    121.8659
  2141.5000      0.0000    661.7991      2.3682    122.3656
  2141.7500      0.0000    663.0417      2.4809    121.2435
  2142.0000      0.0000    662.2302      2.6704    120.2381
  2142.2500      0.0000    660.1008      2.9699    120.7145
  2142.5000      0.0000    658.4731      3.3916    123.2773
  2142.7500      0.0000    658.9579      3.9352    127.4682
  2143.0000      0.0000    662.1738      4.5990    131.5217
  2143.2500      0.0000    667.2493      5.3674    133.2370
  2143.5000      0.0000    671.1309      6.2167    131.9083
  2143.7500      0.0000    667.9619      7.1571    129.0998
  2144.0000      0.0000    649.5897      8.2354    126.8256
  2144.2500      0.0000    608.6912      9.4913    125.3833
  2144.5000      0.0000    544.7553     10.9515    123.9567
  2144.7500      0.0000    468.3559     12.6619    122.8218
  2145.0000      0.0000    396.9062     14.6615    123.2194
  2145.2500      0.0000    343.6930     16.8943    124.7830
  2145.5000      0.0000    311.2103     19.1601    124.5684
  2145.7500      0.0000    294.1624     21.1797    119.6298
  2146.0000      0.0000    285.9147     22.7371    110.0385
  2146.2500      0.0000    281.8556     23.7753     98.8654
  2146.5000      0.0000    279.7485     24.3683     89.6489
  2146.7500      0.0000    279.0109     24.6368     84.1871
  2147.0000      0.0000    279.6217     24.6957     82.0813
  2147.2500      0.0000    281.4256     24.6187     81.7238
  2147.5000      0.0000    284.4109     24.4009     81.7520
  2147.7500      0.0000    288.7818     23.9726     81.9329
  2148.0000      0.0000    294.2608     23.2662     82.9292
  2148.2500      0.0000    299.8123     22.2705     85.3117
  2148.5000      0.0000    304.7635     21.0508     88.8666
  2148.7500      0.0000    310.4212     19.7385     92.8073
  2149.0000      0.0000    321.1259     18.4667     96.2425
  2149.2500      0.0000    343.6117     17.2836     98.0920
  2149.5000      0.0000    382.8465     16.1498     97.0916
  2149.7500      0.0000    434.7517     15.0234     92.9208
  2150.0000      0.0000    482.8221     13.9252     87.3167
  2150.2500      0.0000    506.4957     12.9401     83.2263
  2150.5000      0.0000    497.3999     12.1810     82.4712
  2150.7500      0.0000    467.2178     11.7175     84.3196
  2151.0000      0.0000    437.1536     11.5121     86.3044
  2151.2500      0.0000    419.8795     11.4484     86.5040
  2151.5000      0.0000    414.5393     11.4278     85.2301
  2151.7500      0.0000    417.9290     11.4018     84.5324
  2152.0000      0.0000    432.0047     11.3363     85.9411
  2152.2500      0.0000    455.0654     11.2109     88.7765
  2152.5000      0.0000    472.4833     11.0512     90.6893
  2152.7500      0.0000    466.6912     10.9019     89.5959
  2153.0000      0.0000    437.0302     10.7712     85.0523
  2153.2500      0.0000    404.0141     10.6380     78.1754
  2153.5000      0.0000    393.1705     10.4898     70.6893
