~Version Information
VERS.                      2.0: CWLS Log ASCII Standard - VERSION 2.0
WRAP.                       NO: One line per depth step
~Well Information Block
STRT.FT               380.0000: 
STOP.FT               899.2000: 
STEP.FT                 0.1000: 
NULL.                -999.2500: 
COMP.          Pioneer Natural Resources: COMPANY
WELL.          Prospector 12-19: WELL
FLD.           Purgatoire River: FIELD
LOC.           2262' FNL & 634' FWL: LOCATION
PROV.                 Colorado: PROVINCE
CNTY.               Las Animas: COUNTRY
SRVC.                Patterson: SERVICE COMPANY
DATE.          Mon Apr 25 09:33:09 2005: LOG DATE
UWI.           05 071 08191 00: UNIQUE WELL ID
~Curve Information Block
DEPT.FT            0 000 00 00: Depth
DCAL.in                       : CDL Caliper
RHOB.g/cc                     : CDL Bulk Density
RHOC.g/cc                     : CDL Density Correction
DPOR.pu                       : CDL Density Porosity
GR.GAPI                       : Gamma Ray
NPOR.pu                       : Neutron Porosity
~Parameter Information Block
~A  Depth       DCAL        RHOB        RHOC        DPOR         GR         NPOR    
# ...
   783.2000      7.8395      2.5350     -0.0015      6.9697     63.7056     18.3867
   783.3000      7.8429      2.5293      0.0779      7.3167     67.4714     18.0937
   783.4000      7.8429      2.4975      0.0170      9.2417     68.7752     18.0099
   783.5000      7.8463      2.4597     -0.0428     11.5342     69.1973     18.1573
   783.6000      7.8463      2.4524     -0.0399     11.9731     69.5739     18.6469
   783.7000      7.8463      2.4804      0.0320     10.2778     69.8787     19.1758
   783.8000      7.8445      2.5068      0.0518      8.6810     70.8022     18.9668
   783.9000      7.8445      2.5004      0.0403      9.0696     71.8334     18.0054
   784.0000      7.8388      2.4797     -0.0493     10.3216     73.0090     17.3066
   784.1000      7.8388      2.4843      0.0131     10.0434     75.0960     17.4000
   784.2000      7.8388      2.5160      0.0527      8.1191     75.4140     17.6704
   784.3000      7.8226      2.5453      0.0428      6.3428     71.9525     17.4130
   784.4000      7.8226      2.5514      0.0366      5.9734     68.8090     16.9822
   784.5000      7.8192      2.5364      0.0894      6.8819     68.2809     16.9541
   784.6000      7.8192      2.5167      0.0211      8.0805     67.7764     17.0907
   784.7000      7.8192      2.5041      0.0281      8.8415     66.8115     17.1963
   784.8000      7.8251      2.4965      0.0268      9.3034     66.8447     17.4883
   784.9000      7.8251      2.4956      0.0127      9.3581     69.0293     17.6622
   785.0000      7.8400      2.5029      0.0254      8.9145     71.7944     17.3087
   785.1000      7.8400      2.5059      0.0457      8.7312     72.6933     16.9903
   785.2000      7.8400      2.5003     -0.0116      9.0720     72.2336     17.0648
   785.3000      7.8441      2.4981      0.0374      9.2083     71.9414     17.2865
   785.4000      7.8441      2.5094     -0.0069      8.5219     71.0150     17.4627
   785.5000      7.8504      2.5363      0.0395      6.8887     68.1237     17.1579
   785.6000      7.8504      2.5635      0.0804      5.2412     64.4135     16.1812
   785.7000      7.8504      2.5798      0.0021      4.2557     62.0681     15.0424
   785.8000      7.8494      2.5911      0.0823      3.5724     61.3221     14.2930
   785.9000      7.8494      2.6016      0.0038      2.9347     61.2367     14.1534
   786.0000      7.8335      2.6098      0.0501      2.4360     62.4615     14.4552
   786.1000      7.8335      2.6079      0.0651      2.5506     63.4010     14.6685
   786.2000      7.8335      2.6022      0.0194      2.8976     63.0019     14.6289
   786.3000      7.8135      2.6081      0.0316      2.5411     65.0040     14.9251
   786.4000      7.8135      2.6186      0.0780      1.9002     70.0822     15.8185
   786.5000      7.8026      2.6178      0.0770      1.9542     74.5042     16.7061
   786.6000      7.8026      2.6007      0.0414      2.9865     76.4288     16.7977
   786.7000      7.8026      2.5725      0.0728      4.6979     77.0340     16.1269
   786.8000      7.8037      2.5510      0.0057      6.0016     75.4410     15.3525
   786.9000      7.8037      2.5556      0.0076      5.7216     70.8810     15.2116
   787.0000      7.8096      2.5739      0.0533      4.6093     66.5310     15.7017
   787.1000      7.8096      2.5776      0.0555      4.3869     64.7705     15.8013
   787.2000      7.8096      2.5619      0.0435      5.3386     64.9666     15.2819
   787.3000      7.8267      2.5421      0.0199      6.5417     65.6375     14.9547
   787.4000      7.8267      2.5275      0.0198      7.4226     65.7105     15.2013
   787.5000      7.8236      2.5128      0.0662      8.3150     64.1423     15.6488
   787.6000      7.8236      2.4972      0.0098      9.2602     61.8666     15.9658
   787.7000      7.8236      2.4875      0.0271      9.8474     61.9728     16.1106
   787.8000      7.8227      2.4819      0.0036     10.1899     63.8404     15.9720
   787.9000      7.8227      2.4828     -0.0529     10.1354     65.4760     15.6702
   788.0000      7.8353      2.4948      0.0031      9.4050     68.5648     15.3047
   788.1000      7.8353      2.5142      0.0133      8.2315     73.4336     15.0444
   788.2000      7.8353      2.5384      0.0112      6.7629     75.8019     15.0994
   788.3000      7.8418      2.5575      0.0323      5.6065     74.7473     15.2290
   788.4000      7.8418      2.5566      0.0371      5.6606     73.3662     15.1080
   788.5000      7.8431      2.5465      0.0349      6.2747     70.3534     14.6355
   788.6000      7.8431      2.5521     -0.0031      5.9316     64.0707     13.8533
   788.7000      7.8431      2.5714      0.0211      4.7628     58.6352     12.9805
   788.8000      7.8411      2.5802      0.0541      4.2305     58.4786     12.4329
   788.9000      7.8411      2.5775      0.0516      4.3962     61.6657     12.4176
   789.0000      7.8387      2.5939     -0.0232      3.4023     62.9629     12.5338
   789.1000      7.8387      2.6363      0.0644      0.8322     60.4905     12.5262
   789.2000      7.8387      2.6668      0.1004     -1.0166     55.2228     12.5952
   789.3000      7.8366      2.6669      0.0138     -1.0234     49.4429     12.0135
   789.4000      7.8366      2.6543      0.0476     -0.2630     47.0305     10.6240
   789.5000      7.8361      2.6396      0.0347      0.6298     51.2616      9.7599
   789.6000      7.8361      2.6311     -0.0015      1.1462     58.2423      9.8135
   789.7000      7.8361      2.6456      0.0195      0.2671     59.9866      9.8177
   789.8000      7.8360      2.6739      0.0595     -1.4467     56.6037      9.4012
   789.9000      7.8360      2.6864      0.0390     -2.2039     53.8156      9.0947
   790.0000      7.8448      2.6791      0.0735     -1.7608     51.3724      9.1539
   790.1000      7.8448      2.6663      0.0380     -0.9898     47.1751      9.3877
   790.2000      7.8448      2.6534      0.0323     -0.2057     45.9384      9.4227
   790.3000      7.8388      2.6405      0.0566      0.5756     50.5915      9.2328
   790.4000      7.8388      2.6328     -0.0009      1.0450     57.1585      9.3828
   790.5000      7.8303      2.6352      0.0463      0.8995     63.2291     10.2165
   790.6000      7.8303      2.6389      0.0767      0.6713     69.9945     11.1597
   790.7000      7.8303      2.6327      0.0603      1.0488     77.0519     11.4580
   790.8000      7.8155      2.6159      0.0904      2.0639     80.6505     11.4493
   790.9000      7.8155      2.5935      0.0437      3.4214     77.6223     11.7847
   791.0000      7.8164      2.5690      0.0466      4.9087     72.1137     12.2478
   791.1000      7.8164      2.5408     -0.0069      6.6153     70.5175     12.4062
   791.2000      7.8164      2.5181      0.0218      7.9928     71.7589     12.5230
   791.3000      7.8103      2.5182     -0.0178      7.9901     73.4524     12.9776
   791.4000      7.8103      2.5403      0.0190      6.6503     74.3590     13.5393
   791.5000      7.8119      2.5671      0.0399      5.0264     72.7154     13.8843
   791.6000      7.8119      2.5893      0.0624      3.6762     70.0904     14.0340
   791.7000      7.8119      2.6016      0.1039      2.9337     68.9504     14.1908
   791.8000      7.8344      2.5921      0.1126      3.5088     72.1410     14.6162
   791.9000      7.8344      2.5576      0.0662      5.5976     79.4068     15.3180
   792.0000      7.8408      2.5158      0.0087      8.1308     82.6112     16.0802
   792.1000      7.8408      2.4951     -0.0185      9.3885     80.1327     16.8933
   792.2000      7.8408      2.5059      0.0230      8.7350     79.4878     17.5692
   792.3000      7.8426      2.5291      0.0321      7.3267     81.1524     17.6880
   792.4000      7.8426      2.5453      0.0258      6.3438     80.2320     17.5187
   792.5000      7.8422      2.5498      0.0404      6.0747     77.1873     17.8032
   792.6000      7.8422      2.5401      0.0257      6.6581     75.7494     18.3734
   792.7000      7.8422      2.5201      0.0311      7.8732     74.3495     18.3110
