~Version Information
VERS.                      2.0: CWLS Log ASCII Standard - VERSION 2.0
WRAP.                       NO: One line per depth step
~Well Information Block
STRT.FT              2983.0000: 
STOP.FT              3214.7500: 
STEP.FT                 0.0500: 
NULL.                -999.2500: 
COMP.          Pioner Natural Resources: COMPANY
WELL.              Vespar 43-7: WELL
FLD.           Purgatoire River: FIELD
LOC.           2338' FSL & 1141' FEL------: LOCATION
PROV.                 Colorado: PROVINCE
CNTY.               Las Animas: COUNTRY
SRVC.                         : SERVICE COMPANY
DATE.          Fri Apr 15 15:31:19 2005: LOG DATE
UWI.                          : UNIQUE WELL ID
~Curve Information Block
DEPT.FT            0 000 00 00: Depth
GR.GAPI                       : Gamma Ray
CCL.                          : Casing Collar Locator
TT3.usec                      : CBL 3' Travel Time
AMP3.mV                       : CBL 3' Amplitude
AMP5.mV                       : CBL 5' Amplitude
~Parameter Information Block
~A  Depth        GR         CCL         TT3         AMP3        AMP5    
# ...
  3055.8000    116.7490      0.0000    617.7708      7.5767      0.8528
  3055.8500    116.7490      0.0000    617.7708      7.5767      0.8528
  3055.9000    116.7490      0.0000    617.7708      7.5767      0.8528
  3055.9500    116.7490      0.0000    617.7708      7.5767      0.8528
  3056.0000    109.9904      0.0000    603.5973      7.8770      0.7116
  3056.0500    109.9904      0.0000    603.5973      7.8770      0.7116
  3056.1000    109.9904      0.0000    603.5973      7.8770      0.7116
  3056.1500    109.9904      0.0000    603.5973      7.8770      0.7116
  3056.2000    109.9904      0.0000    603.5973      7.8770      0.7116
  3056.2500    102.5726      0.0000    593.2390      8.0183      0.5962
  3056.3000    102.5726      0.0000    593.2390      8.0183      0.5962
  3056.3500    102.5726      0.0000    593.2390      8.0183      0.5962
  3056.4000    102.5726      0.0000    593.2390      8.0183      0.5962
  3056.4500    102.5726      0.0000    593.2390      8.0183      0.5962
  3056.5000     94.4556      0.0000    598.9341      7.9294      0.5386
  3056.5500     94.4556      0.0000    598.9341      7.9294      0.5386
  3056.6000     94.4556      0.0000    598.9341      7.9294      0.5386
  3056.6500     94.4556      0.0000    598.9341      7.9294      0.5386
  3056.7000     94.4556      0.0000    598.9341      7.9294      0.5386
  3056.7500     85.5886      0.0000    618.7644      7.6640      0.5293
  3056.8000     85.5886      0.0000    618.7644      7.6640      0.5293
  3056.8500     85.5886      0.0000    618.7644      7.6640      0.5293
  3056.9000     85.5886      0.0000    618.7644      7.6640      0.5293
  3056.9500     85.5886      0.0000    618.7644      7.6640      0.5293
  3057.0000     76.5257      0.0000    636.6554      7.3308      0.5251
  3057.0500     76.5257      0.0000    636.6554      7.3308      0.5251
  3057.1000     76.5257      0.0000    636.6554      7.3308      0.5251
  3057.1500     76.5257      0.0000    636.6554      7.3308      0.5251
  3057.2000     76.5257      0.0000    636.6554      7.3308      0.5251
  3057.2500     68.5359      0.0000    637.6827      6.9993      0.4916
  3057.3000     68.5359      0.0000    637.6827      6.9993      0.4916
  3057.3500     68.5359      0.0000    637.6827      6.9993      0.4916
  3057.4000     68.5359      0.0000    637.6827      6.9993      0.4916
  3057.4500     68.5359      0.0000    637.6827      6.9993      0.4916
  3057.5000     63.0010      0.0000    618.6119      6.6767      0.4335
  3057.5500     63.0010      0.0000    618.6119      6.6767      0.4335
  3057.6000     63.0010      0.0000    618.6119      6.6767      0.4335
  3057.6500     63.0010      0.0000    618.6119      6.6767      0.4335
  3057.7000     63.0010      0.0000    618.6119      6.6767      0.4335
  3057.7500     60.6203      0.0000    584.3018      6.3554      0.3811
  3057.8000     60.6203      0.0000    584.3018      6.3554      0.3811
  3057.8500     60.6203      0.0000    584.3018      6.3554      0.3811
  3057.9000     60.6203      0.0000    584.3018      6.3554      0.3811
  3057.9500     60.6203      0.0000    584.3018      6.3554      0.3811
  3058.0000     61.0980      0.0000    541.1057      6.0637      0.3587
  3058.0500     61.0980      0.0000    541.1057      6.0637      0.3587
  3058.1000     61.0980      0.0000    541.1057      6.0637      0.3587
  3058.1500     61.0980      0.0000    541.1057      6.0637      0.3587
  3058.2000     61.0980      0.0000    541.1057      6.0637      0.3587
  3058.2500     63.5829      0.0000    496.4521      5.8659      0.3713
  3058.3000     63.5829      0.0000    496.4521      5.8659      0.3713
  3058.3500     63.5829      0.0000    496.4521      5.8659      0.3713
  3058.4000     63.5829      0.0000    496.4521      5.8659      0.3713
  3058.4500     63.5829      0.0000    496.4521      5.8659      0.3713
  3058.5000     67.2896      0.0000    459.1570      5.8248      0.4104
  3058.5500     67.2896      0.0000    459.1570      5.8248      0.4104
  3058.6000     67.2896      0.0000    459.1570      5.8248      0.4104
  3058.6500     67.2896      0.0000    459.1570      5.8248      0.4104
  3058.7000     67.2896      0.0000    459.1570      5.8248      0.4104
  3058.7500     71.5115      0.0000    435.0076      5.9676      0.4614
  3058.8000     71.5115      0.0000    435.0076      5.9676      0.4614
  3058.8500     71.5115      0.0000    435.0076      5.9676      0.4614
  3058.9000     71.5115      0.0000    435.0076      5.9676      0.4614
  3058.9500     71.5115      0.0000    435.0076      5.9676      0.4614
  3059.0000     75.3102      0.0000    423.3684      6.2815      0.5099
  3059.0500     75.3102      0.0000    423.3684      6.2815      0.5099
  3059.1000     75.3102      0.0000    423.3684      6.2815      0.5099
  3059.1500     75.3102      0.0000    423.3684      6.2815      0.5099
  3059.2000     75.3102      0.0000    423.3684      6.2815      0.5099
  3059.2500     77.8126      0.0000    421.0382      6.7297      0.5503
  3059.3000     77.8126      0.0000    421.0382      6.7297      0.5503
  3059.3500     77.8126      0.0000    421.0382      6.7297      0.5503
  3059.4000     77.8126      0.0000    421.0382      6.7297      0.5503
  3059.4500     77.8126      0.0000    421.0382      6.7297      0.5503
  3059.5000     78.9557      0.0000    429.6347      7.2684      0.5899
  3059.5500     78.9557      0.0000    429.6347      7.2684      0.5899
  3059.6000     78.9557      0.0000    429.6347      7.2684      0.5899
  3059.6500     78.9557      0.0000    429.6347      7.2684      0.5899
  3059.7000     78.9557      0.0000    429.6347      7.2684      0.5899
  3059.7500     79.3723      0.0000    457.7816      7.8499      0.6432
  3059.8000     79.3723      0.0000    457.7816      7.8499      0.6432
  3059.8500     79.3723      0.0000    457.7816      7.8499      0.6432
  3059.9000     79.3723      0.0000    457.7816      7.8499      0.6432
  3059.9500     79.3723      0.0000    457.7816      7.8499      0.6432
  3060.0000     79.3088      0.0000    514.0095      8.4260      0.7273
  3060.0500     79.3088      0.0000    514.0095      8.4260      0.7273
  3060.1000     79.3088      0.0000    514.0095      8.4260      0.7273
  3060.1500     79.3088      0.0000    514.0095      8.4260      0.7273
  3060.2000     79.3088      0.0000    514.0095      8.4260      0.7273
  3060.2500     78.2352      0.0000    595.1349      8.9749      0.8629
  3060.3000     78.2352      0.0000    595.1349      8.9749      0.8629
  3060.3500     78.2352      0.0000    595.1349      8.9749      0.8629
  3060.4000     78.2352      0.0000    595.1349      8.9749      0.8629
  3060.4500     78.2352      0.0000    595.1349      8.9749      0.8629
  3060.5000     75.9363      0.0000    681.7303      9.5315      1.0715
  3060.5500     75.9363      0.0000    681.7303      9.5315      1.0715
  3060.6000     75.9363      0.0000    681.7303      9.5315      1.0715
  3060.6500     75.9363      0.0000    681.7303      9.5315      1.0715
  3060.7000     75.9363      0.0000    681.7303      9.5315      1.0715
  3060.7500     73.6230      0.0000    748.4924     10.1693      1.3623
  3060.8000     73.6230      0.0000    748.4924     10.1693      1.3623
  3060.8500     73.6230      0.0000    748.4924     10.1693      1.3623
  3060.9000     73.6230      0.0000    748.4924     10.1693      1.3623
  3060.9500     73.6230      0.0000    748.4924     10.1693      1.3623
  3061.0000     73.3994      0.0000    781.3427     10.9263      1.7239
  3061.0500     73.3994      0.0000    781.3427     10.9263      1.7239
  3061.1000     73.3994      0.0000    781.3427     10.9263      1.7239
  3061.1500     73.3994      0.0000    781.3427     10.9263      1.7239
  3061.2000     73.3994      0.0000    781.3427     10.9263      1.7239
  3061.2500     76.3498      0.0000    783.8506     11.7488      2.1391
  3061.3000     76.3498      0.0000    783.8506     11.7488      2.1391
  3061.3500     76.3498      0.0000    783.8506     11.7488      2.1391
