~Version Information
VERS.                      2.0: CWLS Log ASCII Standard - VERSION 2.0
WRAP.                       NO: One line per depth step
~Well Information Block
STRT.FT               491.0000: 
STOP.FT              1056.0000: 
STEP.FT                 0.2500: 
NULL.                -999.2500: 
COMP.          Evergreen Operating Corporation: COMPANY
WELL.              Sunset 24-3: WELL
FLD.           Purgatorie River: FIELD
LOC.           467' FSL & 2262' FWL: LOCATION
PROV.                 Colorado: PROVINCE
CNTY.               Las Animas: COUNTRY
SRVC.                         : SERVICE COMPANY
DATE.          Wed Sep 22 11:23:45 2004: LOG DATE
UWI.           05 071 08158 00: UNIQUE WELL ID
~Curve Information Block
DEPT.FT            0 000 00 00: Depth
SN.Ohm-m                      : IEL Short Normal
SP.mV                         : IEL Spontaneous Potential
DIR.Ohm-m                     : IEL Induction Resistivity
GR.GAPI                       : Gamma Ray
~Parameter Information Block
~A  Depth        SN          SP         DIR          GR     
# ...
   725.5000     22.7791    -29.1687     20.0116     77.1953
   725.7500     22.0833    -28.9867     19.4293     81.6020
   726.0000     21.4622    -28.8176     18.9996     88.3714
   726.2500     20.9599    -28.6588     18.7098     92.3025
   726.5000     20.6126    -28.5044     18.5322     96.7663
   726.7500     20.4360    -28.3469     18.4405     98.8965
   727.0000     20.4220    -28.1774     18.4140    101.2456
   727.2500     20.5469    -27.9877     18.4350    102.4118
   727.5000     20.7842    -27.7713     18.4862    103.6724
   727.7500     21.1154    -27.5237     18.5550    104.2501
   728.0000     21.5339    -27.2431     18.6427    104.8017
   728.2500     22.0410    -26.9303     18.7718    104.7792
   728.5000     22.6397    -26.5883     18.9839    103.3027
   728.7500     23.3298    -26.2229     19.3284    100.8968
   729.0000     24.1031    -25.8425     19.8461     95.4449
   729.2500     24.9417    -25.4583     20.5573     91.5056
   729.5000     25.8175    -25.0841     21.4533     87.1045
   729.7500     26.6959    -24.7362     22.4946     85.8336
   730.0000     27.5408    -24.4322     23.6126     86.0084
   730.2500     28.3185    -24.1894     24.7139     86.6042
   730.5000     28.9965    -24.0232     25.6855     86.5199
   730.7500     29.5389    -23.9451     26.4030     85.2157
   731.0000     29.9045    -23.9612     26.7492     81.4906
   731.2500     30.0505    -24.0709     26.6506     78.5637
   731.5000     29.9419    -24.2674     26.1155     75.4402
   731.7500     29.5622    -24.5378     25.2390     75.1525
   732.0000     28.9207    -24.8645     24.1647     77.7310
   732.2500     28.0535    -25.2276     23.0339     80.8467
   732.5000     27.0181    -25.6063     21.9560     86.1398
   732.7500     25.8831    -25.9811     20.9997     89.5044
   733.0000     24.7168    -26.3352     20.1949     94.1315
   733.2500     23.5808    -26.6561     19.5367     97.1444
   733.5000     22.5298    -26.9358     18.9950    101.8243
   733.7500     21.6115    -27.1716     18.5300    104.8432
   734.0000     20.8653    -27.3650     18.1085    108.2669
   734.2500     20.3164    -27.5215     17.7138    109.2568
   734.5000     19.9743    -27.6483     17.3486    108.5395
   734.7500     19.8341    -27.7526     17.0317    106.9815
   735.0000     19.8817    -27.8398     16.7923    104.2610
   735.2500     20.0979    -27.9116     16.6629    102.7479
   735.5000     20.4609    -27.9659     16.6737    101.0119
   735.7500     20.9490    -27.9968     16.8483    100.0601
   736.0000     21.5420    -27.9964     17.2019     99.1807
   736.2500     22.2235    -27.9567     17.7411     99.2415
   736.5000     22.9826    -27.8719     18.4650    100.0452
   736.7500     23.8138    -27.7399     19.3644    100.4032
   737.0000     24.7169    -27.5643     20.4167     99.5729
   737.2500     25.6954    -27.3542     21.5794     97.8870
   737.5000     26.7512    -27.1241     22.7896     93.9595
   737.7500     27.8768    -26.8931     23.9753     90.6866
   738.0000     29.0449    -26.6827     25.0733     85.0414
   738.2500     30.2047    -26.5152     26.0402     80.9227
   738.5000     31.2882    -26.4112     26.8490     74.8910
   738.7500     32.2256    -26.3878     27.4783     71.5303
   739.0000     32.9611    -26.4564     27.9039     68.0437
   739.2500     33.4609    -26.6219     28.1021     66.7243
   739.5000     33.7124    -26.8817     28.0632     66.0296
   739.7500     33.7196    -27.2258     27.8061     66.4136
   740.0000     33.4989    -27.6372     27.3788     68.3883
   740.2500     33.0772    -28.0930     26.8393     70.6497
   740.5000     32.4916    -28.5659     26.2334     75.1726
   740.7500     31.7896    -29.0263     25.5881     78.5415
   741.0000     31.0272    -29.4443     24.9240     83.1811
   741.2500     30.2634    -29.7917     24.2722     85.5305
   741.5000     29.5512    -30.0440     23.6786     87.8036
   741.7500     28.9283    -30.1819     23.1898     88.8697
   742.0000     28.4138    -30.1929     22.8292     90.8865
   742.2500     28.0116    -30.0722     22.5804     93.0226
   742.5000     27.7176    -29.8235     22.3899     97.4293
   742.7500     27.5252    -29.4594     22.1846    100.5544
   743.0000     27.4254    -29.0000     21.8951    103.9434
   743.2500     27.4042    -28.4717     21.4742    104.6036
   743.5000     27.4392    -27.9034     20.9096    102.6032
   743.7500     27.5000    -27.3232     20.2288     99.0596
   744.0000     27.5481    -26.7538     19.4962     89.9951
   744.2500     27.5368    -26.2099     18.7972     81.5189
   744.5000     27.4141    -25.6964     18.2156     66.8168
   744.7500     27.1342    -25.2092     17.8146     57.6275
   745.0000     26.6781    -24.7383     17.6289     48.5746
   745.2500     26.0710    -24.2720     17.6646     47.2718
   745.5000     25.3844    -23.8009     17.9011     52.8971
   745.7500     24.7193    -23.3211     18.2900     60.6334
   746.0000     24.1791    -22.8357     18.7539     74.7431
   746.2500     23.8489    -22.3535     19.1951     83.4426
   746.5000     23.7873    -21.8873     19.5209     92.1521
   746.7500     24.0277    -21.4497     19.6787     94.2110
   747.0000     24.5790    -21.0507     19.6784     92.1580
   747.2500     25.4165    -20.6941     19.5849     88.3496
   747.5000     26.4681    -20.3763     19.4882     80.9150
   747.7500     27.6086    -20.0860     19.4692     75.8123
   748.0000     28.6761    -19.8058     19.5766     69.2728
   748.2500     29.5106    -19.5150     19.8158     66.1589
   748.5000     29.9975    -19.1934     20.1471     63.8101
   748.7500     30.0909    -18.8256     20.4922     63.9402
   749.0000     29.8067    -18.4042     20.7471     66.7269
   749.2500     29.1973    -17.9312     20.8031     70.1150
   749.5000     28.3252    -17.4173     20.5700     76.7205
   749.7500     27.2466    -16.8795     20.0006     81.5728
   750.0000     26.0024    -16.3372     19.1087     88.6830
   750.2500     24.6169    -15.8083     17.9703     92.9777
   750.5000     23.1029    -15.3066     16.7007     98.3013
   750.7500     21.4769    -14.8411     15.4172    100.8138
   751.0000     19.7771    -14.4163     14.2085    102.6341
   751.2500     18.0722    -14.0338     13.1242    102.6323
   751.5000     16.4527    -13.6938     12.1824    101.8176
   751.7500     15.0069    -13.3965     11.3833    101.7261
   752.0000     13.7939    -13.1422     10.7211    103.8692
   752.2500     12.8295    -12.9314     10.1877    107.0662
   752.5000     12.0897    -12.7635      9.7717    113.0137
   752.7500     11.5299    -12.6364      9.4567    116.0992
   753.0000     11.1053    -12.5454      9.2234    117.1503
   753.2500     10.7853    -12.4834      9.0541    115.3075
   753.5000     10.5567    -12.4405      8.9364    110.3026
   753.7500     10.4200    -12.4049      8.8642    106.6940
   754.0000     10.3822    -12.3643      8.8351    102.1136
   754.2500     10.4506    -12.3071      8.8474     99.6377
   754.5000     10.6283    -12.2243      8.8981     96.2327
   754.7500     10.9115    -12.1104      8.9844     93.9824
   755.0000     11.2887    -11.9643      9.1061     91.0238
   755.2500     11.7415    -11.7889      9.2679     89.8513
   755.5000     12.2475    -11.5902      9.4788     90.0755
   755.7500     12.7823    -11.3764      9.7498     91.6629
   756.0000     13.3233    -11.1569     10.0880     95.6874
   756.2500     13.8500    -10.9414     10.4925     98.8429
   756.5000     14.3450    -10.7399     10.9511    102.9856
   756.7500     14.7939    -10.5625     11.4405    104.7806
   757.0000     15.1864    -10.4192     11.9283    106.0081
   757.2500     15.5172    -10.3200     12.3795    106.3489
   757.5000     15.7876    -10.2738     12.7656    106.7215
   757.7500     16.0052    -10.2877     13.0740    106.5152
   758.0000     16.1812    -10.3665     13.3102    104.3016
   758.2500     16.3259    -10.5114     13.4902    101.4156
   758.5000     16.4433    -10.7197     13.6276     96.4208
   758.7500     16.5292    -10.9850     13.7280     93.8773
