~Version Information
VERS.                      2.0: CWLS Log ASCII Standard - VERSION 2.0
WRAP.                       NO: One line per depth step
~Well Information Block
STRT.FT               550.0000: 
STOP.FT              1577.7500: 
STEP.FT                 0.2500: 
NULL.                -999.2500: 
COMP.          Pioneer Natural Resources: COMPANY
WELL.          Kristin 22-23 Tr: WELL
FLD.           Purgatoire River: FIELD
LOC.           2273' FNL & 2029' FWL: LOCATION
PROV.                 Colorado: PROVINCE
CNTY.               Las Animas: COUNTRY
SRVC.                Patterson: SERVICE COMPANY
DATE.          Thu Jan 20 21:18:23 2005: LOG DATE
UWI.           05 071 08259 00: UNIQUE WELL ID
~Curve Information Block
DEPT.FT            0 000 00 00: Depth
SN.Ohm-m                      : IEL Short Normal
SP.mV                         : IEL Spontaneous Potential
DIR.Ohm-m                     : IEL Induction Resistivity
GR.GAPI                       : Gamma Ray
~Parameter Information Block
~A  Depth        SN          SP         DIR          GR     
# ...
  1555.0000     10.0311     15.3803     11.3958   -999.2500
  1555.2500     10.0125     15.2283     11.1741   -999.2500
  1555.5000      9.9896     15.0901     10.9331   -999.2500
  1555.7500      9.9609     14.9632     10.7050   -999.2500
  1556.0000      9.9253     14.8401     10.5076   -999.2500
  1556.2500      9.8772     14.7101     10.3426   -999.2500
  1556.5000      9.8106     14.5639     10.2034   -999.2500
  1556.7500      9.7267     14.3985     10.0850   -999.2500
  1557.0000      9.6341     14.2189      9.9886   -999.2500
  1557.2500      9.5444     14.0367      9.9188   -999.2500
  1557.5000      9.4686     13.8636      9.8764   -999.2500
  1557.7500      9.4156     13.7063      9.8532   -999.2500
  1558.0000      9.3909     13.5618      9.8350   -999.2500
  1558.2500      9.3949     13.4184      9.8110   -999.2500
  1558.5000      9.4227     13.2590      9.7809   -999.2500
  1558.7500      9.4681     13.0680      9.7558   -999.2500
  1559.0000      9.5273     12.8371      9.7511   -999.2500
  1559.2500      9.5980     12.5688      9.7777   -999.2500
  1559.5000      9.6745     12.2768      9.8369   -999.2500
  1559.7500      9.7441     11.9802      9.9211   -999.2500
  1560.0000      9.7915     11.6979     10.0180   -999.2500
  1560.2500      9.8040     11.4418     10.1149   -999.2500
  1560.5000      9.7763     11.2157     10.2003   -999.2500
  1560.7500      9.7134     11.0169     10.2640   -999.2500
  1561.0000      9.6317     10.8410     10.2972   -999.2500
  1561.2500      9.5544     10.6852     10.2949   -999.2500
  1561.5000      9.5027     10.5480     10.2579   -999.2500
  1561.7500      9.4856     10.4272     10.1932   -999.2500
  1562.0000      9.4962     10.3173     10.1117   -999.2500
  1562.2500      9.5173     10.2093     10.0246   -999.2500
  1562.5000      9.5344     10.0952      9.9390   -999.2500
  1562.7500      9.5444      9.9716      9.8564   -999.2500
  1563.0000      9.5522      9.8416      9.7735   -999.2500
  1563.2500      9.5584      9.7123      9.6868   -999.2500
  1563.5000      9.5524      9.5890      9.5963   -999.2500
  1563.7500      9.5205      9.4701      9.5067   -999.2500
  1564.0000      9.4610      9.3462      9.4253   -999.2500
  1564.2500      9.3905      9.2039      9.3613   -999.2500
  1564.5000      9.3351      9.0312      9.3246   -999.2500
  1564.7500      9.3150      8.8217      9.4045   -999.2500
  1565.0000      9.3351      8.5766      9.4574   -999.2500
  1565.2500      9.3869      8.3035      9.5687   -999.2500
  1565.5000      9.4607      8.0138      9.7352   -999.2500
  1565.7500      9.5533      7.7193      9.9393   -999.2500
  1566.0000      9.6649      7.4298     10.1535   -999.2500
  1566.2500      9.7900      7.1509     10.3528   -999.2500
  1566.5000      9.9149      6.8838     10.5278   -999.2500
  1566.7500     10.0249      6.6258     10.6911   -999.2500
  1567.0000     10.1142      6.3718     10.8758   -999.2500
  1567.2500     10.1899      6.1166     11.1411   -999.2500
  1567.5000     10.2675      5.8567     11.5953   -999.2500
  1567.7500     10.3627      5.5928     12.4396   -999.2500
  1568.0000     10.4857      5.3303     14.0486   -999.2500
  1568.2500     10.6395      5.0786     16.8743   -999.2500
  1568.5000     10.8183      4.8481     23.0166   -999.2500
  1568.7500     11.0051      4.6444     37.2027   -999.2500
  1569.0000     11.1714      4.4636     82.9529   -999.2500
  1569.2500     11.2869      4.2912   1348.2642   -999.2500
  1569.5000     11.3363      4.1050 100000.0000   -999.2500
  1569.7500     11.3291      3.8829 100000.0000   -999.2500
  1570.0000     11.2923      3.6092 100000.0000   -999.2500
  1570.2500     11.2515      3.2781 100000.0000   -999.2500
  1570.5000     11.2193      2.8915 100000.0000   -999.2500
  1570.7500     11.1995      2.4560 100000.0000   -999.2500
  1571.0000     11.1988      1.9803 100000.0000   -999.2500
  1571.2500     11.2326      1.4783 100000.0000   -999.2500
  1571.5000     11.3165      0.9732 100000.0000   -999.2500
  1571.7500     11.4535      0.4998 100000.0000   -999.2500
  1572.0000     11.6162      0.0997 100000.0000   -999.2500
  1572.2500     11.7150     -0.1912 100000.0000   -999.2500
  1572.5000     11.5477     -0.3560 100000.0000   -999.2500
  1572.7500     10.7884     -0.4039 100000.0000   -999.2500
  1573.0000      9.1276     -0.3662 100000.0000   -999.2500
  1573.2500      6.5662     -0.2838 100000.0000   -999.2500
  1573.5000      3.5876     -0.1930 100000.0000   -999.2500
  1573.7500      0.9247     -0.1165 100000.0000   -999.2500
  1574.0000     -0.9186     -0.0629 100000.0000   -999.2500
  1574.2500     -1.9094     -0.0305 100000.0000   -999.2500
  1574.5000     -2.3235     -0.0133 100000.0000   -999.2500
  1574.7500     -2.4582     -0.0052 100000.0000   -999.2500
  1575.0000     -2.4922     -0.0018 100000.0000   -999.2500
  1575.2500     -2.4990     -0.0006 100000.0000   -999.2500
  1575.5000   -999.2500     -0.0001 100000.0000   -999.2500
  1575.7500   -999.2500     -0.0000  81421.3125   -999.2500
  1576.0000   -999.2500   -999.2500   2585.4143   -999.2500
  1576.2500   -999.2500   -999.2500   1665.2052   -999.2500
  1576.5000   -999.2500   -999.2500   1419.5867   -999.2500
  1576.7500   -999.2500   -999.2500   1337.8424   -999.2500
  1577.0000   -999.2500   -999.2500   1311.1882   -999.2500
  1577.2500   -999.2500   -999.2500   1303.3735   -999.2500
  1577.5000   -999.2500   -999.2500   1301.3866   -999.2500
  1577.7500   -999.2500   -999.2500 100000.0000   -999.2500
