~Version Information
VERS.                      2.0: CWLS Log ASCII Standard - VERSION 2.0
WRAP.                       NO: One line per depth step
~Well Information Block
STRT.FT                 5.0000: 
STOP.FT              1874.2500: 
STEP.FT                 0.2500: 
NULL.                -999.2500: 
COMP.          Pioneer Natural Resources: COMPANY
WELL.           Stampede 42-18: WELL
FLD.           Purgatoire River: FIELD
LOC.           2479' FNL & 160' FEL--: LOCATION
CNTY.               Las Animas: COUNTY
SRVC.          Superior Well Services: SERVICE COMPANY
DATE.          Mon Jun 25 12:19:16 2007: LOG DATE
UWI.                          : UNIQUE WELL ID
STAT.                 Colorado: STATE
~Curve Information Block
DEPT.FT            0 000 00 00: Depth
GR.GAPI                       : Gamma Ray
CCL.                          : Casing Collar Locator
TT3.usec                      : CBL 3' Travel Time
AMP3.mV                       : CBL 3' Amplitude
AMP5.mV                       : CBL 5' Amplitude
~Parameter Information Block
~A  Depth        GR         CCL         TT3         AMP3        AMP5    
# ...
  1349.0000    138.8755      0.0000    661.5439      4.7907      2.4991
  1349.2500    140.5128      0.0000    664.0363      4.8404      2.5054
  1349.5000    142.7132      0.0000    665.1185      4.8864      2.5138
  1349.7500    144.2651      0.0000    665.8147      4.9265      2.5229
  1350.0000    144.8602      0.0000    666.8888      4.9588      2.5310
  1350.2500    145.5319      0.0000    668.9045      4.9826      2.5358
  1350.5000    147.7756      0.0000    672.1041      4.9973      2.5372
  1350.7500    151.7401      0.0000    675.9691      5.0057      2.5394
  1351.0000    155.7706      0.0000    679.2343      5.0210      2.5485
  1351.2500    158.1639      0.0000    680.8638      5.0608      2.5670
  1351.5000    158.7418      0.0000    680.9326      5.1275      2.5912
  1351.7500    158.2038      0.0000    679.9829      5.1995      2.6130
  1352.0000    156.7349      0.0000    677.5845      5.2528      2.6244
  1352.2500    154.1017      0.0000    672.3953      5.2877      2.6214
  1352.5000    150.6325      0.0000    664.1584      5.3255      2.6054
  1352.7500    147.3172      0.0000    655.2180      5.3798      2.5828
  1353.0000    144.9130      0.0000    649.1904      5.4345      2.5616
  1353.2500    143.3609      0.0000    647.5920      5.4529      2.5480
  1353.5000    142.1473      0.0000    647.5771      5.4078      2.5416
  1353.7500    141.0191      0.0000    642.8009      5.3045      2.5354
  1354.0000    140.4281      0.0000    626.8492      5.1746      2.5194
  1354.2500    141.2425      0.0000    597.1979      5.0501      2.4886
  1354.5000    143.3634      0.0000    557.0761      4.9455      2.4494
  1354.7500    144.4964      0.0000    513.7804      4.8621      2.4180
  1355.0000    141.4953      0.0000    474.9412      4.8007      2.4096
  1355.2500    133.7298      0.0000    445.4277      4.7644      2.4267
  1355.5000    124.2571      0.0000    426.2672      4.7513      2.4587
  1355.7500    116.9137      0.0000    415.5681      4.7520      2.4932
  1356.0000    113.0232      0.0000    410.6962      4.7559      2.5226
  1356.2500    111.4460      0.0000    410.4608      4.7577      2.5442
  1356.5000    110.7367      0.0000    416.3018      4.7569      2.5575
  1356.7500    110.2136      0.0000    431.7707      4.7534      2.5630
  1357.0000    109.4859      0.0000    459.5669      4.7445      2.5618
  1357.2500    108.2346      0.0000    497.1271      4.7274      2.5566
  1357.5000    106.9219      0.0000    534.6348      4.7022      2.5516
  1357.7500    107.0980      0.0000    558.8789      4.6733      2.5518
  1358.0000    110.3644      0.0000    561.1581      4.6472      2.5582
  1358.2500    117.1446      0.0000    543.3827      4.6305      2.5652
  1358.5000    126.6513      0.0000    518.0007      4.6270      2.5642
  1358.7500    137.4288      0.0000    501.7138      4.6381      2.5514
  1359.0000    147.4309      0.0000    506.6001      4.6650      2.5308
  1359.2500    154.4093      0.0000    533.6531      4.7048      2.5092
  1359.5000    157.4262      0.0000    572.6757      4.7447      2.4911
  1359.7500    157.9721      0.0000    609.1116      4.7663      2.4782
  1360.0000    158.8646      0.0000    632.9594      4.7599      2.4726
  1360.2500    161.8267      0.0000    642.6261      4.7325      2.4785
  1360.5000    166.3214      0.0000    641.9613      4.7000      2.4977
  1360.7500    170.3556      0.0000    635.5015      4.6728      2.5241
  1361.0000    171.9553      0.0000    626.7597      4.6488      2.5449
  1361.2500    170.4187      0.0000    618.9854      4.6198      2.5503
  1361.5000    166.7967      0.0000    614.9538      4.5831      2.5414
  1361.7500    162.9445      0.0000    614.8851      4.5472      2.5291
  1362.0000    160.0331      0.0000    615.4716      4.5255      2.5226
  1362.2500    158.1967      0.0000    612.6801      4.5241      2.5213
  1362.5000    157.2353      0.0000    605.9593      4.5352      2.5186
  1362.7500    157.1091      0.0000    598.6718      4.5461      2.5096
  1363.0000    157.9987      0.0000    594.4796      4.5533      2.4947
  1363.2500    160.2565      0.0000    595.0768      4.5621      2.4782
  1363.5000    163.9791      0.0000    601.0298      4.5754      2.4645
  1363.7500    168.3230      0.0000    611.7205      4.5904      2.4568
  1364.0000    171.6440      0.0000    624.0590      4.6057      2.4548
  1364.2500    172.7005      0.0000    633.9136      4.6217      2.4564
  1364.5000    171.7899      0.0000    639.4161      4.6356      2.4600
  1364.7500    170.6501      0.0000    641.8510      4.6419      2.4648
  1365.0000    171.0130      0.0000    643.6901      4.6404      2.4696
  1365.2500    172.8287      0.0000    646.5823      4.6368      2.4718
  1365.5000    174.0477      0.0000    650.8182      4.6341      2.4705
  1365.7500    172.7561      0.0000    655.6708      4.6263      2.4686
  1366.0000    169.6144      0.0000    659.9304      4.6033      2.4709
  1366.2500    167.3725      0.0000    662.4817      4.5613      2.4784
  1366.5000    167.7781      0.0000    662.7709      4.5068      2.4862
  1366.7500    169.9151      0.0000    661.0018      4.4519      2.4874
  1367.0000    171.9433      0.0000    657.9387      4.4077      2.4790
  1367.2500    173.3393      0.0000    654.2585      4.3791      2.4629
  1367.5000    174.8193      0.0000    649.8749      4.3644      2.4432
  1367.7500    176.9154      0.0000    644.0261      4.3607      2.4246
  1368.0000    179.1941      0.0000    636.1003      4.3714      2.4127
  1368.2500    180.4694      0.0000    625.9083      4.4036      2.4147
  1368.5000    179.7071      0.0000    613.5252      4.4580      2.4343
  1368.7500    177.0191      0.0000    600.2960      4.5219      2.4668
  1369.0000    173.4855      0.0000    590.0497      4.5744      2.4995
  1369.2500    169.7836      0.0000    586.3682      4.5994      2.5217
  1369.5000    165.6991      0.0000    586.5218      4.5935      2.5327
  1369.7500    161.3253      0.0000    580.6895      4.5673      2.5410
  1370.0000    157.6614      0.0000    561.1411      4.5427      2.5544
  1370.2500    155.1228      0.0000    531.4501      4.5424      2.5737
  1370.5000    152.2089      0.0000    503.2777      4.5771      2.5940
  1370.7500    146.7320      0.0000    484.2947      4.6371      2.6104
  1371.0000    138.4666      0.0000    472.3846      4.6989      2.6208
  1371.2500    130.0379      0.0000    461.6307      4.7404      2.6245
  1371.5000    125.0623      0.0000    450.1143      4.7530      2.6202
  1371.7500    125.6466      0.0000    440.2361      4.7417      2.6074
  1372.0000    131.3908      0.0000    434.3216      4.7139      2.5865
  1372.2500    139.9557      0.0000    432.3005      4.6720      2.5597
  1372.5000    148.3536      0.0000    432.6620      4.6182      2.5304
  1372.7500    154.4622      0.0000    433.7811      4.5624      2.5017
  1373.0000    157.9652      0.0000    434.2569      4.5203      2.4755
  1373.2500    159.8309      0.0000    432.9580      4.5022      2.4525
  1373.5000    160.9028      0.0000    429.5889      4.5060      2.4332
  1373.7500    161.3603      0.0000    425.3209      4.5221      2.4184
  1374.0000    161.4970      0.0000    422.6048      4.5406      2.4094
  1374.2500    162.2533      0.0000    423.9937      4.5545      2.4088
  1374.5000    164.3051      0.0000    431.1535      4.5591      2.4194
  1374.7500    167.0862      0.0000    444.7826      4.5514      2.4404
  1375.0000    169.6172      0.0000    464.4023      4.5333      2.4676
  1375.2500    171.9692      0.0000    486.7523      4.5143      2.4974
  1375.5000    174.9365      0.0000    504.6620      4.5065      2.5285
  1375.7500    178.3767      0.0000    509.9265      4.5148      2.5606
  1376.0000    180.7138      0.0000    499.0916      4.5344      2.5921
  1376.2500    180.2679      0.0000    476.1905      4.5579      2.6205
  1376.5000    176.8488      0.0000    449.6214      4.5821      2.6426
  1376.7500    172.0991      0.0000    426.8123      4.6050      2.6540
