~Version Information
VERS.                      2.0: CWLS Log ASCII Standard - VERSION 2.0
WRAP.                       NO: One line per depth step
~Well Information Block
STRT.FT               563.6000: 
STOP.FT              2133.0000: 
STEP.FT                 0.1000: 
NULL.                -999.2500: 
COMP.          Petrogulf Corporation: COMPANY
WELL.             State 16-43V: WELL
FLD.           Purgatorie River: FIELD
LOC.           2437' FSL & 734' FEL: LOCATION
CNTY.               Las Animas: COUNTY
SRVC.                         : SERVICE COMPANY
DATE.          Mon Dec 06 06:01:26 2004: LOG DATE
UWI.           05 071 08015 00: UNIQUE WELL ID
STAT.                 Colorado: STATE
~Curve Information Block
DEPT.FT            0 000 00 00: Depth
DCAL.in                       : CDL Caliper
RHOB.g/cc                     : CDL Bulk Density
RHOC.g/cc                     : CDL Density Correction
DPOR.pu                       : CDL Density Porosity
GR.GAPI                       : Gamma Ray
NPOR.pu                       : Neutron Porosity
~Parameter Information Block
~A  Depth       DCAL        RHOB        RHOC        DPOR         GR         NPOR    
# ...
  1811.6000      7.8095      2.6415      0.0700      0.5143     39.9260     15.4140
  1811.7000      7.8095      2.6656      0.0863     -0.9446     40.4617     14.7634
  1811.8000      7.8433      2.6748      0.0847     -1.5021     37.7407     14.8459
  1811.9000      7.8433      2.6641      0.1111     -0.8526     34.7853     15.6106
  1812.0000      7.8095      2.6393      0.0774      0.6455     34.0109     16.2049
  1812.1000      7.8095      2.6165      0.0572      2.0282     33.6974     16.0556
  1812.2000      7.8095      2.6077      0.0519      2.5626     33.2996     15.6723
  1812.3000      7.8123      2.6098      0.0402      2.4383     34.9890     15.5803
  1812.4000      7.8123      2.6109      0.0474      2.3700     39.4982     15.5737
  1812.5000      7.8447      2.6047      0.0195      2.7482     42.8857     15.4259
  1812.6000      7.8447      2.5906      0.0534      3.5999     41.7102     15.3478
  1812.7000      7.8447      2.5744     -0.0080      4.5824     38.9326     15.6262
  1812.8000      7.8263      2.5647      0.1120      5.1668     38.4939     16.0240
  1812.9000      7.8263      2.5645      0.0615      5.1829     40.6175     16.0616
  1813.0000      7.8202      2.5685      0.1084      4.9411     43.1012     15.7629
  1813.1000      7.8202      2.5626      0.0487      5.2946     42.9298     15.6856
  1813.2000      7.8202      2.5562     -0.0023      5.6831     39.9511     16.2505
  1813.3000      7.7779      2.5703      0.0499      4.8291     38.5504     17.1636
  1813.4000      7.7779      2.5975      0.1041      3.1816     40.9840     17.7254
  1813.5000      7.7909      2.6242      0.1315      1.5638     44.2447     17.5986
  1813.6000      7.7909      2.6460      0.1493      0.2450     46.1879     17.1706
  1813.7000      7.7909      2.6595      0.1674     -0.5759     46.6088     17.1414
  1813.8000      7.7487      2.6705      0.1996     -1.2428     44.5792     17.6116
  1813.9000      7.7487      2.6940      0.1534     -2.6654     42.0756     18.1410
  1814.0000      7.7719      2.7259      0.1692     -4.6016     42.3644     18.3134
  1814.1000      7.7719      2.7326      0.1482     -5.0050     43.9241     18.1965
  1814.2000      7.7719      2.6971      0.1414     -2.8563     42.8093     18.1638
  1814.3000      7.7542      2.6478      0.0666      0.1350     39.0047     18.0797
  1814.4000      7.7542      2.6097      0.0750      2.4453     36.1517     17.7046
  1814.5000      7.7701      2.5724      0.0593      4.7026     34.9797     17.2282
  1814.6000      7.7701      2.5325      0.0264      7.1189     34.7470     16.8903
  1814.7000      7.7701      2.5151     -0.0211      8.1745     36.2293     16.8219
  1814.8000      7.7797      2.5326      0.0332      7.1181     37.6585     16.9093
  1814.9000      7.7797      2.5663      0.0194      5.0720     36.8761     16.8112
  1815.0000      7.7926      2.5999      0.0194      3.0363     36.2268     16.5460
  1815.1000      7.7926      2.6346      0.0870      0.9333     37.5180     16.4031
  1815.2000      7.7926      2.6735      0.1005     -1.4231     38.4728     16.3947
  1815.3000      7.8389      2.7092      0.1527     -3.5888     38.0033     16.6682
  1815.4000      7.8389      2.7226      0.1882     -4.4000     37.8409     17.2253
  1815.5000      7.8347      2.7049      0.0973     -3.3266     38.6022     17.5562
  1815.6000      7.8347      2.6782      0.1099     -1.7104     38.7643     17.5537
  1815.7000      7.8347      2.6675      0.0648     -1.0623     37.6570     17.5193
  1815.8000      7.8030      2.6685      0.1173     -1.1239     35.8270     17.4533
  1815.9000      7.8030      2.6652      0.0613     -0.9192     33.5990     17.3095
  1816.0000      7.8263      2.6535      0.1569     -0.2139     31.9247     17.2023
  1816.1000      7.8263      2.6384      0.0731      0.7013     31.7139     17.2461
  1816.2000      7.8263      2.6409      0.0489      0.5539     31.8145     17.3219
  1816.3000      7.8283      2.6760      0.0675     -1.5744     31.2495     17.3253
  1816.4000      7.8283      2.7255      0.0784     -4.5733     30.5342     17.4205
  1816.5000      7.8373      2.7630      0.0978     -6.8479     29.6049     17.4676
  1816.6000      7.8373      2.7850      0.0762     -8.1798     28.7544     17.1940
  1816.7000      7.8373      2.7978      0.1332     -8.9591     29.3984     17.0875
  1816.8000      7.8212      2.7895      0.1645     -8.4516     30.4701     17.6633
  1816.9000      7.8212      2.7522      0.1571     -6.1961     30.2092     18.4941
  1817.0000      7.7814      2.7015      0.0905     -3.1197     30.3135     18.7298
  1817.1000      7.7814      2.6395      0.1144      0.6369     31.2316     18.3500
  1817.2000      7.7814      2.5605      0.0401      5.4227     31.2423     18.0484
  1817.3000      7.7908      2.4943     -0.0334      9.4333     31.7798     18.0547
  1817.4000      7.7908      2.4732     -0.0200     10.7168     35.0788     18.0990
  1817.5000      7.7531      2.4891      0.0096      9.7497     41.6645     18.0222
  1817.6000      7.7531      2.5139      0.0473      8.2481     51.3867     18.0059
  1817.7000      7.7531      2.5229      0.0617      7.7035     60.9249     18.1639
  1817.8000      7.7944      2.5066      0.0381      8.6918     65.5260     18.2688
  1817.9000      7.7944      2.4813      0.0629     10.2272     67.9002     18.3957
  1818.0000      7.8049      2.4749      0.1100     10.6093     73.9944     18.9199
  1818.1000      7.8049      2.4903      0.2109      9.6768     82.3458     19.6804
  1818.2000      7.8049      2.5087      0.1908      8.5667     88.7413     20.1718
  1818.3000      7.7935      2.5243      0.2137      7.6180     92.2426     20.2857
  1818.4000      7.7935      2.5405      0.2072      6.6374     93.3441     20.3568
  1818.5000      7.7876      2.5575      0.1724      5.6035     95.3449     20.6364
  1818.6000      7.7876      2.5741      0.2129      4.6003     99.4404     21.1664
  1818.7000      7.7876      2.5895      0.2110      3.6637    102.5477     21.8133
  1818.8000      7.7701      2.6063      0.2404      2.6460    106.6408     22.2162
  1818.9000      7.7701      2.6235      0.1972      1.6087    113.9096     22.3491
  1819.0000      7.8285      2.6383      0.2460      0.7079    117.4636     22.7581
  1819.1000      7.8285      2.6533      0.1672     -0.1980    111.5622     23.4993
  1819.2000      7.8285      2.6669      0.2296     -1.0264    100.4438     23.8992
  1819.3000      7.9024      2.6582      0.1752     -0.4965     91.5031     23.7773
  1819.4000      7.9024      2.6163      0.1246      2.0412     89.3247     23.6855
  1819.5000      7.9494      2.5639      0.0314      5.2178     93.8177     23.7138
  1819.6000      7.9494      2.5328      0.0558      7.1053    100.3392     23.4518
  1819.7000      7.9494      2.5353      0.0840      6.9506    102.6048     23.2415
  1819.8000      7.8927      2.5574      0.1037      5.6127     99.0325     23.4929
  1819.9000      7.8927      2.5816      0.0932      4.1449     92.2659     23.7431
  1820.0000      7.8522      2.6054      0.0621      2.7024     86.9975     23.6683
  1820.1000      7.8522      2.6170      0.1573      1.9997     86.2340     23.4178
  1820.2000      7.8522      2.6038      0.0838      2.8016     84.5897     23.1645
  1820.3000      7.8344      2.5976      0.0587      3.1778     77.8834     23.0377
  1820.4000      7.8344      2.6310      0.1376      1.1514     71.3133     23.0963
  1820.5000      7.8174      2.6859      0.1922     -2.1748     70.0167     23.3340
  1820.6000      7.8174      2.7301      0.2321     -4.8520     71.3597     23.4876
  1820.7000      7.8174      2.7469      0.2335     -5.8709     71.5622     23.4378
  1820.8000      7.7883      2.7342      0.2023     -5.1009     71.5003     23.3269
  1820.9000      7.7883      2.7005      0.1129     -3.0587     70.8661     23.0642
  1821.0000      7.7867      2.6583      0.0628     -0.5049     68.2923     22.6047
  1821.1000      7.7867      2.6195      0.0860      1.8485     64.6425     22.1342
