~Version Information
VERS.                      2.0: CWLS Log ASCII Standard - VERSION 2.0
WRAP.                       NO: One line per depth step
~Well Information Block
STRT.FT                -8.5000: 
STOP.FT              1968.0000: 
STEP.FT                 0.2500: 
NULL.                -999.2500: 
COMP.          Pioneer Natural Resources: COMPANY
WELL.           Firehawk 34-26: WELL
FLD.           Purgatorie River: FIELD
LOC.           1196' FSL & 1595' FEL--: LOCATION
STAT.                       CO: State
CNTY.               Las Animas: COUNTY
CTRY. USA : Country
SECT. 26 : Section
TOWN. 32S : Township
RANG. 66W : Range 
SRVC.          Patterson Wireline: SERVICE COMPANY
DATE.          Tue Oct 25 14:45:07 2005: LOG DATE
API.           05 071 08389 00: UNIQUE WELL ID
~Curve Information Block
DEPT.FT            0 000 00 00: Depth
CCL.                          : Casing Collar Locator
TT3.usec                      : CBL 3' Travel Time
AMP3.mV                       : CBL 3' Amplitude
GR.GAPI                       : Gamma Ray
~Parameter Information Block
~A  Depth       CCL         TT3         AMP3         GR     
# ...
   628.0000      0.0000    680.0372      6.1684     81.1675
   628.2500      0.0000    724.4573      6.0249     84.3527
   628.5000      0.0000    752.2280      5.9540     87.4280
   628.7500      0.0000    768.3719      5.9604     90.2890
   629.0000      0.0000    782.5001      5.9837     93.0955
   629.2500      0.0000    799.6990      5.9469     95.6355
   629.5000      0.0000    818.6189      5.8245     96.7139
   629.7500      0.0000    835.4930      5.6617     95.0639
   630.0000      0.0000    847.9206      5.5319     91.0395
   630.2500      0.0000    855.4185      5.4816     86.5417
   630.5000      0.0000    858.3432      5.5113     83.1230
   630.7500      0.0000    856.9805      5.5940     81.1183
   631.0000      0.0000    850.6376      5.6967     80.8782
   631.2500      0.0000    837.0571      5.7845     83.6342
   631.5000      0.0000    813.9769      5.8249     90.0435
   631.7500      0.0000    783.1977      5.8086     98.2014
   632.0000      0.0000    752.5551      5.7671    104.2178
   632.2500      0.0000    731.1830      5.7547    105.2628
   632.5000      0.0000    721.9476      5.8086    101.7417
   632.7500      0.0000    719.7731      5.9278     96.3515
   633.0000      0.0000    716.0700      6.0889     91.5829
   633.2500      0.0000    701.7162      6.2727     88.5603
   633.5000      0.0000    668.0652      6.4718     87.6448
   633.7500      0.0000    612.3718      6.6824     89.1574
   634.0000      0.0000    544.5240      6.8918     93.3552
   634.2500      0.0000    484.0382      7.0734    100.0396
   634.5000      0.0000    448.5367      7.1916    108.1505
   634.7500      0.0000    446.3963      7.2179    115.5231
   635.0000      0.0000    477.2196      7.1484    119.5107
   635.2500      0.0000    532.9153      7.0068    118.5793
   635.5000      0.0000    598.2045      6.8280    113.4092
   635.7500      0.0000    656.9251      6.6394    106.3230
   636.0000      0.0000    702.4794      6.4536     99.6078
   636.2500      0.0000    740.8296      6.2723     94.4701
   636.5000      0.0000    780.8974      6.0937     91.5368
   636.7500      0.0000    822.2928      5.9212     91.4215
   637.0000      0.0000    854.0903      5.7703     93.8995
   637.2500      0.0000    866.6445      5.6657     97.0343
   637.5000      0.0000    863.7050      5.6236     98.2324
   637.7500      0.0000    861.0923      5.6381     96.2940
   638.0000      0.0000    873.2896      5.6828     91.9897
   638.2500      0.0000    902.0159      5.7279     86.8726
   638.5000      0.0000    936.8043      5.7542     82.2517
   638.7500      0.0000    964.1964      5.7543     79.1680
   639.0000      0.0000    976.3336      5.7269     78.5372
   639.2500      0.0000    974.0263      5.6712     80.7645
   639.5000      0.0000    964.8240      5.5900     85.1554
   639.7500      0.0000    957.1793      5.4937     89.8211
   640.0000      0.0000    953.2035      5.4024     92.5661
   640.2500      0.0000    946.5910      5.3412     92.4359
   640.5000      0.0000    928.9324      5.3321     90.4876
   640.7500      0.0000    896.7548      5.3868     88.7786
   641.0000      0.0000    850.3337      5.5074     88.6419
   641.2500      0.0000    788.2421      5.6923     89.8989
   641.5000      0.0000    708.6523      5.9401     91.4329
   641.7500      0.0000    617.0877      6.2477     92.5225
   642.0000      0.0000    528.2928      6.6084     93.7784
   642.2500      0.0000    457.2687      7.0109     96.4345
   642.5000      0.0000    409.8061      7.4435    100.5175
   642.7500      0.0000    382.2408      7.8956    104.1734
   643.0000      0.0000    367.5920      8.3553    105.2065
   643.2500      0.0000    360.2151      8.8023    103.0107
   643.5000      0.0000    356.6704      9.2091     98.7749
   643.7500      0.0000    355.0270      9.5477     94.1790
   644.0000      0.0000    354.2673      9.7946     90.3268
   644.2500      0.0000    353.9348      9.9304     87.5797
   644.5000      0.0000    353.9014      9.9416     85.6891
   644.7500      0.0000    354.2864      9.8270     83.9881
   645.0000      0.0000    355.4965      9.6021     81.9447
   645.2500      0.0000    358.1764      9.2962     79.7101
   645.5000      0.0000    362.7946      8.9452     77.9679
   645.7500      0.0000    369.0521      8.5813     77.3809
   646.0000      0.0000    375.9157      8.2189     78.3093
   646.2500      0.0000    382.6377      7.8482     80.7048
   646.5000      0.0000    389.6895      7.4507     84.0478
   646.7500      0.0000    398.5760      7.0304     87.4740
   647.0000      0.0000    411.5612      6.6110     89.9493
   647.2500      0.0000    432.7111      6.1854     90.5414
   647.5000      0.0000    467.9257      5.6863     89.2237
   647.7500      0.0000    520.4093      5.0488     87.5236
   648.0000      0.0000    583.2466      4.3101     87.4817
   648.2500      0.0000    636.8791      3.6209     89.3873
   648.5000      0.0000    657.3434      3.1509     91.1313
   648.7500      0.0000    631.8672      2.9882     90.4204
   649.0000      0.0000    569.4881      3.1123     87.1751
   649.2500     -2.0000    495.4712      3.4289     83.2285
   649.5000     -2.0000    433.6599      3.8247     80.2743
   649.7500      0.0000    393.9751      4.2132     78.9653
   650.0000      0.0000    373.9032      4.5765     79.6545
   650.2500      0.0000    366.3891      4.9884     82.8553
   650.5000      0.0000    364.8557      5.5655     88.4079
   650.7500      0.0000    364.5968      6.3364     94.6044
   651.0000      0.0000    363.2435      7.1542     98.6646
   651.2500      0.0000    360.7370      7.7839     98.3180
   651.5000      0.0000    358.1737      8.0871     93.1708
   651.7500      0.0000    356.4258      8.1019     84.7457
   652.0000      0.0000    355.5943      7.9657     75.3411
   652.2500      0.0000    355.3424      7.8023     67.0181
   652.5000      0.0000    355.3333      7.6737     61.3717
   652.7500      0.0000    355.3773      7.5945     59.3261
   653.0000      0.0000    355.3895      7.5580     60.5046
   653.2500      0.0000    355.3328      7.5512     63.2035
   653.5000      0.0000    355.1954      7.5587     65.5857
   653.7500      0.0000    354.9876      7.5644     66.9361
   654.0000      0.0000    354.7318      7.5548     67.6454
   654.2500      0.0000    354.4556      7.5216     68.2306
   654.5000      0.0000    354.1924      7.4643     68.6589
   654.7500      0.0000    353.9763      7.3893     68.6250
   655.0000      0.0000    353.8313      7.3033     68.2773
   655.2500      0.0000    353.7654      7.2062     68.6206
   655.5000      0.0000    353.7705      7.0922     71.0758
   655.7500      0.0000    353.8158      6.9568     76.2541
   656.0000      0.0000    353.8409      6.7993     82.9573
   656.2500      0.0000    353.7737      6.6206     88.6838
   656.5000      0.0000    353.5784      6.4244     91.4516
   656.7500      0.0000    353.2921      6.2195     91.3331
   657.0000      0.0000    353.0414      6.0141     90.2389
   657.2500      0.0000    353.0880      5.8036     90.0061
   657.5000      0.0000    353.9400      5.5686     90.5294
   657.7500      0.0000    356.3734      5.2912     89.9904
   658.0000      0.0000    361.0786      4.9753     86.9120
   658.2500      0.0000    367.9529      4.6460     81.5510
   658.5000      0.0000    375.7196      4.3356     75.4027
   658.7500      0.0000    382.5453      4.0671     70.1311
   659.0000      0.0000    387.2173      3.8453     66.9822
   659.2500      0.0000    389.7062      3.6562     66.3637
   659.5000      0.0000    390.7345      3.4767     67.6292
   659.7500      0.0000    391.0603      3.2856     69.7234
   660.0000      0.0000    391.1436      3.0715     72.2184
   660.2500      0.0000    391.1975      2.8342     75.4363
   660.5000      0.0000    391.3818      2.5793     79.5269
   660.7500      0.0000    392.0153      2.3109     83.8286
   661.0000      0.0000    393.9608      2.0292     87.3190
   661.2500      0.0000    399.2418      1.7342     89.3957
