~Version Information
VERS.                      2.0: CWLS Log ASCII Standard - VERSION 2.0
WRAP.                       NO: One line per depth step
~Well Information Block
STRT.FT               840.0000: 
STOP.FT              2019.0000: 
STEP.FT                 0.2500: 
NULL.                -999.2500: 
COMP.          Petrogulf Corporation: COMPANY
WELL.           Lavedure 7-44R: WELL
FLD.           Purgatorie River: FIELD
LOC.           946' FSL & 521' FEL: LOCATION
PROV.                 Colorado: PROVINCE
CNTY.               Las Animas: COUNTRY
SRVC.                Patterson: SERVICE COMPANY
DATE.          Mon Sep 26 08:35:42 2005: LOG DATE
UWI.                          : UNIQUE WELL ID
~Curve Information Block
DEPT.FT            0 000 00 00: Depth
SP.mV                         : DIL Spontaneous Potential
RILD.Ohm-m                    : DIL Deep Resistivity
RILM.Ohm-m                    : DIL Medium Resistivity
RLL3.Ohm-m                    : DIL Shallow Resistivity
GR.GAPI                       : Gamma Ray
~Parameter Information Block
~A  Depth        SP         RILD        RILM        RLL3         GR     
# ...
  1680.0000    226.9328      8.5470      8.9182     10.6744    166.3117
  1680.2500    226.8138      8.5152      9.1257     13.0785    150.9449
  1680.5000    226.4594      8.5394      9.2224     13.3848    142.0876
  1680.7500    225.9764      8.5150      9.1997     11.8624    140.9371
  1681.0000    225.5132      8.5283      9.0798     10.3682    150.5213
  1681.2500    224.9880      8.4300      9.0083      9.5682    146.0000
  1681.5000    224.4148      8.3926      8.8849      9.0935    140.5966
  1681.7500    223.6768      8.3594      8.8531      9.2905    159.3551
  1682.0000    222.6495      8.2954      8.7999      9.7824    164.1832
  1682.2500    221.3184      8.0976      8.6670      9.8624    139.4194
  1682.5000    219.8003      7.8657      8.4963      9.6776    162.6483
  1682.7500    218.2047      7.6809      8.2487      9.3358    149.4490
  1683.0000    216.6653      7.5171      7.8809      8.8217    133.6093
  1683.2500    215.2701      7.2906      7.5783      8.0939    142.0466
  1683.5000    214.1182      7.2000      7.3304      8.0998    156.9382
  1683.7500    213.1098      7.0540      7.0797      7.9947    146.4415
  1684.0000    212.2819      6.9863      6.8892      7.9042    146.6070
  1684.2500    211.5930      6.9299      6.7495      7.5833    149.9245
  1684.5000    210.9095      6.9165      6.6734      7.1804    145.4434
  1684.7500    210.3676      6.9208      6.5913      6.9799    160.8913
  1685.0000    210.0219      6.9302      6.6357      6.9331    161.2059
  1685.2500    210.2303      6.9561      6.7393      6.7828    163.1942
  1685.5000    211.1076      6.9630      6.8780      7.1633    164.8686
  1685.7500    212.7732      6.9637      7.1556      8.1227    171.5556
  1686.0000    215.1570      6.9349      7.4634      9.9948    140.2271
  1686.2500    218.0895      6.9227      7.6130     13.3789    144.9248
  1686.5000    221.1021      7.0350      7.6628     15.7838    138.4248
  1686.7500    223.5557      7.1870      7.6010     13.3752    130.1155
  1687.0000    225.0051      7.3240      7.4874     10.6576    135.3970
  1687.2500    225.6559      7.5715      7.4058      9.3660    134.3442
  1687.5000    225.8528      7.8927      7.4537      8.7797    117.5311
  1687.7500    225.9343      8.2648      7.6374      8.7535    126.7968
  1688.0000    225.9530      8.6929      8.0266      9.0692    168.4633
  1688.2500    226.0681      9.1113      8.4734      9.5294    161.0739
  1688.5000    226.4680      9.4808      9.0684     10.2255    186.5070
  1688.7500    227.1508      9.7399      9.7170     10.9982    195.3516
  1689.0000    228.1023      9.9608     10.4586     12.5990    175.5877
  1689.2500    229.4539     10.3008     11.3079     16.0933    183.3583
  1689.5000    231.2068     10.6543     12.1547     21.1346    152.3254
  1689.7500    232.8848     11.0890     12.9117     25.0177    138.5486
  1690.0000    234.1340     11.4903     13.6715     25.4580    128.6736
  1690.2500    235.0781     12.2756     14.4091     22.7973    137.9374
  1690.5000    235.7631     12.9329     14.9934     21.3611    136.1321
  1690.7500    236.3016     13.7806     15.8121     20.1249    120.0274
  1691.0000    236.6283     14.2559     16.7188     16.6362    112.3825
  1691.2500    236.7195     14.7075     18.2107     16.1326    131.6331
  1691.5000    236.6528     14.8462     19.8219     22.1435    111.0749
  1691.7500    236.5580     14.3048     21.3209     32.2932    119.0398
  1692.0000    236.4940     13.7601     22.4247     41.2665    121.7421
  1692.2500    236.4754     13.0777     20.8092     47.7266    112.7151
  1692.5000    236.5826     12.4466     18.5092     44.3754    130.3300
  1692.7500    236.9279     11.8186     15.9328     29.8857    126.5180
  1693.0000    237.4111     11.5480     13.6679     16.9026    115.8869
  1693.2500    237.7753     11.1006     11.8747     11.1865    112.0711
  1693.5000    237.7812     10.7121     10.7694      8.8537    129.1964
  1693.7500    237.4640     10.5266     10.1279      7.9532    147.2346
  1694.0000    236.9978     10.1980      9.8770      8.0387    170.9111
  1694.2500    236.4760      9.8056      9.6339      8.2826    169.2945
  1694.5000    235.9044      9.2659      9.4652      8.5862    174.2559
  1694.7500    235.2691      8.7886      9.3313      9.0880    167.9129
  1695.0000    234.6702      8.3356      9.1092     10.1293    193.4261
  1695.2500    234.1060      7.9740      8.7723     10.7606    184.5513
  1695.5000    233.6539      7.6769      8.4548     10.5667    163.0201
  1695.7500    233.2396      7.4584      8.0469     10.1729    157.9675
  1696.0000    232.8969      7.2498      7.6335      9.3099    164.1628
  1696.2500    232.5952      7.1631      7.2834      8.1916    160.2361
  1696.5000    232.2792      7.1462      7.0079      7.8434    163.6136
  1696.7500    232.0256      7.1798      6.8040      7.6321    174.9280
  1697.0000    231.7610      7.2129      6.7262      7.3339    171.8788
  1697.2500    231.6590      7.2382      6.7378      6.9104    182.1642
  1697.5000    231.5942      7.3551      6.7845      6.5648    162.5708
  1697.7500    231.4525      7.3987      6.8530      6.9209    173.3819
  1698.0000    231.0187      7.4090      7.0118      7.4523    187.5819
  1698.2500    230.0171      7.3959      7.1905      7.9604    193.0872
  1698.5000    228.7151      7.4176      7.4492      8.0557    204.7180
  1698.7500    227.1356      7.3818      7.7147      9.0396    198.9662
  1699.0000    225.2816      7.4080      7.9388     10.7237    176.0448
  1699.2500    223.4536      7.6187      8.0618     12.3371    175.6826
  1699.5000    221.7082      7.7500      8.1944     12.4848    182.8185
  1699.7500    220.0063      7.9271      8.2797     11.7457    165.2993
  1700.0000    218.3403      8.2805      8.3469     10.5618    128.7913
  1700.2500    216.6447      8.6586      8.4306      9.2907    136.0421
  1700.5000    214.9215      9.0255      8.5995      8.3766    156.8980
  1700.7500    213.3492      9.4074      9.0158      8.2134    153.3158
  1701.0000    211.9114      9.6799      9.6573      8.1751    159.6729
  1701.2500    210.6576     10.0225     10.6658      9.5296    141.3541
  1701.5000    209.5539     10.0727     11.7538     14.6179    139.6497
  1701.7500    208.7477     10.0644     12.8111     27.9782    133.3905
  1702.0000    208.1931      9.9418     13.6422     53.0331    151.9084
  1702.2500    207.9053      9.8732     13.6043     72.8628    135.8407
  1702.5000    207.8360      9.9524     13.2048     65.2567    114.0295
  1702.7500    207.8026     10.0552     12.4992     41.3416    107.8127
  1703.0000    207.7434     10.4107     11.7916     19.7538     89.2713
  1703.2500    207.6660     10.6167     11.2593     10.6648    106.2386
  1703.5000    207.4341     10.7751     11.0583      8.3819    119.8381
  1703.7500    207.2141     10.7671     11.1427      9.1398    124.2667
  1704.0000    207.0794     10.7726     11.5689     11.6986    130.0629
  1704.2500    206.9355     10.7127     11.8114     15.7679    129.8494
  1704.5000    206.8609     10.6411     11.6219     18.4063    154.8699
  1704.7500    206.9093     10.4831     11.2368     15.6042    156.7134
  1705.0000    206.9529     10.3641     10.6535     11.7106    130.6178
  1705.2500    206.8452     10.2214     10.3266     10.0865    158.8773
  1705.5000    206.7102     10.3289     10.1759      9.5507    159.2042
  1705.7500    206.5306     10.4924     10.3041      9.5765    146.2397
  1706.0000    206.3787     10.9949     10.6905     10.2357    142.8977
  1706.2500    206.1736     11.3286     11.1790     10.9389    175.6979
  1706.5000    206.0099     11.4750     11.8569     11.2457    171.2021
  1706.7500    205.9130     11.7338     12.6818     12.7491    159.3201
  1707.0000    205.9033     11.9284     13.3123     16.6225    157.0081
  1707.2500    205.9271     12.2755     14.2803     22.0337    161.1117
  1707.5000    206.0709     12.7670     14.9271     23.7376    120.2743
  1707.7500    206.2279     13.2598     15.4600     23.0178    107.8762
