~Version Information
VERS.                      2.0: CWLS Log ASCII Standard - VERSION 2.0
WRAP.                       NO: One line per depth step
~Well Information Block
STRT.FT               260.0000: 
STOP.FT              2610.0000: 
STEP.FT                 0.1000: 
NULL.                -999.2500: 
COMP.          Pioneer Natural Resources: COMPANY
WELL.           Costello 44-24: WELL
FLD.           Purgatoire River: FIELD
LOC.           327' FSL & 378' FEL: LOCATION
PROV.                 Colorado: PROVINCE
CNTY.               Las Animas: COUNTRY
SRVC.                Patterson: SERVICE COMPANY
DATE.          Mon Jul 11 10:42:19 2005: LOG DATE
UWI.           05 071 08413 00: UNIQUE WELL ID
~Curve Information Block
DEPT.FT            0 000 00 00: Depth
DCAL.in                       : CDL Caliper
RHOB.g/cc                     : CDL Bulk Density
RHOC.g/cc                     : CDL Density Correction
DPOR.pu                       : CDL Density Porosity
GR.GAPI                       : Gamma Ray
NPOR.pu                       : Neutron Porosity
~Parameter Information Block
~A  Depth       DCAL        RHOB        RHOC        DPOR         GR         NPOR    
# ...
  1344.8000      8.1087      2.5063      0.0418      8.7064    113.5949     27.0047
  1344.9000      8.1087      2.5199      0.0454      7.8858    110.8108     26.9065
  1345.0000      8.1181      2.5195      0.0029      7.9096    108.7785     26.7864
  1345.1000      8.1181      2.5182      0.0093      7.9904    108.8567     26.6167
  1345.2000      8.1181      2.5256      0.0886      7.5421    107.3925     26.2519
  1345.3000      8.1229      2.5339      0.1294      7.0385    105.6780     25.7601
  1345.4000      8.1229      2.5532      0.1186      5.8661    106.2266     25.5037
  1345.5000      8.1190      2.5955      0.2043      3.3014    108.9355     25.7502
  1345.6000      8.1190      2.6409      0.1819      0.5510    112.8416     26.5533
  1345.7000      8.1190      2.6658      0.1734     -0.9604    118.7446     27.3803
  1345.8000      8.0766      2.6662      0.1752     -0.9831    126.0838     27.4619
  1345.9000      8.0766      2.6468      0.1761      0.1926    132.0558     27.1904
  1346.0000      8.0777      2.6110      0.1633      2.3620    134.8408     27.1213
  1346.1000      8.0777      2.5638      0.1860      5.2247    134.3796     27.0155
  1346.2000      8.0777      2.5183      0.1541      7.9838    131.4347     26.6952
  1346.3000      8.1004      2.4878      0.1060      9.8287    127.9626     26.5771
  1346.4000      8.1004      2.4734      0.0755     10.7004    124.1494     26.8792
  1346.5000      8.1476      2.4719      0.0034     10.7914    122.3720     27.1087
  1346.6000      8.1476      2.4877      0.0739      9.8352    125.3411     26.9821
  1346.7000      8.1476      2.5197      0.1560      7.8995    128.9289     26.9984
  1346.8000      8.1472      2.5577      0.1834      5.5911    129.7621     27.5273
  1346.9000      8.1472      2.5952      0.2403      3.3194    131.0591     28.0995
  1347.0000      8.1218      2.6257      0.2932      1.4750    135.9429     28.3196
  1347.1000      8.1218      2.6452      0.2827      0.2926    140.7141     28.3845
  1347.2000      8.1218      2.6568      0.2264     -0.4104    141.0090     28.0902
  1347.3000      8.1122      2.6600      0.1757     -0.6040    140.6572     27.3095
  1347.4000      8.1122      2.6574      0.1901     -0.4500    144.2590     26.7259
  1347.5000      8.0990      2.6538      0.2345     -0.2293    148.8962     26.6153
  1347.6000      8.0990      2.6465      0.2029      0.2136    150.0938     26.7540
  1347.7000      8.0990      2.6395      0.1767      0.6353    149.3256     27.1567
  1347.8000      8.1188      2.6436      0.1548      0.3888    150.5828     27.7129
  1347.9000      8.1188      2.6563      0.1685     -0.3845    152.1395     28.0994
  1348.0000      8.1525      2.6552      0.1428     -0.3141    148.5352     28.2471
  1348.1000      8.1525      2.6220      0.0624      1.6947    141.2821     28.3620
  1348.2000      8.1525      2.5763      0.0518      4.4682    137.3036     28.3586
  1348.3000      8.1444      2.5502      0.0574      6.0470    137.0841     28.2604
  1348.4000      8.1444      2.5416      0.0724      6.5690    136.8659     28.5088
  1348.5000      8.1301      2.5305      0.0345      7.2418    137.4038     29.0078
  1348.6000      8.1301      2.5227     -0.0091      7.7126    138.9729     29.1891
  1348.7000      8.1301      2.5299      0.0615      7.2769    141.6908     28.9487
  1348.8000      8.1267      2.5420      0.0538      6.5456    147.5418     28.6373
  1348.9000      8.1267      2.5470      0.0539      6.2453    152.7583     28.6483
  1349.0000      8.0988      2.5425      0.0778      6.5123    150.7677     28.8667
  1349.1000      8.0988      2.5380      0.0281      6.7886    143.7413     28.8363
  1349.2000      8.0988      2.5431      0.0003      6.4789    139.0066     28.6192
  1349.3000      8.1001      2.5471      0.0627      6.2361    137.0369     28.4439
  1349.4000      8.1001      2.5378      0.0168      6.8026    133.9672     28.3023
  1349.5000      8.0904      2.5324      0.0203      7.1244    129.6849     28.3022
  1349.6000      8.0904      2.5541      0.0368      5.8108    128.0812     28.2775
  1349.7000      8.0904      2.5887      0.1176      3.7166    131.8766     27.9746
  1349.8000      8.0879      2.6059      0.1205      2.6754    139.4729     27.7348
  1349.9000      8.0879      2.6023      0.0985      2.8892    147.4003     27.8414
  1350.0000      8.0907      2.5861      0.0743      3.8729    153.2475     28.1095
  1350.1000      8.0907      2.5590      0.0598      5.5137    154.2434     28.3528
  1350.2000      8.0907      2.5319      0.0329      7.1600    150.0827     28.5525
  1350.3000      8.0987      2.5256      0.0185      7.5396    145.8394     28.5830
  1350.4000      8.0987      2.5450      0.0307      6.3658    144.4686     28.2312
  1350.5000      8.1220      2.5671      0.0879      5.0259    143.4553     27.7014
  1350.6000      8.1220      2.5773      0.0384      4.4074    144.3270     27.3913
  1350.7000      8.1220      2.5860      0.0413      3.8809    151.6535     27.3454
  1350.8000      8.1358      2.5940      0.0527      3.3949    161.8778     27.4073
  1350.9000      8.1358      2.5868      0.0674      3.8314    167.2957     27.5584
  1351.0000      8.1563      2.5660      0.0420      5.0911    166.7901     27.9126
  1351.1000      8.1563      2.5498      0.0007      6.0715    165.3477     28.2209
  1351.2000      8.1563      2.5479      0.0053      6.1857    164.7934     28.1023
  1351.3000      8.1698      2.5553      0.0034      5.7389    160.7496     27.7736
  1351.4000      8.1698      2.5629      0.0133      5.2766    153.5954     27.7706
  1351.5000      8.1703      2.5631      0.0259      5.2682    151.4499     28.1050
  1351.6000      8.1703      2.5493      0.0275      6.1032    154.4666     28.3257
  1351.7000      8.1703      2.5261     -0.0195      7.5072    152.7249     28.3409
  1351.8000      8.1753      2.5155     -0.0312      8.1521    144.5770     28.2619
  1351.9000      8.1753      2.5275      0.0521      7.4256    138.6407     28.1588
  1352.0000      8.1967      2.5399      0.0284      6.6747    137.8946     28.1491
  1352.1000      8.1967      2.5335      0.0628      7.0614    140.0174     28.2173
  1352.2000      8.1967      2.5196     -0.0043      7.9020    142.1898     28.3558
  1352.3000      8.2011      2.5234      0.0135      7.6743    141.2438     28.4341
  1352.4000      8.2011      2.5562      0.0340      5.6841    138.1862     28.2605
  1352.5000      8.2167      2.6137      0.0862      2.2023    136.2704     27.9798
  1352.6000      8.2167      2.6676      0.2207     -1.0676    138.4196     27.9802
  1352.7000      8.2167      2.6789      0.2379     -1.7510    144.4304     28.5949
  1352.8000      8.2221      2.6432      0.1916      0.4122    148.6283     29.3615
  1352.9000      8.2221      2.5877      0.1651      3.7785    148.9249     29.4324
  1353.0000      8.2019      2.5402      0.0072      6.6518    147.0872     28.9029
  1353.1000      8.2019      2.5242     -0.0168      7.6266    142.4649     28.4419
  1353.2000      8.2019      2.5413      0.0097      6.5849    135.7315     28.3228
  1353.3000      8.1386      2.5633      0.0579      5.2564    131.3941     28.4223
  1353.4000      8.1386      2.5738      0.0257      4.6166    131.1244     28.3433
  1353.5000      8.0992      2.5942      0.0328      3.3791    128.9246     27.9179
  1353.6000      8.0992      2.6270      0.1024      1.3949    121.3777     27.3943
  1353.7000      8.0992      2.6438      0.0881      0.3735    113.3911     26.8904
  1353.8000      8.0949      2.6449      0.0578      0.3076    108.8983     26.3638
  1353.9000      8.0949      2.6558      0.0959     -0.3504    105.5975     26.0061
  1354.0000      8.0804      2.6811      0.0957     -1.8842    101.5017     26.0990
  1354.1000      8.0804      2.7012      0.1159     -3.1057     98.6419     26.4105
  1354.2000      8.0804      2.7012      0.0666     -3.1027     95.8357     26.1686
  1354.3000      8.0694      2.6810      0.1024     -1.8795     91.5709     25.2685
