~Version Information
VERS.                      2.0: CWLS Log ASCII Standard - VERSION 2.0
WRAP.                       NO: One line per depth step
~Well Information Block
STRT.FT                -2.7500: 
STOP.FT              2141.2500: 
STEP.FT                 0.2500: 
NULL.                -999.2500: 
COMP.          Pioneer Nautural Resources: COMPANY
WELL.             Enzo 43-8 Tr: WELL
FLD.           Purgatorie River: FIELD
LOC.           2303' FSL & 604' FEL--: LOCATION
PROV.                       CO: PROVINCE
CNTY.               Las Animas: COUNTRY
SRVC.                         : SERVICE COMPANY
DATE.          Thu Nov 04 09:01:55 2004: LOG DATE
UWI.            05-071-08213  : UNIQUE WELL ID
~Curve Information Block
DEPT.FT            0 000 00 00: Depth
GR.GAPI                       : Gamma Ray
CCL.                          : Casing Collar Locator
TT3.usec                      : CBL 3' Travel Time
AMP3.mV                       : CBL 3' Amplitude
~Parameter Information Block
~A  Depth        GR         CCL         TT3         AMP3    
# ...
  1538.2500    153.3925      0.0000    732.3369      5.0039
  1538.5000    155.6834      0.0000    724.7820      5.0001
  1538.7500    157.9723      0.0000    718.1282      4.9509
  1539.0000    159.1705      0.0000    712.5859      4.8819
  1539.2500    159.4904      0.0000    708.8683      4.8127
  1539.5000    160.3442      0.0000    706.6138      4.7580
  1539.7500    162.2961      0.0000    704.1542      4.7286
  1540.0000    163.6183      0.0000    700.4576      4.7288
  1540.2500    161.5850      0.0000    697.4323      4.7585
  1540.5000    155.1406      0.0000    699.6141      4.8150
  1540.7500    145.8919      0.0000    710.9005      4.8887
  1541.0000    136.6861      0.0000    731.5352      4.9634
  1541.2500    129.6011      0.0000    757.9659      5.0290
  1541.5000    124.9760      0.0000    784.7223      5.0905
  1541.7500    121.5970      0.0000    806.7193      5.1620
  1542.0000    117.5068      0.0000    821.2251      5.2499
  1542.2500    111.0731      0.0000    828.4639      5.3412
  1542.5000    101.9980      0.0000    830.7825      5.4045
  1542.7500     91.8695      0.0000    831.7442      5.4011
  1543.0000     83.7011      0.0000    834.6722      5.3013
  1543.2500     80.1871      0.0000    839.5371      5.0977
  1543.5000     81.6862      0.0000    841.1156      4.8151
  1543.7500     85.8958      0.0000    832.4231      4.5098
  1544.0000     89.6235      0.0000    812.0553      4.2558
  1544.2500     90.9477      0.0000    787.9276      4.1155
  1544.5000     90.0543      0.0000    771.3224      4.1117
  1544.7500     88.3443      0.0000    765.8143      4.2293
  1545.0000     86.8024      0.0000    762.9249      4.4419
  1545.2500     85.2608      0.0000    750.1398      4.7247
  1545.5000     83.1270      0.0000    724.0963      5.0379
  1545.7500     80.3712      0.0000    696.2056      5.3176
  1546.0000     77.6247      0.0000    684.2145      5.4954
  1546.2500     75.6777      0.0000    697.6479      5.5217
  1546.5000     75.0801      0.0000    731.3138      5.3665
  1546.7500     76.0597      0.0000    770.6185      5.0244
  1547.0000     78.7446      0.0000    801.5190      4.5463
  1547.2500     83.5307      0.0000    817.7018      4.0574
  1547.5000     91.1115      0.0000    821.0207      3.7001
  1547.7500    101.9580      0.0000    816.4191      3.5402
  1548.0000    115.5586      0.0000    807.6267      3.5396
  1548.2500    130.0718      0.0000    796.8994      3.6208
  1548.5000    142.8813      0.0000    786.0771      3.7387
  1548.7500    151.7585      0.0000    776.4346      3.8894
  1549.0000    155.8768      0.0000    768.2383      4.0773
  1549.2500    156.0768      0.0000    761.2598      4.2862
  1549.5000    154.1560      0.0000    755.4108      4.4790
  1549.7500    151.6298      0.0000    750.6069      4.6181
  1550.0000    149.0586      0.0000    746.3111      4.6854
  1550.2500    146.4823      0.0000    741.9724      4.6850
  1550.5000    144.3046      0.0000    738.2819      4.6318
  1550.7500    143.5000      0.0000    737.6022      4.5474
  1551.0000    144.7225      0.0000    742.4567      4.4592
  1551.2500    147.3436      0.0000    753.3972      4.3911
  1551.5000    149.6839      0.0000    768.5376      4.3499
  1551.7500    150.1824      0.0000    784.4777      4.3211
  1552.0000    148.2567      0.0000    797.0269      4.2809
  1552.2500    144.3408      0.0000    802.8029      4.2116
  1552.5000    139.2435      0.0000    802.5818      4.1093
  1552.7500    133.3400      0.0000    801.8134      3.9857
  1553.0000    126.3967      0.0000    804.8665      3.8696
  1553.2500    118.1461      0.0000    809.7320      3.8016
  1553.5000    108.8494      0.0000    810.8615      3.8126
  1553.7500     99.4698      0.0000    805.7941      3.8967
  1554.0000     91.6809      0.0000    797.0118      3.9998
  1554.2500     87.5695      0.0000    789.4103      4.0442
  1554.5000     88.8066      0.0000    788.0588      3.9833
  1554.7500     95.7256      0.0000    796.1417      3.8462
  1555.0000    107.0661      0.0000    811.7660      3.7100
  1555.2500    120.4040      0.0000    827.3752      3.6107
  1555.5000    132.8001      0.0000    835.3544      3.5069
  1555.7500    141.5941      0.0000    834.9213      3.3573
  1556.0000    145.3387      0.0000    831.6831      3.1920
  1556.2500    144.3019      0.0000    830.3616      3.0713
  1556.5000    139.8285     -2.0000    830.1718      3.0099
  1556.7500    133.1591     -2.0000    828.0853      2.9779
  1557.0000    125.2350      1.5576    824.5530      2.9498
  1557.2500    117.6479      0.0000    823.9651      2.9316
  1557.5000    113.1013      0.0000    829.4966      2.9567
  1557.7500    114.0339      0.0000    839.3775      3.0625
  1558.0000    120.1642      0.0000    848.9727      3.2482
  1558.2500    127.5900      0.0000    855.0259      3.4573
  1558.5000    131.1629      0.0000    856.8181      3.6254
  1558.7500    128.2504      0.0000    854.3784      3.7417
  1559.0000    120.1277      0.0000    847.1445      3.8467
  1559.2500    109.9658      0.0000    834.9258      3.9783
  1559.5000    100.1589      0.0000    819.7811      4.1387
  1559.7500     91.6375      0.0000    805.8795      4.2998
  1560.0000     84.7658      0.0000    796.4763      4.4280
  1560.2500     79.9075      0.0000    791.3713      4.5025
  1560.5000     77.1713      0.0000    787.9839      4.5226
  1560.7500     76.2127      0.0000    784.5057      4.5084
  1561.0000     76.5258      0.0000    781.3748      4.4917
  1561.2500     77.9613      0.0000    780.1661      4.4902
  1561.5000     81.0580      0.0000    781.6812      4.4838
  1561.7500     86.7693      0.0000    785.0366      4.4279
  1562.0000     95.6191      0.0000    788.0557      4.3006
  1562.2500    106.8332      0.0000    788.5048      4.1298
  1562.5000    118.0053      0.0000    785.4455      3.9696
  1562.7500    125.7278      0.0000    779.9721      3.8640
  1563.0000    127.2375      0.0000    774.8359      3.8342
  1563.2500    122.0635      0.0000    772.9952      3.8832
  1563.5000    112.4610      0.0000    776.1613      3.9943
  1563.7500    102.5967      0.0000    784.1127      4.1341
  1564.0000     96.8548      0.0000    794.3091      4.2689
  1564.2500     97.5625      0.0000    802.1614      4.3776
  1564.5000    103.5160      0.0000    803.5366      4.4499
  1564.7500    110.8278      0.0000    798.3403      4.4781
  1565.0000    115.4206      0.0000    790.7505      4.4627
  1565.2500    115.0597      0.0000    785.5463      4.4243
  1565.5000    109.9547      0.0000    785.2443      4.4032
  1565.7500    102.1332      0.0000    790.1386      4.4379
  1566.0000     93.9785      0.0000    798.5954      4.5384
  1566.2500     86.8906      0.0000    807.5182      4.6709
  1566.5000     81.1499      0.0000    815.2084      4.7729
  1566.7500     76.8146      0.0000    823.6364      4.7954
  1567.0000     74.2033      0.0000    835.1545      4.7337
  1567.2500     73.2774      0.0000    846.6888      4.6151
  1567.5000     73.1285      0.0000    850.2692      4.4720
  1567.7500     72.6686      0.0000    841.0740      4.3433
  1568.0000     71.6522      0.0000    823.5942      4.2870
  1568.2500     70.6890      0.0000    808.1299      4.3510
  1568.5000     70.3622      0.0000    801.6550      4.5217
  1568.7500     70.5715      0.0000    803.2332      4.7184
  1569.0000     70.7473      0.0000    807.5604      4.8500
  1569.2500     70.6507      0.0000    811.2874      4.8799
  1569.5000     70.8317      0.0000    815.1118      4.8386
  1569.7500     72.0436      0.0000    819.8265      4.7838
  1570.0000     74.2478      0.0000    821.9078      4.7519
  1570.2500     76.7240      0.0000    815.9294      4.7426
  1570.5000     79.5046      0.0000    801.4379      4.7388
  1570.7500     84.2691      0.0000    784.4186      4.7294
  1571.0000     92.8971      0.0000    771.2259      4.7129
  1571.2500    104.9503      0.0000    763.3767      4.6872
  1571.5000    117.3908      0.0000    758.7285      4.6466
