~Version Information
VERS.                      2.0: CWLS Log ASCII Standard - VERSION 2.0
WRAP.                       NO: One line per depth step
~Well Information Block
STRT.FT               -11.0000: 
STOP.FT              2634.5000: 
STEP.FT                 0.2500: 
NULL.                -999.2500: 
COMP.          Evergreen Operating Corporation: COMPANY
WELL.          Sand PebbleS 13-33: WELL
FLD.           Purgatorie River: FIELD
LOC.           1883' FSL & 63' FWL--: LOCATION
PROV.                 Colorado: PROVINCE
CNTY.               Las Animas: COUNTRY
SRVC.          Patterson Wireline: SERVICE COMPANY
DATE.          Fri Mar 18 09:37:20 2005: LOG DATE
UWI.          005 071 08224 : UNIQUE WELL ID
~Curve Information Block
DEPT.FT            0 000 00 00: Depth
CCL.                          : Casing Collar Locator
TT3.usec                      : CBL 3' Travel Time
AMP3.mV                       : CBL 3' Amplitude
GR.GAPI                       : Gamma Ray
~Parameter Information Block
~A  Depth       CCL         TT3         AMP3         GR     
# ...
  1563.5000      0.0000    679.9230      8.6933     27.0939
  1563.7500      0.0000    634.1210      8.7298     25.1047
  1564.0000      0.0000    568.5044      8.7505     24.3515
  1564.2500      0.0000    499.3634      8.7669     25.4657
  1564.5000      0.0000    453.0736      8.7831     28.8798
  1564.7500      0.0000    450.7854      8.7926     34.4116
  1565.0000      0.0000    493.9727      8.7835     41.2168
  1565.2500      0.0000    563.1881      8.7459     48.5767
  1565.5000      0.0000    631.3333      8.6760     56.8291
  1565.7500      0.0000    680.0498      8.5786     67.1041
  1566.0000      0.0000    705.8802      8.4725     79.9749
  1566.2500      0.0000    714.6036      8.3874     94.6286
  1566.5000      0.0000    712.8759      8.3411    109.2721
  1566.7500      0.0000    704.4226      8.3163    122.0481
  1567.0000      0.0000    690.2480      8.2703    131.8099
  1567.2500      0.0000    670.3126      8.1651    138.5738
  1567.5000      0.0000    646.5712      7.9802    143.2404
  1567.7500      0.0000    625.9973      7.7055    146.7489
  1568.0000      0.0000    618.4227      7.3484    149.6207
  1568.2500      0.0000    628.3732      6.9586    151.8257
  1568.5000      0.0000    650.0483      6.6303    152.1470
  1568.7500      0.0000    672.6174      6.4571    148.2412
  1569.0000      0.0000    689.2048      6.4768    138.7702
  1569.2500      0.0000    699.3623      6.6605    125.3050
  1569.5000      0.0000    705.3921      6.9469    111.2616
  1569.7500      0.0000    709.1311      7.2720     99.4876
  1570.0000      0.0000    711.4092      7.5688     91.4979
  1570.2500      0.0000    712.2411      7.7628     88.0511
  1570.5000      0.0000    710.9553      7.7922     89.0530
  1570.7500      0.0000    706.8936      7.6442     92.8627
  1571.0000      0.0000    700.3713      7.3789     96.5792
  1571.2500      0.0000    692.7974      7.1154     97.5991
  1571.5000      0.0000    685.4510      6.9780     95.1679
  1571.7500      0.0000    677.8462      7.0344     91.0944
  1572.0000      0.0000    667.8627      7.2698     89.2291
  1572.2500      0.0000    654.9318      7.6012     93.1006
  1572.5000      0.0000    643.6282      7.9079    102.7930
  1572.7500      0.0000    641.8666      8.0728    114.5179
  1573.0000      0.0000    653.1051      8.0331    123.9660
  1573.2500      0.0000    671.4856      7.8100    129.6085
  1573.5000      0.0000    686.7667      7.4917    132.4327
  1573.7500      0.0000    693.0176      7.1909    133.7274
  1574.0000      0.0000    691.3801      7.0027    134.1981
  1574.2500      0.0000    686.3459      6.9742    134.4478
  1574.5000      0.0000    681.4374      7.0892    135.0819
  1574.7500      0.0000    677.6322      7.2738    136.2969
  1575.0000      0.0000    673.5753      7.4196    137.9273
  1575.2500      0.0000    665.8094      7.4207    139.8272
  1575.5000      0.0000    649.6044      7.2224    141.7446
  1575.7500      0.0000    622.3619      6.8597    142.9388
  1576.0000      0.0000    588.5485      6.4469    142.4429
  1576.2500      0.0000    559.1284      6.1085    139.9449
  1576.5000      0.0000    541.5640      5.9074    136.4918
  1576.7500      0.0000    530.7432      5.8324    134.2717
  1577.0000      0.0000    514.7749      5.8348    135.1006
  1577.2500      0.0000    490.3620      5.8665    138.6962
  1577.5000      0.0000    467.3711      5.8976    142.6651
  1577.7500      0.0000    456.6233      5.9235    144.5122
  1578.0000      0.0000    457.0496      5.9636    143.6097
  1578.2500      0.0000    457.4144      6.0456    141.3039
  1578.5000      0.0000    448.8533      6.1829    139.4444
  1578.7500      0.0000    432.7694      6.3640    138.9741
  1579.0000      0.0000    416.7610      6.5623    139.7797
  1579.2500      0.0000    406.4033      6.7518    141.4504
  1579.5000      0.0000    402.6995      6.9089    143.7909
  1579.7500      0.0000    405.1920      7.0013    146.7115
  1580.0000      0.0000    414.9205      6.9866    149.8328
  1580.2500      0.0000    433.8122      6.8378    151.9847
  1580.5000      0.0000    461.4955      6.5809    151.2778
  1580.7500      0.0000    493.3854      6.2994    146.6516
  1581.0000      0.0000    522.9652      6.0890    139.7422
  1581.2500      0.0000    546.6365      6.0013    134.3801
  1581.5000      0.0000    565.8549      6.0278    133.5487
  1581.7500      0.0000    584.5247      6.1239    137.1964
  1582.0000      0.0000    604.6438      6.2404    143.1326
  1582.2500      0.0000    624.3730      6.3418    149.2438
  1582.5000      0.0000    639.4761      6.4110    154.2288
  1582.7500      0.0000    645.9370      6.4482    157.0327
  1583.0000      0.0000    641.7136      6.4631    157.0752
  1583.2500      0.0000    627.4614      6.4657    155.3081
  1583.5000      0.0000    606.4705      6.4676    153.8232
  1583.7500      0.0000    583.4791      6.4875    153.7934
  1584.0000      0.0000    562.6552      6.5451    154.6301
  1584.2500      0.0000    546.2699      6.6383    155.5037
  1584.5000      0.0000    534.8451      6.7245    156.5642
  1584.7500      0.0000    527.9316      6.7366    158.0428
  1585.0000      0.0000    524.7622      6.6352    159.2246
  1585.2500      0.0000    524.8947      6.4563    159.4374
  1585.5000      0.0000    528.6926      6.3020    159.4045
  1585.7500      0.0000    537.6026      6.2696    160.3251
  1586.0000      0.0000    554.0129      6.3839    161.8558
  1586.2500      0.0000    579.9329      6.5848    162.0714
  1586.5000      0.0000    614.0376      6.7685    159.4447
  1586.7500      0.0000    649.7170      6.8461    154.2503
  1587.0000      0.0000    677.7566      6.7903    148.1496
  1587.2500      0.0000    692.2653      6.6499    142.7721
  1587.5000      0.0000    693.9064      6.5148    138.4786
  1587.7500      0.0000    687.6252      6.4520    134.2142
  1588.0000      0.0000    678.0285      6.4655    128.6180
  1588.2500      0.0000    666.6835      6.5083    121.2579
  1588.5000      0.0000    652.8837      6.5281    112.7044
  1588.7500      0.0000    637.0178      6.5083    103.7698
  1589.0000      0.0000    623.3810      6.4827     95.1256
  1589.2500      0.0000    618.5877      6.5140     87.5459
  1589.5000      0.0000    626.0391      6.6464     82.1634
  1589.7500      0.0000    642.2441      6.8654     80.4195
  1590.0000      0.0000    658.9188      7.0972     83.5808
  1590.2500      0.0000    668.1145      7.2510     91.7290
  1590.5000      0.0000    665.8012      7.2736    103.0649
  1590.7500      0.0000    652.8709      7.1714    114.5813
  1591.0000      0.0000    633.9983      6.9951    123.9451
  1591.2500      0.0000    614.3021      6.8075    130.9770
  1591.5000      0.0000    596.3521      6.6575    137.3992
  1591.7500      0.0000    581.0379      6.5631    145.0990
  1592.0000      0.0000    570.3514      6.5078    154.4468
  1592.2500      0.0000    567.2937      6.4542    163.9267
  1592.5000      0.0000    573.0602      6.3688    171.1362
  1592.7500      0.0000    585.4581      6.2411    174.4246
  1593.0000      0.0000    600.1800      6.0868    173.8749
  1593.2500      0.0000    613.5674      5.9377    170.7254
  1593.5000      0.0000    624.7960      5.8345    166.2691
  1593.7500      0.0000    635.7957      5.8197    161.8290
  1594.0000      0.0000    648.8088      5.9251    159.0508
  1594.2500      0.0000    664.0195      6.1536    158.9999
  1594.5000      0.0000    679.4676      6.4707    161.0120
  1594.7500      0.0000    692.4161      6.8182    163.1662
  1595.0000      0.0000    700.5465      7.1419    164.0209
  1595.2500      0.0000    702.9402      7.4097    163.6395
  1595.5000      0.0000    700.5272      7.6081    163.1177
  1595.7500      0.0000    694.6729      7.7289    163.3656
  1596.0000      0.0000    684.9487      7.7608    164.3662
  1596.2500      0.0000    669.9299      7.6841    165.4793
  1596.5000      0.0000    651.2624      7.4621    165.9588
  1596.7500      0.0000    635.1716      7.0489    164.7678
