~Version Information
VERS.                      2.0: CWLS Log ASCII Standard - VERSION 2.0
WRAP.                       NO: One line per depth step
~Well Information Block
STRT.FT               557.0000: 
STOP.FT              2136.0000: 
STEP.FT                 0.2500: 
NULL.                -999.2500: 
COMP.          Petrogulf Corporation: COMPANY
WELL.           Montoya 12-41R: WELL
FLD.           Purgatorie River: FIELD
LOC.           1086' FNL & 610' FEL: LOCATION
CNTY.               Las Animas: COUNTY
SRVC.                         : SERVICE COMPANY
DATE.          Thu Nov 18 06:03:03 2004: LOG DATE
UWI.           05 071 08241 00: UNIQUE WELL ID
STAT.                 Colorado: STATE
~Curve Information Block
DEPT.FT            0 000 00 00: Depth
SP.mV                         : DIL Spontaneous Potential
RILD.Ohm-m                    : DIL Deep Resistivity
RILM.Ohm-m                    : DIL Medium Resistivity
RLL3.Ohm-m                    : DIL Shallow Resistivity
GR.GAPI                       : Gamma Ray
~Parameter Information Block
~A  Depth        SP         RILD        RILM        RLL3         GR     
# ...
  1201.0000   -156.7553     43.5798     49.9792     98.8867     80.3981
  1201.2500   -156.0543     43.3509     50.8060    100.9724     78.7871
  1201.5000   -154.8029     43.2631     51.6959    101.5276     77.1709
  1201.7500   -153.1818     43.3791     52.6012    100.5355     77.2935
  1202.0000   -151.4150     43.7272     53.4538     98.2657     80.2152
  1202.2500   -149.7306     44.3019     54.1797     95.1997     83.7152
  1202.5000   -148.3177     45.0688     54.7160     91.8960     89.2355
  1202.7500   -147.3010     45.9712     55.0278     88.8496     91.6833
  1203.0000   -146.7155     46.9420     55.1160     86.3983     92.3470
  1203.2500   -146.5025     47.9130     55.0143     84.6952     91.1044
  1203.5000   -146.5233     48.8207     54.7778     83.7354     88.0847
  1203.7500   -146.5939     49.6095     54.4669     83.4027     85.8989
  1204.0000   -146.5336     50.2330     54.1335     83.5086     82.6019
  1204.2500   -146.2136     50.6506     53.8092     83.8177     80.4009
  1204.5000   -145.5901     50.8352     53.5064     84.0670     77.5603
  1204.7500   -144.7139     50.7766     53.2201     83.9979     76.3680
  1205.0000   -143.7131     50.4887     52.9384     83.4108     75.8099
  1205.2500   -142.7503     50.0092     52.6514     82.2315     76.1519
  1205.5000   -141.9806     49.3920     52.3565     80.5644     78.1311
  1205.7500   -141.5048     48.6950     52.0649     78.7071     80.9894
  1206.0000   -141.3540     47.9636     51.7932     77.1032     87.5964
  1206.2500   -141.4861     47.2220     51.5646     76.2378     92.3304
  1206.5000   -141.8075     46.4737     51.3957     76.5001     96.6162
  1206.7500   -142.2067     45.7063     51.2952     78.0543     96.2046
  1207.0000   -142.5849     44.9086     51.2591     80.7638     90.7863
  1207.2500   -142.8780     44.0838     51.2740     84.1933     85.2711
  1207.5000   -143.0654     43.2579     51.3219     87.6914     76.8037
  1207.7500   -143.1588     42.4809     51.3831     90.5278     72.0637
  1208.0000   -143.1888     41.8173     51.4492     92.0500     66.9475
  1208.2500   -143.1881     41.3356     51.5185     91.8238     64.8860
  1208.5000   -143.1863     41.0947     51.5978     89.7332     63.8077
  1208.7500   -143.2093     41.1368     51.7004     86.0242     64.5295
  1209.0000   -143.2886     41.4831     51.8382     81.2876     68.1057
  1209.2500   -143.4563     42.1306     52.0186     76.3784     72.2519
  1209.5000   -143.7374     43.0560     52.2434     72.2777     80.3847
  1209.7500   -144.1352     44.2157     52.5067     69.9153     85.8792
  1210.0000   -144.6132     45.5515     52.7974     69.9854     91.5011
  1210.2500   -145.0896     46.9941     53.1016     72.8000     92.3902
  1210.5000   -145.4463     48.4744     53.4041     78.2161     89.3880
  1210.7500   -145.5529     49.9288     53.6959     85.6573     85.3186
  1211.0000   -145.2971     51.3013     53.9748     94.2205     77.8584
  1211.2500   -144.6191     52.5434     54.2490    102.8414     72.8419
  1211.5000   -143.5297     53.6121     54.5385    110.4808     66.3098
  1211.7500   -142.1101     54.4659     54.8724    116.2972     62.9343
  1212.0000   -140.4978     55.0647     55.2818    119.7763     59.3623
  1212.2500   -138.8583     55.3746     55.7952    120.7948     57.8442
  1212.5000   -137.3579     55.3773     56.4265    119.6088     56.6686
  1212.7500   -136.1335     55.0825     57.1681    116.7699     56.5073
  1213.0000   -135.2770     54.5260     57.9861    112.9889     56.8819
  1213.2500   -134.8194     53.7691     58.8216    108.9848     57.3217
  1213.5000   -134.7268     52.8878     59.5975    105.3564     58.0090
  1213.7500   -134.9063     51.9561     60.2335    102.5069     58.3923
  1214.0000   -135.2263     51.0356     60.6642    100.6268     58.5901
  1214.2500   -135.5413     50.1708     60.8579     99.7214     58.2730
  1214.5000   -135.7327     49.3870     60.8200     99.6601     57.1395
  1214.7500   -135.7410     48.6952     60.6008    100.2288     56.2966
  1215.0000   -135.5822     48.0947     60.2767    101.1758     55.6776
  1215.2500   -135.3411     47.5808     59.9441    102.2520     55.8811
  1215.5000   -135.1383     47.1423     59.6978    103.2482     56.7750
  1215.7500   -135.0848     46.7654     59.6217    104.0303     57.4010
  1216.0000   -135.2408     46.4338     59.7837    104.5650     58.0257
  1216.2500   -135.5953     46.1267     60.2214    104.9258     58.3239
  1216.5000   -136.0723     45.8260     60.9395    105.2672     59.0300
  1216.7500   -136.5672     45.5207     61.9024    105.7660     59.7927
  1217.0000   -136.9859     45.2112     63.0293    106.5437     61.0565
  1217.2500   -137.2807     44.9090     64.1913    107.5904     61.6114
  1217.5000   -137.4630     44.6350     65.2236    108.7182     61.4880
  1217.7500   -137.5930     44.4165     65.9465    109.5649     60.7096
  1218.0000   -137.7471     44.2786     66.1959    109.6533     59.0450
  1218.2500   -137.9836     44.2418     65.8645    108.4931     58.2648
  1218.5000   -138.3188     44.3196     64.9366    105.7034     58.8071
  1218.7500   -138.7196     44.5149     63.4939    101.1223     60.7911
  1219.0000   -139.1194     44.8223     61.6984     94.8778     66.4977
  1219.2500   -139.4385     45.2229     59.7622     87.4000     72.0500
  1219.5000   -139.6114     45.6826     57.8988     79.3696     82.3615
  1219.7500   -139.6013     46.1468     56.2921     71.6093     89.7621
  1220.0000   -139.4079     46.5371     55.0714     64.9410     99.7636
  1220.2500   -139.0629     46.7566     54.3083     60.0395    104.7202
  1220.5000   -138.6213     46.7027     54.0010     57.3150    108.7837
  1220.7500   -138.1528     46.2880     54.0742     56.8472    109.2201
  1221.0000   -137.7316     45.4666     54.3654     58.3830    106.7119
  1221.2500   -137.4268     44.2486     54.6258     61.3944    103.1676
  1221.5000   -137.2916     42.6993     54.5419     65.1771     95.8281
  1221.7500   -137.3499     40.9201     53.8013     68.9641     90.3415
  1222.0000   -137.5861     39.0234     52.1944     72.0290     82.8169
  1222.2500   -137.9383     37.1100     49.7046     73.7641     79.0425
  1222.5000   -138.3081     35.2528     46.5232     73.7365     75.6184
  1222.7500   -138.5770     33.4971     42.9736     71.7295     74.5186
  1223.0000   -138.6380     31.8628     39.3922     67.7726     74.2183
  1223.2500   -138.4209     30.3521     36.0416     62.1500     75.2519
  1223.5000   -137.9134     28.9566     33.0786     55.3724     79.9822
  1223.7500   -137.1636     27.6643     30.5684     48.1006     85.8225
  1224.0000   -136.2598     26.4642     28.5131     41.0294     98.2884
  1224.2500   -135.3040     25.3503     26.8794     34.7610    108.1162
  1224.5000   -134.3870     24.3210     25.6168     29.7123    122.8335
  1224.7500   -133.5747     23.3800     24.6685     26.0804    131.2837
  1225.0000   -132.9028     22.5322     23.9760     23.8695    139.9758
  1225.2500   -132.3945     21.7818     23.4798     22.9527    142.3244
  1225.5000   -132.0717     21.1295     23.1201     23.1316    140.4483
  1225.7500   -131.9658     20.5712     22.8369     24.1696    136.3725
  1226.0000   -132.1163     20.0975     22.5715     25.7944    128.4175
  1226.2500   -132.5605     19.6956     22.2714     27.6923    123.2347
  1226.5000   -133.3175     19.3499     21.8949     29.5161    117.0176
  1226.7500   -134.3671     19.0455     21.4179     30.9204    114.2088
  1227.0000   -135.6368     18.7690     20.8364     31.6213    112.1031
  1227.2500   -137.0002     18.5100     20.1671     31.4572    112.0445
  1227.5000   -138.2873     18.2614     19.4421     30.4238    113.6233
  1227.7500   -139.3117     18.0184     18.7011     28.6693    115.4854
  1228.0000   -139.9105     17.7776     17.9841     26.4497    119.0830
  1228.2500   -139.9821     17.5364     17.3249     24.0635    121.9219
  1228.5000   -139.5163     17.2922     16.7480     21.7854    126.8246
  1228.7500   -138.6010     17.0424     16.2674     19.8210    130.4242
