~Version Information
VERS.                      2.0: CWLS Log ASCII Standard - VERSION 2.0
WRAP.                       NO: One line per depth step
~Well Information Block
STRT.FT                -7.7500: 
STOP.FT              2394.2500: 
STEP.FT                 0.2500: 
NULL.                -999.2500: 
COMP.      PIONEER NATURAL RESOURCES  : COMPANY
WELL.         NOMAD 32-10  : WELL
FLD.                          : FIELD
LOC.      SWNE 10 32S 66W 6PM : LOCATION
PROV.                         : PROVINCE
CNTY.                         : COUNTRY
SRVC.                         : SERVICE COMPANY
DATE.          Thu Aug 26 13:45:47 2004: LOG DATE
UWI.      005 071 08127  : UNIQUE WELL ID
~Curve Information Block
DEPT.FT            0 000 00 00: Depth
CCL.                          : Casing Collar Locator
TT3.usec                      : CBL 3' Travel Time
AMP3.mV                       : CBL 3' Amplitude
GR.GAPI                       : Gamma Ray
~Parameter Information Block
~A  Depth       CCL         TT3         AMP3         GR     
# ...
  1566.7500      0.0000    460.8993      3.6609    134.9929
  1567.0000      0.0000    464.8581      3.3797    134.9967
  1567.2500      0.0000    475.0542      3.1387    133.8521
  1567.5000      0.0000    495.6848      2.9814    130.9044
  1567.7500      0.0000    529.4116      2.9402    126.1311
  1568.0000      0.0000    574.0458      3.0272    120.0774
  1568.2500      0.0000    621.6656      3.2226    113.1218
  1568.5000      0.0000    662.6509      3.4762    105.1412
  1568.7500      0.0000    691.7363      3.7248     96.0600
  1569.0000      0.0000    710.0837      3.9274     86.7847
  1569.2500      0.0000    721.8913      4.0946     79.5097
  1569.5000      0.0000    729.9413      4.2686     76.8038
  1569.7500      0.0000    734.4076      4.4621     79.9573
  1570.0000      0.0000    734.8298      4.6421     88.1373
  1570.2500      0.0000    732.1823      4.7798     99.3220
  1570.5000      0.0000    728.9329      4.8773    111.7699
  1570.7500      0.0000    727.6369      4.9324    124.2537
  1571.0000      0.0000    729.4330      4.9205    135.3678
  1571.2500      0.0000    733.3145      4.8330    143.5352
  1571.5000      0.0000    736.7487      4.7086    147.8818
  1571.7500      0.0000    737.6946      4.6063    149.0015
  1572.0000      0.0000    736.4828      4.5516    148.9109
  1572.2500      0.0000    735.4876      4.5137    149.8864
  1572.5000      0.0000    736.8855      4.4463    152.7879
  1572.7500      0.0000    741.0577      4.3567    156.4324
  1573.0000      0.0000    746.9530      4.3105    158.5886
  1573.2500      0.0000    753.0818      4.3452    157.5348
  1573.5000      0.0000    757.8102      4.4038    153.0380
  1573.7500      0.0000    759.7695      4.3892    146.4864
  1574.0000      0.0000    759.0380      4.2795    140.1931
  1574.2500      0.0000    757.5694      4.1586    136.2041
  1574.5000      0.0000    757.4305      4.1290    135.4063
  1574.7500      0.0000    758.4820      4.2128    137.2469
  1575.0000      0.0000    758.5289      4.3369    139.6993
  1575.2500      0.0000    755.8633      4.4048    140.0102
  1575.5000      0.0000    750.8762      4.3766    136.6758
  1575.7500      0.0000    744.8571      4.2754    130.8397
  1576.0000      0.0000    738.0807      4.1291    124.9640
  1576.2500      0.0000    729.8622      3.9469    120.2415
  1576.5000      0.0000    719.9379      3.7628    116.0650
  1576.7500      0.0000    708.9013      3.6559    111.8504
  1577.0000      0.0000    697.6959      3.6917    108.6039
  1577.2500      0.0000    687.3503      3.8507    108.5447
  1577.5000      0.0000    678.8434      4.0322    113.2141
  1577.7500      0.0000    672.5326      4.1168    121.7635
  1578.0000      0.0000    667.4849      4.0249    131.1037
  1578.2500      0.0000    661.1904      3.7466    137.9376
  1578.5000      0.0000    649.9144      3.3611    140.6781
  1578.7500      0.0000    630.3508      3.0180    139.6483
  1579.0000      0.0000    602.6266      2.8501    136.1669
  1579.2500      0.0000    572.2334      2.8739    131.8944
  1579.5000      0.0000    548.0565      2.9942    128.5673
  1579.7500      0.0000    537.4710      3.1146    127.4044
  1580.0000      0.0000    542.2368      3.2123    128.2236
  1580.2500      0.0000    557.5283      3.2955    129.4278
  1580.5000      0.0000    574.8052      3.3362    129.5278
  1580.7500      0.0000    587.3674      3.2936    128.6848
  1581.0000      0.0000    593.8942      3.1861    128.2952
  1581.2500      0.0000    596.6403      3.0950    129.3059
  1581.5000      0.0000    597.8824      3.0866    131.5016
  1581.7500      0.0000    598.9174      3.1461    134.1618
  1582.0000      0.0000    600.5431      3.1925    136.8608
  1582.2500      0.0000    603.4044      3.1570    139.8008
  1582.5000      0.0000    608.2365      3.0450    143.7965
  1582.7500      0.0000    615.0731      2.9296    149.7574
  1583.0000      0.0000    622.3765      2.8847    157.6580
  1583.2500      0.0000    628.2363      2.9218    166.0730
  1583.5000      0.0000    632.0199      2.9940    173.4596
  1583.7500      0.0000    634.0099      3.0527    180.1832
  1584.0000      0.0000    634.3442      3.0787    188.4602
  1584.2500      0.0000    633.3253      3.0603    199.3456
  1584.5000      0.0000    632.4092      2.9824    209.9000
  1584.7500      0.0000    633.8338      2.8602    214.3724
  1585.0000      0.0000    638.5763      2.7489    208.8717
  1585.2500      0.0000    644.6294      2.6895    194.7833
  1585.5000      0.0000    646.9243      2.6604    177.6208
  1585.7500      0.0000    638.5995      2.6055    162.9828
  1586.0000      0.0000    613.8084      2.5103    153.5199
  1586.2500      0.0000    572.1272      2.4331    148.7747
  1586.5000      0.0000    521.2181      2.4508    146.9580
  1586.7500      0.0000    473.4211      2.5784    146.6894
  1587.0000      0.0000    438.1367      2.7423    147.3536
  1587.2500      0.0000    417.2385      2.8264    148.0484
  1587.5000      0.0000    406.9329      2.7539    146.8042
  1587.7500      0.0000    402.3520      2.5545    141.8787
  1588.0000      0.0000    400.2922      2.3543    134.1314
  1588.2500      0.0000    399.3208      2.2702    127.1237
  1588.5000      0.0000    398.8889      2.3159    123.9180
  1588.7500      0.0000    398.6942      2.4309    124.0398
  1589.0000      0.0000    398.5158      2.5792    124.3266
  1589.2500      0.0000    398.2814      2.7711    122.5324
  1589.5000      0.0000    398.0633      2.9956    119.2787
  1589.7500      0.0000    397.9385      3.1758    116.6780
  1590.0000      0.0000    397.8234      3.2091    116.0983
  1590.2500      0.0000    397.4895      3.0488    117.3436
  1590.5000      0.0000    396.8570      2.7570    119.0442
  1590.7500      0.0000    396.3996      2.4836    119.4076
  1591.0000      0.0000    397.3781      2.3738    117.0640
  1591.2500      0.0000    401.7253      2.4778    111.7553
  1591.5000      0.0000    411.7745      2.7313    104.5595
  1591.7500      0.0000    430.0842      3.0091     97.4721
  1592.0000      0.0000    458.8160      3.2057     92.2627
  1592.2500      0.0000    497.9330      3.2875     89.0706
  1592.5000      0.0000    543.4565      3.2744     85.9960
  1592.7500      0.0000    588.4818      3.1769     80.4609
  1593.0000      0.0000    626.8999      2.9799     71.4481
  1593.2500      0.0000    656.3289      2.7032     60.5571
  1593.5000      0.0000    678.0150      2.4495     50.7279
  1593.7500      0.0000    694.6437      2.3574     43.8941
  1594.0000      0.0000    707.9451      2.4948     40.0453
  1594.2500      0.0000    717.5567      2.8019     38.4469
  1594.5000     -2.0000    721.9125      3.1294     39.1985
  1594.7500     -2.0000    720.2737      3.3317     43.2173
  1595.0000      0.0000    713.7289      3.3461     51.0637
  1595.2500      0.0000    704.3795      3.2189     62.2881
  1595.5000      0.0000    694.3163      3.0627     75.5802
  1595.7500      0.0000    685.4102      2.9650     89.0604
  1596.0000      0.0000    678.9264      2.9220    100.8127
  1596.2500      0.0000    674.4639      2.8605    109.8417
  1596.5000      0.0000    669.3285      2.7131    116.4743
  1596.7500      0.0000    659.1729      2.4746    121.6366
  1597.0000      0.0000    639.9492      2.2213    125.8900
  1597.2500      0.0000    610.7754      2.0791    129.1493
  1597.5000      0.0000    575.9739      2.1394    131.1847
  1597.7500      0.0000    543.7185      2.3839    132.4912
  1598.0000      0.0000    521.8281      2.6964    134.3714
  1598.2500      0.0000    513.8939      2.9523    137.5777
  1598.5000      0.0000    517.3954      3.0987    141.0292
  1598.7500      0.0000    524.5526      3.1537    142.5377
  1599.0000      0.0000    527.8236      3.1478    140.9212
  1599.2500      0.0000    526.9174      3.0878    137.1554
  1599.5000      0.0000    528.2036      2.9895    133.4952
  1599.7500      0.0000    535.4454      2.9076    131.5997
  1600.0000      0.0000    544.5320      2.8931    131.2680
