~Version Information
VERS.                      2.0: CWLS Log ASCII Standard - VERSION 2.0
WRAP.                       NO: One line per depth step
~Well Information Block
STRT.FT                -8.5000: 
STOP.FT              2286.0000: 
STEP.FT                 0.2500: 
NULL.                -999.2500: 
COMP.          Pioneer Natural Resources: COMPANY
WELL.             Culver 14-12: WELL
FLD.           Purgatorie River: FIELD
LOC.           913' FSL & 1140' FWL--: LOCATION
PROV.                       CO: PROVINCE
CNTY.               Las Animas: COUNTRY
SRVC.          Patterson Wireline: SERVICE COMPANY
DATE.          Wed Jun 15 13:05:36 2005: LOG DATE
UWI.           05 071 08386 00: UNIQUE WELL ID
~Curve Information Block
DEPT.FT            0 000 00 00: Depth
CCL.                          : Casing Collar Locator
TT3.usec                      : CBL 3' Travel Time
AMP3.mV                       : CBL 3' Amplitude
GR.GAPI                       : Gamma Ray
~Parameter Information Block
~A  Depth       CCL         TT3         AMP3         GR     
# ...
  1968.0000      0.0000    843.8168      3.1204     88.0989
  1968.2500      0.0000    834.9315      3.1550     88.3365
  1968.5000      0.0000    825.7267      3.2181     88.3616
  1968.7500      0.0000    817.2181      3.2936     88.0719
  1969.0000      0.0000    808.9333      3.3400     86.9944
  1969.2500      0.0000    800.4357      3.3179     84.7202
  1969.5000      0.0000    791.4595      3.2344     81.4915
  1969.7500      0.0000    781.3976      3.1428     78.5716
  1970.0000      0.0000    769.9073      3.0975     77.7849
  1970.2500      0.0000    758.0815      3.1220     80.1793
  1970.5000      0.0000    748.3969      3.2060     84.9936
  1970.7500      0.0000    742.6749      3.3135     90.1261
  1971.0000      0.0000    739.3672      3.4006     93.6115
  1971.2500      0.0000    733.3976      3.4338     94.6267
  1971.5000      0.0000    720.2982      3.4033     93.4328
  1971.7500      0.0000    700.7589      3.3309     90.8229
  1972.0000      0.0000    680.0323      3.2687     87.6169
  1972.2500      0.0000    663.0783      3.2660     84.2731
  1972.5000      0.0000    651.4792      3.3235     80.7524
  1972.7500      0.0000    644.5915      3.3927     76.8128
  1973.0000      0.0000    641.6870      3.4329     72.3806
  1973.2500      0.0000    642.2936      3.4542     67.6110
  1973.5000      0.0000    645.5462      3.4913     62.9220
  1973.7500      0.0000    650.1415      3.5480     59.1800
  1974.0000      0.0000    654.6699      3.5936     57.4241
  1974.2500      0.0000    657.6821      3.6079     57.9398
  1974.5000      0.0000    657.8095      3.6071     59.7585
  1974.7500      0.0000    654.2810      3.6222     61.4399
  1975.0000      0.0000    647.5529      3.6623     62.3452
  1975.2500      0.0000    639.3931      3.7092     63.1217
  1975.5000      0.0000    632.0680      3.7423     65.0484
  1975.7500      0.0000    627.1075      3.7585     68.7414
  1976.0000      0.0000    624.7523      3.7639     73.2526
  1976.2500      0.0000    624.4743      3.7517     76.6326
  1976.5000      0.0000    625.9007      3.7010     77.5781
  1976.7500      0.0000    629.2715      3.6033     76.3079
  1977.0000      0.0000    635.0504      3.4841     73.8342
  1977.2500      0.0000    642.8918      3.3862     70.9906
  1977.5000      0.0000    650.8857      3.3319     68.3881
  1977.7500      0.0000    656.1054      3.3137     66.6556
  1978.0000      0.0000    656.2418      3.3175     66.1848
  1978.2500      0.0000    650.9007      3.3424     66.8741
  1978.5000      0.0000    641.4422      3.3903     68.3638
  1978.7500      0.0000    629.8563      3.4454     70.2318
  1979.0000      0.0000    618.2197      3.4838     71.7869
  1979.2500      0.0000    609.1127      3.4982     72.1113
  1979.5000      0.0000    605.2437      3.5015     70.7174
  1979.7500      0.0000    607.4301      3.5004     68.1200
  1980.0000      0.0000    613.4055      3.4803     65.6144
  1980.2500      0.0000    619.5745      3.4264     64.4020
  1980.5000      0.0000    623.7330      3.3526     64.7641
  1980.7500      0.0000    625.7966      3.2925     65.9012
  1981.0000      0.0000    626.6984      3.2695     66.4775
  1981.2500      0.0000    627.3450      3.2868     65.4239
  1981.5000      0.0000    628.4158      3.3423     62.5202
  1981.7500      0.0000    630.5079      3.4281     58.4364
  1982.0000      0.0000    634.0435      3.5132     54.2337
  1982.2500      0.0000    638.9888      3.5556     50.8838
  1982.5000      0.0000    644.8284      3.5364     49.1101
  1982.7500      0.0000    650.8950      3.4714     49.2706
  1983.0000      0.0000    656.5634      3.3923     51.2045
  1983.2500      0.0000    661.1063      3.3264     54.2883
  1983.5000      0.0000    663.6160      3.2926     57.6050
  1983.7500      0.0000    663.0850      3.2965     60.0879
  1984.0000      0.0000    658.7620      3.3295     60.9295
  1984.2500      0.0000    651.1606      3.3768     60.2060
  1984.5000      0.0000    642.8904      3.4247     59.0368
  1984.7500      0.0000    637.0378      3.4638     58.9138
  1985.0000      0.0000    633.4703      3.4957     60.6845
  1985.2500      0.0000    628.1126      3.5259     64.0252
  1985.5000      0.0000    617.6113      3.5492     67.8632
  1985.7500      0.0000    603.3969      3.5508     71.2202
  1986.0000      0.0000    589.3714      3.5190     73.4985
  1986.2500      0.0000    577.3382      3.4519     74.3082
  1986.5000      0.0000    567.2895      3.3642     73.6234
  1986.7500      0.0000    560.6159      3.2881     72.0191
  1987.0000      0.0000    559.7145      3.2576     70.1281
  1987.2500      0.0000    564.6847      3.2884     67.8940
  1987.5000      0.0000    573.1097      3.3646     64.8994
  1987.7500      0.0000    583.1606      3.4434     61.2793
  1988.0000      0.0000    594.6281      3.4820     57.6604
  1988.2500      0.0000    606.8721      3.4621     54.4353
  1988.5000      0.0000    618.5444      3.3972     51.9195
  1988.7500      0.0000    629.6516      3.3217     50.9852
  1989.0000      0.0000    641.3630      3.2673     52.4117
  1989.2500      0.0000    653.6759      3.2477     55.4356
  1989.5000      0.0000    665.2202      3.2712     57.8872
  1989.7500      0.0000    675.0061      3.3439     58.1757
  1990.0000      0.0000    682.6531      3.4518     56.5806
  1990.2500      0.0000    687.3130      3.5621     54.2926
  1990.5000      0.0000    688.0427      3.6442     51.8631
  1990.7500      0.0000    685.4677      3.6750     49.2262
  1991.0000      0.0000    682.0310      3.6431     46.8380
  1991.2500      0.0000    680.0018      3.5658     46.0521
  1991.5000      0.0000    679.4217      3.4784     48.3481
  1991.7500      0.0000    678.0564      3.4029     54.3507
  1992.0000      0.0000    672.9462      3.3434     63.2664
  1992.2500      0.0000    661.8538      3.2984     73.0188
  1992.5000      0.0000    644.4549      3.2644     81.3607
  1992.7500      0.0000    623.9285      3.2485     87.3048
  1993.0000      0.0000    607.1490      3.2801     91.3612
  1993.2500      0.0000    600.9680      3.3759     94.5198
  1993.5000      0.0000    607.0866      3.5037     97.4697
  1993.7500      0.0000    621.1292      3.6078    100.5626
  1994.0000      0.0000    636.3363      3.6549    103.7231
  1994.2500      0.0000    646.9721      3.6420    106.1629
  1994.5000      0.0000    649.2451      3.5936    106.7309
  1994.7500      0.0000    642.2726      3.5612    105.0089
  1995.0000      0.0000    630.1276      3.5876    102.0446
  1995.2500      0.0000    621.5258      3.6625     99.7193
  1995.5000      0.0000    624.2508      3.7347     99.1503
  1995.7500      0.0000    638.3314      3.7579     99.6584
  1996.0000      0.0000    655.2758      3.7138     99.4341
  1996.2500      0.0000    664.3660      3.6191     97.2211
  1996.5000      0.0000    660.1231      3.5183     93.2534
  1996.7500      0.0000    645.8356      3.4455     88.7175
  1997.0000      0.0000    631.4938      3.3985     84.6914
  1997.2500      0.0000    626.7496      3.3640     81.6535
  1997.5000      0.0000    633.7784      3.3425     79.5418
  1997.7500      0.0000    646.8746      3.3339     78.0354
  1998.0000      0.0000    658.7077      3.3356     76.9961
  1998.2500      0.0000    665.8250      3.3605     76.7192
  1998.5000      0.0000    668.8571      3.4204     77.5419
  1998.7500      0.0000    669.9099      3.4923     79.1648
  1999.0000      0.0000    670.8539      3.5410     80.5147
  1999.2500      0.0000    673.1408      3.5607     80.3850
  1999.5000      0.0000    677.9008      3.5631     78.3480
  1999.7500      0.0000    685.6910      3.5543     75.0398
  2000.0000      0.0000    696.4300      3.5499     71.4363
  2000.2500      0.0000    709.8973      3.5724     67.8639
  2000.5000      0.0000    725.8185      3.6104     63.8150
  2000.7500      0.0000    742.4366      3.6232     58.6933
  2001.0000      0.0000    755.3427      3.6017     52.6719
  2001.2500      0.0000    759.3947      3.5758     46.8814
