~Version Information
VERS.                      2.0: CWLS Log ASCII Standard - VERSION 2.0
WRAP.                       NO: One line per depth step
~Well Information Block
STRT.FT               492.8000: 
STOP.FT              1992.0000: 
STEP.FT                 0.1000: 
NULL.                -999.2500: 
COMP.          Petrogulf Corporation: COMPANY
WELL.               Furu 6-23R: WELL
FLD.           Purgatoire River: FIELD
LOC.           2211' FSL & 1780' FWL--: LOCATION
CNTY.               Las Animas: COUNTY
SRVC.                Patterson: SERVICE COMPANY
DATE.          Thu Jun 22 14:21:35 2006: LOG DATE
UWI.           05 071 08266 00: UNIQUE WELL ID
STAT.                 Colorado: STATE
~Curve Information Block
DEPT.FT            0 000 00 00: Depth
DCAL.in                       : CDL Caliper
RHOB.g/cc                     : CDL Bulk Density
RHOC.g/cc                     : CDL Density Correction
DPOR.pu                       : CDL Density Porosity
NPOR.pu                       : Neutron Porosity
GR.GAPI                       : Gamma Ray
~Parameter Information Block
~A  Depth       DCAL        RHOB        RHOC        DPOR        NPOR         GR     
# ...
  1856.0000      8.1042      2.5588      0.0371      5.5249     22.5366     99.4989
  1856.1000      8.1042      2.5554      0.0655      5.7350     22.2610     92.8550
  1856.2000      8.1042      2.5515      0.0535      5.9685     22.2459     86.1051
  1856.3000      8.1014      2.5385      0.0488      6.7567     22.6577     82.6824
  1856.4000      8.1014      2.5236      0.0334      7.6619     23.0240     81.4605
  1856.5000      8.0986      2.5183      0.0447      7.9792     22.5152     77.5129
  1856.6000      8.0986      2.5208      0.0330      7.8318     21.3955     68.6039
  1856.7000      8.0986      2.5205      0.0366      7.8466     20.5201     60.1148
  1856.8000      8.0997      2.5158      0.0222      8.1324     19.9347     58.3115
  1856.9000      8.0997      2.5133      0.0314      8.2843     19.4054     59.9351
  1857.0000      8.1029      2.5129      0.0558      8.3119     19.0441     59.6182
  1857.1000      8.1029      2.5092      0.0296      8.5318     18.9611     58.5269
  1857.2000      8.1029      2.5083      0.0140      8.5870     19.1373     56.4582
  1857.3000      8.1035      2.5126      0.0750      8.3290     19.3907     51.7569
  1857.4000      8.1035      2.5173      0.0106      8.0425     19.6315     48.8366
  1857.5000      8.1028      2.5289      0.0256      7.3382     19.5354     50.2302
  1857.6000      8.1028      2.5517      0.0630      5.9552     18.9646     50.6617
  1857.7000      8.1028      2.5736      0.0930      4.6282     18.3454     47.0989
  1857.8000      8.1042      2.5812      0.0775      4.1672     17.9913     43.0843
  1857.9000      8.1042      2.5736      0.0982      4.6333     17.9126     42.4487
  1858.0000      8.1050      2.5597      0.0648      5.4714     18.0232     46.8161
  1858.1000      8.1050      2.5545      0.0619      5.7874     18.2218     52.3771
  1858.2000      8.1050      2.5606      0.0656      5.4170     18.5002     53.4849
  1858.3000      8.1039      2.5679      0.0579      4.9741     18.8487     52.2052
  1858.4000      8.1039      2.5694      0.0611      4.8875     19.0965     52.8585
  1858.5000      8.1017      2.5623      0.0533      5.3168     19.0437     54.2631
  1858.6000      8.1017      2.5481      0.0553      6.1782     18.6057     52.8801
  1858.7000      8.1017      2.5324      0.0368      7.1279     18.1643     48.1862
  1858.8000      8.0994      2.5237      0.0330      7.6557     18.3423     43.8439
  1858.9000      8.0994      2.5259      0.0559      7.5191     19.0219     43.1993
  1859.0000      8.0997      2.5348      0.0530      6.9831     19.6876     45.7916
  1859.1000      8.0997      2.5436      0.0674      6.4481     20.2596     51.6121
  1859.2000      8.0997      2.5472      0.0587      6.2333     20.4729     59.5102
  1859.3000      8.1027      2.5407      0.0795      6.6262     19.8274     64.4996
  1859.4000      8.1027      2.5230      0.0502      7.6951     18.8659     64.0963
  1859.5000      8.1061      2.5094      0.0223      8.5202     18.5590     58.7297
  1859.6000      8.1061      2.5152      0.0520      8.1683     18.8300     51.0736
  1859.7000      8.1061      2.5314      0.0408      7.1909     19.1744     46.5887
  1859.8000      8.1068      2.5433      0.0677      6.4691     19.6286     46.5935
  1859.9000      8.1068      2.5509      0.0775      6.0063     20.2165     47.5815
  1860.0000      8.1057      2.5587      0.0396      5.5346     20.8235     49.1988
  1860.1000      8.1057      2.5620      0.0601      5.3321     21.5200     55.0350
  1860.2000      8.1057      2.5532      0.0609      5.8642     22.0736     63.7810
  1860.3000      8.1041      2.5410      0.0313      6.6060     22.0512     69.1635
  1860.4000      8.1041      2.5365      0.0791      6.8796     21.6434     69.9113
  1860.5000      8.1028      2.5340      0.0574      7.0294     21.1930     68.5799
  1860.6000      8.1028      2.5340      0.0324      7.0320     20.8256     66.9916
  1860.7000      8.1028      2.5397      0.0419      6.6876     20.6319     66.7584
  1860.8000      8.1019      2.5384      0.0768      6.7623     20.4078     65.4458
  1860.9000      8.1019      2.5289      0.0269      7.3405     19.9431     60.8509
  1861.0000      8.1014      2.5263      0.0561      7.4964     19.4766     58.6878
  1861.1000      8.1014      2.5327      0.0590      7.1119     19.3405     62.5891
  1861.2000      8.1014      2.5416      0.0451      6.5675     19.4539     67.0014
  1861.3000      8.1008      2.5535      0.0666      5.8496     19.4111     66.7747
  1861.4000      8.1008      2.5676      0.0590      4.9958     19.3527     61.5494
  1861.5000      8.1000      2.5834      0.0677      4.0345     19.4396     54.6197
  1861.6000      8.1000      2.6017      0.0671      2.9294     19.0831     50.6272
  1861.7000      8.1000      2.6173      0.0681      1.9789     18.4560     51.2978
  1861.8000      8.0997      2.6192      0.1076      1.8647     18.7358     58.5979
  1861.9000      8.0997      2.6034      0.0813      2.8225     20.1756     69.6908
  1862.0000      8.1025      2.5851      0.0312      3.9324     21.6351     77.3983
  1862.1000      8.1025      2.5842      0.0344      3.9880     22.3025     81.6131
  1862.2000      8.1025      2.6011      0.0678      2.9622     22.4805     87.8520
  1862.3000      8.1113      2.6140      0.0891      2.1822     23.0346     99.2660
  1862.4000      8.1113      2.5979      0.0799      3.1574     24.4727    110.9251
  1862.5000      8.1231      2.5461      0.0497      6.2993     26.0027    116.9638
  1862.6000      8.1231      2.4726     -0.0004     10.7528     26.8748    119.2750
  1862.7000      8.1231      2.4041     -0.0668     14.9032     27.4394    123.1766
  1862.8000      8.1284      2.3622     -0.0788     17.4435     27.9037    129.0532
  1862.9000      8.1284      2.3422      0.0114     18.6531     28.2926    134.4525
  1863.0000      8.1275      2.3331     -0.0028     19.2058     28.8058    138.4186
  1863.1000      8.1275      2.3429      0.0256     18.6092     29.2805    140.5215
  1863.2000      8.1275      2.3713      0.0993     16.8928     29.3575    141.8118
  1863.3000      8.1257      2.4071      0.0913     14.7221     29.1198    141.4619
  1863.4000      8.1257      2.4521      0.1161     11.9928     28.8899    138.7345
  1863.5000      8.1263      2.5024      0.2571      8.9450     28.7547    137.5080
  1863.6000      8.1263      2.5428      0.2979      6.4952     28.7886    139.2234
  1863.7000      8.1263      2.5662      0.3190      5.0778     28.8339    141.5155
  1863.8000      8.1285      2.5715      0.3193      4.7559     28.7324    143.8739
  1863.9000      8.1285      2.5615      0.2600      5.3649     28.6941    147.9649
  1864.0000      8.1305      2.5435      0.1878      6.4568     28.8551    152.8119
  1864.1000      8.1305      2.5238      0.1211      7.6456     29.0417    154.8556
  1864.2000      8.1305      2.5056      0.0776      8.7514     28.9799    154.1260
  1864.3000      8.1315      2.4902      0.0422      9.6867     28.7325    152.5759
  1864.4000      8.1315      2.4787      0.0289     10.3815     28.7272    150.8389
  1864.5000      8.1301      2.4731      0.0209     10.7217     28.9474    151.3028
  1864.6000      8.1301      2.4748      0.0412     10.6153     29.0968    154.3954
  1864.7000      8.1301      2.4766      0.0715     10.5073     29.0580    157.9607
  1864.8000      8.1270      2.4742      0.0560     10.6541     28.9390    162.6703
  1864.9000      8.1270      2.4747      0.0517     10.6270     29.2432    166.9554
  1865.0000      8.1255      2.4800      0.0616     10.3007     29.9752    166.8928
  1865.1000      8.1255      2.4904      0.0322      9.6744     30.4016    162.9284
  1865.2000      8.1255      2.5042      0.0852      8.8389     30.3098    156.8050
  1865.3000      8.1266      2.5113      0.1152      8.4064     30.2317    150.9032
  1865.4000      8.1266      2.5090      0.1285      8.5463     30.3376    148.8204
  1865.5000      8.1285      2.4961      0.1219      9.3254     30.2952    147.3831
