~Version Information
VERS.                      2.0: CWLS Log ASCII Standard - VERSION 2.0
WRAP.                       NO: One line per depth step
~Well Information Block
STRT.FT                -4.7500: 
STOP.FT              1784.7500: 
STEP.FT                 0.2500: 
NULL.                -999.2500: 
COMP.          Pioneer Natural Resources: COMPANY
WELL.          Buckeye 11-13 Tr: WELL
FLD.           Purgatorie River: FIELD
LOC.           211' FNL & 1054' FWL--: LOCATION
STAT.                       CO: State
CNTY.               Las Animas: COUNTY
CTRY. USA : Country
SECT. 13 : Section
TOWN. 33S : Township
RANG. 67W : range
SRVC.          Patterson Wireline: SERVICE COMPANY
DATE.          Wed Mar 16 09:19:21 2005: LOG DATE
API.           05 071 08317 00: UNIQUE WELL ID
~Curve Information Block
DEPT.FT            0 000 00 00: Depth
CCL.                          : Casing Collar Locator
TT3.usec                      : CBL 3' Travel Time
AMP3.mV                       : CBL 3' Amplitude
GR.GAPI                       : Gamma Ray
~Parameter Information Block
~A  Depth       CCL         TT3         AMP3         GR     
# ...
   564.7500      0.0000    791.4774      7.1769     92.7481
   565.0000      0.0000    795.3948      7.2302     93.2737
   565.2500      0.0000    802.4755      7.2941     93.3653
   565.5000      0.0000    808.1462      7.3433     93.4447
   565.7500      0.0000    809.2717      7.3507     94.6897
   566.0000      0.0000    805.5699      7.3175     97.4472
   566.2500      0.0000    798.2715      7.2740    100.5542
   566.5000      0.0000    787.7294      7.2458    102.4107
   566.7500      0.0000    773.3455      7.2384    102.3051
   567.0000      0.0000    755.8142      7.2566    100.6980
   567.2500      0.0000    737.8156      7.3189     98.8101
   567.5000      0.0000    721.7831      7.4419     97.7861
   567.7500      0.0000    707.5865      7.6144     97.5899
   568.0000      0.0000    693.0510      7.7844     96.8558
   568.2500      0.0000    677.1459      7.8795     94.4239
   568.5000      0.0000    662.9799      7.8616     90.8084
   568.7500      0.0000    656.9978      7.7677     87.6294
   569.0000      0.0000    664.1110      7.6828     85.8052
   569.2500      0.0000    683.0084      7.6668     84.8722
   569.5000      0.0000    705.8000      7.7148     84.0550
   569.7500      0.0000    722.8262      7.7789     83.4406
   570.0000      0.0000    729.2178      7.8088     83.8331
   570.2500      0.0000    726.8062      7.7727     85.7812
   570.5000      0.0000    719.6046      7.6708     89.1335
   570.7500      0.0000    709.6729      7.5430     93.2525
   571.0000      0.0000    698.2691      7.4467     97.1438
   571.2500      0.0000    688.0917      7.4114     99.6560
   571.5000      0.0000    681.9860      7.4194    100.2352
   571.7500      0.0000    680.4434      7.4313     99.5358
   572.0000      0.0000    682.0427      7.4214     98.8116
   572.2500      0.0000    685.8267      7.3891     98.7224
   572.5000      0.0000    692.6299      7.3455     99.0951
   572.7500      0.0000    704.3674      7.2930     99.7200
   573.0000      0.0000    722.1945      7.2207    100.8577
   573.2500      0.0000    744.8298      7.1178    102.8032
   573.5000      0.0000    768.4481      6.9881    105.2026
   573.7500      0.0000    788.6357      6.8486    107.1273
   574.0000      0.0000    802.4116      6.7107    108.0999
   574.2500      0.0000    808.3638      6.5636    108.7862
   574.5000      0.0000    806.3916      6.3742    110.0163
   574.7500      0.0000    799.1170      6.1038    111.1077
   575.0000      0.0000    792.7545      5.7483    110.0491
   575.2500      0.0000    794.0400      5.3767    105.7382
   575.5000      0.0000    805.1885      5.1049     99.4623
   575.7500      0.0000    822.5621      5.0073     93.7786
   576.0000      0.0000    840.1140      5.0578     90.2172
   576.2500      0.0000    853.2162      5.1586     88.4115
   576.5000      0.0000    859.9386      5.2172     87.4644
   576.7500      0.0000    860.7009      5.2028     87.6196
   577.0000      0.0000    857.4894      5.1555     89.9566
   577.2500      0.0000    852.7048      5.1446     94.7213
   577.5000      0.0000    848.0023      5.2015    100.6587
   577.7500      0.0000    843.8707      5.2962    105.7914
   578.0000      0.0000    840.1265      5.3950    108.4262
   578.2500      0.0000    836.6138      5.5199    107.9467
   578.5000      0.0000    833.2709      5.7185    105.4624
   578.7500      0.0000    829.5796      5.9852    103.6125
   579.0000      0.0000    824.4398      6.2474    104.9234
   579.2500      0.0000    817.2638      6.4301    109.7701
   579.5000      0.0000    809.5281      6.5132    116.0513
   579.7500      0.0000    804.6666      6.5273    121.0337
   580.0000      0.0000    805.3925      6.5169    123.1429
   580.2500      0.0000    810.9583      6.5127    121.9872
   580.5000      0.0000    817.5443      6.5224    117.8173
   580.7500      0.0000    821.1095      6.5387    111.8116
   581.0000      0.0000    819.6417      6.5513    106.2990
   581.2500      0.0000    813.8914      6.5495    103.7088
   581.5000      0.0000    807.2658      6.5221    104.9846
   581.7500      0.0000    804.2203      6.4672    108.9965
   582.0000      0.0000    807.0264      6.3978    113.4803
   582.2500      0.0000    813.9395      6.3241    116.6644
   582.5000      0.0000    821.1382      6.2396    118.1942
   582.7500      0.0000    825.9552      6.1382    118.8129
   583.0000      0.0000    827.7996      6.0356    119.6757
   583.2500      0.0000    826.7923      5.9619    122.0160
   583.5000      0.0000    822.6099      5.9375    126.7551
   583.7500      0.0000    815.0032      5.9623    133.8135
   584.0000      0.0000    805.2059      6.0233    141.7924
   584.2500      0.0000    796.1168      6.1042    148.5412
   584.5000      0.0000    790.4393      6.1883    152.2663
   584.7500      0.0000    788.7755      6.2572    152.6480
   585.0000      0.0000    789.9896      6.2956    151.3851
   585.2500      0.0000    792.9720      6.2987    151.3788
   585.5000      0.0000    797.4173      6.2777    154.5743
   585.7500      0.0000    803.1913      6.2540    160.2286
   586.0000      0.0000    809.6915      6.2411    165.5461
   586.2500      0.0000    815.9550      6.2337    167.9674
   586.5000      0.0000    820.9738      6.2209    166.5768
   586.7500      0.0000    823.8994      6.2090    162.0171
   587.0000      0.0000    824.5098      6.2171    156.1280
   587.2500      0.0000    823.6924      6.2526    151.2726
   587.5000      0.0000    823.0381      6.3041    148.8428
   587.7500      0.0000    823.5613      6.3562    148.3039
   588.0000      0.0000    824.8310      6.4025    148.1052
   588.2500      0.0000    825.2563      6.4446    147.2955
   588.5000      0.0000    822.7369      6.4887    146.0075
   588.7500      0.0000    815.0455      6.5405    144.7086
   589.0000      0.0000    800.7718      6.5995    143.4275
   589.2500      0.0000    781.2069      6.6589    141.8618
   589.5000      0.0000    761.1095      6.7114    139.8775
   589.7500      0.0000    746.1427      6.7547    137.4489
   590.0000      0.0000    738.8207      6.7904    134.4660
   590.2500      0.0000    737.4104      6.8203    131.1258
   590.5000      0.0000    738.6605      6.8472    128.1604
   590.7500      0.0000    740.8408      6.8759    126.2150
   591.0000      0.0000    744.1154      6.9056    125.2689
   591.2500      0.0000    748.6494      6.9216    124.8980
   591.5000      0.0000    752.8210      6.9036    124.6405
   591.7500      0.0000    753.6389      6.8486    123.7806
   592.0000      0.0000    749.2266      6.7765    121.3977
   592.2500      0.0000    740.7816      6.7091    117.4938
   592.5000      0.0000    732.1675      6.6532    113.8639
   592.7500      0.0000    727.9504      6.6060    112.9824
   593.0000      0.0000    730.9904      6.5674    115.7039
   593.2500      0.0000    740.2938      6.5441    120.3364
   593.5000      0.0000    751.2618      6.5468    124.2124
   593.7500      0.0000    759.5440      6.5853    126.1391
   594.0000      0.0000    764.9658      6.6641    127.1811
   594.2500      0.0000    770.8761      6.7760    129.0857
   594.5000      0.0000    779.9267      6.9001    132.3211
   594.7500      0.0000    791.3791      7.0068    135.8395
   595.0000      0.0000    802.1948      7.0699    138.3577
   595.2500      0.0000    809.9159      7.0795    139.4563
   595.5000      0.0000    814.4913      7.0463    139.5799
   595.7500      0.0000    817.7273      6.9916    139.2052
   596.0000      0.0000    821.2210      6.9299    137.9886
   596.2500      0.0000    825.0251      6.8605    134.9062
   596.5000      0.0000    828.2422      6.7753    129.4333
   596.7500      0.0000    830.3121      6.6754    122.2523
   597.0000      0.0000    831.4152      6.5766    114.3597
   597.2500      0.0000    832.0188      6.4998    105.8478
   597.5000      0.0000    832.4438      6.4565     96.2125
   597.7500      0.0000    832.7928      6.4422     85.6623
   598.0000      0.0000    833.0519      6.4394     75.4203
