~Version Information
VERS.                      2.0: CWLS Log ASCII Standard - VERSION 2.0
WRAP.                       NO: One line per depth step
~Well Information Block
STRT.FT               234.0000: 
STOP.FT              1773.2000: 
STEP.FT                 0.1000: 
NULL.                -999.2500: 
COMP.          Pioneer Natural Resources: COMPANY
WELL.             Tami J 23-18: WELL
FLD.           Purgatorie River: FIELD
LOC.           2250' FSL & 2400' FWL: LOCATION
PROV.                 Colorado: PROVINCE
CNTY.               Las Animas: COUNTRY
SRVC.                         : SERVICE COMPANY
DATE.          Mon Dec 13 07:02:50 2004: LOG DATE
UWI.           05 071 08073 00: UNIQUE WELL ID
~Curve Information Block
DEPT.FT            0 000 00 00: Depth
LTEN.lb                       : Surface Line Tension
DCAL.in                       : CDL Caliper
RHOB.g/cc                     : CDL Bulk Density
RHOC.g/cc                     : CDL Density Correction
DPOR.pu                       : CDL Density Porosity
GR.GAPI                       : Gamma Ray
NPOR.pu                       : Neutron Porosity
~Parameter Information Block
~A  Depth       LTEN        DCAL        RHOB        RHOC        DPOR         GR         NPOR    
# ...
  1250.4000   1072.6104      7.9949      2.6343      0.0397      0.9540     65.8330     21.1516
  1250.5000   1080.1533      8.0007      2.6323      0.0638      1.0704     70.4400     21.5156
  1250.6000   1080.1533      8.0007      2.6387      0.1091      0.6834     74.6420     21.7585
  1250.7000   1080.1533      8.0007      2.6418      0.0719      0.4993     78.2181     21.8915
  1250.8000   1122.0284      8.0023      2.6532      0.0517     -0.1924     81.7103     22.2028
  1250.9000   1122.0284      8.0023      2.6753      0.1266     -1.5318     82.1935     22.8891
  1251.0000   1077.6934      8.0029      2.6850      0.1149     -2.1234     77.5830     23.5584
  1251.1000   1077.6934      8.0029      2.6673      0.1242     -1.0456     72.9769     23.7689
  1251.2000   1077.6934      8.0029      2.6263      0.0787      1.4348     73.7724     23.6909
  1251.3000   1080.6575      8.0030      2.5779      0.0411      4.3689     77.7747     23.5702
  1251.4000   1080.6575      8.0030      2.5452     -0.0028      6.3541     79.6585     23.3638
  1251.5000   1138.9475      8.0026      2.5394     -0.0087      6.7002     80.2333     22.9107
  1251.6000   1138.9475      8.0026      2.5407      0.0368      6.6262     84.0073     22.2620
  1251.7000   1138.9475      8.0026      2.5226      0.0338      7.7210     89.2737     21.6545
  1251.8000   1070.3777      8.0028      2.4860      0.0130      9.9420     89.8606     21.1264
  1251.9000   1070.3777      8.0028      2.4409      0.0019     12.6744     85.8437     20.5729
  1252.0000   1067.0342      8.0044      2.3898     -0.0320     15.7672     82.9499     20.1254
  1252.1000   1067.0342      8.0044      2.3366     -0.0551     18.9923     83.2835     19.9084
  1252.2000   1067.0342      8.0044      2.2927     -0.0599     21.6526     85.8648     19.8221
  1252.3000   1142.0594      8.0128      2.2727     -0.0052     22.8679     91.2410     19.8315
  1252.4000   1142.0594      8.0128      2.2794      0.0586     22.4576     98.0476     19.9970
  1252.5000   1076.2084      8.0453      2.3044      0.0805     20.9425    103.1244     20.2985
  1252.6000   1076.2084      8.0453      2.3406      0.1370     18.7489    108.9583     20.6160
  1252.7000   1076.2084      8.0453      2.3816      0.2291     16.2642    119.8774     20.8492
  1252.8000   1081.8203      8.0963      2.4189      0.2288     14.0065    133.2086     21.1219
  1252.9000   1081.8203      8.0963      2.4549      0.2454     11.8234    141.8641     21.6476
  1253.0000   1093.2145      8.1237      2.5050      0.2229      8.7875    143.2880     22.4450
  1253.1000   1093.2145      8.1237      2.5748      0.2794      4.5605    141.0870     23.1923
  1253.2000   1093.2145      8.1237      2.6428      0.3567      0.4391    139.3853     23.7393
  1253.3000   1084.9645      8.1212      2.6813      0.3439     -1.8988    139.4612     24.3232
  1253.4000   1084.9645      8.1212      2.6818      0.3100     -1.9251    141.8910     24.9173
  1253.5000   1086.8301      8.1155      2.6458      0.3124      0.2565    148.0694     25.2417
  1253.6000   1086.8301      8.1155      2.5834      0.2292      4.0361    157.4150     25.3412
  1253.7000   1086.8301      8.1155      2.5160      0.1651      8.1190    164.5436     25.3853
  1253.8000   1055.2594      8.1230      2.4579      0.0772     11.6438    166.4783     25.4540
  1253.9000   1055.2594      8.1230      2.4151      0.0112     14.2337    163.5885     25.5953
  1254.0000   1094.7908      8.1313      2.3923      0.0114     15.6200    156.0325     25.7587
  1254.1000   1094.7908      8.1313      2.3888      0.0159     15.8330    147.6855     25.7045
  1254.2000   1094.7908      8.1313      2.4047      0.0279     14.8657    140.8445     25.2580
  1254.3000   1097.7797      8.1343      2.4346      0.0961     13.0568    134.9553     24.6169
  1254.4000   1097.7797      8.1343      2.4612      0.1115     11.4436    131.2239     24.1969
  1254.5000   1122.3098      8.1396      2.4779      0.1288     10.4313    132.4540     24.1572
  1254.6000   1122.3098      8.1396      2.4923      0.1643      9.5546    138.3801     24.3661
  1254.7000   1122.3098      8.1396      2.5066      0.2132      8.6897    144.0402     24.5061
  1254.8000   1084.1835      8.1593      2.5151      0.2078      8.1788    146.9913     24.2332
  1254.9000   1084.1835      8.1593      2.5100      0.1973      8.4875    147.4916     23.3844
  1255.0000   1085.4888      8.1904      2.4891      0.1686      9.7496    146.5057     22.1483
  1255.1000   1085.4888      8.1904      2.4569      0.1530     11.7031    145.9193     21.1725
  1255.2000   1085.4888      8.1904      2.4194      0.1308     13.9781    145.6934     20.9799
  1255.3000   1052.4641      8.2096      2.3920      0.0606     15.6389    144.3585     21.2824
  1255.4000   1052.4641      8.2096      2.3902      0.1250     15.7428    141.4910     21.4817
  1255.5000   1074.2472      8.2148      2.4110      0.1071     14.4860    139.5911     21.4835
  1255.6000   1074.2472      8.2148      2.4435      0.1491     12.5133    140.4057     21.4853
  1255.7000   1074.2472      8.2148      2.4754      0.1963     10.5829    141.2616     21.6088
  1255.8000   1017.6943      8.2152      2.4990      0.1776      9.1545    140.4416     21.8990
  1255.9000   1017.6943      8.2152      2.5184      0.2415      7.9731    137.3805     22.5184
  1256.0000   1017.9392      8.2059      2.5362      0.2333      6.8989    133.2592     23.4644
  1256.1000   1017.9392      8.2059      2.5486      0.2402      6.1478    133.6708     24.3190
  1256.2000   1017.9392      8.2059      2.5540      0.2183      5.8206    138.6662     24.7001
  1256.3000   1046.5377      8.1628      2.5583      0.1653      5.5553    141.1938     24.7801
  1256.4000   1046.5377      8.1628      2.5646      0.1802      5.1754    140.8329     24.8541
  1256.5000    987.7140      8.0904      2.5668      0.1656      5.0439    140.5619     24.8905
  1256.6000    987.7140      8.0904      2.5626      0.1473      5.2995    139.3986     25.0122
  1256.7000    987.7140      8.0904      2.5588      0.0981      5.5293    138.8755     25.4039
  1256.8000   1062.9083      8.0396      2.5633      0.0910      5.2525    141.2359     25.7731
  1256.9000   1062.9083      8.0396      2.5716      0.1296      4.7510    142.5059     25.7416
  1257.0000   1060.7344      8.0153      2.5799      0.0815      4.2486    139.1482     25.4650
  1257.1000   1060.7344      8.0153      2.5912      0.1420      3.5624    133.0144     25.2972
  1257.2000   1060.7344      8.0153      2.5935      0.1456      3.4224    129.2016     25.2629
  1257.3000    966.1951      7.9977      2.5820      0.0593      4.1239    129.6040     25.3110
  1257.4000    966.1951      7.9977      2.5740      0.0520      4.6086    129.3405     25.4957
  1257.5000   1062.0200      7.9722      2.5774      0.0564      4.4028    124.2767     25.7501
  1257.6000   1062.0200      7.9722      2.5868      0.0544      3.8289    115.5624     25.8734
  1257.7000   1062.0200      7.9722      2.5965      0.0402      3.2444    106.9824     25.7842
  1257.8000   1057.3320      7.9447      2.5991      0.0656      3.0831    104.9586     25.6435
  1257.9000   1057.3320      7.9447      2.5921      0.0306      3.5084    111.9823     25.5349
  1258.0000   1000.4796      7.9475      2.5778      0.0259      4.3730    118.8305     25.3071
  1258.1000   1000.4796      7.9475      2.5572      0.0343      5.6243    118.3697     24.9672
  1258.2000   1000.4796      7.9475      2.5348      0.0126      6.9790    116.7265     24.8743
  1258.3000   1065.1007      7.9777      2.5197      0.0251      7.8995    118.0831     25.0783
  1258.4000   1065.1007      7.9777      2.5180      0.0162      7.9998    119.1901     25.1787
  1258.5000   1018.6603      7.9982      2.5301      0.0262      7.2664    118.0240     25.1459
  1258.6000   1018.6603      7.9982      2.5455      0.0429      6.3321    114.2481     25.2052
  1258.7000   1018.6603      7.9982      2.5543      0.0214      5.7973    109.2995     25.3387
