~Version Information
VERS.                      2.0: CWLS Log ASCII Standard - VERSION 2.0
WRAP.                       NO: One line per depth step
~Well Information Block
STRT.FT               400.0000: 
STOP.FT              2201.0000: 
STEP.FT                 0.2500: 
NULL.                -999.2500: 
COMP.          Evergreen Operating Corporation: COMPANY
WELL.            Triumph 13-10: WELL
FLD.           Purgatorie River: FIELD
LOC.           1551' FSL & 522' FWL: LOCATION
PROV.                 Colorado: PROVINCE
CNTY.               Las Animas: COUNTRY
SRVC.                Patterson: SERVICE COMPANY
DATE.          Fri Jul 23 20:28:37 2004: LOG DATE
UWI.           05 071 08108 00: UNIQUE WELL ID
~Curve Information Block
DEPT.FT            0 000 00 00: Depth
SN.Ohm-m                      : IEL Short Normal
SP.mV                         : IEL Spontaneous Potential
DIR.Ohm-m                     : IEL Induction Resistivity
GR.GAPI                       : Gamma Ray
~Parameter Information Block
~A  Depth        SN          SP         DIR          GR     
# ...
   534.0000   2000.0000   2000.0000     25.4047    126.9132
   534.2500   2000.0000   2000.0000     24.9829    129.9391
   534.5000   2000.0000   2000.0000     24.4188    133.4024
   534.7500   2000.0000   2000.0000     23.6483    134.5269
   535.0000   2000.0000   2000.0000     22.7047    134.0471
   535.2500   2000.0000   2000.0000     21.6956    132.3456
   535.5000   2000.0000   2000.0000     20.7422    128.1707
   535.7500   2000.0000   2000.0000     19.9312    124.7330
   536.0000   2000.0000   2000.0000     19.2982    119.5292
   536.2500   2000.0000   2000.0000     18.8365    116.7567
   536.5000   2000.0000   2000.0000     18.5138    115.4406
   536.7500   2000.0000   2000.0000     18.2864    117.5059
   537.0000   2000.0000   2000.0000     18.1088    125.2415
   537.2500   2000.0000   2000.0000     17.9392    132.3229
   537.5000   2000.0000   2000.0000     17.7451    142.8950
   537.7500   2000.0000   2000.0000     17.5096    148.6494
   538.0000   2000.0000   2000.0000     17.2352    154.4890
   538.2500   2000.0000   2000.0000     16.9431    156.4678
   538.5000   2000.0000   2000.0000     16.6664    156.7897
   538.7500   2000.0000   2000.0000     16.4413    155.5968
   539.0000   2000.0000   2000.0000     16.2975    152.6895
   539.2500   2000.0000   2000.0000     16.2483    150.5324
   539.5000   2000.0000   2000.0000     16.2822    147.3514
   539.7500   2000.0000   2000.0000     16.3621    145.2992
   540.0000   2000.0000   2000.0000     16.4387    142.3195
   540.2500   2000.0000   2000.0000     16.4749    140.2411
   540.5000   2000.0000   2000.0000     16.4669    136.3196
   540.7500   2000.0000   2000.0000     16.4469    132.8155
   541.0000   2000.0000   2000.0000     16.4649    126.3930
   541.2500   2000.0000   2000.0000     16.5627    121.9862
   541.5000   2000.0000   2000.0000     16.7534    116.7123
   541.7500   2000.0000   2000.0000     17.0178    114.7233
   542.0000   2000.0000   2000.0000     17.3196    114.2705
   542.2500   2000.0000   2000.0000     17.6269    115.5591
   542.5000   2000.0000   2000.0000     17.9218    119.8342
   542.7500   2000.0000   2000.0000     18.1966    124.0640
   543.0000   2000.0000   2000.0000     18.4482    131.1825
   543.2500   2000.0000   2000.0000     18.6851    135.3514
   543.5000   2000.0000   2000.0000     18.9365    139.7103
   543.7500   2000.0000   2000.0000     19.2478    141.5923
   544.0000   2000.0000   2000.0000     19.6610    143.6963
   544.2500   2000.0000   2000.0000     20.1932    144.5101
   544.5000   2000.0000   2000.0000     20.8284    143.5391
   544.7500   2000.0000   2000.0000     21.5253    140.8883
   545.0000   2000.0000   2000.0000     22.2392    134.8214
   545.2500   2000.0000   2000.0000     22.9433    130.6779
   545.5000   2000.0000   2000.0000     23.6380    125.8247
   545.7500   2000.0000   2000.0000     24.3463    123.4071
   546.0000   2000.0000   2000.0000     25.1045    120.0936
   546.2500   2000.0000   2000.0000     25.9533    117.8692
   546.5000   2000.0000   2000.0000     26.9217    114.9549
   546.7500   2000.0000   2000.0000     28.0022    113.7272
   547.0000   2000.0000   2000.0000     29.1332    113.5535
   547.2500   2000.0000   2000.0000     30.2190    114.7663
   547.5000   2000.0000   2000.0000     31.1892    118.7462
   547.7500   2000.0000   2000.0000     32.0488    122.7624
   548.0000   2000.0000   2000.0000     32.8674    130.0020
   548.2500   2000.0000   2000.0000     33.7178    134.5284
   548.5000   2000.0000   2000.0000     34.6318    138.2198
   548.7500   2000.0000   2000.0000     35.6086    137.3245
   549.0000   2000.0000   2000.0000     36.6544    130.5286
   549.2500   2000.0000   2000.0000     37.8081    123.2843
   549.5000   2000.0000   2000.0000     39.1305    110.7169
   549.7500   2000.0000   2000.0000     40.6770    102.2547
   550.0000   2000.0000   2000.0000     42.4835     90.3395
   550.2500   2000.0000   2000.0000     44.5752     83.3217
   550.5000   2000.0000   2000.0000     46.9774     75.1797
   550.7500   2000.0000   2000.0000     49.7168     71.8804
   551.0000   2000.0000   2000.0000     52.7898     70.1739
   551.2500   2000.0000   2000.0000     56.0927     70.5617
   551.5000   2000.0000   2000.0000     59.3462     71.6943
   551.7500   2000.0000   2000.0000     62.1406     71.9180
   552.0000   2000.0000   2000.0000     64.2108     70.8774
   552.2500   2000.0000   2000.0000     65.7621     69.6202
   552.5000   2000.0000   2000.0000     67.4396     68.2638
   552.7500   2000.0000   2000.0000     69.8940     68.4232
   553.0000   2000.0000   2000.0000     73.3511     70.3133
   553.2500   2000.0000   2000.0000     77.4645     71.9461
   553.5000   2000.0000   2000.0000     81.5249     73.4009
   553.7500   2000.0000   2000.0000     84.9211     73.3109
   554.0000   2000.0000   2000.0000     87.4826     72.1300
   554.2500   2000.0000   2000.0000     89.3614     71.2962
   554.5000   2000.0000   2000.0000     90.6105     70.7254
   554.7500   2000.0000   2000.0000     90.9576     70.7796
   555.0000   2000.0000   2000.0000     90.0776     70.9763
   555.2500   2000.0000   2000.0000     88.0989     70.9441
   555.5000   2000.0000   2000.0000     85.6940     70.7276
   555.7500   2000.0000   2000.0000     83.6257     70.6117
   556.0000   2000.0000   2000.0000     82.2794     70.3662
   556.2500   2000.0000   2000.0000     81.5773     69.9569
   556.5000   2000.0000   2000.0000     81.1601     69.0464
   556.7500   2000.0000   2000.0000     80.6136     68.6105
   557.0000   2000.0000   2000.0000     79.6067     68.7213
   557.2500   2000.0000   2000.0000     77.9362     69.2103
   557.5000   2000.0000   2000.0000     75.5524     70.0428
   557.7500   2000.0000   2000.0000     72.5721     70.5017
   558.0000   2000.0000   2000.0000     69.2051     71.1705
   558.2500   2000.0000   2000.0000     65.5791     71.7998
   558.5000   2000.0000   2000.0000     61.6419     73.4286
   558.7500   2000.0000   2000.0000     57.2612     75.1421
   559.0000   2000.0000   2000.0000     52.4467     78.3604
   559.2500   2000.0000   2000.0000     47.4465     80.2816
   559.5000   2000.0000   2000.0000     42.6154     81.5878
   559.7500   2000.0000   2000.0000     38.2301     81.4255
   560.0000   2000.0000   2000.0000     34.4163     81.6311
   560.2500   2000.0000   2000.0000     31.1821     83.7639
   560.5000   2000.0000   2000.0000     28.4797     91.7476
   560.7500   2000.0000   2000.0000     26.2517    100.0738
   561.0000   2000.0000   2000.0000     24.4501    115.0688
   561.2500   2000.0000   2000.0000     23.0328    125.1374
   561.5000   2000.0000   2000.0000     21.9504    137.6774
   561.7500   2000.0000   2000.0000     21.1382    143.1758
   562.0000   2000.0000   2000.0000     20.5233    146.6566
   562.2500   2000.0000   2000.0000     20.0418    146.6654
   562.5000   2000.0000   2000.0000     19.6573    145.7402
   562.7500   2000.0000   2000.0000     19.3665    145.3607
   563.0000   2000.0000   2000.0000     19.1919    144.2181
   563.2500   2000.0000   2000.0000     19.1663    141.8580
   563.5000   2000.0000   2000.0000     19.3178    135.0952
   563.7500   2000.0000   2000.0000     19.6584    129.0502
   564.0000   2000.0000   2000.0000     20.1838    119.5219
   564.2500   2000.0000   2000.0000     20.8821    113.8412
   564.5000   2000.0000   2000.0000     21.7464    107.5814
   564.7500   2000.0000   2000.0000     22.7799    105.3448
   565.0000   2000.0000   2000.0000     23.9855    104.9660
   565.2500   2000.0000   2000.0000     25.3469    106.3838
   565.5000   2000.0000   2000.0000     26.8150    110.2238
   565.7500   2000.0000   2000.0000     28.3109    113.5167
   566.0000   2000.0000   2000.0000     29.7429    119.0429
   566.2500   2000.0000   2000.0000     31.0243    122.7955
   566.5000   2000.0000   2000.0000     32.0791    127.6006
   566.7500   2000.0000   2000.0000     32.8339    129.5233
   567.0000   2000.0000   2000.0000     33.2193    129.6138
   567.2500   2000.0000   2000.0000     33.2069    127.9973
