~Version Information
VERS.                      2.0: CWLS Log ASCII Standard - VERSION 2.0
WRAP.                       NO: One line per depth step
~Well Information Block
STRT.FT               472.0000: 
STOP.FT              2641.5000: 
STEP.FT                 0.1000: 
NULL.                -999.2500: 
COMP.          Pioneer Natural Resources: COMPANY
WELL.              Wagner 13-9: WELL
FLD.           Purgatoire River: FIELD
LOC.           1819' FSL & 1111' FWL: LOCATION
PROV.                 Colorado: PROVINCE
CNTY.               Las Animas: COUNTRY
SRVC.                Patterson: SERVICE COMPANY
DATE.          Tue Apr 19 08:56:38 2005: LOG DATE
UWI.           05 071 08302 00: UNIQUE WELL ID
~Curve Information Block
DEPT.FT            0 000 00 00: Depth
DCAL.in                       : CDL Caliper
RHOB.g/cc                     : CDL Bulk Density
RHOC.g/cc                     : CDL Density Correction
DPOR.pu                       : CDL Density Porosity
GR.GAPI                       : Gamma Ray
NPOR.pu                       : Neutron Porosity
~Parameter Information Block
~A  Depth       DCAL        RHOB        RHOC        DPOR         GR         NPOR    
# ...
  2344.0000      7.8324      2.5618      0.0842      5.3447     64.3391     20.9072
  2344.1000      7.8324      2.5638      0.1049      5.2250     57.9325     21.4871
  2344.2000      7.8324      2.5479      0.0980      6.1895     56.5276     21.4886
  2344.3000      7.8272      2.5213      0.0470      7.8007     59.8993     21.1282
  2344.4000      7.8272      2.4978      0.0292      9.2245     66.6492     20.5801
  2344.5000      7.8293      2.4926      0.0043      9.5421     74.2187     20.4699
  2344.6000      7.8293      2.5102      0.0274      8.4734     77.1056     20.7601
  2344.7000      7.8293      2.5401      0.0542      6.6622     73.0169     20.3676
  2344.8000      7.8352      2.5661      0.0542      5.0834     64.7721     18.9079
  2344.9000      7.8352      2.5797      0.0923      4.2610     56.6117     17.1488
  2345.0000      7.8404      2.5811      0.0834      4.1759     51.1350     15.8862
  2345.1000      7.8404      2.5754      0.0906      4.5215     48.0660     15.5372
  2345.2000      7.8404      2.5646      0.0873      5.1761     46.0982     16.0024
  2345.3000      7.8442      2.5481      0.0492      6.1772     44.1468     16.4767
  2345.4000      7.8442      2.5302      0.0189      7.2608     43.0493     16.1627
  2345.5000      7.8439      2.5180      0.0227      8.0010     43.4774     15.2152
  2345.6000      7.8439      2.5156     -0.0141      8.1474     44.5404     14.2712
  2345.7000      7.8439      2.5225      0.0274      7.7269     46.6024     14.0088
  2345.8000      7.8429      2.5328      0.0324      7.1026     49.8700     14.8684
  2345.9000      7.8429      2.5401      0.0580      6.6613     53.2444     16.2099
  2346.0000      7.8326      2.5463      0.0249      6.2854     58.7435     16.7930
  2346.1000      7.8326      2.5633      0.0633      5.2533     66.9330     16.7970
  2346.2000      7.8326      2.5930      0.1252      3.4544     71.6513     17.2630
  2346.3000      7.8105      2.6194      0.1430      1.8539     70.8962     18.1611
  2346.4000      7.8105      2.6293      0.1359      1.2572     69.8087     18.6406
  2346.5000      7.7978      2.6237      0.1282      1.5966     71.1734     18.2516
  2346.6000      7.7978      2.6134      0.0851      2.2163     71.7870     17.6350
  2346.7000      7.7978      2.6050      0.0959      2.7279     68.1587     17.8868
  2346.8000      7.8054      2.5939      0.0787      3.4008     61.7752     19.2095
  2346.9000      7.8054      2.5724      0.0630      4.7038     58.6253     20.5985
  2347.0000      7.8219      2.5373     -0.0068      6.8274     61.6280     21.0699
  2347.1000      7.8219      2.4909     -0.0023      9.6410     65.4944     20.9527
  2347.2000      7.8219      2.4308     -0.0057     13.2878     66.1386     21.4717
  2347.3000      7.8329      2.3595     -0.0302     17.6042     65.7328     23.2567
  2347.4000      7.8329      2.2904     -0.0169     21.7958     66.7450     25.6121
  2347.5000      7.8398      2.2148     -0.0431     26.3784     68.0881     27.0971
  2347.6000      7.8398      2.0894     -0.0384     33.9758     66.4857     27.5963
  2347.7000      7.8398      1.8989     -0.0656     45.5196     62.1465     28.1370
  2347.8000      7.8531      1.7139     -0.2122     56.7326     58.5601     28.8399
  2347.9000      7.8531      1.6088     -0.1360     63.1027     57.4229     29.2797
  2348.0000      7.8906      1.5718     -0.1387     65.3433     58.8719     29.5870
  2348.1000      7.8906      1.5658     -0.1415     65.7074     61.7054     30.1830
  2348.2000      7.8906      1.5947     -0.1333     63.9555     62.6133     30.8775
  2348.3000      7.9532      1.6738      0.0329     59.1610     61.8370     30.9674
  2348.4000      7.9532      1.7835      0.1237     52.5125     63.5844     30.5913
  2348.5000      8.0122      1.8797      0.1774     46.6826     68.4395     30.3695
  2348.6000      8.0122      1.9425      0.1857     42.8786     73.8600     30.3318
  2348.7000      8.0122      1.9941      0.1496     39.7523     78.9120     30.4451
  2348.8000      8.0461      2.0666      0.1461     35.3552     84.0830     30.7624
  2348.9000      8.0461      2.1692      0.1253     29.1389     86.9270     30.7851
  2349.0000      8.0057      2.2866      0.1015     22.0244     85.7788     30.1428
  2349.1000      8.0057      2.3893      0.1807     15.8009     85.5459     29.4589
  2349.2000      8.0057      2.4531      0.1899     11.9345     90.6225     29.4922
  2349.3000      7.9137      2.4810      0.1904     10.2431     98.3148     29.8144
  2349.4000      7.9137      2.4876      0.1524      9.8435    103.8243     29.9232
  2349.5000      7.8671      2.4753      0.1768     10.5901    106.0032     29.8741
  2349.6000      7.8671      2.4450      0.0602     12.4240    105.4693     29.7001
  2349.7000      7.8671      2.4059      0.0668     14.7935    103.0812     29.7815
  2349.8000      7.8651      2.3601     -0.0071     17.5678     99.3038     30.3897
  2349.9000      7.8651      2.2960      0.0544     21.4564     94.5987     31.0386
  2350.0000      7.8669      2.2073     -0.0562     26.8294     90.8081     31.2585
  2350.1000      7.8669      2.1253     -0.0635     31.7976     87.3427     30.9055
  2350.2000      7.8669      2.0816     -0.0263     34.4506     83.7288     29.7885
  2350.3000      7.8674      2.0683      0.0247     35.2537     82.3954     28.3078
  2350.4000      7.8674      2.0710     -0.0064     35.0899     82.4111     27.5785
  2350.5000      7.8739      2.1006      0.0219     33.2984     81.3307     27.4007
  2350.6000      7.8739      2.1775      0.1113     28.6350     79.8570     26.9022
  2350.7000      7.8739      2.3003      0.1957     21.1927     78.7210     26.6509
  2350.8000      7.8871      2.4299      0.3070     13.3412     76.8947     27.2076
  2350.9000      7.8871      2.5259      0.2617      7.5222     73.4479     27.6803
  2351.0000      7.8933      2.5878      0.3052      3.7695     70.4259     27.2922
  2351.1000      7.8933      2.6192      0.3139      1.8663     70.0752     26.4713
  2351.2000      7.8933      2.6131      0.1851      2.2363     71.9891     25.9399
  2351.3000      7.8752      2.5844      0.1052      3.9767     73.4684     25.6852
  2351.4000      7.8752      2.5615      0.0496      5.3617     71.8456     24.8282
  2351.5000      7.8558      2.5560      0.0375      5.6970     70.2329     23.2643
  2351.6000      7.8558      2.5600      0.0574      5.4567     74.5351     22.5815
  2351.7000      7.8558      2.5667      0.0718      5.0473     82.2682     23.3028
  2351.8000      7.8484      2.5805      0.0786      4.2109     87.4160     24.1605
  2351.9000      7.8484      2.5980      0.1236      3.1543     90.2913     24.7595
  2352.0000      7.8455      2.6021      0.1191      2.9000     91.2468     25.3862
  2352.1000      7.8455      2.5851      0.0893      3.9334     88.3049     25.4267
  2352.2000      7.8455      2.5538      0.0691      5.8303     82.0407     24.6267
  2352.3000      7.8424      2.5225      0.0282      7.7294     76.6702     23.5134
  2352.4000      7.8424      2.5099     -0.0351      8.4902     76.4437     22.6087
  2352.5000      7.8433      2.5228      0.0500      7.7077     81.6549     22.3765
  2352.6000      7.8433      2.5421      0.0650      6.5401     88.1909     22.9332
  2352.7000      7.8433      2.5483      0.0625      6.1660     91.2523     23.6079
  2352.8000      7.8495      2.5419      0.0823      6.5485     88.1448     23.5672
  2352.9000      7.8495      2.5353      0.0655      6.9533     81.2154     22.8967
  2353.0000      7.8525      2.5421      0.0565      6.5420     77.5936     22.2596
  2353.1000      7.8525      2.5595      0.0825      5.4852     80.6484     21.8907
  2353.2000      7.8525      2.5650      0.0700      5.1515     86.2461     22.1039
  2353.3000      7.8472      2.5504      0.0841      6.0382     88.5886     23.1368
  2353.4000      7.8472      2.5343      0.0381      7.0147     86.7494     24.2024
  2353.5000      7.8423      2.5273      0.0605      7.4391     82.8850     24.3320
