~Version Information
VERS.                      2.0: CWLS Log ASCII Standard - VERSION 2.0
WRAP.                       NO: One line per depth step
~Well Information Block
STRT.FT                 0.0000: 
STOP.FT              1390.5000: 
STEP.FT                 0.2500: 
NULL.                -999.2500: 
COMP.          Petrogulf Corporation: COMPANY
WELL.             Leier 17-42R: WELL
FLD.           Purgatorie River: FIELD
LOC.           2398' FNL & 1109' FEL: LOCATION
PROV.                 Colorado: PROVINCE
CNTY.               Las Animas: COUNTRY
SRVC.                Patterson: SERVICE COMPANY
DATE.          Thu Nov 10 14:34:29 2005: LOG DATE
UWI.                          : UNIQUE WELL ID
~Curve Information Block
DEPT.FT            0 000 00 00: Depth
CCL.                          : Casing Collar Locator
TT3.usec                      : CBL 3' Travel Time
AMP3.mV                       : CBL 3' Amplitude
GR.GAPI                       : Gamma Ray
~Parameter Information Block
~A  Depth       CCL         TT3         AMP3         GR     
# ...
   636.5000      0.0000    529.7853      5.9613    131.6618
   636.7500      0.0000    539.5777      5.8989    128.8143
   637.0000      0.0000    564.3728      5.7908    126.6136
   637.2500      0.0000    596.3433      5.7077    125.7541
   637.5000      0.0000    620.4235      5.6466    125.7287
   637.7500      0.0000    628.8759      5.6065    126.2551
   638.0000      0.0000    627.5625      5.6247    127.8254
   638.2500      0.0000    625.1851      5.7052    130.7600
   638.5000      0.0000    625.3967      5.7945    134.5224
   638.7500      0.0000    628.7607      5.8503    138.3264
   639.0000      0.0000    633.9018      5.8841    142.0574
   639.2500      0.0000    636.7957      5.9189    146.3625
   639.5000      0.0000    635.4083      5.9360    151.9150
   639.7500      0.0000    633.6419      5.8952    158.3289
   640.0000      0.0000    634.8864      5.8075    163.5635
   640.2500      0.0000    635.9263      5.7370    164.7847
   640.5000      0.0000    632.8176      5.7210    160.3568
   640.7500      0.0000    627.5142      5.7546    151.1285
   641.0000      0.0000    623.9610      5.8417    139.9638
   641.2500      0.0000    622.9094      5.9901    130.2315
   641.5000      0.0000    623.2649      6.1845    124.2860
   641.7500      0.0000    625.1246      6.4248    122.4576
   642.0000      0.0000    630.2482      6.7565    123.2177
   642.2500      0.0000    639.1265      7.1834    124.7246
   642.5000      0.0000    647.3210      7.5851    126.3074
   642.7500      0.0000    649.1340      7.8177    128.3891
   643.0000      0.0000    646.5679      7.8704    131.2193
   643.2500      0.0000    647.0699      7.8471    134.0624
   643.5000      0.0000    651.6743      7.8405    135.7323
   643.7500      0.0000    655.4034      7.8719    135.7076
   644.0000      0.0000    657.8361      7.8978    134.3696
   644.2500      0.0000    662.1556      7.8339    132.3457
   644.5000      0.0000    667.2363      7.6256    130.1806
   644.7500      0.0000    669.0081      7.3220    128.5279
   645.0000      0.0000    665.1072      7.0360    127.9039
   645.2500      0.0000    656.2344      6.8355    128.1174
   645.5000      0.0000    647.2317      6.7180    128.4385
   645.7500      0.0000    643.8684      6.6501    128.4100
   646.0000      0.0000    646.6811      6.5884    128.1448
   646.2500      0.0000    652.7255      6.5073    127.9356
   646.5000      0.0000    659.8796      6.4148    127.8808
   646.7500      0.0000    665.2680      6.3330    127.8986
   647.0000      0.0000    665.7918      6.2926    128.0447
   647.2500      0.0000    662.3586      6.3107    128.8610
   647.5000      0.0000    660.1050      6.3515    131.0861
   647.7500      0.0000    662.2924      6.3600    134.8065
   648.0000      0.0000    665.7944      6.3234    139.1835
   648.2500      0.0000    665.6111      6.2385    143.1020
   648.5000      0.0000    661.6207      6.0691    145.6514
   648.7500      0.0000    658.6571      5.8096    146.1529
   649.0000      0.0000    659.5166      5.5252    144.4677
   649.2500      0.0000    660.4807      5.2891    141.4051
   649.5000      0.0000    657.3164      5.1443    138.3834
   649.7500      0.0000    650.9649      5.0958    136.7080
   650.0000      0.0000    643.7137      5.0972    137.2175
   650.2500      0.0000    636.1594      5.1069    139.9089
   650.5000      0.0000    629.8060      5.1386    143.4365
   650.7500      0.0000    626.6121      5.2036    145.7002
   651.0000      0.0000    626.8471      5.2664    145.6117
   651.2500      0.0000    630.0402      5.2964    143.9936
   651.5000      0.0000    634.9301      5.3211    142.3086
   651.7500      0.0000    638.6737      5.4211    140.8549
   652.0000      0.0000    640.6936      5.6488    138.7104
   652.2500      0.0000    644.5625      5.9309    135.2101
   652.5000      0.0000    651.7350      6.1315    130.8651
   652.7500      0.0000    659.3800      6.2176    126.7327
   653.0000      0.0000    665.1179      6.2572    123.3474
   653.2500      0.0000    667.7847      6.2998    120.7442
   653.5000      0.0000    666.0705      6.3543    119.2991
   653.7500      0.0000    660.3798      6.4096    119.7527
   654.0000      0.0000    654.2714      6.4166    122.1294
   654.2500      0.0000    651.4730      6.3166    125.2762
   654.5000      0.0000    652.4827      6.1172    127.9210
   654.7500      0.0000    654.5016      5.8709    129.7209
   655.0000      0.0000    654.0068      5.5774    130.7470
   655.2500      0.0000    650.9841      5.2241    130.4364
   655.5000      0.0000    648.0004      4.9107    127.9409
   655.7500      0.0000    645.3509      4.7811    123.5233
   656.0000      0.0000    640.9852      4.8488    118.8784
   656.2500      0.0000    634.1440      5.0010    115.7586
   656.5000      0.0000    627.2587      5.1334    114.6547
   656.7500      0.0000    623.0143      5.2222    114.9504
   657.0000      0.0000    621.4001      5.2971    115.9215
   657.2500      0.0000    620.7921      5.3826    117.1358
   657.5000      0.0000    619.2015      5.4749    118.1235
   657.7500      0.0000    614.1563      5.5745    118.2752
   658.0000      0.0000    604.1404      5.6987    117.2946
   658.2500      0.0000    591.4283      5.8499    115.6419
   658.5000      0.0000    582.0182      6.0196    114.4947
   658.7500      0.0000    580.8737      6.1960    115.1239
   659.0000      0.0000    585.5239      6.3430    117.9198
   659.2500      0.0000    589.1049      6.4336    121.8507
   659.5000      0.0000    592.4973      6.4771    125.0242
   659.7500      0.0000    601.1298      6.4983    126.0848
   660.0000      0.0000    612.4224      6.5304    125.3143
   660.2500      0.0000    620.3958      6.5874    124.3411
   660.5000      0.0000    625.0336      6.6337    124.7012
   660.7500      0.0000    630.0219      6.6303    126.6664
   661.0000      0.0000    636.3125      6.5871    129.4412
   661.2500      0.0000    638.9921      6.5419    132.3038
   661.5000      0.0000    629.5203      6.5111    135.3035
   661.7500      0.0000    602.6484      6.4787    138.7934
   662.0000      0.0000    565.1771      6.4285    142.5736
   662.2500      0.0000    535.1756      6.3548    145.6996
   662.5000      0.0000    526.1359      6.2431    146.8641
   662.7500      0.0000    538.7083      6.0840    144.8257
   663.0000      0.0000    566.7059      5.8934    138.9651
   663.2500      0.0000    599.9365      5.7023    130.1235
   663.5000      0.0000    628.4664      5.5447    121.0011
   663.7500      0.0000    649.0790      5.4485    115.1385
   664.0000      0.0000    661.7506      5.4353    114.8230
   664.2500      0.0000    665.1109      5.5101    119.7553
   664.5000      0.0000    656.1831      5.6429    127.8242
   664.7500      0.0000    631.1479      5.7836    136.8328
   665.0000      0.0000    591.7560      5.9017    144.9810
   665.2500      0.0000    551.5858      5.9830    150.1706
   665.5000      0.0000    529.5060      6.0125    150.2721
   665.7500      0.0000    535.9295      5.9964    144.9974
   666.0000      0.0000    566.0970      5.9636    137.2031
   666.2500      0.0000    603.6056      5.9423    131.6158
   666.5000      0.0000    632.1439      5.9552    131.6837
   666.7500      0.0000    644.8315      6.0007    137.1840
   667.0000      0.0000    639.8983      6.0690    144.4930
   667.2500      0.0000    616.3047      6.2022    149.2092
   667.5000      0.0000    580.4080      6.4444    149.0788
   667.7500      0.0000    547.8419      6.7451    145.1010
   668.0000      0.0000    531.5074      7.0317    140.2134
   668.2500      0.0000    532.5637      7.3240    136.8610
   668.5000      0.0000    543.4172      7.6789    135.4592
   668.7500      0.0000    552.3536      8.0904    134.7757
   669.0000      0.0000    545.5892      8.4915    133.5871
   669.2500      0.0000    517.6846      8.7986    131.9348
   669.5000      0.0000    487.2928      8.9633    130.8714
   669.7500      0.0000    482.6966      9.0364    131.1826
