~Version Information
VERS.                      2.0: CWLS Log ASCII Standard - VERSION 2.0
WRAP.                       NO: One line per depth step
~Well Information Block
STRT.FT               630.0000: 
STOP.FT              1155.5000: 
STEP.FT                 0.1000: 
NULL.                -999.2500: 
COMP.          Pioneer Natural Resources: COMPANY
WELL.          Drewmeister 34-34: WELL
FLD.           Purgatoire River: FIELD
LOC.           958' FSL & 1857' FEL: LOCATION
STAT.                 Colorado: State
CNTY.               Las Animas: COUNTY
CTRY. USA : Country
SECT. 34 : Section
TOWN. 32S : Township
RANG. 65W : Range
SRVC.                Patterson: SERVICE COMPANY
DATE.          Tue Oct 04 08:23:16 2005: LOG DATE
API.           05 071 08131 00: UNIQUE WELL ID
~Curve Information Block
DEPT.FT            0 000 00 00: Depth
DCAL.in                       : CDL Caliper
RHOB.g/cc                     : CDL Bulk Density
RHOC.g/cc                     : CDL Density Correction
DPOR.pu                       : CDL Density Porosity
GR.GAPI                       : Gamma Ray
NPOR.pu                       : Neutron Porosity
~Parameter Information Block
~A  Depth       DCAL        RHOB        RHOC        DPOR         GR         NPOR    
# ...
   735.6000      8.0498      2.5321      0.0393      7.1462    118.1404     25.0097
   735.7000      8.0498      2.5367      0.0401      6.8659    121.9350     25.0783
   735.8000      8.0488      2.5503      0.0446      6.0394    125.9971     24.8759
   735.9000      8.0488      2.5665      0.0692      5.0578    129.2335     24.6658
   736.0000      8.0491      2.5745      0.0864      4.5738    132.2201     25.0966
   736.1000      8.0491      2.5828      0.0293      4.0711    136.0043     26.1044
   736.2000      8.0491      2.6060      0.0799      2.6697    138.1280     26.6113
   736.3000      8.0503      2.6365      0.0587      0.8178    135.6792     26.1044
   736.4000      8.0503      2.6571      0.0998     -0.4325    130.5390     25.5648
   736.5000      8.0509      2.6576      0.0718     -0.4628    125.9338     25.8456
   736.6000      8.0509      2.6419      0.0778      0.4901    125.6862     26.1907
   736.7000      8.0509      2.6190      0.0536      1.8809    128.4641     25.9330
   736.8000      8.0511      2.5968      0.0386      3.2272    124.9118     25.7847
   736.9000      8.0511      2.5813      0.0118      4.1615    114.7507     26.2876
   737.0000      8.0522      2.5741     -0.0007      4.5976    109.6189     26.8096
   737.1000      8.0522      2.5707      0.0082      4.8062    115.5904     26.9640
   737.2000      8.0522      2.5702     -0.0137      4.8373    128.2079     27.2362
   737.3000      8.0548      2.5791      0.0497      4.2986    141.7079     27.4552
   737.4000      8.0548      2.5909      0.0910      3.5822    151.4325     26.9067
   737.5000      8.0567      2.5894      0.0922      3.6727    151.8422     26.0315
   737.6000      8.0567      2.5768      0.0235      4.4357    143.0743     25.7952
   737.7000      8.0567      2.5669      0.0666      5.0334    133.9307     26.3048
   737.8000      8.0543      2.5571      0.0691      5.6275    128.5354     27.0238
   737.9000      8.0543      2.5455      0.0184      6.3316    125.3958     27.4896
   738.0000      8.0513      2.5406      0.0344      6.6328    122.7515     27.8594
   738.1000      8.0513      2.5389      0.0355      6.7339    117.6382     28.0391
   738.2000      8.0513      2.5329      0.0172      7.0966    112.6086     27.5958
   738.3000      8.0500      2.5240      0.0252      7.6350    112.5754     26.7287
   738.4000      8.0500      2.5139      0.0192      8.2465    114.3024     25.8703
   738.5000      8.0498      2.5018      0.0051      8.9815    114.2155     25.4455
   738.6000      8.0498      2.4882     -0.0044      9.8080    114.9596     25.7544
   738.7000      8.0498      2.4770     -0.0363     10.4841    120.8906     26.6776
   738.8000      8.0497      2.4764      0.0081     10.5211    134.4631     27.2160
   738.9000      8.0497      2.4879     -0.0036      9.8256    145.0258     26.6598
   739.0000      8.0494      2.5037      0.0225      8.8668    138.8492     25.6208
   739.1000      8.0494      2.5207      0.0115      7.8372    125.4428     24.6029
   739.2000      8.0494      2.5452      0.0339      6.3532    115.6299     23.5434
   739.3000      8.0497      2.5727      0.0636      4.6843    103.8452     22.4460
   739.4000      8.0497      2.5874      0.0784      3.7968     92.3968     21.7716
   739.5000      8.0503      2.5890      0.0402      3.6980     89.7855     21.7339
   739.6000      8.0503      2.5944      0.0553      3.3718     92.4729     21.7069
   739.7000      8.0503      2.6040      0.1436      2.7894     94.3108     21.5764
   739.8000      8.0504      2.5992      0.1316      3.0798     93.0193     21.5782
   739.9000      8.0504      2.5763      0.1355      4.4673     88.0011     21.4002
   740.0000      8.0508      2.5509      0.0961      6.0057     84.2257     20.7747
   740.1000      8.0508      2.5412      0.0587      6.5912     87.2187     19.9734
   740.2000      8.0508      2.5526      0.0835      5.9032     93.0413     19.3776
   740.3000      8.0511      2.5757      0.1001      4.5056     94.6813     19.1975
   740.4000      8.0511      2.5998      0.1438      3.0402     91.8761     19.3824
   740.5000      8.0507      2.6195      0.1294      1.8504     88.7766     19.6011
   740.6000      8.0507      2.6295      0.1700      1.2398     86.8018     19.6487
   740.7000      8.0507      2.6245      0.1463      1.5446     83.5685     19.6566
   740.8000      8.0505      2.6079      0.1001      2.5487     75.9167     19.9054
   740.9000      8.0505      2.5917      0.0452      3.5323     66.1984     20.6788
   741.0000      8.0500      2.5778      0.0840      4.3741     62.4668     21.5211
   741.1000      8.0500      2.5658      0.0157      5.1014     65.1926     21.4374
   741.2000      8.0500      2.5683      0.0084      4.9512     67.2179     20.5009
   741.3000      8.0493      2.5906      0.0600      3.6017     66.5346     19.6001
   741.4000      8.0493      2.6166      0.0907      2.0262     65.7790     19.1659
   741.5000      8.0491      2.6275      0.0843      1.3619     65.9947     19.3515
   741.6000      8.0491      2.6221      0.0626      1.6883     64.2919     19.8790
   741.7000      8.0491      2.6077      0.0936      2.5664     57.2664     19.9406
   741.8000      8.0494      2.5897      0.0430      3.6530     50.6148     19.2026
   741.9000      8.0494      2.5760      0.0428      4.4872     52.9331     18.2183
   742.0000      8.0492      2.5643      0.0374      5.1916     60.9229     17.8203
   742.1000      8.0492      2.5501      0.0120      6.0551     65.5949     17.8942
   742.2000      8.0492      2.5395      0.0268      6.6940     67.9637     17.5336
   742.3000      8.0488      2.5353      0.0405      6.9512     71.5552     16.6409
   742.4000      8.0488      2.5323      0.0426      7.1342     69.7622     16.1817
   742.5000      8.0491      2.5337      0.0348      7.0509     61.7244     16.5076
   742.6000      8.0491      2.5466      0.0306      6.2687     57.9784     17.0236
   742.7000      8.0491      2.5637      0.1249      5.2311     61.5762     17.5372
   742.8000      8.0494      2.5698      0.0817      4.8606     67.3489     18.2355
   742.9000      8.0494      2.5616      0.1112      5.3552     72.2040     19.0776
   743.0000      8.0491      2.5437      0.1416      6.4397     75.2605     19.8403
   743.1000      8.0491      2.5218      0.0880      7.7713     76.2035     20.3452
   743.2000      8.0491      2.4976      0.0666      9.2342     76.2205     20.5739
   743.3000      8.0486      2.4692      0.0048     10.9602     76.7091     20.5074
   743.4000      8.0486      2.4443     -0.0096     12.4659     79.4670     20.1642
   743.5000      8.0485      2.4345     -0.0180     13.0605     85.7843     20.1146
   743.6000      8.0485      2.4353      0.0427     13.0109     91.6280     20.5587
   743.7000      8.0485      2.4364      0.0231     12.9452     91.1721     20.8485
   743.8000      8.0474      2.4473      0.0185     12.2840     87.0254     20.7346
   743.9000      8.0474      2.4801      0.0819     10.2978     86.8256     20.6385
   744.0000      8.0410      2.5185      0.1141      7.9701     90.0134     20.5423
   744.1000      8.0410      2.5371      0.1362      6.8418     90.1913     20.2677
   744.2000      8.0410      2.5343      0.1413      7.0144     86.0636     20.1307
   744.3000      8.0348      2.5276      0.1350      7.4206     82.0522     20.2030
   744.4000      8.0348      2.5233      0.1939      7.6762     83.3106     20.4278
   744.5000      8.0495      2.5188      0.1433      7.9522     87.8402     20.5437
   744.6000      8.0495      2.5187      0.1117      7.9581     88.6599     20.0245
   744.7000      8.0495      2.5195      0.0977      7.9066     85.7733     19.5247
   744.8000      8.0840      2.5107      0.0960      8.4397     84.1521     19.8382
   744.9000      8.0840      2.4995      0.0508      9.1225     84.5291     20.2959
   745.0000      8.1011      2.5080      0.0577      8.6071     86.0394     20.5097
   745.1000      8.1011      2.5470      0.0785      6.2426     87.1063     20.6500
