~Version Information
VERS.                      2.0: CWLS Log ASCII Standard - VERSION 2.0
WRAP.                       NO: One line per depth step
~Well Information Block
STRT.FT               454.0000: 
STOP.FT              1392.0000: 
STEP.FT                 0.2500: 
NULL.                -999.2500: 
COMP.          Pioneer Natural Resources: COMPANY
WELL.          Lorencito 6-3-34-66: WELL
FLD.           Purgatoire River: FIELD
LOC.           2545' FNL & 1914' FWL: LOCATION
STAT.                 Colorado: State
CNTY.               Las Animas: COUNTY
CTRY. USA : Country
SECT. 3 : Section
TOWN. 34S : Township
RANG. 66W : Range
SRVC.                Patterson: SERVICE COMPANY
DATE.          Fri Sep 09 22:07:39 2005: LOG DATE
API.           05 071 08369 00: UNIQUE WELL ID
~Curve Information Block
DEPT.FT            0 000 00 00: Depth
SN.Ohm-m                      : IEL Short Normal
SP.mV                         : IEL Spontaneous Potential
DIR.Ohm-m                     : IEL Induction Resistivity
GR.GAPI                       : Gamma Ray
~Parameter Information Block
~A  Depth        SN          SP         DIR          GR     
# ...
  1224.5000     19.4344     -0.3374     10.8714     94.4297
  1224.7500     18.4742     -0.2180     10.5454     97.1125
  1225.0000     17.5574     -0.0537     10.2206    101.5022
  1225.2500     16.6256      0.1592      9.9093    104.8872
  1225.5000     15.7083      0.3811      9.6251    109.4394
  1225.7500     14.9061      0.5368      9.3800    111.0744
  1226.0000     14.3130      0.5851      9.1833    110.5632
  1226.2500     13.9503      0.5592      9.0412    108.6464
  1226.5000     13.7605      0.5341      8.9564    104.9640
  1226.7500     13.6492      0.5697      8.9269    102.7494
  1227.0000     13.5339      0.6783      8.9463    100.4068
  1227.2500     13.3758      0.8193      9.0030     99.6055
  1227.5000     13.1888      0.9173      9.0819     99.6920
  1227.7500     13.0345      0.9024      9.1656    100.6220
  1228.0000     12.9986      0.7449      9.2399    102.8506
  1228.2500     13.1459      0.4552      9.2972    104.3266
  1228.5000     13.4723      0.0700      9.3395    105.6389
  1228.7500     13.8853     -0.3526      9.3790    105.6568
  1229.0000     14.2383     -0.7410      9.4351    104.1917
  1229.2500     14.4020     -1.0429      9.5294    102.2066
  1229.5000     14.3246     -1.2640      9.6814     98.4315
  1229.7500     14.0506     -1.4695      9.9045     96.2728
  1230.0000     13.7052     -1.7437     10.2038     94.8038
  1230.2500     13.4544     -2.1409     10.5743     94.9069
  1230.5000     13.4476     -2.6597     11.0010     95.0676
  1230.7500     13.7578     -3.2344     11.4593     93.9177
  1231.0000     14.3608     -3.7457     11.9191     88.7659
  1231.2500     15.1847     -4.0638     12.3498     82.9116
  1231.5000     16.1930     -4.1159     12.7271     71.7460
  1231.7500     17.4193     -3.9337     13.0375     64.1450
  1232.0000     18.9111     -3.6305     13.2797     55.4224
  1232.2500     20.6296     -3.3152     13.4618     52.7432
  1232.5000     22.3903     -3.0189     13.5968     54.2623
  1232.7500     23.8940     -2.6943     13.6976     58.5400
  1233.0000     24.8335     -2.2765     13.7753     68.0834
  1233.2500     25.0223     -1.7479     13.8382     75.3443
  1233.5000     24.4804     -1.1602     13.8922     86.2627
  1233.7500     23.4261     -0.6105     13.9414     93.4641
  1234.0000     22.1677     -0.2006     13.9883    104.5911
  1234.2500     20.9645     -0.0051     14.0326    112.2878
  1234.5000     19.9606     -0.0579     14.0706    123.6187
  1234.7500     19.2227     -0.3521     14.0957    130.3846
  1235.0000     18.8081     -0.8431     14.1006    138.0009
  1235.2500     18.7732     -1.4516     14.0804    140.4493
  1235.5000     19.1287     -2.0777     14.0356    138.7461
  1235.7500     19.8143     -2.6339     13.9748    133.8487
  1236.0000     20.7294     -3.0702     13.9150    122.1947
  1236.2500     21.7800     -3.3731     13.8774    112.9165
  1236.5000     22.8912     -3.5577     13.8856     98.8845
  1236.7500     23.9917     -3.6718     13.9600     90.3041
  1237.0000     24.9974     -3.7866     14.1137     79.6159
  1237.2500     25.8158     -3.9562     14.3503     74.5170
  1237.5000     26.3583     -4.1892     14.6613     70.8298
  1237.7500     26.5575     -4.4663     15.0264     71.2722
  1238.0000     26.3876     -4.7698     15.4146     75.8726
  1238.2500     25.8821     -5.0762     15.7894     80.8343
  1238.5000     25.1349     -5.3405     16.1155     89.3103
  1238.7500     24.2755     -5.5257     16.3649     94.4347
  1239.0000     23.4233     -5.6540     16.5228     99.3602
  1239.2500     22.6493     -5.8013     16.5874    100.0693
  1239.5000     21.9766     -6.0214     16.5667     97.2616
  1239.7500     21.4178     -6.2927     16.4738     93.4533
  1240.0000     21.0077     -6.5555     16.3225     86.3621
  1240.2500     20.7941     -6.7747     16.1249     81.5748
  1240.5000     20.7881     -6.9558     15.8923     75.5219
  1240.7500     20.9298     -7.1244     15.6361     72.6931
  1241.0000     21.1111     -7.3068     15.3708     70.4005
  1241.2500     21.2361     -7.5056     15.1134     69.9369
  1241.5000     21.2605     -7.6735     14.8821     70.2050
  1241.7500     21.1840     -7.7241     14.6944     70.6755
  1242.0000     21.0210     -7.6022     14.5641     71.4804
  1242.2500     20.7883     -7.3546     14.4992     72.1748
  1242.5000     20.5107     -7.1121     14.5000     74.1528
  1242.7500     20.2255     -6.9850     14.5597     76.5625
  1243.0000     19.9672     -6.9787     14.6648     82.0706
  1243.2500     19.7537     -7.0176     14.7976     86.7374
  1243.5000     19.5875     -7.0328     14.9400     94.3260
  1243.7500     19.4799     -7.0165     15.0781     99.0413
  1244.0000     19.4699     -7.0140     15.2055    103.9910
  1244.2500     19.6128     -7.0814     15.3244    105.0628
  1244.5000     19.9370     -7.2344     15.4440    103.3636
  1244.7500     20.4069     -7.4196     15.5768    101.2369
  1245.0000     20.9347     -7.5502     15.7337     99.9467
  1245.2500     21.4381     -7.5822     15.9226    102.1776
  1245.5000     21.8917     -7.5484     16.1461    111.2855
  1245.7500     22.3202     -7.5178     16.4024    120.1095
  1246.0000     22.7438     -7.5363     16.6873    132.8829
  1246.2500     23.1362     -7.6016     16.9948    137.8233
  1246.5000     23.4439     -7.6759     17.3180    136.0198
  1246.7500     23.6407     -7.7237     17.6495    128.7023
  1247.0000     23.7597     -7.7519     17.9812    112.6670
  1247.2500     23.8756     -7.8118     18.3043    102.0118
  1247.5000     24.0547     -7.9616     18.6100     90.2156
  1247.7500     24.3131     -8.2434     18.8902     85.7325
  1248.0000     24.6106     -8.6891     19.1385     82.9578
  1248.2500     24.8783     -9.3017     19.3515     82.7109
  1248.5000     25.0605    -10.0112     19.5295     82.8729
  1248.7500     25.1474    -10.6911     19.6763     82.2166
  1249.0000     25.1727    -11.2593     19.7981     78.7380
  1249.2500     25.1800    -11.7419     19.9008     74.7580
  1249.5000     25.1835    -12.1995     19.9892     67.6632
  1249.7500     25.1580    -12.6210     20.0669     63.3063
  1250.0000     25.0682    -12.9415     20.1363     58.7669
  1250.2500     24.9113    -13.1499     20.2020     57.2928
  1250.5000     24.7342    -13.3202     20.2703     56.7750
  1250.7500     24.6092    -13.5232     20.3484     56.9232
  1251.0000     24.5922    -13.7458     20.4398     57.0545
  1251.2500     24.6968    -13.9116     20.5403     56.9176
  1251.5000     24.8929    -13.9575     20.6342     56.4633
  1251.7500     25.1222    -13.8865     20.6933     56.0804
  1252.0000     25.3224    -13.7769     20.6842     55.4860
  1252.2500     25.4451    -13.7472     20.5777     55.1393
  1252.5000     25.4607    -13.8796     20.3603     54.7918
  1252.7500     25.3604    -14.1548     20.0427     54.7051
  1253.0000     25.1680    -14.4672     19.6598     54.8587
  1253.2500     24.9485    -14.7055     19.2632     55.2071
  1253.5000     24.7812    -14.8185     18.9103     56.0844
  1253.7500     24.7008    -14.8242     18.6530     56.7897
  1254.0000     24.6635    -14.7803     18.5299     57.8182
  1254.2500     24.5789    -14.7529     18.5612     58.4052
  1254.5000     24.3816    -14.8001     18.7453     58.9459
  1254.7500     24.0808    -14.9650     19.0538     58.9843
  1255.0000     23.7514    -15.2678     19.4308     58.7762
  1255.2500     23.4819    -15.6996     19.7963     58.7597
  1255.5000     23.3204    -16.2250     20.0608     59.1675
  1255.7500     23.2514    -16.7952     20.1512     59.6288
  1256.0000     23.2157    -17.3604     20.0395     60.4370
  1256.2500     23.1542    -17.8631     19.7548     61.0841
  1256.5000     23.0483    -18.2381     19.3737     62.1866
  1256.7500     22.9253    -18.4515     18.9903     62.7714
  1257.0000     22.8339    -18.5476     18.6878     62.8256
  1257.2500     22.8125    -18.6214     18.5220     62.1000
  1257.5000     22.8733    -18.7305     18.5134     59.9315
  1257.7500     22.9998    -18.8559     18.6481     57.9654
