~Version Information
VERS.                      2.0: CWLS Log ASCII Standard - VERSION 2.0
WRAP.                       NO: One line per depth step
~Well Information Block
STRT.FT                -7.5000: 
STOP.FT              1545.0000: 
STEP.FT                 0.2500: 
NULL.                -999.2500: 
COMP.          Pioneer Natural Resources: COMPANY
WELL.          Kristin 22-23 Tr: WELL
FLD.           Purgatorie River: FIELD
LOC.           2273' FNL & 2029' FWL--: LOCATION
PROV.                       CO: PROVINCE
CNTY.               Las Animas: COUNTRY
SRVC.                         : SERVICE COMPANY
DATE.          Tue Jan 25 11:16:36 2005: LOG DATE
UWI.           071-08259      : UNIQUE WELL ID
~Curve Information Block
DEPT.FT            0 000 00 00: Depth
CCL.                          : Casing Collar Locator
TT3.usec                      : CBL 3' Travel Time
AMP3.mV                       : CBL 3' Amplitude
GR.GAPI                       : Gamma Ray
~Parameter Information Block
~A  Depth       CCL         TT3         AMP3         GR     
# ...
   796.5000      0.0000    735.9871      4.0636    129.7099
   796.7500      0.0000    732.0913      4.0861    138.5763
   797.0000      0.0000    731.4606      4.1157    148.6473
   797.2500      0.0000    734.4702      4.1483    155.9112
   797.5000      0.0000    739.7565      4.1772    157.1781
   797.7500      0.0000    744.9901      4.1983    151.8550
   798.0000      0.0000    747.7625      4.2105    141.8071
   798.2500      0.0000    746.3124      4.2045    129.9260
   798.5000      0.0000    740.6074      4.1632    118.7891
   798.7500      0.0000    733.2385      4.0863    110.2353
   799.0000      0.0000    728.6141      4.0039    105.6794
   799.2500      0.0000    730.2808      3.9512    105.9867
   799.5000      0.0000    738.3783      3.9356    110.4169
   799.7500      0.0000    749.4232      3.9414    116.1979
   800.0000      0.0000    758.6260      3.9533    120.2448
   800.2500      0.0000    762.9662      3.9620    121.5422
   800.5000      0.0000    762.7020      3.9570    121.2957
   800.7500      0.0000    760.1570      3.9392    120.8152
   801.0000      0.0000    757.1380      3.9298    119.9697
   801.2500      0.0000    753.8726      3.9475    117.7500
   801.5000      0.0000    750.4552      3.9801    113.6516
   801.7500      0.0000    748.3770      4.0004    108.1704
   802.0000      0.0000    749.6171      4.0091    102.2213
   802.2500      0.0000    754.3118      4.0428     96.4676
   802.5000      0.0000    760.0780      4.1290     91.5163
   802.7500      0.0000    763.8116      4.2423     88.5290
   803.0000      0.0000    763.9010      4.3171     88.8988
   803.2500      0.0000    760.8266      4.3053     92.9374
   803.5000      0.0000    756.4384      4.2172     99.2732
   803.7500      0.0000    753.1368      4.1096    105.8794
   804.0000      0.0000    752.9371      4.0417    111.4002
   804.2500      0.0000    756.1653      4.0380    115.3308
   804.5000      0.0000    761.1146      4.0792    117.7020
   804.7500      0.0000    765.5636      4.1209    119.3722
   805.0000      0.0000    768.4749      4.1284    122.0824
   805.2500      0.0000    769.9404      4.1012    127.1756
   805.5000      0.0000    770.0334      4.0654    133.9777
   805.7500      0.0000    768.3680      4.0459    139.6714
   806.0000      0.0000    764.6819      4.0497    141.0232
   806.2500      0.0000    759.4077      4.0700    136.6623
   806.5000      0.0000    753.8915      4.0949    128.1020
   806.7500      0.0000    750.1876      4.1156    118.7898
   807.0000      0.0000    749.7147      4.1349    112.2077
   807.2500      0.0000    751.2180      4.1645    110.3242
   807.5000      0.0000    750.5237      4.2098    112.8819
   807.7500      0.0000    743.2642      4.2656    117.8810
   808.0000      0.0000    728.4600      4.3270    123.2417
   808.2500      0.0000    710.0803      4.3976    128.1674
   808.5000      0.0000    695.4916      4.4821    132.7446
   808.7500      0.0000    691.4772      4.5718    136.7635
   809.0000      0.0000    699.9425      4.6438    139.7569
   809.2500      0.0000    716.8628      4.6789    142.0643
   809.5000      0.0000    735.9012      4.6764    144.9713
   809.7500      0.0000    752.8774      4.6496    149.4320
   810.0000      0.0000    766.6301      4.6164    154.7737
   810.2500      0.0000    776.9439      4.5897    158.7717
   810.5000      0.0000    783.1512      4.5671    159.2950
   810.7500      0.0000    784.6044      4.5334    156.3076
   811.0000      0.0000    781.4833      4.4784    152.1106
   811.2500      0.0000    774.7969      4.4067    149.2198
   811.5000      0.0000    766.1041      4.3276    147.9827
   811.7500      0.0000    757.4307      4.2434    146.3573
   812.0000      0.0000    750.9296      4.1512    141.8646
   812.2500      0.0000    748.1061      4.0491    133.6328
   812.5000      0.0000    749.2327      3.9419    122.6920
   812.7500      0.0000    753.4805      3.8433    110.8072
   813.0000      0.0000    759.5309      3.7685     99.5514
   813.2500      0.0000    766.1711      3.7234     90.2085
   813.5000      0.0000    772.4536      3.7023     83.5328
   813.7500      0.0000    777.5892      3.6977     79.1490
   814.0000      0.0000    781.0802      3.7139     75.5952
   814.2500      0.0000    783.0058      3.7623     71.4056
   814.5000      0.0000    783.9435      3.8428     66.2227
   814.7500      0.0000    784.5461      3.9344     60.9229
   815.0000      0.0000    785.1848      4.0119     56.8861
   815.2500      0.0000    785.7396      4.0696     55.3731
   815.5000      0.0000    785.4357      4.1238     57.4841
   815.7500      0.0000    782.9681      4.1925     64.1305
   816.0000      0.0000    777.2791      4.2766     75.3585
   816.2500      0.0000    768.6158      4.3621     89.6330
   816.5000      0.0000    758.8162      4.4346    104.2285
   816.7500      0.0000    750.2590      4.4858    116.6831
   817.0000      0.0000    744.3765      4.5069    126.0281
   817.2500      0.0000    741.1349      4.4878    132.6936
   817.5000      0.0000    739.6821      4.4306    137.2531
   817.7500      0.0000    739.1887      4.3618    139.4158
   818.0000      0.0000    739.1912      4.3175    138.5815
   818.2500      0.0000    739.5330      4.3112    135.3997
   818.5000      0.0000    740.1901      4.3248    132.1280
   818.7500      0.0000    741.1193      4.3336    130.9033
   819.0000      0.0000    742.2208      4.3304    131.8418
   819.2500      0.0000    743.4725      4.3212    133.3128
   819.5000      0.0000    745.1321      4.3075    134.0676
   819.7500      0.0000    747.7510      4.2846    134.5110
   820.0000      0.0000    751.6743      4.2543    135.5351
   820.2500      0.0000    756.1786      4.2321    136.6276
   820.5000      0.0000    759.2490      4.2353    136.0072
   820.7500      0.0000    758.8235      4.2655    132.9444
   821.0000      0.0000    754.4874      4.3060    129.2929
   821.2500      0.0000    747.7336      4.3364    128.0562
   821.5000      0.0000    740.8011      4.3463    130.6062
   821.7500      0.0000    735.6679      4.3341    135.5921
   822.0000      0.0000    733.6011      4.3023    140.2742
   822.2500      0.0000    734.6695      4.2570    142.6455
   822.5000      0.0000    737.6267      4.2056    142.4786
   822.7500      0.0000    740.8554      4.1502    140.7990
   823.0000      0.0000    743.4261      4.0884    138.5830
   823.2500      0.0000    745.0250      4.0171    135.8724
   823.5000      0.0000    745.3792      3.9359    132.0524
   823.7500      0.0000    744.5523      3.8507    126.8237
   824.0000      0.0000    743.6813      3.7785    120.7455
   824.2500      0.0000    744.4825      3.7424    114.9053
   824.5000      0.0000    747.4365      3.7546    110.3503
   824.7500      0.0000    750.5862      3.8029    107.7412
   825.0000      0.0000    750.5815      3.8580    107.2552
   825.2500     -2.0000    745.6481      3.8963    108.8501
   825.5000      0.0000    737.7390      3.9140    112.6404
   825.7500      0.0000    731.1227      3.9260    118.6596
   826.0000      0.0000    728.8622      3.9571    126.1168
   826.2500      0.0000    731.2508      4.0280    133.2539
   826.5000      0.0000    736.7643      4.1383    138.3730
   826.7500      0.0000    743.0486      4.2663    141.0499
   827.0000      0.0000    747.5777      4.3921    142.2528
   827.2500      0.0000    749.0793      4.5117    143.3844
   827.5000      0.0000    748.3532      4.6215    145.0681
   827.7500      0.0000    746.9288      4.7079    146.3284
   828.0000      0.0000    745.2533      4.7594    145.0346
   828.2500      0.0000    742.8109      4.7744    139.8933
   828.5000      0.0000    739.4723      4.7565    132.2009
   828.7500      0.0000    735.7406      4.7141    124.9941
   829.0000      0.0000    731.9457      4.6644    120.4019
   829.2500      0.0000    728.0771      4.6255    118.2736
   829.5000      0.0000    724.1355      4.6050    116.9220
   829.7500      0.0000    719.9380      4.5980    114.4320
