~Version Information
VERS.                      2.0: CWLS Log ASCII Standard - VERSION 2.0
WRAP.                       NO: One line per depth step
~Well Information Block
STRT.FT               806.0000: 
STOP.FT              1814.0000: 
STEP.FT                 0.2500: 
NULL.                -999.2500: 
COMP.          Pioneer Natural Resources: COMPANY
WELL.            Hill 33-22 Tr: WELL
FLD.           Purgatoire River: FIELD
LOC.           1573' FSL & 1585' FEL: LOCATION
PROV.                 Colorado: PROVINCE
CNTY.               Las Animas: COUNTRY
SRVC.                Patterson: SERVICE COMPANY
DATE.          Thu Apr 14 09:13:17 2005: LOG DATE
UWI.           05 071 08316 00: UNIQUE WELL ID
~Curve Information Block
DEPT.FT            0 000 00 00: Depth
SN.Ohm-m                      : IEL Short Normal
SP.mV                         : IEL Spontaneous Potential
DIR.Ohm-m                     : IEL Induction Resistivity
GR.GAPI                       : Gamma Ray
~Parameter Information Block
~A  Depth        SN          SP         DIR          GR     
# ...
  1308.5000     32.0718     53.2057     31.7457     57.9565
  1308.7500     32.2049     52.1957     31.5704     66.1057
  1309.0000     31.6401     51.0989     31.5847     83.4327
  1309.2500     30.6214     50.0833     31.7919     97.2702
  1309.5000     29.2512     49.3452     32.1571    117.6687
  1309.7500     27.5100     49.0157     32.6049    128.4868
  1310.0000     25.5417     49.0857     33.0359    137.5096
  1310.2500     23.6788     49.4049     33.3549    138.2475
  1310.5000     22.3349     49.7576     33.5013    132.4453
  1310.7500     21.8109     49.9673     33.4765    125.1973
  1311.0000     22.0384     49.9768     33.3477    111.9636
  1311.2500     22.7017     49.8649     33.2145    103.1515
  1311.5000     23.6352     49.7864     33.1571     91.6202
  1311.7500     24.9864     49.8699     33.2077     85.1279
  1312.0000     26.9782     50.1434     33.3646     76.4130
  1312.2500     29.6085     50.5425     33.6286     70.9577
  1312.5000     32.6432     50.9829     34.0225     63.4576
  1312.7500     35.6345     51.4283     34.5703     59.1980
  1313.0000     37.9339     51.8963     35.2607     54.1216
  1313.2500     39.0612     52.4035     36.0343     51.5086
  1313.5000     38.9982     52.9072     36.8089     48.6218
  1313.7500     38.0785     53.3040     37.5136     47.5199
  1314.0000     36.8190     53.4983     38.0872     47.4860
  1314.2500     35.7013     53.4758     38.4474     48.5797
  1314.5000     34.9254     53.3190     38.4982     51.2608
  1314.7500     34.3947     53.1556     38.2021     52.9957
  1315.0000     33.9143     53.0876     37.6455     54.2551
  1315.2500     33.3675     53.1486     37.0096     53.9843
  1315.5000     32.7964     53.3063     36.4707     52.7710
  1315.7500     32.4200     53.4930     36.1216     52.2103
  1316.0000     32.4382     53.6416     35.9562     52.3458
  1316.2500     32.7891     53.7115     35.8978     52.8026
  1316.5000     33.2575     53.6992     35.8371     53.2432
  1316.7500     33.6235     53.6276     35.6581     53.1994
  1317.0000     33.6187     53.5197     35.2575     52.8177
  1317.2500     33.1505     53.3786     34.5687     52.5454
  1317.5000     32.5393     53.1907     33.5884     52.5393
  1317.7500     32.1348     52.9441     32.3836     53.1466
  1318.0000     31.8180     52.6449     31.0639     55.5702
  1318.2500     31.0723     52.3294     29.7311     58.5241
  1318.5000     29.4821     52.0739     28.4411     65.6981
  1318.7500     27.1636     51.9919     27.1986     72.7666
  1319.0000     24.7165     52.2029     25.9773     86.9165
  1319.2500     22.7639     52.7742     24.7513     98.0775
  1319.5000     21.5492     53.6640     23.5158    115.3715
  1319.7500     20.9091     54.7167     22.2910    125.9497
  1320.0000     20.5108     55.7358     21.1114    138.5406
  1320.2500     20.0881     56.5846     20.0126    144.1550
  1320.5000     19.5325     57.2295     19.0216    148.6211
  1320.7500     18.8602     57.7018     18.1515    149.7912
  1321.0000     18.1927     58.0340     17.4024    150.6407
  1321.2500     17.7297     58.2287     16.7617    151.2388
  1321.5000     17.5764     58.2617     16.2048    152.0359
  1321.7500     17.6211     58.1001     15.6965    151.9541
  1322.0000     17.6622     57.7189     15.1991    149.9846
  1322.2500     17.5459     57.1065     14.6861    147.1920
  1322.5000     17.0968     56.2605     14.1546    141.1665
  1322.7500     16.0751     55.1944     13.6252    136.7132
  1323.0000     14.3804     53.9758     13.1280    131.3858
  1323.2500     12.2954     52.7722     12.6864    129.8162
  1323.5000     10.4333     51.8298     12.3092    131.0708
  1323.7500      9.3380     51.3412     11.9928    133.5985
  1324.0000      9.1356     51.2855     11.7264    137.3041
  1324.2500      9.5398     51.4092     11.4957    138.3844
  1324.5000     10.0823     51.3963     11.2835    137.8654
  1324.7500     10.3778     51.0707     11.0710    137.3575
  1325.0000     10.3192     50.4500     10.8419    138.7661
  1325.2500     10.0942     49.6420     10.5894    141.5770
  1325.5000      9.9848     48.7136     10.3206    147.1993
  1325.7500     10.1741     47.6367     10.0546    150.5495
  1326.0000     10.7448     46.3367      9.8134    153.6176
  1326.2500     11.6515     44.7929      9.6113    154.4886
  1326.5000     12.6131     43.1115      9.4485    155.0337
  1326.7500     13.2430     41.5087      9.3123    155.2747
  1327.0000     13.4961     40.2195      9.1849    155.5133
  1327.2500     13.9129     39.4153      9.0532    155.6187
  1327.5000     15.2460     39.1764      8.9133    156.0575
  1327.7500     18.0530     39.4879      8.7685    156.6986
  1328.0000     22.5958     40.2374      8.6225    157.9023
  1328.2500     27.8034     41.2474      8.4769    158.4253
  1328.5000     30.5722     42.3573      8.3332    158.0730
  1328.7500     28.6609     43.4879      8.1984    156.9985
  1329.0000     23.4118     44.6321      8.0867    154.7241
  1329.2500     17.8241     45.8022      8.0159    153.2455
  1329.5000     13.9174     46.9936      7.9993    151.4561
  1329.7500     12.1022     48.1718      8.0396    150.4385
  1330.0000     11.6511     49.2600      8.1280    148.6795
  1330.2500     11.6905     50.1348      8.2496    146.9544
  1330.5000     11.7654     50.6574      8.3910    142.7040
  1330.7500     11.6818     50.7420      8.5485    138.3084
  1331.0000     11.3646     50.4290      8.7311    129.1838
  1331.2500     11.0117     49.9294      8.9561    121.8645
  1331.5000     11.0907     49.6019      9.2392    110.6666
  1331.7500     12.0024     49.8258      9.5840    104.2956
  1332.0000     13.6361     50.7956      9.9795     98.5980
  1332.2500     15.1835     52.3770     10.4077     98.4105
  1332.5000     15.8216     54.1717     10.8519    104.2202
  1332.7500     15.6311     55.7506     11.2938    111.6443
  1333.0000     15.2788     56.8567     11.6955    125.6314
  1333.2500     15.1215     57.4403     11.9879    134.7938
  1333.5000     15.0501     57.5690     12.0959    145.0758
  1333.7500     14.8008     57.3314     12.0065    148.6218
  1334.0000     14.1926     56.7872     11.8302    148.7937
  1334.2500     13.2186     55.9507     11.8053    145.7959
  1334.5000     12.0421     54.7823     12.2981    137.5467
  1334.7500     10.9714     53.1710     13.9671    130.4619
  1335.0000     10.3961     50.9055     18.6514    119.4876
  1335.2500     10.6467     47.6408     36.2907    112.7941
  1335.5000     11.8981     42.8808 100000.0000    103.7595
  1335.7500     14.1439     36.0007 100000.0000     97.9117
  1336.0000     17.2225     26.3272 100000.0000     88.7693
  1336.2500     21.1110     13.2706 100000.0000     82.3472
  1336.5000     26.4126     -3.5200 100000.0000     72.0090
  1336.7500     34.2699    -24.0187 100000.0000     64.4094
  1337.0000     45.4405    -47.7663 100000.0000     52.0574
  1337.2500     59.1597    -73.9507 100000.0000     43.8125
  1337.5000     72.0049   -101.5862 100000.0000     32.9902
  1337.7500     78.0148   -129.6676     22.7840     27.5185
  1338.0000     72.4199   -157.2053      7.8375     22.3720
  1338.2500     56.6616   -183.1201      4.4460     20.8798
  1338.5000     38.1809   -206.0403      3.1253     21.1926
  1338.7500     24.2222   -224.1535      2.5102     23.0077
  1339.0000     16.8919   -235.3394      2.1994     28.4042
  1339.2500     14.1279   -237.5955      2.0329     34.1461
  1339.5000     13.2079   -229.4718      1.9446     46.5942
  1339.7500     12.5391   -210.3354      1.9235     57.5051
  1340.0000     11.6346   -180.6963      1.9937     76.6800
  1340.2500     10.6508   -142.7500      2.2019     89.7889
  1340.5000      9.9586   -100.6320      2.6148    106.3249
  1340.7500      9.8495    -59.6367      3.3173    113.3798
  1341.0000     10.6028    -24.4827      4.3837    116.6673
  1341.2500     12.4581      2.2839      5.8201    114.7411
  1341.5000     14.9404     20.6926      7.6170    109.2282
  1341.7500     16.7370     32.5146     10.1218    106.3977
