~Version Information
VERS.                      2.0: CWLS Log ASCII Standard - VERSION 2.0
WRAP.                       NO: One line per depth step
~Well Information Block
STRT.FT               675.0000: 
STOP.FT              2373.5000: 
STEP.FT                 0.2500: 
NULL.                -999.2500: 
COMP.          Pioneer Natural Resources: COMPANY
WELL.            Harrier 44-33: WELL
FLD.           Purgatoire River: FIELD
LOC.           456' FSL & 930' FEL: LOCATION
PROV.                 Colorado: PROVINCE
CNTY.               Las Animas: COUNTRY
SRVC.                Patterson: SERVICE COMPANY
DATE.          Mon Jun 20 07:40:56 2005: LOG DATE
UWI.           05 071 08398 00: UNIQUE WELL ID
~Curve Information Block
DEPT.FT            0 000 00 00: Depth
SN.Ohm-m                      : IEL Short Normal
SP.mV                         : IEL Spontaneous Potential
DIR.Ohm-m                     : IEL Induction Resistivity
GR.GAPI                       : Gamma Ray
~Parameter Information Block
~A  Depth        SN          SP         DIR          GR     
# ...
  2115.5000     20.0476    213.6458     18.8175     88.7116
  2115.7500     20.8103    213.6738     19.1773     83.8552
  2116.0000     21.5636    213.6787     19.4937     78.0978
  2116.2500     22.1899    213.6600     19.7645     75.6248
  2116.5000     22.6686    213.6260     20.0022     73.2887
  2116.7500     23.0812    213.5789     20.2256     71.8684
  2117.0000     23.4680    213.5075     20.4463     69.0909
  2117.2500     23.7459    213.3973     20.6612     66.8987
  2117.5000     23.8422    213.2457     20.8523     63.8896
  2117.7500     23.7841    213.0651     20.9946     62.4917
  2118.0000     23.6173    212.8736     21.0656     61.5032
  2118.2500     23.3279    212.6850     21.0555     61.3815
  2118.5000     22.8869    212.5066     20.9726     61.3848
  2118.7500     22.3574    212.3419     20.8416     61.2149
  2119.0000     21.8981    212.1944     20.6933     60.6588
  2119.2500     21.6047    212.0666     20.5501     60.3472
  2119.5000     21.3984    211.9584     20.4158     60.6652
  2119.7500     21.1411    211.8676     20.2733     61.8018
  2120.0000     20.8017    211.7905     20.0956     65.1487
  2120.2500     20.4381    211.7206     19.8642     68.1197
  2120.5000     20.0978    211.6425     19.5847     72.3629
  2120.7500     19.8129    211.5307     19.2879     74.3960
  2121.0000     19.6018    211.3544     19.0152     76.2215
  2121.2500     19.4541    211.0829     18.7987     77.1430
  2121.5000     19.3433    210.6796     18.6494     78.9108
  2121.7500     19.2101    210.0888     18.5588     80.3597
  2122.0000     18.9806    209.2317     18.5102     82.2502
  2122.2500     18.6420    208.0260     18.4903     82.9485
  2122.5000     18.2601    206.4219     18.4907     83.1374
  2122.7500     17.9434    204.4341     18.5026     82.8189
  2123.0000     17.7851    202.1488     18.5110     81.4077
  2123.2500     17.8081    199.7030     18.4979     79.5558
  2123.5000     17.9822    197.2463     18.4511     75.7410
  2123.7500     18.2674    194.9040     18.3714     73.3298
  2124.0000     18.6043    192.7579     18.2710     71.3131
  2124.2500     18.9343    190.8465     18.1663     71.2307
  2124.5000     19.2389    189.1783     18.0718     72.3061
  2124.7500     19.4988    187.7456     17.9971     73.2665
  2125.0000     19.6304    186.5310     17.9468     74.4713
  2125.2500     19.5394    185.5102     17.9199     75.0803
  2125.5000     19.2468    184.6613     17.9116     76.1394
  2125.7500     18.8857    183.9783     17.9174     77.2927
  2126.0000     18.5874    183.4750     17.9368     79.8297
  2126.2500     18.4283    183.1722     17.9698     81.6742
  2126.5000     18.4047    183.0786     18.0087     83.5942
  2126.7500     18.4261    183.1807     18.0313     83.9194
  2127.0000     18.4094    183.4498     18.0046     83.2878
  2127.2500     18.3281    183.8585     17.8994     82.6428
  2127.5000     18.1882    184.3901     17.7085     81.8427
  2127.7500     18.0671    185.0347     17.4563     81.2956
  2128.0000     18.0633    185.7773     17.1936     80.0784
  2128.2500     18.1432    186.5910     16.9780     78.9638
  2128.5000     18.1810    187.4377     16.8496     77.0963
  2128.7500     18.1434    188.2746     16.8167     76.0111
  2129.0000     18.1223    189.0628     16.8566     75.1782
  2129.2500     18.1771    189.7781     16.9305     75.2429
  2129.5000     18.2269    190.4178     17.0032     75.7262
  2129.7500     18.1742    191.0002     17.0568     75.8420
  2130.0000     18.0405    191.5555     17.0915     75.3880
  2130.2500     17.8937    192.1133     17.1165     74.8353
  2130.5000     17.7666    192.6912     17.1401     74.0690
  2130.7500     17.6895    193.2878     17.1655     73.6607
  2131.0000     17.7055    193.8836     17.1943     72.8000
  2131.2500     17.8112    194.4506     17.2294     71.7340
  2131.5000     17.9474    194.9669     17.2763     69.4216
  2131.7500     18.0782    195.4270     17.3415     67.9604
  2132.0000     18.2386    195.8421     17.4317     67.1493
  2132.2500     18.4984    196.2298     17.5540     67.8308
  2132.5000     18.8649    196.6005     17.7138     70.0252
  2132.7500     19.2485    196.9512     17.9089     71.5986
  2133.0000     19.5566    197.2677     18.1226     73.4857
  2133.2500     19.7849    197.5294     18.3242     74.4109
  2133.5000     20.0055    197.7149     18.4836     75.2427
  2133.7500     20.2788    197.8086     18.5923     75.2693
  2134.0000     20.6061    197.8078     18.6719     74.5463
  2134.2500     20.9763    197.7255     18.7614     73.8732
  2134.5000     21.3843    197.5866     18.8946     73.1637
  2134.7500     21.7969    197.4192     19.0863     73.0281
  2135.0000     22.1668    197.2437     19.3346     73.4269
  2135.2500     22.4559    197.0654     19.6283     74.1844
  2135.5000     22.6350    196.8754     19.9496     75.9559
  2135.7500     22.7125    196.6635     20.2700     77.2234
  2136.0000     22.7598    196.4331     20.5484     78.6152
  2136.2500     22.8859    196.2065     20.7433     79.0058
  2136.5000     23.1584    196.0176     20.8288     78.4279
  2136.7500     23.5187    195.9019     20.8008     76.8853
  2137.0000     23.8214    195.8903     20.6657     72.5261
  2137.2500     23.9883    196.0048     20.4290     68.7746
  2137.5000     24.0787    196.2558     20.0980     63.8603
  2137.7500     24.1621    196.6424     19.6951     62.1586
  2138.0000     24.1858    197.1587     19.2625     62.6049
  2138.2500     24.0216    197.7975     18.8552     64.5683
  2138.5000     23.5543    198.5477     18.5249     69.2067
  2138.7500     22.7152    199.3915     18.3086     73.2352
  2139.0000     21.5694    200.3069     18.2240     80.6958
  2139.2500     20.3849    201.2709     18.2669     86.4852
  2139.5000     19.5081    202.2561     18.4104     95.4548
  2139.7500     19.1438    203.2296     18.6026    100.6053
  2140.0000     19.2712    204.1646     18.7686    104.9834
  2140.2500     19.7561    205.0556     18.8221    104.7974
  2140.5000     20.5193    205.9235     18.6876     99.9306
  2140.7500     21.6175    206.8037     18.3253     94.6848
  2141.0000     23.2319    207.7291     17.7425     86.7550
  2141.2500     25.5061    208.7177     16.9847     83.2772
  2141.5000     28.2284    209.7663     16.1182     83.0908
  2141.7500     30.7182    210.8474     15.2155     86.6150
  2142.0000     32.1521    211.9119     14.3458     95.5841
  2142.2500     31.9716    212.8973     13.5623    102.0875
  2142.5000     30.0140    213.7429     12.8893    109.7258
  2142.7500     26.5654    214.4082     12.3197    112.7911
  2143.0000     22.4042    214.8846     11.8244    115.1861
  2143.2500     18.4979    215.1949     11.3687    116.3889
  2143.5000     15.4795    215.3802     10.9281    119.2807
  2143.7500     13.4449    215.4829     10.4935    122.2868
  2144.0000     12.1524    215.5345     10.0679    127.5529
  2144.2500     11.2826    215.5511      9.6587    130.5145
  2144.5000     10.5997    215.5368      9.2728    132.5664
  2144.7500     10.0293    215.4892      8.9186    132.1619
  2145.0000      9.6403    215.4064      8.6092    130.0699
  2145.2500      9.5211    215.3015      8.3618    128.6870
  2145.5000      9.6330    215.2130      8.1932    127.6028
  2145.7500      9.8215    215.1907      8.1143    127.6155
  2146.0000      9.9961    215.2544      8.1270    128.8078
  2146.2500     10.1752    215.3710      8.2256    130.4268
  2146.5000     10.3451    215.4806      8.4005    133.2274
  2146.7500     10.4578    215.5442      8.6419    134.1415
  2147.0000     10.5387    215.5709      8.9415    132.1179
  2147.2500     10.6570    215.6102      9.2916    128.2547
  2147.5000     10.8404    215.7200      9.6827    119.9256
  2147.7500     11.0862    215.9270     10.1027    113.7974
  2148.0000     11.4163    216.2095     10.5386    105.5026
  2148.2500     11.8535    216.5123     10.9801    101.3595
  2148.5000     12.3615    216.7773     11.4200     97.7524
  2148.7500     12.8571    216.9669     11.8545     96.6394
