~Version Information
VERS.                      2.0: CWLS Log ASCII Standard - VERSION 2.0
WRAP.                       NO: One line per depth step
~Well Information Block
STRT.FT                -7.0000: 
STOP.FT              2389.2500: 
STEP.FT                 0.2500: 
NULL.                -999.2500: 
COMP.          Pioneer Natural Resources: COMPANY
WELL.            Victory 12-14: WELL
FLD.           Purgatorie River: FIELD
LOC.           2434' FNL & 188' FWL------: LOCATION
PROV.                       CO: PROVINCE
CNTY.               Las Animas: COUNTRY
SRVC.          Patterson Wireline: SERVICE COMPANY
DATE.          Fri Apr 22 14:29:17 2005: LOG DATE
UWI.           05 071 08332 00: UNIQUE WELL ID
~Curve Information Block
DEPT.FT            0 000 00 00: Depth
CCL.                          : Casing Collar Locator
TT3.usec                      : CBL 3' Travel Time
AMP3.mV                       : CBL 3' Amplitude
GR.GAPI                       : Gamma Ray
~Parameter Information Block
~A  Depth       CCL         TT3         AMP3         GR     
# ...
  1266.0000      0.0000    777.9741      5.5215    114.7093
  1266.2500      0.0000    773.7681      5.5194    115.7080
  1266.5000      0.0000    767.4792      5.4633    117.6661
  1266.7500      0.0000    759.1545      5.3442    120.2155
  1267.0000      0.0000    751.7611      5.2242    122.2515
  1267.2500      0.0000    749.0538      5.1795    122.7439
  1267.5000      0.0000    752.7466      5.2264    121.6579
  1267.7500      0.0000    761.4095      5.3282    120.0470
  1268.0000      0.0000    771.6403      5.4429    119.1746
  1268.2500      0.0000    780.6960      5.5381    119.5099
  1268.5000      0.0000    788.2358      5.5928    120.4943
  1268.7500      0.0000    795.2543      5.6206    121.1174
  1269.0000      0.0000    801.9457      5.6660    120.5138
  1269.2500      0.0000    807.5022      5.7534    118.1344
  1269.5000      0.0000    811.4988      5.8591    113.8898
  1269.7500      0.0000    814.4290      5.9395    108.4151
  1270.0000      0.0000    816.8662      5.9649    103.0125
  1270.2500      0.0000    818.6880      5.9405     99.0539
  1270.5000      0.0000    819.3998      5.9132     97.2869
  1270.7500      0.0000    818.9165      5.9344     97.6348
  1271.0000      0.0000    817.2484      6.0027     99.5151
  1271.2500      0.0000    813.0319      6.0788    102.1585
  1271.5000      0.0000    803.3696      6.1620    104.6910
  1271.7500      0.0000    786.7822      6.2973    106.3781
  1272.0000      0.0000    766.5648      6.4957    107.1369
  1272.2500      0.0000    750.0338      6.6961    107.5251
  1272.5000      0.0000    743.6505      6.8188    108.0089
  1272.7500      0.0000    748.6466      6.8199    108.6441
  1273.0000      0.0000    760.4922      6.6941    109.5937
  1273.2500      0.0000    771.9729      6.4691    111.3103
  1273.5000      0.0000    778.0319      6.2089    113.9585
  1273.7500      0.0000    779.1870      5.9789    117.1588
  1274.0000      0.0000    780.2888      5.7777    120.2916
  1274.2500      0.0000    785.5380      5.5338    122.3190
  1274.5000      0.0000    794.8929      5.2010    121.4472
  1274.7500      0.0000    805.2086      4.8315    116.1669
  1275.0000      0.0000    813.7131      4.5193    107.1059
  1275.2500      0.0000    819.3598      4.2914     97.2565
  1275.5000      0.0000    821.6568      4.1006     90.1466
  1275.7500      0.0000    820.2890      3.9219     87.9619
  1276.0000      0.0000    816.5161      3.8023     90.9408
  1276.2500      0.0000    813.5423      3.7899     97.6381
  1276.5000      0.0000    814.3036      3.8496    105.4869
  1276.7500      0.0000    818.8683      3.8909    111.7634
  1277.0000      0.0000    824.1981      3.8700    114.7304
  1277.2500      0.0000    826.5092      3.8253    114.1794
  1277.5000      0.0000    824.1613      3.8125    111.1748
  1277.7500      0.0000    818.6226      3.8441    107.4848
  1278.0000      0.0000    812.8611      3.9064    104.8300
  1278.2500      0.0000    808.9650      3.9996    104.0338
  1278.5000      0.0000    807.1657      4.1407    104.7781
  1278.7500      0.0000    806.5022      4.3496    106.2771
  1279.0000      0.0000    805.7823      4.6360    108.1790
  1279.2500      0.0000    804.0769      4.9759    110.8583
  1279.5000      0.0000    801.0483      5.3000    114.9141
  1279.7500      0.0000    797.3257      5.5400    120.1397
  1280.0000      0.0000    794.4230      5.6946    124.9731
  1280.2500      0.0000    793.8329      5.8185    127.4784
  1280.5000      0.0000    795.8674      5.9386    127.1458
  1280.7500      0.0000    799.1430      6.0202    125.5775
  1281.0000      0.0000    801.2209      6.0427    125.4153
  1281.2500      0.0000    800.2550      6.0738    128.4384
  1281.5000      0.0000    796.5979      6.2222    134.1467
  1281.7500      0.0000    792.6910      6.5127    140.1345
  1282.0000      0.0000    790.8626      6.8346    144.2991
  1282.2500      0.0000    791.2023      7.0352    146.4432
  1282.5000      0.0000    791.9510      7.0652    147.1287
  1282.7500      0.0000    791.7590      7.0120    145.7574
  1283.0000      0.0000    791.0140      6.9878    141.3053
  1283.2500      0.0000    791.0959      7.0036    134.7941
  1283.5000      0.0000    792.6469      6.9603    129.4240
  1283.7500      0.0000    794.4908      6.7478    127.6985
  1284.0000      0.0000    794.3026      6.3434    129.4270
  1284.2500      0.0000    790.6196      5.8324    132.7281
  1284.5000      0.0000    784.1262      5.3582    135.8420
  1284.7500      0.0000    776.7128      5.0468    137.5938
  1285.0000      0.0000    769.4553      4.9461    137.2351
  1285.2500      0.0000    761.9188      5.0082    134.7774
  1285.5000      0.0000    753.4255      5.1276    131.4337
  1285.7500      0.0000    744.5048      5.2184    129.1754
  1286.0000      0.0000    736.6700      5.2730    129.5101
  1286.2500      0.0000    730.8598      5.3460    132.6003
  1286.5000      0.0000    726.3654      5.4723    137.5618
  1286.7500      0.0000    721.4254      5.6133    143.3789
  1287.0000      0.0000    715.1497      5.6972    149.2185
  1287.2500      0.0000    709.1477      5.7041    153.9101
  1287.5000      0.0000    706.8796      5.6877    155.8117
  1287.7500      0.0000    710.7115      5.7076    153.8045
  1288.0000      0.0000    719.6974      5.7569    148.3495
  1288.2500      0.0000    730.4841      5.7770    141.2722
  1288.5000      0.0000    739.9249      5.7301    134.6959
  1288.7500      0.0000    746.6168      5.6343    130.2577
  1289.0000      0.0000    750.5797      5.5273    128.7321
  1289.2500      0.0000    752.1274      5.4255    129.6512
  1289.5000      0.0000    751.2462      5.3385    131.2604
  1289.7500      0.0000    748.1740      5.3014    131.3981
  1290.0000      0.0000    744.3434      5.3551    129.0405
  1290.2500      0.0000    742.1289      5.4910    125.1783
  1290.5000      0.0000    743.2267      5.6436    121.9783
  1290.7500      0.0000    747.6346      5.7424    120.9803
  1291.0000      0.0000    754.5061      5.7468    122.0547
  1291.2500      0.0000    763.5229      5.6295    123.6796
  1291.5000      0.0000    774.4557      5.3790    123.9079
  1291.7500      0.0000    785.3281      5.0551    121.2941
  1292.0000      0.0000    792.7021      4.7989    115.2751
  1292.2500      0.0000    795.1865      4.7308    106.0565
  1292.5000      0.0000    795.6470      4.8438     94.7136
  1292.7500      0.0000    798.2499      5.0185     83.4437
  1293.0000     -2.0000    803.5593      5.1324     74.8895
  1293.2500     -2.0000    807.4719      5.1503     70.6169
  1293.5000      0.0000    804.9095      5.1337     70.2720
  1293.7500      0.0000    794.4418      5.1610     72.2091
  1294.0000      0.0000    779.9807      5.2203     74.8915
  1294.2500      0.0000    768.6428      5.1985     78.0240
  1294.5000      0.0000    766.1976      5.0143     82.5402
  1294.7500      0.0000    773.1027      4.7398     89.1182
  1295.0000      0.0000    784.2535      4.5527     96.4928
  1295.2500      0.0000    792.8930      4.5840    101.8594
  1295.5000      0.0000    795.3290      4.8242    103.3597
  1295.7500      0.0000    792.5382      5.1406    101.5439
  1296.0000      0.0000    787.8571      5.3754     98.0739
  1296.2500      0.0000    783.5643      5.4630     93.9098
  1296.5000      0.0000    780.0233      5.4787     89.3135
  1296.7500      0.0000    777.5831      5.5574     84.7738
  1297.0000      0.0000    777.5668      5.7506     81.0545
  1297.2500      0.0000    780.1299      5.9666     78.4835
  1297.5000      0.0000    781.2104      6.0524     76.6679
  1297.7500      0.0000    772.8409      5.9317     75.1579
  1298.0000      0.0000    749.2034      5.6696     74.3807
  1298.2500      0.0000    715.0626      5.4157     75.6776
  1298.5000      0.0000    687.3134      5.2859     80.3035
  1298.7500      0.0000    683.7170      5.2855     88.5037
  1299.0000      0.0000    707.5452      5.3325     99.5522
  1299.2500      0.0000    744.6469      5.3562    112.2297
