~Version Information
 VERS.                                  2.0 : CWLS LAS VERSION
 WRAP.                                   NO : WRAPING MODE
 SWARE .                 MController 2.5.0J : SOFTWARE VERSION
~Well Information
 WELL.                       Beacon 11-18TR : WELL
 COMP.        Pioneer Natural Resources Inc : COMPANY
 FLD.                      Purgatoire River : FIELD
 LOC.                NW/NW Sec 18 T32S R66W : LOCATION
 DATE.                           1/15-16/05 : DATE(S) LOGGED
 SRVC.       Blanco Geological Services LLC : SERVICE COMPANY
 STAT.                                   CO : STATE
 CNTY.                           Las Animas : COUNTY
 CTRY.                                  USA : COUNTRY
 API.                          05-071-08251 : API NUMBER
 STRT.FT                             283.00 : START DEPTH
 STOP.FT                            2753.00 : STOP DEPTH
 STEP.FT                               1.00 : DEPTH INCREMENT
 NULL.                                -9999 : NULL VALUE
~Curve information
 DEPTH.FT                                   :
 ROP.MIN/FT                                 :
 GAS.UNITS                                  :
~ASCII Log data
# ...
       483.0         0.20          7.3 
       484.0         0.20          7.3 
       485.0         0.22          8.0 
       486.0         0.20          9.6 
       487.0         0.17         16.6 
       488.0         0.17         30.1 
       489.0         0.20         47.6 
       490.0         0.17         55.9 
       491.0         0.17         65.7 
       492.0         0.17         75.2 
       493.0         0.17         99.9 
       494.0         0.13        127.0 
       495.0         0.20        137.6 
       496.0         0.17        157.0 
       497.0         0.17        190.9 
       498.0         0.17        225.0 
       499.0         0.17        250.0 
       500.0         0.17        263.9 
       501.0         0.17        268.7 
       502.0         0.13        274.3 
       503.0         0.18        310.4 
       504.0         0.13        385.6 
       505.0         0.13       1257.3 
       506.0         0.13       1912.8 
       507.0         1.87       4380.4 
       508.0         0.20       1441.3 
       509.0         0.13       1192.9 
       510.0         0.13       1088.8 
       511.0         0.13       1024.6 
       512.0         0.20        990.8 
       513.0         0.18       1046.9 
       514.0         0.13       1043.0 
       515.0         0.13        970.2 
       516.0         0.20        919.9 
       517.0         0.17        902.8 
       518.0         0.17        896.7 
       519.0         0.10        879.0 
       520.0         0.10        868.7 
       521.0         0.17        856.4 
       522.0         0.20        888.0 
       523.0         0.17        974.7 
       524.0         0.17        942.5 
       525.0         0.20        857.7 
       526.0         0.10        742.7 
       527.0         0.13        706.2 
       528.0         0.07        679.2 
       529.0         0.17        668.5 
       530.0         0.17        654.4 
       531.0         0.20        638.2 
       532.0         0.17        612.1 
       533.0         0.22        637.9 
       534.0         0.17        850.0 
       535.0         0.10       1185.8 
       536.0         0.17       1973.1 
       537.0         2.03       3659.2 
       538.0         0.20        891.2 
       539.0         0.17        830.3 
       540.0         0.17        833.2 
       541.0         0.18        859.0 
       542.0         0.17        873.8 
       543.0         0.13        874.5 
       544.0         0.17        874.5 
       545.0         0.13        874.8 
       546.0         0.13        869.3 
       547.0         0.13        865.4 
       548.0         0.17        862.2 
       549.0         0.17        850.6 
       550.0         0.17        830.3 
       551.0         0.20        812.3 
       552.0         0.20        798.4 
       553.0         0.27        788.1 
       554.0         0.30        768.1 
       555.0         0.27        755.5 
       556.0         0.20        823.5 
       557.0         0.23        826.8 
       558.0         0.25        755.5 
       559.0         0.20        645.0 
       560.0         0.23        610.8 
       561.0         0.23        592.2 
       562.0         0.20        570.9 
       563.0         0.23        562.5 
       564.0         0.23        727.5 
       565.0         0.17       1231.9 
       566.0         0.13       1808.7 
       567.0         2.12       4776.8 
       568.0         0.33       1026.9 
       569.0         0.23        884.8 
       570.0         0.20        812.6 
       571.0         0.20        775.2 
       572.0         0.20        750.7 
       573.0         0.13        725.9 
       574.0         0.17        715.9 
       575.0         0.17        706.6 
       576.0         0.23        700.1 
       577.0         0.20        687.2 
       578.0         0.23        685.9 
       579.0         0.28        681.1 
       580.0         0.23        673.4 
       581.0         0.20        667.2 
       582.0         0.23        663.7 
       583.0         0.23        659.2 
       584.0         0.20        653.4 
       585.0         0.23        660.8 
       586.0         0.20        666.9 
       587.0         0.23        680.5 
       588.0         0.20        728.5 
       589.0         0.27        694.0 
       590.0         0.23        564.8 
       591.0         0.30        530.6 
       592.0         0.20        516.1 
       593.0         0.18        505.8 
       594.0         0.17        517.4 
       595.0         0.27        792.3 
       596.0         0.13       1169.3 
       597.0         1.53       2295.0 
       598.0         0.23       1122.6 
       599.0         0.27        968.6 
       600.0         0.27        848.0 
       601.0         0.25        804.2 
       602.0         0.23        740.4 
       603.0         0.20        674.7 
       604.0         0.20        656.9 
       605.0         0.33        644.4 
       606.0         0.20        623.7 
       607.0         0.20        624.1 
       608.0         0.17        623.7 
       609.0         0.17        624.1 
       610.0         0.13        622.4 
       611.0         0.13        618.3 
       612.0         0.13        616.3 
       613.0         0.23        612.5 
       614.0         0.23        611.8 
       615.0         0.23        610.8 
       616.0         0.17        611.5 
       617.0         0.22        612.1 
       618.0         0.23        659.2 
       619.0         0.23        650.2 
       620.0         0.17        579.9 
       621.0         0.23        522.2 
       622.0         0.23        489.0 
       623.0         0.20        467.8 
       624.0         0.20        441.3 
       625.0         0.20        440.0 
       626.0         0.23        219.0 
       627.0         2.05       2736.8 
       628.0         0.30       1189.0 
       629.0         0.33        827.7 
       630.0         0.27        666.3 
       631.0         0.27        555.7 
       632.0         0.23        472.3 
       633.0         0.23        440.0 
       634.0         3.65        440.0 
       635.0         0.35        296.4 
       636.0         0.30        271.1 
       637.0         0.23        261.1 
       638.0         0.23        257.6 
       639.0         0.27        264.3 
       640.0         0.27        262.2 
       641.0         0.30        238.6 
       642.0         0.27        224.4 
       643.0         0.27        224.2 
       644.0         0.23        230.7 
       645.0         0.20        242.2 
       646.0         0.20        250.7 
       647.0         0.18        250.3 
       648.0         0.20        244.1 
       649.0         0.27        245.6 
       650.0         0.27        260.1 
       651.0         0.23        276.5 
       652.0         0.23        273.2 
       653.0         0.23        256.0 
       654.0         0.30        217.3 
       655.0         0.40        194.0 
       656.0         0.23        168.4 
       657.0         2.32       2628.6 
       658.0         0.37       1447.8 
       659.0         0.47        965.0 
       660.0         0.43        719.1 
       661.0         0.33        579.9 
       662.0         0.35        512.9 
       663.0         0.30        482.9 
       664.0         0.30        451.6 
       665.0         0.33        440.0 
       666.0         0.33        209.2 
       667.0         0.30        211.0 
       668.0         0.20        213.6 
       669.0         0.20        213.5 
       670.0         0.27        216.8 
       671.0         0.27        222.0 
       672.0         0.30        221.6 
       673.0         0.35        215.6 
       674.0         0.30        211.8 
       675.0         0.33        206.8 
       676.0         0.30        215.0 
       677.0         0.27        215.5 
       678.0         0.40        213.0 
       679.0         0.33        215.7 
       680.0         0.37        216.2 
       681.0         0.37        237.9 
       682.0         0.30        244.8 
