~Version Information
VERS.                      2.0: CWLS Log ASCII Standard - VERSION 2.0
WRAP.                       NO: One line per depth step
~Well Information Block
STRT.FT              2246.0000: 
STOP.FT              2472.6000: 
STEP.FT                 0.1000: 
NULL.                -999.2500: 
COMP.          Petrogulf Corporation: COMPANY
WELL.           Schedler 9-23V: WELL
FLD.           Purgatorie River: FIELD
LOC.           2185' FSL & 2328' FWL: LOCATION
CNTY.               Las Animas: COUNTY
SRVC.                         : SERVICE COMPANY
DATE.          Thu Jul 10 10:29:30 2003: LOG DATE
UWI.           05 071 07876 00: UNIQUE WELL ID
STAT.                 Colorado: STATE
~Curve Information Block
DEPT.FT            0 000 00 00: Depth
DCAL.in                       : CDL Caliper
RHOB.g/cc                     : CDL Bulk Density
RHOC.g/cc                     : CDL Density Correction
DPOR.pu                       : CDL Density Porosity
GR.GAPI                       : Gamma Ray
NPOR.pu                       : Neutron Porosity
~Parameter Information Block
~A  Depth       DCAL        RHOB        RHOC        DPOR         GR         NPOR    
# ...
  2380.4000      7.8426      2.5353      0.0804      6.9502    113.0938     21.1100
  2380.5000      7.8376      2.5426      0.0775      6.5084    112.9564     20.6331
  2380.6000      7.8376      2.5486      0.0743      6.1440    112.8916     20.2054
  2380.7000      7.8376      2.5534      0.0711      5.8574    112.8292     19.8279
  2380.8000      7.8359      2.5568      0.0677      5.6467    112.7063     19.4999
  2380.9000      7.8359      2.5591      0.0643      5.5075    112.4774     19.2197
  2381.0000      7.8371      2.5603      0.0609      5.4335    112.1214     18.9854
  2381.1000      7.8371      2.5606      0.0576      5.4169    111.6387     18.7949
  2381.2000      7.8371      2.5601      0.0545      5.4483    111.0547     18.6469
  2381.3000      7.8390      2.5590      0.0516      5.5178    110.4105     18.5410
  2381.4000      7.8390      2.5574      0.0491      5.6146    109.7544     18.4770
  2381.5000      7.8409      2.5555      0.0470      5.7284    109.1394     18.4544
  2381.6000      7.8409      2.5535      0.0454      5.8489    108.6120     18.4715
  2381.7000      7.8409      2.5515      0.0442      5.9669    108.2114     18.5247
  2381.8000      7.8438      2.5498      0.0434      6.0740    107.9638     18.6082
  2381.9000      7.8438      2.5483      0.0432      6.1635    107.8827     18.7145
  2382.0000      7.8462      2.5472      0.0434      6.2298    107.9675     18.8346
  2382.1000      7.8462      2.5466      0.0441      6.2694    108.2051     18.9590
  2382.2000      7.8462      2.5464      0.0451      6.2799    108.5699     19.0784
  2382.3000      7.8399      2.5467      0.0464      6.2609    109.0225     19.1836
  2382.4000      7.8399      2.5475      0.0480      6.2130    109.5168     19.2660
  2382.5000      7.8242      2.5487      0.0497      6.1380    109.9967     19.3178
  2382.6000      7.8242      2.5504      0.0513      6.0388    110.4008     19.3325
  2382.7000      7.8242      2.5523      0.0530      5.9186    110.6650     19.3050
  2382.8000      7.8141      2.5546      0.0545      5.7814    110.7294     19.2330
  2382.9000      7.8141      2.5571      0.0558      5.6312    110.5418     19.1180
  2383.0000      7.8192      2.5597      0.0569      5.4721    110.0673     18.9657
  2383.1000      7.8192      2.5624      0.0579      5.3082    109.2885     18.7862
  2383.2000      7.8192      2.5651      0.0587      5.1436    108.2163     18.5926
  2383.3000      7.8398      2.5678      0.0595      4.9825    106.8820     18.4001
  2383.4000      7.8398      2.5703      0.0602      4.8285    105.3413     18.2221
  2383.5000      7.8598      2.5727      0.0607      4.6856    103.6604     18.0697
  2383.6000      7.8598      2.5748      0.0613      4.5569    101.9145     17.9484
  2383.7000      7.8598      2.5766      0.0617      4.4459    100.1766     17.8578
  2383.8000      7.8710      2.5781      0.0621      4.3548     98.5066     17.7926
  2383.9000      7.8710      2.5793      0.0623      4.2855     96.9502     17.7426
  2384.0000      7.8703      2.5801      0.0623      4.2386     95.5346     17.6960
  2384.1000      7.8703      2.5805      0.0620      4.2139     94.2703     17.6411
  2384.2000      7.8703      2.5805      0.0614      4.2098     93.1543     17.5679
  2384.3000      7.8622      2.5803      0.0604      4.2235     92.1725     17.4696
  2384.4000      7.8622      2.5799      0.0590      4.2508     91.3046     17.3434
  2384.5000      7.8632      2.5793      0.0573      4.2871     90.5236     17.1903
  2384.6000      7.8632      2.5786      0.0552      4.3271     89.7995     17.0143
  2384.7000      7.8632      2.5780      0.0530      4.3654     89.0973     16.8224
  2384.8000      7.8745      2.5774      0.0508      4.3972     88.3776     16.6234
  2384.9000      7.8745      2.5771      0.0488      4.4185     87.6021     16.4273
  2385.0000      7.8813      2.5770      0.0473      4.4268     86.7348     16.2439
  2385.1000      7.8813      2.5771      0.0463      4.4211     85.7472     16.0815
  2385.2000      7.8813      2.5774      0.0459      4.4021     84.6266     15.9462
  2385.3000      7.8819      2.5779      0.0462      4.3722     83.3787     15.8393
  2385.4000      7.8819      2.5785      0.0470      4.3352     82.0295     15.7580
  2385.5000      7.8815      2.5791      0.0483      4.2956     80.6261     15.6952
  2385.6000      7.8815      2.5797      0.0497      4.2588     79.2288     15.6404
  2385.7000      7.8815      2.5802      0.0511      4.2298     77.9054     15.5820
  2385.8000      7.8756      2.5805      0.0523      4.2136     76.7201     15.5099
  2385.9000      7.8756      2.5805      0.0532      4.2141     75.7267     15.4177
  2386.0000      7.8632      2.5801      0.0537      4.2344     74.9573     15.3040
  2386.1000      7.8632      2.5794      0.0537      4.2764     74.4222     15.1729
  2386.2000      7.8632      2.5784      0.0533      4.3410     74.1072     15.0330
  2386.3000      7.8543      2.5769      0.0526      4.4283     73.9777     14.8958
  2386.4000      7.8543      2.5751      0.0515      4.5376     73.9856     14.7734
  2386.5000      7.8500      2.5730      0.0501      4.6674     74.0732     14.6761
  2386.6000      7.8500      2.5705      0.0485      4.8161     74.1848     14.6110
  2386.7000      7.8500      2.5678      0.0468      4.9817     74.2698     14.5809
  2386.8000      7.8495      2.5648      0.0450      5.1619     74.2867     14.5849
  2386.9000      7.8495      2.5617      0.0433      5.3544     74.2059     14.6186
  2387.0000      7.8530      2.5583      0.0417      5.5565     74.0113     14.6763
  2387.1000      7.8530      2.5549      0.0404      5.7652     73.6981     14.7518
  2387.2000      7.8530      2.5514      0.0394      5.9776     73.2747     14.8412
  2387.3000      7.8563      2.5479      0.0388      6.1900     72.7589     14.9429
  2387.4000      7.8563      2.5444      0.0386      6.3992     72.1768     15.0584
  2387.5000      7.8593      2.5411      0.0389      6.6012     71.5605     15.1923
  2387.6000      7.8593      2.5379      0.0395      6.7925     70.9459     15.3501
  2387.7000      7.8593      2.5350      0.0405      6.9693     70.3661     15.5371
  2387.8000      7.8618      2.5324      0.0419      7.1284     69.8512     15.7563
  2387.9000      7.8618      2.5301      0.0436      7.2668     69.4274     16.0067
  2388.0000      7.8658      2.5282      0.0457      7.3822     69.1111     16.2826
  2388.1000      7.8658      2.5267      0.0483      7.4729     68.9106     16.5740
  2388.2000      7.8658      2.5256      0.0511      7.5381     68.8260     16.8672
  2388.3000      7.8742      2.5250      0.0543      7.5780     68.8497     17.1474
  2388.4000      7.8742      2.5247      0.0576      7.5934     68.9676     17.4001
  2388.5000      7.8741      2.5248      0.0610      7.5863     69.1637     17.6135
  2388.6000      7.8741      2.5253      0.0642      7.5590     69.4208     17.7798
  2388.7000      7.8741      2.5260      0.0671      7.5149     69.7262     17.8952
  2388.8000      7.8617      2.5269      0.0695      7.4578     70.0718     17.9593
  2388.9000      7.8617      2.5280      0.0714      7.3917     70.4556     17.9738
  2389.0000      7.8523      2.5292      0.0727      7.3210     70.8747     17.9404
  2389.1000      7.8523      2.5304      0.0734      7.2500     71.3264     17.8601
  2389.2000      7.8523      2.5315      0.0737      7.1831     71.7993     17.7331
  2389.3000      7.8503      2.5325      0.0735      7.1240     72.2709     17.5595
  2389.4000      7.8503      2.5332      0.0731      7.0761     72.7080     17.3410
  2389.5000      7.8510      2.5338      0.0725      7.0424     73.0717     17.0825
  2389.6000      7.8510      2.5341      0.0717      7.0245     73.3245     16.7945
  2389.7000      7.8510      2.5341      0.0707      7.0233     73.4375     16.4927
  2389.8000      7.8536      2.5339      0.0695      7.0386     73.3990     16.1970
  2389.9000      7.8536      2.5334      0.0681      7.0687     73.2200     15.9298
