~Version Information
VERS.                      2.0: CWLS Log ASCII Standard - VERSION 2.0
WRAP.                       NO: One line per depth step
~Well Information Block
STRT.FT               -14.0000: 
STOP.FT              2531.7500: 
STEP.FT                 0.2500: 
NULL.                -999.2500: 
COMP.          Petrogulf Corporation: COMPANY
WELL.            Lavedure 7-44: WELL
FLD.           Purgatorie River: FIELD
LOC.           969' FSL & 501' FEL--: LOCATION
PROV.                       CO: PROVINCE
CNTY.               Las Animas: COUNTRY
SRVC.          Patterson Wireline: SERVICE COMPANY
DATE.          Wed Dec 10 09:23:08 2003: LOG DATE
UWI.                          : UNIQUE WELL ID
~Curve Information Block
DEPT.FT            0 000 00 00: Depth
CCL.                          : Casing Collar Locator
TT3.usec                      : CBL 3' Travel Time
AMP3.mV                       : CBL 3' Amplitude
GR.GAPI                       : Gamma Ray
~Parameter Information Block
~A  Depth       CCL         TT3         AMP3         GR     
# ...
  1158.5000      0.0000    822.0809      4.6000    143.6319
  1158.7500      0.0000    823.0956      4.4417    145.2600
  1159.0000      0.0000    823.9904      4.2455    145.2078
  1159.2500      0.0000    824.5069      4.1093    142.3999
  1159.5000      0.0000    824.5062      4.0998    137.1063
  1159.7500      0.0000    823.9948      4.1779    130.6750
  1160.0000      0.0000    823.1168      4.2407    124.3887
  1160.2500      0.0000    822.1287      4.2393    118.8822
  1160.5000      0.0000    821.3045      4.2251    114.7435
  1160.7500      0.0000    820.7913      4.2636    112.9755
  1161.0000      0.0000    820.5243      4.3284    114.1011
  1161.2500      0.0000    820.2756      4.3192    116.9326
  1161.5000      0.0000    819.7975      4.1826    118.9631
  1161.7500      0.0000    818.9847      3.9768    118.2436
  1162.0000      0.0000    817.9441      3.8139    114.6646
  1162.2500      0.0000    816.8437      3.7795    109.6031
  1162.5000      0.0000    815.3770      3.9146    104.9426
  1162.7500      0.0000    812.1123      4.2190    102.4093
  1163.0000      0.0000    804.7585      4.6323    103.0574
  1163.2500      0.0000    792.0236      5.0344    106.7731
  1163.5000      0.0000    775.6268      5.3007    112.2265
  1163.7500      0.0000    759.9159      5.3715    117.3205
  1164.0000      0.0000    749.1337      5.2882    119.8700
  1164.2500      0.0000    745.2652      5.1732    118.4868
  1164.5000      0.0000    747.9648      5.1596    113.4889
  1164.7500      0.0000    755.2068      5.3153    106.9598
  1165.0000      0.0000    763.7693      5.6290    101.2757
  1165.2500      0.0000    770.4197      6.0502     97.1603
  1165.5000      0.0000    773.6602      6.5168     93.4610
  1165.7500      0.0000    774.1534      6.9528     88.9628
  1166.0000      0.0000    773.2200      7.2856     83.8354
  1166.2500      0.0000    771.3289      7.4886     79.0525
  1166.5000      0.0000    768.2341      7.5999     75.0824
  1166.7500      0.0000    764.2231      7.6803     71.4993
  1167.0000      0.0000    760.7353      7.7472     67.4292
  1167.2500      0.0000    759.2942      7.7641     62.2084
  1167.5000      0.0000    759.4913      7.6992     55.9540
  1167.7500      0.0000    758.3253      7.5676     49.5926
  1168.0000      0.0000    752.4832      7.4050     44.2260
  1168.2500      0.0000    742.0339      7.2347     40.4657
  1168.5000      0.0000    731.7939      7.0883     38.3287
  1168.7500      0.0000    728.6097      7.0226     37.5373
  1169.0000      0.0000    736.7346      7.0634     37.7200
  1169.2500      0.0000    754.8318      7.1443     38.3775
  1169.5000      0.0000    776.3762      7.1420     38.8696
  1169.7500      0.0000    793.0781      6.9809     38.6819
  1170.0000      0.0000    799.5027      6.6868     37.8511
  1170.2500      0.0000    796.2021      6.3521     37.2219
  1170.5000      0.0000    789.1400      6.0716     38.3282
  1170.7500      0.0000    785.3965      5.9058     42.8165
  1171.0000      0.0000    787.9999      5.8691     51.3979
  1171.2500      0.0000    794.1266      5.9255     62.8299
  1171.5000      0.0000    798.2344      5.9996     73.8872
  1171.7500      0.0000    797.0501      6.0133     80.8224
  1172.0000      2.0000    792.0441      5.9299     81.4655
  1172.2500      2.0000    788.0346      5.7664     76.2655
  1172.5000      0.0000    789.5878      5.5819     67.4814
  1172.7500      0.0000    797.8337      5.4654     57.5420
  1173.0000      0.0000    809.7233      5.4989     48.1121
  1173.2500      0.0000    820.1196      5.6773     40.2157
  1173.5000      0.0000    825.1904      5.8786     34.5706
  1173.7500      0.0000    824.6291      5.9673     31.5361
  1174.0000      0.0000    821.1276      5.9144     30.9141
  1174.2500      0.0000    817.9743      5.7869     31.9833
  1174.5000      0.0000    817.0974      5.6656     33.8419
  1174.7500      0.0000    818.5860      5.6163     36.0117
  1175.0000      0.0000    821.1018      5.6909     38.8150
  1175.2500      0.0000    822.8082      5.8866     43.0127
  1175.5000      0.0000    822.6306      6.1111     49.0883
  1175.7500      0.0000    820.9441      6.2400     57.0729
  1176.0000      0.0000    818.9587      6.2230     66.8680
  1176.2500      0.0000    817.6095      6.1165     78.2212
  1176.5000      0.0000    817.1119      6.0055     90.2217
  1176.7500      0.0000    817.2416      5.9193    101.1744
  1177.0000      0.0000    817.7144      5.8480    109.4476
  1177.2500      0.0000    818.3283      5.8113    114.7222
  1177.5000      0.0000    818.9398      5.8573    118.3726
  1177.7500      0.0000    819.4114      5.9816    122.3035
  1178.0000      0.0000    819.5509      6.0906    127.1912
  1178.2500      0.0000    819.0316      6.0804    131.9047
  1178.5000      0.0000    817.4006      5.9443    134.5775
  1178.7500      0.0000    814.4539      5.7830    133.9827
  1179.0000      0.0000    810.8826      5.7208    130.1932
  1179.2500      0.0000    808.3579      5.8256    124.7310
  1179.5000      0.0000    808.4177      6.0778    120.0887
  1179.7500      0.0000    811.0812      6.3791    118.3081
  1180.0000      0.0000    814.8458      6.5945    119.6666
  1180.2500      0.0000    818.0690      6.6189    122.7985
  1180.5000      0.0000    820.0877      6.4264    125.7957
  1180.7500      0.0000    821.1332      6.0730    127.1935
  1181.0000      0.0000    821.6658      5.6601    126.6385
  1181.2500      0.0000    821.9735      5.2918    124.9851
  1181.5000      0.0000    822.1599      5.0437    123.4643
  1181.7500      0.0000    822.2502      4.9491    122.5659
  1182.0000      0.0000    822.2566      4.9939    121.7573
  1182.2500      0.0000    822.2009      5.1258    120.2150
  1182.5000      0.0000    822.1273      5.2837    117.7103
  1182.7500      0.0000    822.0944      5.4299    114.7506
  1183.0000      0.0000    822.1398      5.5555    112.0559
  1183.2500      0.0000    822.2540      5.6596    110.0941
  1183.5000      0.0000    822.3948      5.7314    108.9452
  1183.7500      0.0000    822.5222      5.7634    108.4507
  1184.0000      0.0000    822.6191      5.7827    108.7060
  1184.2500      0.0000    822.6860      5.8496    110.4630
  1184.5000      0.0000    822.7271      6.0082    114.7159
  1184.7500      0.0000    822.7476      6.2436    121.7465
  1185.0000      0.0000    822.7599      6.4944    130.6250
  1185.2500      0.0000    822.7849      6.6996    139.5014
  1185.5000      0.0000    822.8460      6.8275    146.3182
  1185.7500      0.0000    822.9662      6.8815    149.6020
  1186.0000      0.0000    823.1678      6.8899    149.0453
  1186.2500      0.0000    823.4691      6.8870    145.5985
  1186.5000      0.0000    823.8754      6.8936    140.9068
  1186.7500      0.0000    824.3652      6.9085    136.2563
  1187.0000      0.0000    824.8842      6.9173    131.8274
  1187.2500      0.0000    825.3663      6.9097    127.3207
  1187.5000      0.0000    825.7679      6.8881    123.4264
  1187.7500      0.0000    826.0885      6.8598    121.9700
  1188.0000      0.0000    826.3558      6.8219    124.0491
  1188.2500      0.0000    826.5858      6.7529    128.6524
  1188.5000      0.0000    826.7542      6.6155    133.7372
  1188.7500      0.0000    826.8268      6.3824    138.0638
  1189.0000      0.0000    826.8566      6.0792    141.1564
  1189.2500      0.0000    827.0899      5.7997    142.1877
  1189.5000      0.0000    828.0230      5.6558    140.2525
  1189.7500      0.0000    830.3399      5.7001    135.7622
  1190.0000      0.0000    834.5984      5.8984    130.6255
  1190.2500      0.0000    840.6815      6.1711    126.9111
  1190.5000      0.0000    847.4983      6.4459    125.7749
  1190.7500      0.0000    853.4787      6.6789    127.4223
  1191.0000      0.0000    857.5225      6.8544    131.2039
  1191.2500      0.0000    859.4433      6.9916    135.5951
  1191.5000      0.0000    859.5983      7.1436    138.8691
  1191.7500      0.0000    858.3965      7.3645    140.2983
