~Version Information
VERS.                      2.0: CWLS Log ASCII Standard - VERSION 2.0
WRAP.                       NO: One line per depth step
~Well Information Block
STRT.FT               546.0000: 
STOP.FT              1771.5000: 
STEP.FT                 0.1000: 
NULL.                -999.2500: 
COMP.          Petrogulf Corporation: COMPANY
WELL.             McLeod 9-42R: WELL
FLD.           Purgatorie River: FIELD
LOC.           1748' FNL & 372' FEL: LOCATION
PROV.                 Colorado: PROVINCE
CNTY.               Las Animas: COUNTRY
SRVC.                Patterson: SERVICE COMPANY
DATE.          Tue Aug 16 11:11:38 2005: LOG DATE
UWI.                071 08092 : UNIQUE WELL ID
~Curve Information Block
DEPT.FT            0 000 00 00: Depth
DCAL.in                       : CDL Caliper
RHOB.g/cc                     : CDL Bulk Density
RHOC.g/cc                     : CDL Density Correction
DPOR.pu                       : CDL Density Porosity
GR.GAPI                       : Gamma Ray
NPOR.pu                       : Neutron Porosity
~Parameter Information Block
~A  Depth       DCAL        RHOB        RHOC        DPOR         GR         NPOR    
# ...
  1650.0000      8.4377      2.5427      0.0581      6.5055    105.9007     28.0556
  1650.1000      8.4377      2.5351      0.0075      6.9666    103.2605     28.4648
  1650.2000      8.4377      2.5306     -0.0041      7.2336    103.0422     28.1207
  1650.3000      8.4450      2.5356      0.0092      6.9344    106.0965     27.1986
  1650.4000      8.4450      2.5434      0.0293      6.4630    109.6389     26.4042
  1650.5000      8.4798      2.5508      0.0402      6.0131    112.0199     26.1856
  1650.6000      8.4798      2.5603      0.0554      5.4358    114.9429     26.3455
  1650.7000      8.4798      2.5687      0.0790      4.9254    117.2141     26.2934
  1650.8000      8.4902      2.5706      0.0417      4.8104    116.0518     25.8442
  1650.9000      8.4902      2.5669      0.0464      5.0384    113.5819     25.5049
  1651.0000      8.4975      2.5599      0.0621      5.4593    114.3235     25.4043
  1651.1000      8.4975      2.5530      0.0390      5.8798    116.5723     25.3414
  1651.2000      8.4975      2.5517      0.0720      5.9563    114.4901     25.5914
  1651.3000      8.5205      2.5568      0.0658      5.6466    108.2319     26.1242
  1651.4000      8.5205      2.5598      0.0894      5.4687    103.8162     26.5179
  1651.5000      8.5387      2.5472      0.0515      6.2303    104.8395     26.9797
  1651.6000      8.5387      2.5202      0.0497      7.8644    108.6064     27.6540
  1651.7000      8.5387      2.4988      0.0282      9.1611    111.3596     28.1800
  1651.8000      8.4975      2.4977      0.0379      9.2329    112.1343     28.3956
  1651.9000      8.4975      2.5121      0.0652      8.3589    113.2636     28.3685
  1652.0000      8.4653      2.5327      0.0549      7.1116    118.5540     28.1696
  1652.1000      8.4653      2.5496      0.1195      6.0877    125.3911     27.9460
  1652.2000      8.4653      2.5545      0.1047      5.7889    128.1199     28.2281
  1652.3000      8.4433      2.5602      0.0803      5.4446    129.1087     29.1748
  1652.4000      8.4433      2.5837      0.1074      4.0153    132.8985     30.1183
  1652.5000      8.3878      2.6119      0.1754      2.3090    136.7343     30.5234
  1652.6000      8.3878      2.6172      0.1735      1.9891    137.5349     30.3552
  1652.7000      8.3878      2.6032      0.1064      2.8353    137.4424     29.7945
  1652.8000      8.2683      2.5974      0.1051      3.1883    137.6092     29.1809
  1652.9000      8.2683      2.6057      0.1336      2.6868    137.2990     28.9378
  1653.0000      8.1126      2.6120      0.1325      2.3056    135.9876     29.0878
  1653.1000      8.1126      2.6083      0.1217      2.5291    135.4130     29.3190
  1653.2000      8.1126      2.6037      0.0803      2.8041    138.2598     29.2575
  1653.3000      8.0362      2.6070      0.0969      2.6032    141.0691     28.8618
  1653.4000      8.0362      2.6086      0.1307      2.5070    140.3379     28.6260
  1653.5000      8.0132      2.5951      0.0848      3.3303    140.0171     28.8482
  1653.6000      8.0132      2.5706      0.0968      4.8105    142.2184     29.0659
  1653.7000      8.0132      2.5509      0.0450      6.0071    143.0538     28.8864
  1653.8000      7.9932      2.5418      0.0658      6.5601    143.2972     28.7631
  1653.9000      7.9932      2.5294      0.0711      7.3084    147.9377     29.0585
  1654.0000      7.9745      2.5087      0.0127      8.5623    154.0418     29.2904
  1654.1000      7.9745      2.4961      0.0334      9.3287    156.9223     28.9140
  1654.2000      7.9745      2.4974      0.0386      9.2507    158.1921     28.2283
  1654.3000      7.9889      2.5010      0.0350      9.0274    158.4706     27.9988
  1654.4000      7.9889      2.5023      0.0309      8.9512    157.1211     28.4588
  1654.5000      8.0182      2.5070      0.0427      8.6697    156.1191     29.1122
  1654.6000      8.0182      2.5142      0.0749      8.2313    158.4260     29.5368
  1654.7000      8.0182      2.5186      0.0491      7.9626    164.4119     29.4676
  1654.8000      8.0256      2.5246      0.0429      7.5985    168.4582     28.9470
  1654.9000      8.0256      2.5348      0.1028      6.9820    165.9019     28.6654
  1655.0000      8.0475      2.5401      0.1229      6.6577    159.0786     28.5345
  1655.1000      8.0475      2.5410      0.0577      6.6081    151.2235     27.7444
  1655.2000      8.0475      2.5516      0.0612      5.9623    143.6342     26.7993
  1655.3000      8.0112      2.5724      0.0807      4.7010    136.7566     26.6913
  1655.4000      8.0112      2.5892      0.0637      3.6870    132.0058     26.8665
  1655.5000      8.0209      2.5922      0.1048      3.5050    128.2800     26.4407
  1655.6000      8.0209      2.5800      0.1037      4.2447    123.8871     25.8338
  1655.7000      8.0209      2.5645      0.0391      5.1794    121.0056     25.8597
  1655.8000      8.0311      2.5629      0.0565      5.2803    119.2288     26.4373
  1655.9000      8.0311      2.5713      0.0853      4.7686    115.7064     26.8756
  1656.0000      8.0496      2.5663      0.0948      5.0734    112.5948     26.8445
  1656.1000      8.0496      2.5373      0.0346      6.8320    114.0456     26.5278
  1656.2000      8.0496      2.5067     -0.0211      8.6859    117.3506     26.1716
  1656.3000      8.0890      2.4992      0.0079      9.1405    117.4516     25.7676
  1656.4000      8.0890      2.5134      0.0329      8.2783    116.2644     25.3951
  1656.5000      8.1349      2.5425      0.0481      6.5125    117.5481     25.5889
  1656.6000      8.1349      2.5800      0.0990      4.2436    119.3040     26.5142
  1656.7000      8.1349      2.6031      0.1381      2.8437    117.7688     27.2786
  1656.8000      8.1928      2.5933      0.1381      3.4367    114.7656     27.2779
  1656.9000      8.1928      2.5621      0.0914      5.3286    114.8796     26.9718
  1657.0000      8.2692      2.5381      0.0614      6.7798    117.5394     26.9806
  1657.1000      8.2692      2.5383      0.0932      6.7708    115.2216     27.3674
  1657.2000      8.2692      2.5592      0.1095      5.5005    104.4509     27.7566
  1657.3000      8.3316      2.5974      0.0846      3.1872     94.3209     28.0465
  1657.4000      8.3316      2.6457      0.1543      0.2602     90.8276     28.5234
  1657.5000      8.3370      2.6875      0.1622     -2.2711     89.9859     28.8402
  1657.6000      8.3370      2.7252      0.1185     -4.5546     87.5443     28.6244
  1657.7000      8.3370      2.7667      0.1738     -7.0699     82.3618     28.4260
  1657.8000      8.3880      2.7943      0.1848     -8.7470     77.1165     28.5672
  1657.9000      8.3880      2.7922      0.1410     -8.6172     74.6121     28.6862
  1658.0000      8.3883      2.7687      0.1086     -7.1920     73.9363     28.5787
  1658.1000      8.3883      2.7377      0.0627     -5.3166     72.8762     28.3133
  1658.2000      8.3883      2.7068      0.0456     -3.4415     70.3470     28.0884
  1658.3000      8.3420      2.6833      0.0008     -2.0156     67.0122     28.2658
  1658.4000      8.3420      2.6689      0.0475     -1.1450     63.4680     28.6968
  1658.5000      8.2937      2.6510      0.0569     -0.0586     61.0591     28.6449
  1658.6000      8.2937      2.6237     -0.0042      1.5936     60.9626     28.0204
  1658.7000      8.2937      2.5953      0.0292      3.3149     60.7350     27.2413
  1658.8000      8.2767      2.5747      0.0057      4.5632     57.4294     26.6741
  1658.9000      8.2767      2.5703      0.0063      4.8280     52.3731     26.6906
  1659.0000      8.3087      2.5766      0.0504      4.4480     49.4820     27.1115
  1659.1000      8.3087      2.5795      0.0581      4.2697     48.9081     27.3947
  1659.2000      8.3087      2.5762      0.0643      4.4742     48.3275     27.2798
  1659.3000      8.3353      2.5658      0.0885      5.1059     46.8187     26.8371
  1659.4000      8.3353      2.5518      0.0061      5.9523     45.1971     26.4602
  1659.5000      8.3595      2.5384      0.0840      6.7607     44.7086     26.1116
