~Version Information
VERS.                      2.0: CWLS Log ASCII Standard - VERSION 2.0
WRAP.                       NO: One line per depth step
~Well Information Block
STRT.FT               360.0000: 
STOP.FT              2515.2000: 
STEP.FT                 0.1000: 
NULL.                -999.2500: 
COMP.          Pioneer Natural Resources: COMPANY
WELL.            Rancher 12-35: WELL
FLD.           Purgatoire River: FIELD
LOC.           2131' FNL & 297' FWL: LOCATION
PROV.                 Colorado: PROVINCE
CNTY.               Las Animas: COUNTRY
SRVC.                Patterson: SERVICE COMPANY
DATE.          Tue Oct 12 09:11:02 2004: LOG DATE
UWI.           05 071 08179 00: UNIQUE WELL ID
~Curve Information Block
DEPT.FT            0 000 00 00: Depth
DCAL.in                       : CDL Caliper
RHOB.g/cc                     : CDL Bulk Density
RHOC.g/cc                     : CDL Density Correction
DPOR.pu                       : CDL Density Porosity
NPOR.pu                       : Neutron Porosity
GR.GAPI                       : Gamma Ray
~Parameter Information Block
~A  Depth       DCAL        RHOB        RHOC        DPOR        NPOR         GR     
# ...
   782.4000      8.6302      2.0596      0.0391     35.7836     19.4702    132.0696
   782.5000      8.5984      1.9905      0.0299     39.9706     19.2547    125.8481
   782.6000      8.5984      1.9139     -0.0175     44.6132     18.9953    117.0863
   782.7000      8.5984      1.8564     -0.0707     48.0981     18.3053    111.5909
   782.8000      8.5851      1.8472     -0.0565     48.6533     17.3096    108.9905
   782.9000      8.5851      1.8964      0.0134     45.6720     16.0762    107.6818
   783.0000      8.5769      1.9826      0.1777     40.4473     14.9567    109.1928
   783.1000      8.5769      2.0748      0.2073     34.8627     14.3249    112.9964
   783.2000      8.5769      2.1669      0.2473     29.2766     13.9721    115.8133
   783.3000      8.5628      2.2685      0.2817     23.1197     13.9101    118.5286
   783.4000      8.5628      2.3793      0.3242     16.4037     14.6859    125.9369
   783.5000      8.5556      2.4894      0.3241      9.7337     16.1293    135.4524
   783.6000      8.5556      2.5799      0.3220      4.2473     17.4467    140.7455
   783.7000      8.5556      2.6235      0.2152      1.6058     18.6654    141.3344
   783.8000      8.5571      2.6130      0.0996      2.2430     20.3373    136.9530
   783.9000      8.5571      2.5764      0.0289      4.4602     22.3483    127.3724
   784.0000      8.5680      2.5498     -0.0106      6.0705     24.0395    117.0666
   784.1000      8.5680      2.5434      0.0344      6.4614     24.9418    109.9731
   784.2000      8.5680      2.5441      0.0427      6.4190     25.0084    108.5767
   784.3000      8.5922      2.5470     -0.0184      6.2439     24.7893    112.1451
   784.4000      8.5922      2.5539      0.0361      5.8261     25.0841    115.3338
   784.5000      8.6196      2.5567      0.0394      5.6553     25.9310    114.1630
   784.6000      8.6196      2.5538      0.0259      5.8318     26.8033    112.1712
   784.7000      8.6196      2.5541      0.0109      5.8147     27.3463    117.0991
   784.8000      8.6396      2.5574     -0.0138      5.6143     27.3342    125.1194
   784.9000      8.6396      2.5580     -0.0217      5.5751     27.0775    125.5295
   785.0000      8.6536      2.5571     -0.0056      5.6307     27.3472    119.6450
   785.1000      8.6536      2.5587      0.0159      5.5329     28.0116    116.6414
   785.2000      8.6536      2.5635      0.0375      5.2405     28.2597    119.5975
   785.3000      8.6614      2.5695      0.0043      4.8775     27.9921    124.3503
   785.4000      8.6614      2.5701      0.0315      4.8404     27.6221    126.7619
   785.5000      8.6677      2.5622     -0.0060      5.3232     27.6107    126.8046
   785.6000      8.6677      2.5544     -0.0053      5.7945     28.1244    124.5132
   785.7000      8.6677      2.5475     -0.0003      6.2126     28.4634    122.3327
   785.8000      8.6856      2.5383     -0.0347      6.7681     27.9999    125.8833
   785.9000      8.6856      2.5326     -0.0194      7.1172     27.2289    133.7194
   786.0000      8.7205      2.5256     -0.0170      7.5364     26.6269    139.6322
   786.1000      8.7205      2.5113     -0.0597      8.4089     26.0572    142.9786
   786.2000      8.7205      2.5025     -0.0389      8.9424     25.6258    146.2816
   786.3000      8.7532      2.5065     -0.0071      8.6945     25.7382    150.1031
   786.4000      8.7532      2.5036      0.0101      8.8704     26.0837    150.8441
   786.5000      8.7543      2.4731     -0.0118     10.7225     25.7157    145.2874
   786.6000      8.7543      2.4221     -0.0308     13.8119     24.7931    140.2485
   786.7000      8.7543      2.3741     -0.0320     16.7219     24.4876    139.7605
   786.8000      8.7203      2.3414     -0.0274     18.7045     24.9944    138.9696
   786.9000      8.7203      2.3204     -0.0335     19.9760     25.6072    135.9151
   787.0000      8.6798      2.3144     -0.0750     20.3394     25.7109    131.2492
   787.1000      8.6798      2.3360     -0.0438     19.0313     25.1657    126.0746
   787.2000      8.6798      2.3825     -0.0383     16.2098     24.5017    122.6982
   787.3000      8.6299      2.4327      0.0382     13.1677     24.3944    123.2667
   787.4000      8.6299      2.4658      0.0719     11.1613     24.8605    125.1268
   787.5000      8.5547      2.4931     -0.0108      9.5095     25.3911    122.2794
   787.6000      8.5547      2.5363      0.1097      6.8932     25.7109    117.5980
   787.7000      8.5547      2.5795      0.1597      4.2731     25.8596    117.5478
   787.8000      8.4650      2.6004      0.1370      3.0079     25.8807    119.6497
   787.9000      8.4650      2.5993      0.1118      3.0749     25.8290    120.1836
   788.0000      8.3752      2.5796      0.1312      4.2657     25.8064    117.1511
   788.1000      8.3752      2.5473      0.0497      6.2256     25.8670    108.4326
   788.2000      8.3752      2.5219     -0.0330      7.7619     25.8147     97.4391
   788.3000      8.2951      2.5166      0.0010      8.0823     25.5308     87.9168
   788.4000      8.2951      2.5180      0.0033      7.9983     25.3656     83.0907
   788.5000      8.2559      2.5158     -0.0142      8.1363     25.3350     83.7032
   788.6000      8.2559      2.5258     -0.0346      7.5275     25.1554     86.0970
   788.7000      8.2559      2.5489      0.0298      6.1278     25.1073     88.3773
   788.8000      8.2458      2.5513      0.0388      5.9843     25.3742     91.4293
   788.9000      8.2458      2.5252     -0.0243      7.5628     25.4812     95.7840
   789.0000      8.2333      2.5073     -0.0422      8.6494     25.2377     98.2569
   789.1000      8.2333      2.5200     -0.0235      7.8767     25.1667     95.8303
   789.2000      8.2333      2.5477      0.0502      6.2003     25.6556     91.0467
   789.3000      8.2218      2.5709      0.0602      4.7920     26.2495     86.6104
   789.4000      8.2218      2.5944      0.0404      3.3670     26.4326     85.3519
   789.5000      8.2170      2.6252      0.0371      1.5022     26.3870     89.5146
   789.6000      8.2170      2.6475      0.0479      0.1503     26.4125     97.5986
   789.7000      8.2170      2.6409      0.0756      0.5514     26.2826    103.7205
   789.8000      8.2147      2.6063      0.0246      2.6467     25.8170    101.4750
   789.9000      8.2147      2.5673      0.0167      5.0116     25.5568     94.0033
   790.0000      8.2149      2.5498     -0.0505      6.0740     25.8599     90.9006
   790.1000      8.2149      2.5577      0.0267      5.5948     26.0450     92.2316
   790.2000      8.2149      2.5658      0.0403      5.1041     25.4690     92.3073
   790.3000      8.2145      2.5602     -0.0119      5.4406     24.8914     90.2495
   790.4000      8.2145      2.5537      0.0124      5.8346     25.1905     87.8613
   790.5000      8.2140      2.5460      0.0519      6.3015     25.8653     86.7328
   790.6000      8.2140      2.5280      0.0041      7.3921     26.0537     85.0947
   790.7000      8.2140      2.5102     -0.0466      8.4727     25.6739     80.6500
   790.8000      8.2171      2.5029     -0.0075      8.9122     25.1906     76.8781
   790.9000      8.2171      2.4982     -0.0361      9.1982     25.1450     78.6988
   791.0000      8.2198      2.4934     -0.0322      9.4909     25.3540     85.0478
   791.1000      8.2198      2.4970     -0.0332      9.2735     24.9222     89.8333
   791.2000      8.2198      2.5055      0.0085      8.7592     23.6391     89.1257
   791.3000      8.2209      2.5027      0.0368      8.9263     22.5109     85.7194
   791.4000      8.2209      2.4894     -0.0292      9.7350     22.2627     85.0103
   791.5000      8.2205      2.4880     -0.0261      9.8166     22.5269     85.8644
   791.6000      8.2205      2.5049      0.0520      8.7915     23.0310     82.9068
   791.7000      8.2205      2.5221      0.0284      7.7507     24.0823     76.4054
   791.8000      8.2206      2.5278      0.0619      7.4077     25.5900     71.7638
   791.9000      8.2206      2.5197      0.0802      7.8980     26.8410     73.3403
