~Version Information
VERS.                      2.0: CWLS Log ASCII Standard - VERSION 2.0
WRAP.                       NO: One line per depth step
~Well Information Block
STRT.FT               360.0000: 
STOP.FT              2515.2000: 
STEP.FT                 0.1000: 
NULL.                -999.2500: 
COMP.          Pioneer Natural Resources: COMPANY
WELL.            Rancher 12-35: WELL
FLD.           Purgatoire River: FIELD
LOC.           2131' FNL & 297' FWL: LOCATION
PROV.                 Colorado: PROVINCE
CNTY.               Las Animas: COUNTRY
SRVC.                Patterson: SERVICE COMPANY
DATE.          Tue Oct 12 09:11:02 2004: LOG DATE
UWI.           05 071 08179 00: UNIQUE WELL ID
~Curve Information Block
DEPT.FT            0 000 00 00: Depth
DCAL.in                       : CDL Caliper
RHOB.g/cc                     : CDL Bulk Density
RHOC.g/cc                     : CDL Density Correction
DPOR.pu                       : CDL Density Porosity
NPOR.pu                       : Neutron Porosity
GR.GAPI                       : Gamma Ray
~Parameter Information Block
~A  Depth       DCAL        RHOB        RHOC        DPOR        NPOR         GR     
# ...
  1070.4000      8.1627      2.5376     -0.0051      6.8123     25.1239    105.6335
  1070.5000      8.1590      2.5390      0.0574      6.7252     25.0088    104.5697
  1070.6000      8.1590      2.5376      0.0175      6.8142     24.7209    105.6668
  1070.7000      8.1590      2.5277      0.0502      7.4140     24.2489    105.9345
  1070.8000      8.1599      2.5186     -0.0272      7.9647     23.8328    104.6685
  1070.9000      8.1599      2.5279      0.0068      7.3984     23.8419    103.4691
  1071.0000      8.1577      2.5606      0.0459      5.4190     24.1556    102.5948
  1071.1000      8.1577      2.6017      0.0863      2.9278     24.3198    100.1441
  1071.2000      8.1577      2.6252      0.0963      1.5023     24.5317     95.4505
  1071.3000      8.1494      2.6134      0.0723      2.2188     25.2756     91.1356
  1071.4000      8.1494      2.5804      0.0374      4.2177     26.5945     91.4942
  1071.5000      8.1388      2.5572      0.0065      5.6239     27.8323     98.3747
  1071.6000      8.1388      2.5512      0.0782      5.9882     28.1758    107.8851
  1071.7000      8.1388      2.5486     -0.0178      6.1466     27.8295    113.1043
  1071.8000      8.1323      2.5440      0.0146      6.4232     27.4850    111.7578
  1071.9000      8.1323      2.5380      0.0177      6.7892     27.3204    110.5809
  1072.0000      8.1388      2.5318      0.0078      7.1645     27.1519    114.8831
  1072.1000      8.1388      2.5252      0.0416      7.5663     26.9610    119.3321
  1072.2000      8.1388      2.5160      0.0265      8.1217     26.8609    118.8653
  1072.3000      8.1469      2.5147      0.0013      8.1989     26.5897    119.1853
  1072.4000      8.1469      2.5313      0.0255      7.1930     25.9919    125.1263
  1072.5000      8.1490      2.5518      0.0513      5.9505     25.6651    130.7678
  1072.6000      8.1490      2.5535      0.0460      5.8469     25.8884    129.2085
  1072.7000      8.1490      2.5366     -0.0076      6.8755     26.2587    123.9451
  1072.8000      8.1488      2.5192      0.0100      7.9277     26.7263    122.4290
  1072.9000      8.1488      2.5146      0.0082      8.2076     27.2463    124.8220
  1073.0000      8.1512      2.5244      0.0159      7.6109     27.4237    124.9529
  1073.1000      8.1512      2.5379      0.0381      6.7935     27.3222    120.6391
  1073.2000      8.1512      2.5510      0.0475      5.9993     27.3394    117.0448
  1073.3000      8.1553      2.5771      0.0323      4.4162     27.7602    117.5787
  1073.4000      8.1553      2.6118      0.1005      2.3122     28.6463    119.6123
  1073.5000      8.1546      2.6340      0.0469      0.9695     29.3845    119.4867
  1073.6000      8.1546      2.6501      0.0374     -0.0089     29.3683    115.8321
  1073.7000      8.1546      2.6732      0.0371     -1.4081     29.0047    110.0215
  1073.8000      8.1550      2.6939      0.0738     -2.6636     28.9377    107.8892
  1073.9000      8.1550      2.7023      0.0592     -3.1699     29.3873    111.8780
  1074.0000      8.1652      2.7029      0.0544     -3.2039     30.1607    116.9573
  1074.1000      8.1652      2.6988      0.0494     -2.9556     30.8235    120.0555
  1074.2000      8.1652      2.6863      0.0454     -2.2001     31.1144    121.4479
  1074.3000      8.1745      2.6680      0.0152     -1.0907     30.9224    121.7630
  1074.4000      8.1745      2.6442      0.0383      0.3507     30.0315    123.3121
  1074.5000      8.1672      2.6086     -0.0099      2.5103     28.6430    126.0019
  1074.6000      8.1672      2.5713     -0.0068      4.7667     27.7092    126.3640
  1074.7000      8.1672      2.5528     -0.0405      5.8884     27.7866    124.5307
  1074.8000      8.1570      2.5482      0.0454      6.1709     28.0975    122.3685
  1074.9000      8.1570      2.5358      0.0241      6.9201     27.6274    121.5474
  1075.0000      8.1557      2.5195      0.0177      7.9075     26.6071    122.8618
  1075.1000      8.1557      2.5168      0.0149      8.0726     25.7112    125.2734
  1075.2000      8.1557      2.5234      0.0258      7.6757     25.3164    127.5009
  1075.3000      8.1568      2.5239      0.0211      7.6436     25.7733    126.1258
  1075.4000      8.1568      2.5191      0.0025      7.9306     26.7233    121.3252
  1075.5000      8.1542      2.5180      0.0089      8.0028     27.0245    117.8559
  1075.6000      8.1542      2.5211      0.0109      7.8105     26.5517    117.0054
  1075.7000      8.1542      2.5266      0.0397      7.4782     26.3332    117.9322
  1075.8000      8.1524      2.5412      0.0106      6.5936     26.5596    119.9995
  1075.9000      8.1524      2.5745      0.0361      4.5746     26.6358    121.7474
  1076.0000      8.1551      2.6200      0.0572      1.8162     26.5512    120.7674
  1076.1000      8.1551      2.6535      0.0820     -0.2149     26.7946    116.1050
  1076.2000      8.1551      2.6629      0.0677     -0.7833     27.4621    112.0558
  1076.3000      8.1610      2.6632      0.0762     -0.7998     28.1738    112.3035
  1076.4000      8.1610      2.6667      0.0942     -1.0126     28.7392    113.7437
  1076.5000      8.1661      2.6670      0.0692     -1.0312     29.0445    112.4321
  1076.6000      8.1661      2.6600      0.0500     -0.6039     29.0425    109.4967
  1076.7000      8.1661      2.6528     -0.0097     -0.1681     29.1676    107.5743
  1076.8000      8.1624      2.6534     -0.0201     -0.2070     29.4890    106.6152
  1076.9000      8.1624      2.6549     -0.0183     -0.2988     29.2992    107.4577
  1077.0000      8.1560      2.6352     -0.0430      0.8961     28.0743    108.2749
  1077.1000      8.1560      2.5922     -0.1113      3.5019     26.3415    105.7619
  1077.2000      8.1560      2.5595     -0.0867      5.4824     24.9325    101.7781
  1077.3000      8.1510      2.5554      0.0021      5.7344     23.8737     99.4311
  1077.4000      8.1510      2.5570      0.0304      5.6370     22.8419     97.7579
  1077.5000      8.1471      2.5458      0.0070      6.3138     21.8602     93.4892
  1077.6000      8.1471      2.5280      0.0102      7.3968     21.0653     85.8176
  1077.7000      8.1471      2.5184     -0.0137      7.9783     20.6359     79.0701
  1077.8000      8.1440      2.5345     -0.0070      6.9970     20.7258     76.3467
  1077.9000      8.1440      2.5755      0.0397      4.5163     21.1613     75.2295
  1078.0000      8.1448      2.6119      0.0638      2.3107     21.5298     73.7896
  1078.1000      8.1448      2.6115      0.0938      2.3345     21.6125     73.2368
  1078.2000      8.1448      2.5714      0.0445      4.7612     21.5219     74.2913
  1078.3000      8.1482      2.5271     -0.0084      7.4490     21.3816     75.8929
  1078.4000      8.1482      2.5154     -0.0132      8.1577     21.2188     75.8736
  1078.5000      8.1505      2.5416      0.0038      6.5712     21.0740     72.7160
  1078.6000      8.1505      2.5809      0.0361      4.1853     21.1995     69.0639
  1078.7000      8.1505      2.6038      0.0545      2.7992     21.9960     67.4314
  1078.8000      8.1517      2.6014      0.0547      2.9459     23.1379     66.8550
  1078.9000      8.1517      2.5873      0.0432      3.8015     23.5773     67.5855
  1079.0000      8.1550      2.5811      0.0232      4.1742     23.3046     70.3706
  1079.1000      8.1550      2.5909      0.0271      3.5831     23.3744     71.7296
  1079.2000      8.1550      2.6133      0.0666      2.2241     23.9877     68.1106
  1079.3000      8.1635      2.6371      0.1196      0.7837     24.6120     61.1248
  1079.4000      8.1635      2.6406      0.1034      0.5701     25.0228     57.7782
  1079.5000      8.1729      2.6113      0.0663      2.3431     25.2452     62.8228
  1079.6000      8.1729      2.5673      0.0174      5.0116     25.4391     73.2141
  1079.7000      8.1729      2.5354      0.0108      6.9462     25.7834     83.4969
  1079.8000      8.1755      2.5077      0.0393      8.6223     25.9502     89.8027
  1079.9000      8.1755      2.4610     -0.0018     11.4569     25.7786     91.1875
