~Version Information
VERS.                      2.0: CWLS Log ASCII Standard - VERSION 2.0
WRAP.                       NO: One line per depth step
~Well Information Block
STRT.FT               258.0000: 
STOP.FT               998.2000: 
STEP.FT                 0.1000: 
NULL.                -999.2500: 
COMP.          Pioneer Natural Resources: COMPANY
WELL.          Piggyback 33-25: WELL
FLD.           Purgatoire River: FIELD
LOC.           1600' FSL & 1800' FEL: LOCATION
PROV.                 Colorado: PROVINCE
CNTY.               Las Animas: COUNTRY
SRVC.                Patterson: SERVICE COMPANY
DATE.          Fri Apr 29 16:11:48 2005: LOG DATE
UWI.           05 071 08233 00: UNIQUE WELL ID
~Curve Information Block
DEPT.FT            0 000 00 00: Depth
DCAL.in                       : CDL Caliper
RHOB.g/cc                     : CDL Bulk Density
RHOC.g/cc                     : CDL Density Correction
DPOR.pu                       : CDL Density Porosity
GR.GAPI                       : Gamma Ray
NPOR.pu                       : Neutron Porosity
~Parameter Information Block
~A  Depth       DCAL        RHOB        RHOC        DPOR         GR         NPOR    
# ...
   987.6000      7.7906      2.5632      0.1354      5.2623   -999.2500   -999.2500
   987.7000      7.7906      2.5730      0.0936      4.6646   -999.2500   -999.2500
   987.8000      7.7939      2.5727      0.0916      4.6837   -999.2500   -999.2500
   987.9000      7.7939      2.5687      0.0605      4.9273   -999.2500   -999.2500
   988.0000      7.8042      2.5615      0.0784      5.3612   -999.2500   -999.2500
   988.1000      7.8042      2.5553      0.0455      5.7370   -999.2500   -999.2500
   988.2000      7.8042      2.5628      0.0946      5.2832   -999.2500   -999.2500
   988.3000      7.8216      2.5734      0.1532      4.6400   -999.2500   -999.2500
   988.4000      7.8216      2.5623      0.0867      5.3144   -999.2500   -999.2500
   988.5000      7.8185      2.5381      0.0604      6.7846   -999.2500   -999.2500
   988.6000      7.8185      2.5267      0.0818      7.4734   -999.2500   -999.2500
   988.7000      7.8185      2.5334      0.0912      7.0678   -999.2500   -999.2500
   988.8000      7.8021      2.5499      0.0979      6.0675   -999.2500   -999.2500
   988.9000      7.8021      2.5623      0.1376      5.3163   -999.2500   -999.2500
   989.0000      7.8016      2.5599      0.1100      5.4603   -999.2500   -999.2500
   989.1000      7.8016      2.5577      0.0479      5.5923   -999.2500   -999.2500
   989.2000      7.8016      2.5714      0.1091      4.7617   -999.2500   -999.2500
   989.3000      7.8163      2.5806      0.1457      4.2086   -999.2500   -999.2500
   989.4000      7.8163      2.5635      0.0924      5.2413   -999.2500   -999.2500
   989.5000      7.8360      2.5344      0.0521      7.0056   -999.2500   -999.2500
   989.6000      7.8360      2.5130      0.0508      8.3058   -999.2500   -999.2500
   989.7000      7.8360      2.5000      0.0645      9.0918   -999.2500   -999.2500
   989.8000      7.8317      2.4959      0.0374      9.3413   -999.2500   -999.2500
   989.9000      7.8317      2.5129      0.0445      8.3093   -999.2500   -999.2500
   990.0000      7.8222      2.5499      0.1204      6.0668   -999.2500   -999.2500
   990.1000      7.8222      2.5803      0.1217      4.2251   -999.2500   -999.2500
   990.2000      7.8222      2.5881      0.1033      3.7529   -999.2500   -999.2500
   990.3000      7.8182      2.5780      0.1325      4.3640   -999.2500   -999.2500
   990.4000      7.8182      2.5583      0.0923      5.5582   -999.2500   -999.2500
   990.5000      7.8179      2.5403      0.1071      6.6461   -999.2500   -999.2500
   990.6000      7.8179      2.5314      0.0493      7.1894   -999.2500   -999.2500
   990.7000      7.8179      2.5295      0.0593      7.3006   -999.2500   -999.2500
   990.8000      7.8186      2.5351      0.0444      6.9617   -999.2500   -999.2500
   990.9000      7.8186      2.5489      0.0875      6.1292   -999.2500   -999.2500
   991.0000      7.8173      2.5608      0.0897      5.4084   -999.2500   -999.2500
   991.1000      7.8173      2.5546      0.1313      5.7831   -999.2500   -999.2500
   991.2000      7.8173      2.5243      0.0885      7.6156   -999.2500   -999.2500
   991.3000      7.8120      2.4895      0.0422      9.7288   -999.2500   -999.2500
   991.4000      7.8120      2.4764      0.0602     10.5220   -999.2500   -999.2500
   991.5000      7.7470      2.4870      0.1090      9.8759   -999.2500   -999.2500
   991.6000      7.7470      2.5040      0.0952      8.8477   -999.2500   -999.2500
   991.7000      7.7470      2.5107      0.1142      8.4428   -999.2500   -999.2500
   991.8000      7.7085      2.5059      0.1093      8.7356   -999.2500   -999.2500
   991.9000      7.7085      2.5041      0.0806      8.8442   -999.2500   -999.2500
   992.0000      7.7007      2.5129      0.1164      8.3063   -999.2500   -999.2500
   992.1000      7.7007      2.5227      0.1323      7.7126   -999.2500   -999.2500
   992.2000      7.7007      2.5216      0.1441      7.7845   -999.2500   -999.2500
   992.3000      7.7050      2.5091      0.1247      8.5397   -999.2500   -999.2500
   992.4000      7.7050      2.5003      0.0640      9.0699   -999.2500   -999.2500
   992.5000      7.6843      2.5067      0.1207      8.6838   -999.2500   -999.2500
   992.6000      7.6843      2.5170      0.1503      8.0636   -999.2500   -999.2500
   992.7000      7.6843      2.5141      0.1387      8.2392   -999.2500   -999.2500
   992.8000      7.6236      2.4934      0.1008      9.4891   -999.2500   -999.2500
   992.9000      7.6236      2.4686      0.0679     10.9946   -999.2500   -999.2500
   993.0000      7.5043      2.4616      0.0562     11.4208   -999.2500   -999.2500
   993.1000      7.5043      2.4784      0.0883     10.3994   -999.2500   -999.2500
   993.2000      7.5043      2.4990      0.1343      9.1498   -999.2500   -999.2500
   993.3000      7.3395      2.4966      0.1529      9.2942   -999.2500   -999.2500
   993.4000      7.3395      2.4703      0.1416     10.8890   -999.2500   -999.2500
   993.5000      7.0971      2.4382      0.1322     12.8392   -999.2500   -999.2500
   993.6000      7.0971      2.4095      0.1019     14.5741   -999.2500   -999.2500
   993.7000      7.0971      2.3876      0.0755     15.9030   -999.2500   -999.2500
   993.8000      6.8493      2.3788      0.0951     16.4337   -999.2500   -999.2500
   993.9000      6.8493      2.3874      0.1161     15.9160   -999.2500   -999.2500
   994.0000      6.6077      2.4049      0.1245     14.8563   -999.2500   -999.2500
   994.1000      6.6077      2.4182      0.1647     14.0507   -999.2500   -999.2500
   994.2000      6.6077      2.4217      0.1576     13.8339   -999.2500   -999.2500
   994.3000      6.3390      2.4168      0.1467     14.1353   -999.2500   -999.2500
   994.4000      6.3390      2.4028      0.1505     14.9845   -999.2500   -999.2500
   994.5000      6.1288      2.3861      0.1057     15.9948   -999.2500   -999.2500
   994.6000      6.1288      2.3980      0.1280     15.2733   -999.2500   -999.2500
   994.7000      6.1288      2.4842      0.1024     10.0511   -999.2500   -999.2500
   994.8000      5.8851      2.5368      0.1381      6.8599   -999.2500   -999.2500
   994.9000      5.8851      2.1432      0.5833     30.7167   -999.2500   -999.2500
   995.0000      5.6728      1.2248      0.0400     86.3755   -999.2500   -999.2500
   995.1000      5.6728      0.4168      0.0400    135.3454   -999.2500   -999.2500
   995.2000      5.6728      0.0793   -999.2500    155.8003   -999.2500   -999.2500
   995.3000      5.5389      0.0082   -999.2500    160.1102   -999.2500   -999.2500
   995.4000      5.5389      0.0004   -999.2500    160.5791   -999.2500   -999.2500
   995.5000      5.1453      0.0000   -999.2500    160.6061   -999.2500   -999.2500
   995.6000      5.1453      0.0000   -999.2500    160.6061   -999.2500   -999.2500
   995.7000      5.1453   -999.2500   -999.2500   -999.2500   -999.2500   -999.2500
   995.8000      5.0931   -999.2500   -999.2500   -999.2500   -999.2500   -999.2500
   995.9000      5.0931   -999.2500   -999.2500   -999.2500   -999.2500   -999.2500
   996.0000   -999.2500   -999.2500   -999.2500   -999.2500   -999.2500   -999.2500
   996.1000   -999.2500   -999.2500   -999.2500   -999.2500   -999.2500   -999.2500
   996.2000   -999.2500   -999.2500   -999.2500   -999.2500   -999.2500   -999.2500
   996.3000   -999.2500   -999.2500   -999.2500   -999.2500   -999.2500   -999.2500
   996.4000   -999.2500   -999.2500   -999.2500   -999.2500   -999.2500   -999.2500
   996.5000   -999.2500   -999.2500   -999.2500   -999.2500   -999.2500   -999.2500
   996.6000   -999.2500   -999.2500   -999.2500   -999.2500   -999.2500   -999.2500
   996.7000   -999.2500   -999.2500   -999.2500   -999.2500   -999.2500   -999.2500
   996.8000   -999.2500   -999.2500   -999.2500   -999.2500   -999.2500   -999.2500
   996.9000   -999.2500   -999.2500   -999.2500   -999.2500   -999.2500   -999.2500
   997.0000   -999.2500   -999.2500   -999.2500   -999.2500   -999.2500   -999.2500
   997.1000   -999.2500   -999.2500   -999.2500   -999.2500   -999.2500   -999.2500
