~Version Information
VERS.                      2.0: CWLS Log ASCII Standard - VERSION 2.0
WRAP.                       NO: One line per depth step
~Well Information Block
STRT.FT               259.0000: 
STOP.FT              2382.0000: 
STEP.FT                 0.2500: 
NULL.                -999.2500: 
COMP.          Pioneer Natural Resources: COMPANY
WELL.          Foothills 12-36: WELL
FLD.           Purgatoire River: FIELD
LOC.           2450' FNL & 201' FWL: LOCATION
PROV.                 Colorado: PROVINCE
CNTY.               Las Animas: COUNTRY
SRVC.                Patterson: SERVICE COMPANY
DATE.          Thu Apr 21 03:00:58 2005: LOG DATE
UWI.           05 071 08339 00: UNIQUE WELL ID
~Curve Information Block
DEPT.FT            0 000 00 00: Depth
SN.Ohm-m                      : IEL Short Normal
SP.mV                         : IEL Spontaneous Potential
DIR.Ohm-m                     : IEL Induction Resistivity
GR.GAPI                       : Gamma Ray
~Parameter Information Block
~A  Depth        SN          SP         DIR          GR     
# ...
  1498.5000     15.4010   -116.7668     10.7291     93.6970
  1498.7500     16.2515   -116.3580     10.6752     97.1506
  1499.0000     16.7384   -115.8600     10.6186    104.5860
  1499.2500     16.9174   -115.3615     10.5487    109.8976
  1499.5000     16.8590   -114.9175     10.4609    116.4928
  1499.7500     16.5160   -114.5296     10.3547    119.4590
  1500.0000     15.8872   -114.1668     10.2282    122.4016
  1500.2500     15.1133   -113.8029     10.0741    124.2921
  1500.5000     14.3933   -113.4336      9.8816    128.2997
  1500.7500     13.7917   -113.0680      9.6441    131.7950
  1501.0000     13.2328   -112.7163      9.3688    137.1141
  1501.2500     12.6899   -112.3909      9.0779    139.7642
  1501.5000     12.1718   -112.1087      8.8004    141.4726
  1501.7500     11.5781   -111.8838      8.5608    141.2916
  1502.0000     10.8159   -111.7140      8.3739    140.1368
  1502.2500     10.0266   -111.5777      8.2480    139.3276
  1502.5000      9.5058   -111.4443      8.1901    138.3804
  1502.7500      9.4791   -111.2935      8.2074    137.8868
  1503.0000     10.0300   -111.1275      8.3051    137.1728
  1503.2500     11.0573   -110.9665      8.4823    136.5741
  1503.5000     12.2301   -110.8284      8.7289    135.2523
  1503.7500     13.1246   -110.7139      9.0271    133.9676
  1504.0000     13.5174   -110.6134      9.3555    131.1697
  1504.2500     13.5030   -110.5267      9.6972    128.5149
  1504.5000     13.3104   -110.4726     10.0470    123.0222
  1504.7500     13.1602   -110.4771     10.4135    118.2543
  1505.0000     13.2418   -110.5551     10.8131    109.6993
  1505.2500     13.6913   -110.7020     11.2620    103.6428
  1505.5000     14.5703   -110.8907     11.7730     95.5898
  1505.7500     15.7735   -111.0697     12.3602     91.7301
  1506.0000     17.0364   -111.1750     13.0429     88.7575
  1506.2500     18.1556   -111.1640     13.8415     88.3843
  1506.5000     19.0912   -111.0450     14.7590     88.9860
  1506.7500     19.8746   -110.8680     15.7620     89.3127
  1507.0000     20.5251   -110.6907     16.7764     88.8664
  1507.2500     21.0055   -110.5527     17.7079     87.9687
  1507.5000     21.3012   -110.4701     18.4748     85.9146
  1507.7500     21.5099   -110.4381     19.0303     83.9450
  1508.0000     21.7103   -110.4330     19.3615     80.0447
  1508.2500     21.8109   -110.4159     19.4792     77.3977
  1508.5000     21.6598   -110.3441     19.4202     75.1480
  1508.7500     21.2968   -110.1876     19.2536     75.5879
  1509.0000     20.9415   -109.9456     19.0698     79.2074
  1509.2500     20.7170   -109.6519     18.9477     83.0495
  1509.5000     20.5378   -109.3662     18.9232     89.9193
  1509.7500     20.2732   -109.1511     18.9839     94.7087
  1510.0000     19.9307   -109.0442     19.0890    100.9602
  1510.2500     19.6182   -109.0388     19.1957    103.4921
  1510.5000     19.3795   -109.0918     19.2724    103.5225
  1510.7500     19.1784   -109.1520     19.2997    101.1021
  1511.0000     18.9786   -109.1877     19.2680     95.3108
  1511.2500     18.7904   -109.1916     19.1771     91.0957
  1511.5000     18.7073   -109.1685     19.0313     85.6023
  1511.7500     18.8811   -109.1234     18.8324     82.9447
  1512.0000     19.3311   -109.0615     18.5755     80.7777
  1512.2500     19.8286   -108.9938     18.2543     80.4490
  1512.5000     20.1297   -108.9407     17.8726     81.0848
  1512.7500     20.1974   -108.9293     17.4522     81.9377
  1513.0000     20.0649   -108.9907     17.0327     83.8426
  1513.2500     19.6531   -109.1531     16.6623     86.0127
  1513.5000     18.8698   -109.4252     16.3837     91.8305
  1513.7500     17.8122   -109.7815     16.2189     97.6503
  1514.0000     16.7875   -110.1666     16.1581    107.8748
  1514.2500     16.0906   -110.5221     16.1604    114.0365
  1514.5000     15.7764   -110.8156     16.1683    119.5884
  1514.7500     15.7209   -111.0542     16.1319    120.0368
  1515.0000     15.8102   -111.2757     16.0298    116.0196
  1515.2500     15.9536   -111.5234     15.8738    110.9126
  1515.5000     16.0306   -111.8177     15.6977    101.4103
  1515.7500     15.9880   -112.1410     15.5392     95.2528
  1516.0000     15.9596   -112.4455     15.4284     88.8730
  1516.2500     16.1504   -112.6784     15.3880     87.4933
  1516.5000     16.5463   -112.8074     15.4408     89.5413
  1516.7500     16.8717   -112.8335     15.6131     92.6880
  1517.0000     16.9671   -112.7864     15.9280     98.2002
  1517.2500     17.0033   -112.7082     16.3890    101.4781
  1517.5000     17.2159   -112.6363     16.9601    104.2400
  1517.7500     17.6099   -112.5944     17.5581    103.8323
  1518.0000     17.9786   -112.5881     18.0741     99.5906
  1518.2500     18.1814   -112.6006     18.4264     95.1236
  1518.5000     18.2645   -112.5972     18.6047     88.0719
  1518.7500     18.3159   -112.5413     18.6597     84.1792
  1519.0000     18.4448   -112.4121     18.6518     80.5991
  1519.2500     18.7696   -112.2065     18.6130     79.9471
  1519.5000     19.2344   -111.9283     18.5544     81.3066
  1519.7500     19.6349   -111.5834     18.4963     83.2166
  1520.0000     19.8782   -111.1866     18.4854     86.2144
  1520.2500     20.0307   -110.7676     18.5806     87.5486
  1520.5000     20.1359   -110.3633     18.8226     87.9771
  1520.7500     20.1507   -110.0021     19.2080     87.4796
  1521.0000     20.0312   -109.6954     19.6861     86.6427
  1521.2500     19.8202   -109.4376     20.1818     86.4499
  1521.5000     19.6539   -109.2112     20.6309     86.2712
  1521.7500     19.6602   -108.9935     21.0016     85.4885
  1522.0000     19.8893   -108.7644     21.2863     82.4590
  1522.2500     20.2730   -108.5136     21.4762     79.3755
  1522.5000     20.6314   -108.2428     21.5449     74.2691
  1522.7500     20.8342   -107.9630     21.4510     71.2122
  1523.0000     20.9436   -107.6914     21.1588     67.9283
  1523.2500     21.1031   -107.4477     20.6634     66.9371
  1523.5000     21.3295   -107.2464     19.9993     67.7865
  1523.7500     21.5069   -107.0838     19.2279     70.1265
  1524.0000     21.4414   -106.9346     18.4139     76.0928
  1524.2500     20.9087   -106.7646     17.6097     81.1847
  1524.5000     19.8885   -106.5472     16.8521     89.4083
  1524.7500     18.6711   -106.2731     16.1653     94.9468
  1525.0000     17.5524   -105.9490     15.5635    103.4464
  1525.2500     16.6209   -105.5964     15.0528    109.3081
  1525.5000     15.8871   -105.2496     14.6334    117.6780
  1525.7500     15.3339   -104.9493     14.3004    122.0608
  1526.0000     14.8674   -104.7248     14.0451    125.1863
  1526.2500     14.4532   -104.5779     13.8545    124.3505
  1526.5000     14.1811   -104.4816     13.7135    118.5276
  1526.7500     14.0919   -104.3988     13.6124    112.0343
  1527.0000     14.1321   -104.3039     13.5525     99.9536
  1527.2500     14.2965   -104.1913     13.5471     91.4495
  1527.5000     14.6721   -104.0725     13.6142     79.5095
  1527.7500     15.2868   -103.9677     13.7687     72.6149
  1528.0000     16.0106   -103.8983     14.0195     64.6239
  1528.2500     16.7339   -103.8808     14.3743     61.3815
  1528.5000     17.4727   -103.9249     14.8417     60.1292
  1528.7500     18.1946   -104.0345     15.4268     61.3184
  1529.0000     18.7844   -104.2087     16.1194     64.4020
  1529.2500     19.2122   -104.4382     16.8851     66.2245
  1529.5000     19.5358   -104.7038     17.6698     67.5758
  1529.7500     19.7773   -104.9755     18.4166     67.6085
  1530.0000     19.9094   -105.2084     19.0854     67.1461
  1530.2500     19.9224   -105.3458     19.6564     66.9286
  1530.5000     19.8870   -105.3468     20.1191     66.7948
  1530.7500     19.9417   -105.2300     20.4641     66.5609
  1531.0000     20.1714   -105.0780     20.6925     65.8209
  1531.2500     20.4969   -104.9766     20.8309     65.3482
  1531.5000     20.7372   -104.9432     20.9303     65.1643
  1531.7500     20.8130   -104.9199     21.0444     65.2342
