~Version Information
VERS.                      2.0: CWLS Log ASCII Standard - VERSION 2.0
WRAP.                       NO: One line per depth step
~Well Information Block
STRT.FT                -0.2500: 
STOP.FT              2376.7500: 
STEP.FT                 0.2500: 
NULL.                -999.2500: 
COMP.          Petrogulf Corporation: COMPANY
WELL.             State 16-23V: WELL
FLD.           Purgatorie River: FIELD
LOC.           2414' FSL & 2215' FWL: LOCATION
PROV.                 Colorado: PROVINCE
CNTY.               Las Animas: COUNTRY
SRVC.          Patterson Wireline: SERVICE COMPANY
DATE.          Wed Jun 25 14:56:54 2003: LOG DATE
UWI.           05 071 07865 00: UNIQUE WELL ID
~Curve Information Block
DEPT.FT            0 000 00 00: Depth
CCL.                          : Casing Collar Locator
TT3.usec                      : CBL 3' Travel Time
AMP3.mV                       : CBL 3' Amplitude
GR.GAPI                       : Gamma Ray
~Parameter Information Block
~A  Depth       CCL         TT3         AMP3         GR     
    -0.2500   -999.2500   -999.2500   -999.2500     46.5357
     0.0000   -999.2500   -999.2500   -999.2500     44.7528
     0.2500   -999.2500   -999.2500   -999.2500     47.3543
     0.5000   -999.2500   -999.2500   -999.2500     50.5201
     0.7500   -999.2500   -999.2500   -999.2500     53.8630
     1.0000   -999.2500   -999.2500   -999.2500     57.1311
     1.2500   -999.2500   -999.2500   -999.2500     60.8112
     1.5000   -999.2500   -999.2500   -999.2500     65.5016
     1.7500   -999.2500   -999.2500   -999.2500     71.1555
     2.0000   -999.2500   -999.2500   -999.2500     77.0154
     2.2500   -999.2500   -999.2500   -999.2500     82.1136
     2.5000   -999.2500   -999.2500   -999.2500     85.7218
     2.7500   -999.2500   -999.2500   -999.2500     87.4871
     3.0000   -999.2500   -999.2500   -999.2500     87.6120
     3.2500   -999.2500   -999.2500   -999.2500     87.1921
     3.5000   -999.2500   -999.2500   -999.2500     87.7913
     3.7500   -999.2500   -999.2500   -999.2500     89.9651
     4.0000   -999.2500   -999.2500   -999.2500     92.5763
     4.2500   -999.2500   -999.2500   -999.2500     94.0957
     4.5000   -999.2500   1426.7839      0.3538     94.1028
     4.7500   -999.2500   1408.3942      0.3992     93.0546
     5.0000   -999.2500   1403.3545      0.4417     91.2093
     5.2500   -999.2500   1402.2822      0.4761     88.4882
     5.5000   -999.2500   1402.1030      0.5015     85.1076
     5.7500   -999.2500   1402.1660      0.5132     81.6642
     6.0000   -999.2500   1402.2723      0.5054     78.4945
     6.2500   -999.2500   1402.3947      0.4795     75.4305
     6.5000   -999.2500   1402.5007      0.4416     72.4407
     6.7500   -999.2500   1402.5638      0.3920     70.2713
     7.0000      0.0000   1402.5706      0.3278     70.1177
     7.2500      0.0000   1402.5295      0.2560     72.6867
     7.5000      0.0000   1402.4678      0.1949     77.6790
     7.7500      0.0000   1402.4186      0.1600     83.9707
     8.0000      0.0000   1402.4004      0.1543     90.0415
     8.2500      0.0000   1402.4054      0.1718     94.5654
     8.5000      0.0000   1402.4111      0.2085     97.1818
     8.7500      0.0000   1402.4038      0.2622     98.7032
     9.0000      0.0000   1402.3933      0.3219    100.1647
     9.2500      0.0000   1402.3982      0.3648    101.6350
     9.5000      0.0000   1402.4210      0.3720    102.1851
     9.7500      0.0000   1402.4463      0.3478    100.9693
    10.0000      0.0000   1402.4513      0.3199     98.2734
    10.2500      0.0000   1402.4214      0.3201     95.6501
    10.5000      0.0000   1402.3568      0.3562     95.0266
    10.7500      0.0000   1402.2766      0.4001     97.4635
    11.0000      0.0000   1402.2058      0.4090    102.4071
    11.2500      0.0000   1402.0568      0.3673    107.8827
    11.5000      0.0000   1401.3162      0.3123    111.6336
    11.7500      0.0000   1397.8567      0.3623    112.6690
    12.0000      0.0000   1385.2118      0.8065    111.9683
    12.2500      0.0000   1348.8926      2.2853    111.5486
    12.5000      0.0000   1266.6910      5.8538    112.7172
    12.7500      0.0000   1120.2334     12.5146    115.2077
    13.0000      0.0000    915.1548     22.2125    117.8262
    13.2500      0.0000    689.8174     33.2393    119.6656
    13.5000      0.0000    495.7838     43.0560    120.7372
    13.7500      0.0000    365.0031     49.9555    121.8539
    14.0000      0.0000    296.0828     53.8776    124.2124
    14.2500      0.0000    267.7213     55.8028    128.8609
    14.5000      0.0000    258.6180     56.7350    135.9458
    14.7500      0.0000    256.3290     57.2427    144.0850
    15.0000      0.0000    255.8620     57.5478    150.6622
    15.2500      0.0000    255.7830     57.7353    153.3138
    15.5000      0.0000    255.7947     57.8548    151.6138
    15.7500      0.0000    255.8138     57.9420    147.4003
    16.0000      0.0000    255.8138     58.0307    143.3411
    16.2500      0.0000    255.7948     58.1707    141.2873
    16.5000      0.0000    255.7830     58.4106    141.9075
    16.7500      0.0000    255.7947     58.7587    145.1847
    17.0000      0.0000    255.8138     59.1725    150.5506
    17.2500      0.0000    255.8138     59.5890    156.6640
    17.5000      0.0000    255.7948     59.9533    161.6217
    17.7500      0.0000    255.7830     60.2255    163.7174
    18.0000      0.0000    255.7947     60.3899    162.2822
    18.2500      0.0000    255.8138     60.4704    158.1301
    18.5000      0.0000    255.8138     60.5197    153.1420
    18.7500      0.0000    255.7948     60.5753    149.0612
    19.0000      0.0000    255.7830     60.6307    146.5622
    19.2500      0.0000    255.7947     60.6669    145.3633
    19.5000      0.0000    255.8138     60.7013    144.8102
    19.7500      0.0000    255.8142     60.7824    144.1899
    20.0000      0.0000    255.7970     60.9310    142.9863
    20.2500      0.0000    255.7918     61.1122    141.2493
    20.5000      0.0000    255.8217     61.2769    139.4997
    20.7500      0.0000    255.8786     61.4120    138.0901
    21.0000      0.0000    255.9352     61.5385    136.7171
    21.2500      0.0000    255.9730     61.6827    134.3980
    21.5000      0.0000    255.9913     61.8675    129.8853
    21.7500      0.0000    255.9978     62.1125    122.7957
    22.0000      0.0000    255.9996     62.4165    114.7275
    22.2500      0.0000    256.0000     62.7432    108.6264
    22.5000      0.0000    255.9999     63.0451    106.5451
    22.7500      0.0000    255.9996     63.3033    108.1872
    23.0000      0.0000    255.9978     63.5341    111.4537
    23.2500      0.0000    255.9912     63.7630    113.8986
    23.5000      0.0000    255.9730     64.0057    113.9481
    23.7500      0.0000    255.9348     64.2687    111.5938
    24.0000      0.0000    255.8768     64.5427    108.1905
    24.2500      0.0000    255.8152     64.7923    105.1872
    24.5000      0.0000    255.7735     64.9754    102.9425
    24.7500      0.0000    255.7592     65.0862    100.9581
    25.0000      0.0000    255.7580     65.1705     98.9872
    25.2500      0.0000    255.7589     65.2888     97.4749
    25.5000      0.0000    255.7718     65.4691     97.0369
    25.7500      0.0000    255.8086     65.7025     97.9362
    26.0000      0.0000    255.8586     65.9714    100.0198
    26.2500      0.0000    255.8970     66.2594    102.9180
    26.5000      0.0000    255.9163     66.5429    106.3691
    26.7500      0.0000    255.9339     66.7952    110.3624
    27.0000      0.0000    255.9651     67.0111    114.8316
    27.2500      0.0000    255.9934     67.2165    119.2950
    27.5000      0.0000    255.9793     67.4497    122.9729
    27.7500      0.0000    255.8996     67.7306    125.2150
    28.0000      0.0000    255.7707     68.0422    125.7617
    28.2500      0.0000    255.6375     68.3250    124.7377
    28.5000      0.0000    255.5546     68.4960    122.5623
    28.7500      0.0000    255.5864     68.4566    119.9224
    29.0000      0.0000    255.8132     68.0256    117.7265
    29.2500      0.0000    256.3254     66.8169    116.8289
    29.5000      0.0000    257.1882     64.2620    117.5939
    29.7500      0.0000    258.3796     59.9546    119.7265
    30.0000      0.0000    259.7419     54.1720    122.3640
    30.2500      0.0000    261.0214     48.0612    124.1704
    30.5000      0.0000    262.0083     43.0863    123.7214
    30.7500      0.0000    262.6533     40.0964    120.4408
    31.0000     -2.0000    263.0811     38.9163    115.3007
    31.2500     -2.0000    263.5355     38.7873    110.3669
    31.5000      0.0000    264.3451     39.0894    107.6371
    31.7500      0.0000    265.8058     39.7354    108.1199
    32.0000      0.0000    267.8210     41.1588    111.4381
    32.2500      0.0000    269.5464     43.9699    116.0137
    32.5000      0.0000    269.7218     48.3684    119.9500
    32.7500      0.0000    267.7357     53.7318    122.1799
    33.0000      0.0000    264.2827     58.9439    123.0663
