~Version Information
VERS.                      2.0: CWLS Log ASCII Standard - VERSION 2.0
WRAP.                       NO: One line per depth step
~Well Information Block
STRT.FT                15.0000: 
STOP.FT              2265.2500: 
STEP.FT                 0.2500: 
NULL.                -999.2500: 
COMP.          Pioneer Natural Resources: COMPANY
WELL.             Vector 33-23: WELL
FLD.           Purgatoire River: FIELD
LOC.           1988' FSL & 1560' FEL: LOCATION
PROV.                 Colorado: PROVINCE
CNTY.               Las Animas: COUNTRY
SRVC.                Patterson: SERVICE COMPANY
DATE.          Fri Apr 01 13:14:24 2005: LOG DATE
UWI.           05 071 08336 00: UNIQUE WELL ID
~Curve Information Block
DEPT.FT            0 000 00 00: Depth
GR.GAPI                       : Gamma Ray
CCL.                          : Casing Collar Locator
TT3.usec                      : CBL 3' Travel Time
AMP3.mV                       : CBL 3' Amplitude
AMP5.mV                       : CBL 5' Amplitude
~Parameter Information Block
~A  Depth        GR         CCL         TT3         AMP3        AMP5    
# ...
   323.0000     87.1152      0.0000   1350.0000     38.5514     10.9673
   323.2500     92.1175      0.0000   1350.0000     39.3284     10.9683
   323.5000     97.5046      0.0000   1350.0000     39.8089     10.9758
   323.7500    101.5023      0.0000   1350.0000     39.9550     10.9850
   324.0000    103.3129      0.0000   1350.0000     39.8276     10.9748
   324.2500    103.0939      0.0000   1350.0000     39.5256     10.9246
   324.5000    101.7183      0.0000   1350.0000     39.1323     10.8291
   324.7500    100.6164      0.0000   1350.0000     38.6795     10.6950
   325.0000    101.0665      0.0000   1350.0000     38.1437     10.5268
   325.2500    102.9608      0.0000   1350.0000     37.4984     10.3236
   325.5000    104.5006      0.0000   1350.0000     36.7630     10.0887
   325.7500    103.6281      0.0000   1350.0000     35.9754      9.8323
   326.0000     99.7044      0.0000   1350.0000     35.1415      9.5638
   326.2500     93.6394      0.0000   1350.0000     34.2522      9.2831
   326.5000     86.9347      0.0000   1350.0000     33.3296      8.9838
   326.7500     81.0732      0.0000   1350.0000     32.4217      8.6664
   327.0000     77.3402      0.0000   1350.0000     31.5683      8.3471
   327.2500     76.4207      0.0000   1350.0000     30.7866      8.0481
   327.5000     77.9822      0.0000   1350.0000     30.0818      7.7776
   327.7500     80.7963      0.0000   1350.0000     29.4746      7.5241
   328.0000     83.4410      0.0000   1350.0000     29.0258      7.2727
   328.2500     85.1411      0.0000   1350.0000     28.7859      7.0233
   328.5000     86.0338      0.0000   1350.0000     28.6836      6.7899
   328.7500     86.6221      0.0000   1350.0000     28.5183      6.5901
   329.0000     87.1108      0.0000   1350.0000     28.1230      6.4370
   329.2500     87.2765      0.0000   1350.0000     27.5136      6.3322
   329.5000     86.8056      0.0000   1350.0000     26.8485      6.2594
   329.7500     85.7748      0.0000   1350.0000     26.2844      6.1890
   330.0000     84.9419      0.0000   1350.0000     25.8930      6.0985
   330.2500     85.3824      0.0000   1350.0000     25.6640      5.9882
   330.5000     87.5554      0.0000   1350.0000     25.5401      5.8740
   330.7500     90.6947      0.0000   1350.0000     25.4576      5.7691
   331.0000     93.2585      0.0000   1350.0000     25.3726      5.6778
   331.2500     94.1386      0.0000   1350.0000     25.2507      5.6029
   331.5000     93.5151      0.0000   1350.0000     25.0577      5.5521
   331.7500     92.5243      0.0000   1350.0000     24.7883      5.5354
   332.0000     92.0946      0.0000   1350.0000     24.4958      5.5535
   332.2500     92.1639      0.0000   1350.0000     24.2707      5.5899
   332.5000     91.9329      0.0000   1350.0000     24.1851      5.6167
   332.7500     90.6789      0.0000   1350.0000     24.2548      5.6137
   333.0000     88.3540      0.0000   1350.0000     24.4298      5.5839
   333.2500     85.6553      0.0000   1350.0000     24.6099      5.5496
   333.5000     83.5488      0.0000   1350.0000     24.6931      5.5343
   333.7500     82.4874      0.0000   1350.0000     24.6447      5.5468
   334.0000     81.9945      0.0000   1350.0000     24.5235      5.5762
   334.2500     81.0719      0.0000   1350.0000     24.4336      5.5970
   334.5000     79.0759      0.0000   1350.0000     24.4520      5.5855
   334.7500     76.1848      0.0000   1350.0000     24.5890      5.5361
   335.0000     72.9773      0.0000   1350.0000     24.7931      5.4640
   335.2500     69.6799      0.0000   1350.0000     24.9825      5.3927
   335.5000     66.1103      0.0000   1350.0000     25.0932      5.3389
   335.7500     62.3969      0.0000   1350.0000     25.1113      5.3081
   336.0000     59.3649      0.0000   1350.0000     25.0606      5.2933
   336.2500     58.0183      0.0000   1350.0000     24.9677      5.2614
   336.5000     58.7574      0.0000   1350.0000     24.8390      5.1402
   336.7500     61.1100      0.0000   1350.0000     24.6379      4.8487
   337.0000     64.0512      0.0000   1350.0000     24.2431      4.3766
   337.2500     66.6093      0.0000   1350.0000     23.4376      3.8291
   337.5000     68.3093      0.0000   1350.0000     21.9956      3.3633
   337.7500     69.1627      0.0000   1350.0000     19.8458      3.0744
   338.0000     69.3684      0.0000   1350.0000     17.2034      2.9517
   338.2500     69.0105      0.0000   1350.0000     14.5459      2.9255
   338.5000     67.9612      0.0000   1350.0000     12.3859      2.9322
   338.7500     66.2228      0.0000   1350.0000     10.9942      2.9416
   339.0000     64.4689      0.0000   1350.0000     10.3179      2.9502
   339.2500     63.9649      0.0000   1350.0000     10.1469      2.9643
   339.5000     65.7062      0.0000   1350.0000     10.3527      2.9888
   339.7500     69.6760      0.0000   1350.0000     11.0174      3.0226
   340.0000     74.9073      0.0000   1350.0000     12.3676      3.0653
   340.2500     79.9660      0.0000   1350.0000     14.5344      3.1291
   340.5000     83.3921      0.0000   1350.0000     17.3312      3.2531
   340.7500     84.2746      0.0000   1350.0000     20.2954      3.5033
   341.0000     82.9633      0.0000   1350.0000     22.9627      3.9383
   341.2500     81.0950      0.0000   1350.0000     25.0827      4.5465
   341.5000     80.5192      0.0000   1350.0000     26.6309      5.2166
   341.7500     81.9969      0.0000   1350.0000     27.7098      5.7938
   342.0000     84.8117      0.0000   1350.0000     28.4388      6.1767
   342.2500     87.5199      0.0000   1350.0000     28.8869      6.3560
   342.5000     89.1531      0.0000   1350.0000     29.0887      6.3821
   342.7500     89.8458      0.0000   1350.0000     29.0984      6.3229
   343.0000     90.2583      0.0000   1350.0000     28.9863      6.2406
   343.2500     90.5036      0.0000   1350.0000     28.7807      6.1803
   343.5000     90.1815      0.0000   1350.0000     28.4640      6.1635
   343.7500     89.4457      0.0000   1350.0000     28.0526      6.1910
   344.0000     89.0555      0.0000   1350.0000     27.6550      6.2479
   344.2500     89.0139      0.0000   1350.0000     27.4172      6.3095
   344.5000     88.2719      0.0000   1350.0000     27.4109      6.3497
   344.7500     86.4090      0.0000   1350.0000     27.5855      6.3540
   345.0000     84.6225      0.0000   1350.0000     27.8182      6.3264
   345.2500     84.2159      0.0000   1350.0000     27.9951      6.2828
   345.5000     84.8542      0.0000   1350.0000     28.0521      6.2368
   345.7500     85.1434      0.0000   1350.0000     27.9704      6.1916
   346.0000     84.4206      0.0000   1350.0000     27.7579      6.1398
   346.2500     83.1988      0.0000   1350.0000     27.4412      6.0731
   346.5000     82.1132      0.0000   1350.0000     27.0738      5.9913
   346.7500     81.1560      0.0000   1350.0000     26.7427      5.9046
   347.0000     80.0817      0.0000   1350.0000     26.5375      5.8263
   347.2500     79.2582      0.0000   1350.0000     26.4966      5.7641
   347.5000     79.7955      0.0000   1350.0000     26.5896      5.7187
   347.7500     82.5977      0.0000   1350.0000     26.7491      5.6900
   348.0000     87.1360      0.0000   1350.0000     26.9035      5.6829
   348.2500     91.1994      0.0000   1350.0000     26.9885      5.7052
   348.5000     92.2218      0.0000   1350.0000     26.9627      5.7610
   348.7500     89.2520      0.0000   1350.0000     26.8333      5.8453
   349.0000     83.5948      0.0000   1350.0000     26.6574      5.9438
   349.2500     77.5235      0.0000   1350.0000     26.5097      6.0361
   349.5000     72.7528      0.0000   1350.0000     26.4494      6.1036
   349.7500     70.2130      0.0000   1350.0000     26.5059      6.1392
   350.0000     70.5152      0.0000   1350.0000     26.6776      6.1502
   350.2500     73.7416      0.0000   1350.0000     26.9438      6.1539
   350.5000     78.6948      0.0000   1350.0000     27.2840      6.1699
   350.7500     83.0362      0.0000   1350.0000     27.6818      6.2103
