~Version Information
VERS.                      2.0: CWLS Log ASCII Standard - VERSION 2.0
WRAP.                       NO: One line per depth step
~Well Information Block
STRT.FT                39.7500: 
STOP.FT              1484.0000: 
STEP.FT                 0.2500: 
NULL.                -999.2500: 
COMP.          Evergreen Operating Corporation: COMPANY
WELL.              Chase 21-10: WELL
FLD.           Purgatoire River: FIELD
LOC.           1122' FNL & 1544' FWL: LOCATION
PROV.                       CO: PROVINCE
CNTY.               Las Animas: COUNTRY
SRVC.                         : SERVICE COMPANY
DATE.          Fri May 28 15:54:16 2004: LOG DATE
UWI.           05 071 08006 00: UNIQUE WELL ID
~Curve Information Block
DEPT.FT            0 000 00 00: Depth
TT3.usec                      : CBL 3' Travel Time
AMP3.mV                       : CBL 3' Amplitude
GR.GAPI                       : Gamma Ray
CCL.                          : Casing Collar Locator
~Parameter Information Block
~A  Depth       TT3         AMP3         GR         CCL     
# ...
   709.7500    756.0861      7.5109     84.0510      0.0000
   710.0000    755.5907      7.5298     82.1316      0.0000
   710.2500    754.4546      7.5316     78.5078      0.0000
   710.5000    752.2376      7.5131     73.7646      0.0000
   710.7500    748.8080      7.4813     69.0258      0.0000
   711.0000    744.8555      7.4475     65.4308      0.0000
   711.2500    741.6876      7.4180     63.5535      0.0000
   711.5000    740.3609      7.3935     63.3708      0.0000
   711.7500    741.3065      7.3720     64.7938      0.0000
   712.0000    744.6235      7.3531     67.8538      0.0000
   712.2500    749.9535      7.3401     72.1169      0.0000
   712.5000    756.0729      7.3359     76.2188      0.0000
   712.7500    761.3763      7.3359     78.5179      0.0000
   713.0000    764.9295      7.3289     78.3803      0.0000
   713.2500    766.8117      7.3060     76.7161      0.0000
   713.5000    767.6165      7.2679     75.2344      0.0000
   713.7500    767.8969      7.2262     75.2630      0.0000
   714.0000    767.9772      7.1963     77.3926      0.0000
   714.2500    767.9965      7.1907     81.9554      0.0000
   714.5000    767.9995      7.2143     89.0569      0.0000
   714.7500    768.0000      7.2652     97.7797      0.0000
   715.0000    768.0000      7.3367    106.0006      0.0000
   715.2500    768.0000      7.4178    111.6681      0.0000
   715.5000    768.0000      7.4941    114.1671      0.0000
   715.7500    768.0000      7.5519    114.1770      0.0000
   716.0000    768.0000      7.5862    112.4837      0.0000
   716.2500    768.0000      7.6028    109.4950      0.0000
   716.5000    768.0000      7.6120    105.8861      0.0000
   716.7500    768.0000      7.6218    102.9505      0.0000
   717.0000    768.0000      7.6332    101.6084      0.0000
   717.2500    768.0000      7.6389    101.2976      0.0000
   717.5000    768.0000      7.6288    100.4629      0.0000
   717.7500    768.0000      7.5999     98.2057      0.0000
   718.0000    768.0000      7.5595     95.1435      0.0000
   718.2500    768.0000      7.5210     92.6925      0.0000
   718.5000    768.0000      7.4966     91.9431      0.0000
   718.7500    768.0000      7.4914     93.2666      0.0000
   719.0000    768.0000      7.4993     96.4128      0.0000
   719.2500    768.0000      7.5103    100.5585      0.0000
   719.5000    768.0000      7.5194    104.6303      0.0000
   719.7500    768.0000      7.5246    107.9488      0.0000
   720.0000    768.0000      7.5232    110.3492      0.0000
   720.2500    768.0000      7.5137    111.7651      0.0000
   720.5000    768.0000      7.5004    112.1994      0.0000
   720.7500    768.0000      7.4860    111.9535      0.0000
   721.0000    768.0000      7.4681    111.2965      0.0000
   721.2500    768.0000      7.4459    110.0199      0.0000
   721.5000    768.0000      7.4272    107.8549      0.0000
   721.7500    768.0000      7.4228    105.3325      0.0000
   722.0000    768.0000      7.4376    103.7377      0.0000
   722.2500    768.0000      7.4700    103.9144      0.0000
   722.5000    767.9991      7.5139    105.2633      0.0000
   722.7500    767.9943      7.5603    106.2018      0.0000
   723.0000    767.9705      7.6036    105.7383      0.0000
   723.2500    767.8801      7.6462    104.4147      0.0000
   723.5000    767.6163      7.6891    103.6437      0.0000
   723.7500    767.0189      7.7237    104.4140      0.0000
   724.0000    765.9628      7.7426    106.7097      0.0000
   724.2500    764.4852      7.7517    109.7260      0.0000
   724.5000    762.8254      7.7624    112.3863      0.0000
   724.7500    761.3536      7.7714    113.9682      0.0000
   725.0000    760.4943      7.7628    114.4339      0.0000
   725.2500    760.6188      7.7304    113.9594      0.0000
   725.5000    761.8026      7.6892    112.3743      0.0000
   725.7500    763.6489      7.6605    109.6378      0.0000
   726.0000    765.4891      7.6517    106.7197      0.0000
   726.2500    766.8244      7.6559    105.2102      0.0000
   726.5000    767.5577      7.6656    105.7876      0.0000
   726.7500    767.8674      7.6807    107.4383      0.0000
   727.0000    767.9684      7.7030    108.4814      0.0000
   727.2500    767.9941      7.7276    108.3367      0.0000
   727.5000    767.9992      7.7440    108.0936      0.0000
   727.7500    768.0000      7.7456    109.2203      0.0000
   728.0000    768.0000      7.7360    111.8930      0.0000
   728.2500    768.0000      7.7291    114.8374      0.0000
   728.5000    768.0000      7.7449    116.6950      0.0000
   728.7500    768.0000      7.7974    117.2594      0.0000
   729.0000    768.0000      7.8799    117.3767      0.0000
   729.2500    768.0000      7.9661    117.7161      0.0000
   729.5000    768.0000      8.0334    117.7123      0.0000
   729.7500    768.0000      8.0801    116.0043      0.0000
   730.0000    768.0000      8.1163    112.1399      0.0000
   730.2500    768.0000      8.1457    107.5462      0.0000
   730.5000    768.0000      8.1602    104.4492      0.0000
   730.7500    768.0000      8.1490    103.9407      0.0000
   731.0000    768.0000      8.1086    105.3028      0.0000
   731.2500    768.0000      8.0499    106.7572      0.0000
   731.5000    768.0000      7.9923    106.4641      0.0000
   731.7500    767.9994      7.9445    103.4680      0.0000
   732.0000    767.9954      7.8960     98.4667      0.0000
   732.2500    767.9760      7.8342     93.6198      0.0000
   732.5000    767.9012      7.7622     91.1898      0.0000
   732.7500    767.6793      7.6925     92.1529      0.0000
   733.0000    767.1794      7.6320     95.8676      0.0000
   733.2500    766.3348      7.5805    100.6245      0.0000
   733.5000    765.2915      7.5356    104.4106      0.0000
   733.7500    764.3801      7.4936    105.6876      0.0000
   734.0000    763.8043      7.4536    104.0699      0.0000
   734.2500    763.3691      7.4227    100.4553      0.0000
   734.5000    762.6666      7.4122     96.4734      0.0000
   734.7500    761.5388      7.4240     93.6029      0.0000
   735.0000    760.2311      7.4461     92.3934      0.0000
   735.2500    759.1093      7.4647     92.2119      0.0000
   735.5000    758.3658      7.4773     91.8861      0.0000
   735.7500    757.9868      7.4934     90.8541      0.0000
   736.0000    757.8437      7.5236     89.6888      0.0000
   736.2500    757.7716      7.5714     89.4718      0.0000
   736.5000    757.6511      7.6301     90.6026      0.0000
   736.7500    757.4639      7.6928     92.1939      0.0000
   737.0000    757.2346      7.7691     92.7235      0.0000
   737.2500    756.8056      7.8902     91.4749      0.0000
   737.5000    755.5833      8.0842     89.4635      0.0000
   737.7500    752.4199      8.3388     88.8840      0.0000
   738.0000    746.1190      8.5881     91.4232      0.0000
   738.2500    736.9911      8.7432     96.8587      0.0000
   738.5000    728.3445      8.7395    103.1485      0.0000
   738.7500    725.2415      8.5642    107.8212      0.0000
   739.0000    730.3220      8.2581    109.4113      0.0000
   739.2500    741.1656      7.9060    107.8834      0.0000
   739.5000    752.5658      7.6095    103.9716      0.0000
   739.7500    760.7990      7.4429     98.2398     -3.0000
   740.0000    765.2570      7.4263     90.8131      3.0000
   740.2500    767.1417      7.5302     81.9921      0.0000
   740.5000    767.7747      7.6941     73.0592      0.0000
   740.7500    767.9280      7.8607     66.3030      0.0000
   741.0000    767.8832      8.0134     63.8906      0.0000
   741.2500    767.6204      8.1723     66.4454      0.0000
   741.5000    766.9548      8.3395     72.6865      0.0000
   741.7500    765.6612      8.4781     80.3417      0.0000
   742.0000    763.7041      8.5691     87.1810      0.0000
   742.2500    761.4108      8.6561     91.4800      0.0000
   742.5000    759.3602      8.7984     92.4748      0.0000
   742.7500    758.0091      9.0045     90.9160      0.0000
   743.0000    757.4075      9.2392     88.7772      0.0000
