~Version Information
VERS.                      2.0: CWLS Log ASCII Standard - VERSION 2.0
WRAP.                       NO: One line per depth step
~Well Information Block
STRT.FT               245.0000: 
STOP.FT              2464.2000: 
STEP.FT                 0.1000: 
NULL.                -999.2500: 
COMP.          Pioneer Natural Resources: COMPANY
WELL.          Oink Oink 14-36: WELL
FLD.           Purgatoire River: FIELD
LOC.           216' FSL & 263' FWL--: LOCATION
PROV.                 Colorado: PROVINCE
CNTY.               Las Animas: COUNTRY
SRVC.                Patterson: SERVICE COMPANY
DATE.          Wed Jun 08 16:53:09 2005: LOG DATE
UWI.           05 071 08394 00: UNIQUE WELL ID
~Curve Information Block
DEPT.FT            0 000 00 00: Depth
DCAL.in                       : CDL Caliper
RHOB.g/cc                     : CDL Bulk Density
RHOC.g/cc                     : CDL Density Correction
DPOR.pu                       : CDL Density Porosity
NPOR.pu                       : Neutron Porosity
GR.GAPI                       : Gamma Ray
~Parameter Information Block
~A  Depth       DCAL        RHOB        RHOC        DPOR        NPOR         GR     
   245.0000      2.6263      1.9497      0.1710     42.4396     52.7961     87.2094
   245.1000      2.6263      1.9543      0.1766     42.1630     52.0809     90.8616
   245.2000      2.6263      1.9696      0.1974     41.2368     51.4476     91.1747
   245.3000      2.6273      1.9882      0.2037     40.1085     51.2088     86.8049
   245.4000      2.6273      1.9942      0.2145     39.7436     51.1630     79.8949
   245.5000      2.6288      1.9932      0.1646     39.8062     51.1220     74.5243
   245.6000      2.6288      2.0040      0.1810     39.1514     51.1821     73.3031
   245.7000      2.6288      2.0214      0.2253     38.0980     51.2374     75.5846
   245.8000      2.6289      2.0272      0.2206     37.7479     51.1153     78.2502
   245.9000      2.6289      2.0166      0.2139     38.3888     51.0735     78.5711
   246.0000      2.6267      1.9975      0.1802     39.5447     51.3080     78.5631
   246.1000      2.6267      1.9834      0.1612     40.4015     51.3097     81.5169
   246.2000      2.6267      1.9822      0.1706     40.4745     50.4992     85.7925
   246.3000      2.6260      1.9898      0.1797     40.0141     49.1500     86.4559
   246.4000      2.6260      1.9990      0.1912     39.4549     48.1938     82.4587
   246.5000      2.6283      2.0092      0.1715     38.8353     48.0529     78.4722
   246.6000      2.6283      2.0205      0.1952     38.1503     48.2630     77.9989
   246.7000      2.6283      2.0281      0.1847     37.6924     48.3539     78.8798
   246.8000      2.6290      2.0303      0.2039     37.5589     48.3851     79.8443
   246.9000      2.6290      2.0288      0.1939     37.6487     48.3221     80.8069
   247.0000      2.6270      2.0272      0.1655     37.7446     47.9902     81.8889
   247.1000      2.6270      2.0309      0.1776     37.5218     47.7379     84.8027
   247.2000      2.6270      2.0380      0.1827     37.0935     48.0170     86.7204
   247.3000      2.6262      2.0452      0.1766     36.6557     48.6263     84.2266
   247.4000      2.6262      2.0573      0.1882     35.9195     49.1212     80.7902
   247.5000      2.6279      2.0774      0.1951     34.7014     49.3018     78.6043
   247.6000      2.6279      2.1009      0.2224     33.2775     49.2719     77.3671
   247.7000      2.6279      2.1179      0.2128     32.2489     49.1955     78.8155
   247.8000      2.6291      2.1207      0.2216     32.0793     48.7836     81.8515
   247.9000      2.6291      2.1129      0.1843     32.5525     48.1185     83.1601
   248.0000      2.6286      2.1016      0.1990     33.2384     47.9404     83.7285
   248.1000      2.6286      2.0847      0.1705     34.2589     48.1757     85.5843
   248.2000      2.6286      2.0613      0.1490     35.6806     48.3399     86.7847
   248.3000      2.6284      2.0286      0.1531     37.6600     48.5972     85.7321
   248.4000      2.6284      1.9801      0.1297     40.5977     49.0635     82.6799
   248.5000      2.6307      1.9277      0.0737     43.7783     49.4640     79.6144
   248.6000      2.6307      1.8983      0.0698     45.5555     49.6527     80.0921
   248.7000      2.6307      1.9057      0.0800     45.1083     49.7231     83.5246
   248.8000      2.6328      1.9426      0.0962     42.8719     49.6965     83.8911
   248.9000      2.6328      1.9952      0.1213     39.6875     49.5425     81.1924
   249.0000      2.6324      2.0520      0.1586     36.2448     49.3279     81.9289
   249.1000      2.6324      2.0988      0.2266     33.4069     49.1858     85.7086
   249.2000      2.6324      2.1204      0.2410     32.0984     49.2033     89.3622
   249.3000      2.6330      2.1126      0.2279     32.5714     49.2363     92.3454
   249.4000      2.6330      2.0794      0.2069     34.5827     49.1887     92.1271
   249.5000      2.6344      2.0262      0.1791     37.8076     49.2205     88.5230
   249.6000      2.6344      1.9656      0.1088     41.4776     49.3865     85.0712
   249.7000      2.6344      1.9183      0.0554     44.3447     49.4725     84.6512
   249.8000      2.6346      1.8992      0.0583     45.5029     49.3210     86.9590
   249.9000      2.6346      1.9094      0.0765     44.8873     49.1024     88.8095
   250.0000      2.6326      1.9433      0.0821     42.8278     49.2112     89.8104
   250.1000      2.6326      1.9884      0.1794     40.0984     49.5861     90.9657
   250.2000      2.6326      2.0244      0.1880     37.9167     49.6237     90.5712
   250.3000      2.6290      2.0433      0.2064     36.7673     49.1928     88.1771
   250.4000      2.6290      2.0508      0.2034     36.3129     48.8784     87.1264
   250.5000      2.6262      2.0507      0.2176     36.3210     49.0302     89.7172
   250.6000      2.6262      2.0420      0.1871     36.8489     49.2826     92.8722
   250.7000      2.6262      2.0341      0.1558     37.3272     49.1491     92.4751
   250.8000      2.6267      2.0429      0.1851     36.7967     48.6531     89.7510
   250.9000      2.6267      2.0698      0.1950     35.1623     48.3523     87.8599
   251.0000      2.6297      2.1030      0.2342     33.1503     48.5620     86.1014
   251.1000      2.6297      2.1259      0.2482     31.7629     49.0204     85.0719
   251.2000      2.6297      2.1289      0.2613     31.5846     49.5895     86.2436
   251.3000      2.6318      2.1197      0.2063     32.1379     49.9788     88.8445
   251.4000      2.6318      2.1095      0.2286     32.7597     49.6332     93.1795
   251.5000      2.6314      2.0963      0.1930     33.5587     48.7188    101.6405
   251.6000      2.6314      2.0804      0.1853     34.5185     47.8979    113.8719
   251.7000      2.6314      2.0699      0.1734     35.1577     47.5728    123.6135
   251.8000      2.6300      2.0666      0.1979     35.3572     47.7621    125.8453
   251.9000      2.6300      2.0692      0.1987     35.2021     48.1804    122.1536
   252.0000      2.6302      2.0810      0.1856     34.4859     48.4694    118.9333
   252.1000      2.6302      2.0986      0.2239     33.4191     48.7024    118.4306
   252.2000      2.6302      2.1075      0.2169     32.8768     49.1199    116.3146
   252.3000      2.6310      2.1037      0.2034     33.1103     49.3653    110.2995
   252.4000      2.6310      2.1009      0.1865     33.2775     48.8894    104.4669
   252.5000      2.6299      2.1088      0.2243     32.7985     48.0879    101.8298
   252.6000      2.6299      2.1161      0.2177     32.3596     47.7333    100.9146
   252.7000      2.6299      2.1085      0.2297     32.8197     47.4174    101.1057
   252.8000      2.6277      2.0903      0.1947     33.9213     46.3806    103.8515
   252.9000      2.6277      2.0768      0.1736     34.7370     44.8858    109.6836
   253.0000      2.6267      2.0695      0.1748     35.1846     43.8276    117.5974
   253.1000      2.6267      2.0533      0.2116     36.1626     43.2317    122.6400
   253.2000      2.6267      2.0218      0.1822     38.0740     42.2991    120.5760
   253.3000      2.6263      1.9825      0.1879     40.4522     40.8487    114.6741
   253.4000      2.6263      1.9359      0.1755     43.2764     39.2769    111.7556
   253.5000      2.6228      1.8769      0.1383     46.8523     37.9054    114.6028
   253.6000      2.6228      1.8239      0.1354     50.0642     36.7972    120.8707
   253.7000      2.6228      1.8169      0.1482     50.4927     35.8148    126.1955
   253.8000      2.6202      1.8742      0.2089     47.0195     34.7843    128.4396
   253.9000      2.6202      1.9692      0.3375     41.2631     33.5942    130.6166
   254.0000      2.8406      2.1042      0.3708     33.0798     32.1670    134.1568
   254.1000      2.8406      2.3485      0.5186     18.2720     30.7690    134.7599
   254.2000      2.8406      2.6765      0.8445     -1.6043     29.7343    130.7973
   254.3000      4.2051      2.9284      0.9627    -16.8708     28.9609    128.4828
   254.4000      4.2051      3.0171      0.9396    -22.2500     28.3044    130.6632
   254.5000      6.7729      2.9949      0.7502    -20.9007     27.9111    132.2524
