~Version Information
VERS.                      2.0: CWLS Log ASCII Standard - VERSION 2.0
WRAP.                       NO: One line per depth step
~Well Information Block
STRT.FT                -7.0500: 
STOP.FT              3072.6000: 
STEP.FT                 0.0500: 
NULL.                -999.2500: 
COMP.          Pioneer Natural Resources: COMPANY
WELL.              Stones 24-8: WELL
FLD.           Purgatoire River: FIELD
LOC.           648' FSL & 2264' FWL--: LOCATION
PROV.                 Colorado: PROVINCE
CNTY.               Las Animas: COUNTRY
SRVC.                Patterson: SERVICE COMPANY
DATE.          Fri Feb 04 12:43:19 2005: LOG DATE
UWI.           05 071 07945 00: UNIQUE WELL ID
~Curve Information Block
DEPT.FT            0 000 00 00: Depth
CCL.                          : Casing Collar Locator
TT3.usec                      : CBL 3' Travel Time
AMP3.mV                       : CBL 3' Amplitude
GR.GAPI                       : Gamma Ray
~Parameter Information Block
~A  Depth       CCL         TT3         AMP3         GR     
# ...
  1219.0500      0.0000    809.6870      3.0694     78.2001
  1219.1000      0.0000    809.6870      3.0694     78.2001
  1219.1500      0.0000    809.6870      3.0694     78.2001
  1219.2000      0.0000    809.6870      3.0694     78.2001
  1219.2500      0.0000    804.7187      3.0415     79.3635
  1219.3000      0.0000    804.7187      3.0415     79.3635
  1219.3500      0.0000    804.7187      3.0415     79.3635
  1219.4000      0.0000    804.7187      3.0415     79.3635
  1219.4500      0.0000    804.7187      3.0415     79.3635
  1219.5000      0.0000    795.3384      3.0104     81.6753
  1219.5500      0.0000    795.3384      3.0104     81.6753
  1219.6000      0.0000    795.3384      3.0104     81.6753
  1219.6500      0.0000    795.3384      3.0104     81.6753
  1219.7000      0.0000    795.3384      3.0104     81.6753
  1219.7500      0.0000    781.6281      2.9856     84.3840
  1219.8000      0.0000    781.6281      2.9856     84.3840
  1219.8500      0.0000    781.6281      2.9856     84.3840
  1219.9000      0.0000    781.6281      2.9856     84.3840
  1219.9500      0.0000    781.6281      2.9856     84.3840
  1220.0000      0.0000    766.0534      2.9709     87.0248
  1220.0500      0.0000    766.0534      2.9709     87.0248
  1220.1000      0.0000    766.0534      2.9709     87.0248
  1220.1500      0.0000    766.0534      2.9709     87.0248
  1220.2000      0.0000    766.0534      2.9709     87.0248
  1220.2500      0.0000    752.2785      2.9654     89.5750
  1220.3000      0.0000    752.2785      2.9654     89.5750
  1220.3500      0.0000    752.2785      2.9654     89.5750
  1220.4000      0.0000    752.2785      2.9654     89.5750
  1220.4500      0.0000    752.2785      2.9654     89.5750
  1220.5000      0.0000    742.7832      2.9663     92.7047
  1220.5500      0.0000    742.7832      2.9663     92.7047
  1220.6000      0.0000    742.7832      2.9663     92.7047
  1220.6500      0.0000    742.7832      2.9663     92.7047
  1220.7000      0.0000    742.7832      2.9663     92.7047
  1220.7500      0.0000    737.6932      2.9703     97.5642
  1220.8000      0.0000    737.6932      2.9703     97.5642
  1220.8500      0.0000    737.6932      2.9703     97.5642
  1220.9000      0.0000    737.6932      2.9703     97.5642
  1220.9500      0.0000    737.6932      2.9703     97.5642
  1221.0000      0.0000    735.6917      2.9740    104.9225
  1221.0500      0.0000    735.6917      2.9740    104.9225
  1221.1000      0.0000    735.6917      2.9740    104.9225
  1221.1500      0.0000    735.6917      2.9740    104.9225
  1221.2000      0.0000    735.6917      2.9740    104.9225
  1221.2500      0.0000    735.6462      2.9740    114.0816
  1221.3000      0.0000    735.6462      2.9740    114.0816
  1221.3500      0.0000    735.6462      2.9740    114.0816
  1221.4000      0.0000    735.6462      2.9740    114.0816
  1221.4500      0.0000    735.6462      2.9740    114.0816
  1221.5000      0.0000    737.5842      2.9681    122.1471
  1221.5500      0.0000    737.5842      2.9681    122.1471
  1221.6000      0.0000    737.5842      2.9681    122.1471
  1221.6500      0.0000    737.5842      2.9681    122.1471
  1221.7000      0.0000    737.5842      2.9681    122.1471
  1221.7500      0.0000    742.6858      2.9577    124.6838
  1221.8000      0.0000    742.6858      2.9577    124.6838
  1221.8500      0.0000    742.6858      2.9577    124.6838
  1221.9000      0.0000    742.6858      2.9577    124.6838
  1221.9500      0.0000    742.6858      2.9577    124.6838
  1222.0000      0.0000    752.2639      2.9467    118.5143
  1222.0500      0.0000    752.2639      2.9467    118.5143
  1222.1000      0.0000    752.2639      2.9467    118.5143
  1222.1500      0.0000    752.2639      2.9467    118.5143
  1222.2000      0.0000    752.2639      2.9467    118.5143
  1222.2500      0.0000    766.0284      2.9382    104.6650
  1222.3000      0.0000    766.0284      2.9382    104.6650
  1222.3500      0.0000    766.0284      2.9382    104.6650
  1222.4000      0.0000    766.0284      2.9382    104.6650
  1222.4500      0.0000    766.0284      2.9382    104.6650
  1222.5000      0.0000    781.0400      2.9314     87.9310
  1222.5500      0.0000    781.0400      2.9314     87.9310
  1222.6000      0.0000    781.0400      2.9314     87.9310
  1222.6500      0.0000    781.0400      2.9314     87.9310
  1222.7000      0.0000    781.0400      2.9314     87.9310
  1222.7500      0.0000    792.9045      2.9242     73.3655
  1222.8000      0.0000    792.9045      2.9242     73.3655
  1222.8500      0.0000    792.9045      2.9242     73.3655
  1222.9000      0.0000    792.9045      2.9242     73.3655
  1222.9500      0.0000    792.9045      2.9242     73.3655
  1223.0000      0.0000    798.6041      2.9185     63.7982
  1223.0500      0.0000    798.6041      2.9185     63.7982
  1223.1000      0.0000    798.6041      2.9185     63.7982
  1223.1500      0.0000    798.6041      2.9185     63.7982
  1223.2000      0.0000    798.6041      2.9185     63.7982
  1223.2500      0.0000    798.4965      2.9189     60.0371
  1223.3000      0.0000    798.4965      2.9189     60.0371
  1223.3500      0.0000    798.4965      2.9189     60.0371
  1223.4000      0.0000    798.4965      2.9189     60.0371
  1223.4500      0.0000    798.4965      2.9189     60.0371
  1223.5000      0.0000    795.8759      2.9280     61.5991
  1223.5500      0.0000    795.8759      2.9280     61.5991
  1223.6000      0.0000    795.8759      2.9280     61.5991
  1223.6500      0.0000    795.8759      2.9280     61.5991
  1223.7000      0.0000    795.8759      2.9280     61.5991
  1223.7500      0.0000    794.6320      2.9456     66.8116
  1223.8000      0.0000    794.6320      2.9456     66.8116
  1223.8500      0.0000    794.6320      2.9456     66.8116
  1223.9000      0.0000    794.6320      2.9456     66.8116
  1223.9500      0.0000    794.6320      2.9456     66.8116
  1224.0000      0.0000    796.7875      2.9710     73.3768
  1224.0500      0.0000    796.7875      2.9710     73.3768
  1224.1000      0.0000    796.7875      2.9710     73.3768
  1224.1500      0.0000    796.7875      2.9710     73.3768
  1224.2000      0.0000    796.7875      2.9710     73.3768
  1224.2500      0.0000    801.6487      3.0019     79.5829
  1224.3000      0.0000    801.6487      3.0019     79.5829
  1224.3500      0.0000    801.6487      3.0019     79.5829
  1224.4000      0.0000    801.6487      3.0019     79.5829
  1224.4500      0.0000    801.6487      3.0019     79.5829
  1224.5000      0.0000    807.0191      3.0308     84.7986
  1224.5500      0.0000    807.0191      3.0308     84.7986
  1224.6000      0.0000    807.0191      3.0308     84.7986
  1224.6500      0.0000    807.0191      3.0308     84.7986
  1224.7000      0.0000    807.0191      3.0308     84.7986
  1224.7500      0.0000    811.1277      3.0476     88.8230
  1224.8000      0.0000    811.1277      3.0476     88.8230
  1224.8500      0.0000    811.1277      3.0476     88.8230
  1224.9000      0.0000    811.1277      3.0476     88.8230
  1224.9500      0.0000    811.1277      3.0476     88.8230
  1225.0000      0.0000    813.5403      3.0485     91.0977
  1225.0500      0.0000    813.5403      3.0485     91.0977
  1225.1000      0.0000    813.5403      3.0485     91.0977
  1225.1500      0.0000    813.5403      3.0485     91.0977
  1225.2000      0.0000    813.5403      3.0485     91.0977
  1225.2500      0.0000    814.7197      3.0396     90.6529
  1225.3000      0.0000    814.7197      3.0396     90.6529
  1225.3500      0.0000    814.7197      3.0396     90.6529
  1225.4000      0.0000    814.7197      3.0396     90.6529
  1225.4500      0.0000    814.7197      3.0396     90.6529
  1225.5000      0.0000    815.1810      3.0289     86.9526
  1225.5500      0.0000    815.1810      3.0289     86.9526
  1225.6000      0.0000    815.1810      3.0289     86.9526
  1225.6500      0.0000    815.1810      3.0289     86.9526
  1225.7000      0.0000    815.1810      3.0289     86.9526
