~Version Information
VERS.                      2.0: CWLS Log ASCII Standard - VERSION 2.0
WRAP.                       NO: One line per depth step
~Well Information Block
STRT.FT               745.0000: 
STOP.FT              2945.7500: 
STEP.FT                 0.2500: 
NULL.                -999.2500: 
COMP.          Pioneer Natural Resources: COMPANY
WELL.          Old Yeller 31-32: WELL
FLD.           Purgatoire River: FIELD
LOC.           1832' FEL & 793' FNL--: LOCATION
STAT.                 Colorado: State
CNTY.               Las Animas: COUNTY
CTRY. USA : Country
SECT. 32 : Section
TOWN. 32S : Township
RANG. 67W : Range
SRVC.                Patterson: SERVICE COMPANY
DATE.          Sun Aug 28 20:20:00 2005: LOG DATE
API.           05 071 08356 00: UNIQUE WELL ID
~Curve Information Block
DEPT.FT            0 000 00 00: Depth
SN.Ohm-m                      : IEL Short Normal
SP.mV                         : IEL Spontaneous Potential
DIR.Ohm-m                     : IEL Induction Resistivity
GR.GAPI                       : Gamma Ray
~Parameter Information Block
~A  Depth        SN          SP         DIR          GR     
# ...
  1482.0000     30.5041    117.7266     28.2672     91.1128
  1482.2500     29.6841    118.2825     27.7496     90.4684
  1482.5000     28.9004    118.7554     27.2195     92.4586
  1482.7500     28.2640    119.1208     26.7278     95.9053
  1483.0000     27.8046    119.3564     26.2982    102.4508
  1483.2500     27.4702    119.4361     25.9175    106.1667
  1483.5000     27.1720    119.3298     25.5496    108.7957
  1483.7500     26.8407    119.0099     25.1617    108.4126
  1484.0000     26.4560    118.4631     24.7415    105.9260
  1484.2500     26.0419    117.6999     24.2965    104.1020
  1484.5000     25.6389    116.7602     23.8423    102.5305
  1484.7500     25.2693    115.7089     23.3917    102.5725
  1485.0000     24.9182    114.6246     22.9487    104.0655
  1485.2500     24.5436    113.5845     22.5100    105.6531
  1485.5000     24.1117    112.6509     22.0718    108.3160
  1485.7500     23.6290    111.8622     21.6379    110.0696
  1486.0000     23.1419    111.2317     21.2220    112.5535
  1486.2500     22.7039    110.7514     20.8418    114.1876
  1486.5000     22.3376    110.3996     20.5072    116.9865
  1486.7500     22.0226    110.1490     20.2119    119.2687
  1487.0000     21.7136    109.9726     19.9336    122.9696
  1487.2500     21.3721    109.8481     19.6444    124.9961
  1487.5000     20.9938    109.7595     19.3258    126.3845
  1487.7500     20.6145    109.6966     18.9818    126.1824
  1488.0000     20.2958    109.6531     18.6415    125.2461
  1488.2500     20.0968    109.6257     18.3501    125.0402
  1488.5000     20.0458    109.6122     18.1551    125.9612
  1488.7500     20.1218    109.6103     18.0926    126.8427
  1489.0000     20.2624    109.6184     18.1798    126.5478
  1489.2500     20.4003    109.6362     18.4131    124.2516
  1489.5000     20.5117    109.6652     18.7726    117.3835
  1489.7500     20.6522    109.7086     19.2323    111.4145
  1490.0000     20.9597    109.7703     19.7736    103.1242
  1490.2500     21.6251    109.8534     20.3963     99.6054
  1490.5000     22.8358    109.9584     21.1226     98.4513
  1490.7500     24.7007    110.0817     21.9894     99.8266
  1491.0000     27.1742    110.2164     23.0355    102.7057
  1491.2500     30.0303    110.3529     24.2826    103.9274
  1491.5000     32.9400    110.4815     25.7156    104.3067
  1491.7500     35.6169    110.5940     27.2650    104.2596
  1492.0000     37.9197    110.6852     28.8101    104.8260
  1492.2500     39.8483    110.7521     30.2168    105.5859
  1492.5000     41.4737    110.7939     31.4009    106.5772
  1492.7500     42.8738    110.8099     32.3706    106.9716
  1493.0000     44.1070    110.7990     33.2103    107.5779
  1493.2500     45.2102    110.7594     34.0172    108.2712
  1493.5000     46.2049    110.6888     34.8443    109.6063
  1493.7500     47.1064    110.5856     35.6864    110.1888
  1494.0000     47.9332    110.4498     36.5096    109.5322
  1494.2500     48.7096    110.2838     37.2910    107.7730
  1494.5000     49.4544    110.0931     38.0335    103.6330
  1494.7500     50.1658    109.8865     38.7476    100.4803
  1495.0000     50.8189    109.6756     39.4223     95.8130
  1495.2500     51.3795    109.4731     40.0148     92.6471
  1495.5000     51.8239    109.2911     40.4693     87.5695
  1495.7500     52.1513    109.1385     40.7481     84.4174
  1496.0000     52.3879    109.0178     40.8525     81.8964
  1496.2500     52.5823    108.9242     40.8263     82.5769
  1496.5000     52.7876    108.8448     40.7454     86.9263
  1496.7500     53.0330    108.7605     40.6980     91.0015
  1497.0000     53.3006    108.6497     40.7555     96.6807
  1497.2500     53.5219    108.4926     40.9449     99.0997
  1497.5000     53.6034    108.2758     41.2373     99.5887
  1497.7500     53.4740    107.9955     41.5651     97.8233
  1498.0000     53.1327    107.6586     41.8615     93.0728
  1498.2500     52.6709    107.2820     42.1010     89.3244
  1498.5000     52.2550    106.8889     42.3120     83.9090
  1498.7500     52.0701    106.5044     42.5453     80.8027
  1499.0000     52.2446    106.1504     42.8250     77.1789
  1499.2500     52.7903    105.8412     43.1318     75.3956
  1499.5000     53.5934    105.5819     43.4383     73.0914
  1499.7500     54.4665    105.3675     43.7541     71.2598
  1500.0000     55.2279    105.1850     44.1149     67.3492
  1500.2500     55.7608    105.0154     44.5175     64.0821
  1500.5000     56.0273    104.8380     44.8741     59.4635
  1500.7500     56.0507    104.6333     45.0516     57.4087
  1501.0000     55.8922    104.3873     44.9705     56.0924
  1501.2500     55.6301    104.0944     44.6684     55.6822
  1501.5000     55.3409    103.7612     44.2693     54.3432
  1501.7500     55.0819    103.4088     43.9008     52.7887
  1502.0000     54.8849    103.0727     43.6329     50.4157
  1502.2500     54.7609    102.7993     43.4688     49.5180
  1502.5000     54.7061    102.6377     43.3750     49.6571
  1502.7500     54.7042    102.6277     43.3219     50.4456
  1503.0000     54.7257    102.7869     43.3131     51.7031
  1503.2500     54.7321    103.1013     43.3811     52.1299
  1503.5000     54.6881    103.5232     43.5532     51.9066
  1503.7500     54.5812    103.9792     43.8156     51.3017
  1504.0000     54.4297    104.3870     44.1066     50.1471
  1504.2500     54.2696    104.6754     44.3492     49.5218
  1504.5000     54.1311    104.8012     44.4976     49.1518
  1504.7500     54.0261    104.7580     44.5572     49.2240
  1505.0000     53.9532    104.5740     44.5670     49.4156
  1505.2500     53.9082    104.3009     44.5665     49.4870
  1505.5000     53.8905    103.9991     44.5776     49.7031
  1505.7500     53.9001    103.7234     44.6072     50.0453
  1506.0000     53.9283    103.5142     44.6580     50.7356
  1506.2500     53.9505    103.3950     44.7346     51.1845
  1506.5000     53.9312    103.3731     44.8407     52.0974
  1506.7500     53.8411    103.4448     44.9716     53.3184
  1507.0000     53.6712    103.5991     45.1107     56.5159
  1507.2500     53.4354    103.8223     45.2351     59.1445
  1507.5000     53.1629    104.0996     45.3250     62.2122
  1507.7500     52.8846    104.4172     45.3708     62.9187
  1508.0000     52.6207    104.7626     45.3734     61.9992
  1508.2500     52.3731    105.1254     45.3383     60.7436
  1508.5000     52.1255    105.4967     45.2718     59.2306
  1508.7500     51.8501    105.8691     45.1778     58.9696
  1509.0000     51.5204    106.2357     45.0550     59.7911
  1509.2500     51.1226    106.5898     44.8907     60.7542
  1509.5000     50.6616    106.9244     44.6570     61.9498
  1509.7500     50.1619    107.2318     44.3225     62.4336
  1510.0000     49.6605    107.5042     43.8736     63.2192
  1510.2500     49.1951    107.7339     43.3270     64.0497
  1510.5000     48.7902    107.9144     42.7192     65.3546
  1510.7500     48.4492    108.0413     42.0851     65.7414
  1511.0000     48.1584    108.1127     41.4495     65.1581
  1511.2500     47.9003    108.1295     40.8390     64.2100
  1511.5000     47.6662    108.0958     40.2966     62.7614
  1511.7500     47.4586    108.0195     39.8787     62.2021
  1512.0000     47.2837    107.9125     39.6311     62.2986
  1512.2500     47.1416    107.7915     39.5608     62.9710
  1512.5000     47.0164    107.6785     39.6245     64.8375
  1512.7500     46.8635    107.6005     39.7401     66.6257
  1513.0000     46.6014    107.5882     39.8084     69.5463
  1513.2500     46.1163    107.6739     39.7274     70.8637
  1513.5000     45.2858    107.8881     39.3920     70.7153
  1513.7500     44.0256    108.2563     38.6992     69.3611
  1514.0000     42.3444    108.7952     37.5815     67.2149
  1514.2500     40.3738    109.5098     36.0547     66.8624
  1514.5000     38.3360    110.3916     34.2399     69.0142
  1514.7500     36.4488    111.4186     32.3301     72.3680
  1515.0000     34.8247    112.5569     30.5206     80.1796
  1515.2500     33.4329    113.7646     28.9457     87.0034
