~Version Information
VERS.                      2.0: CWLS Log ASCII Standard - VERSION 2.0
WRAP.                       NO: One line per depth step
~Well Information Block
STRT.FT                -7.0000: 
STOP.FT              1329.7500: 
STEP.FT                 0.2500: 
NULL.                -999.2500: 
COMP.          Pioneer Natural Resources: COMPANY
WELL.             Raptor 44-26: WELL
FLD.           Purgatorie River: FIELD
LOC.           180' FSL & 812' FEL--: LOCATION
PROV.                       CO: PROVINCE
CNTY.               Las Animas: COUNTRY
SRVC.          Patterson Wireline: SERVICE COMPANY
DATE.          Wed Mar 30 12:38:23 2005: LOG DATE
UWI.           05 071 08187 00: UNIQUE WELL ID
~Curve Information Block
DEPT.FT            0 000 00 00: Depth
CCL.                          : Casing Collar Locator
TT3.usec                      : CBL 3' Travel Time
AMP3.mV                       : CBL 3' Amplitude
GR.GAPI                       : Gamma Ray
~Parameter Information Block
MINATTN.db/ft           0.8000: Minimum Attenuation
~A  Depth       CCL         TT3         AMP3         GR     
# ...
  1031.5000      0.0000    705.2432      5.6345     77.1706
  1031.7500      0.0000    708.0021      5.6018     80.3127
  1032.0000      0.0000    707.1336      5.5060     83.7216
  1032.2500      0.0000    704.8364      5.3850     86.2944
  1032.5000      0.0000    702.9890      5.2753     86.7570
  1032.7500      0.0000    701.8090      5.1832     84.9518
  1033.0000      0.0000    699.9161      5.0913     82.1893
  1033.2500      0.0000    695.7896      4.9902     79.9837
  1033.5000      0.0000    689.3914      4.8946     78.5566
  1033.7500      0.0000    682.5259      4.8308     77.0780
  1034.0000      0.0000    677.8162      4.8163     75.3115
  1034.2500      0.0000    677.3753      4.8586     74.4173
  1034.5000      0.0000    681.8160      4.9597     75.9571
  1034.7500      0.0000    689.9181      5.1020     80.2811
  1035.0000      0.0000    699.3931      5.2279     85.7537
  1035.2500      0.0000    707.9602      5.2723     89.5377
  1035.5000      0.0000    713.4176      5.2341     89.6282
  1035.7500      0.0000    713.6216      5.1817     86.5315
  1036.0000      0.0000    707.9568      5.1734     82.9111
  1036.2500      0.0000    698.6990      5.2063     81.2977
  1036.5000      0.0000    689.8112      5.2460     81.9598
  1036.7500      0.0000    684.3666      5.2660     83.1556
  1037.0000      0.0000    683.4703      5.2551     83.4708
  1037.2500      0.0000    686.8661      5.2226     83.2990
  1037.5000      0.0000    693.4619      5.1914     83.7859
  1037.7500      0.0000    701.3753      5.1696     85.2368
  1038.0000      0.0000    708.4598      5.1418     87.2120
  1038.2500      0.0000    713.3323      5.0914     89.4720
  1038.5000      0.0000    715.8101      5.0184     92.0787
  1038.7500      0.0000    716.3603      4.9470     94.8473
  1039.0000      0.0000    715.4497      4.9185     97.1041
  1039.2500      0.0000    713.6036      4.9561     97.9475
  1039.5000      0.0000    711.8198      5.0339     96.8454
  1039.7500      0.0000    711.3499      5.0960     94.1335
  1040.0000      0.0000    712.7288      5.1018     90.8744
  1040.2500      0.0000    715.2370      5.0491     88.2200
  1040.5000      0.0000    717.5953      4.9677     86.8826
  1040.7500      0.0000    719.0540      4.8931     86.8829
  1041.0000      0.0000    719.6969      4.8512     87.4935
  1041.2500      0.0000    719.9971      4.8609     87.5467
  1041.5000      0.0000    720.3387      4.9247     86.2082
  1041.7500      0.0000    720.8353      5.0121     83.6509
  1042.0000      0.0000    721.3228      5.0755     80.8885
  1042.2500      0.0000    721.3778      5.0831     78.8399
  1042.5000      0.0000    720.3202      5.0305     77.5317
  1042.7500      0.0000    717.2900      4.9332     76.1635
  1043.0000      0.0000    711.6680      4.8180     73.8812
  1043.2500      0.0000    704.0072      4.7143     70.3933
  1043.5000      0.0000    697.0131      4.6461     65.9287
  1043.7500      0.0000    695.7123      4.6142     60.8834
  1044.0000      0.0000    706.1824      4.5857     55.6792
  1044.2500      0.0000    732.6208      4.5203     50.8111
  1044.5000      0.0000    773.3372      4.4176     46.8279
  1044.7500      0.0000    818.4720      4.3204     44.2004
  1045.0000      0.0000    853.2010      4.2688     43.2386
  1045.2500      0.0000    865.8113      4.2602     44.0691
  1045.5000      0.0000    854.1592      4.2655     46.5392
  1045.7500      0.0000    825.0204      4.2685     50.1362
  1046.0000      0.0000    788.3551      4.2775     54.2312
  1046.2500      0.0000    752.5491      4.3072     58.5097
  1046.5000      0.0000    723.0596      4.3606     63.0141
  1046.7500      0.0000    702.7617      4.4303     67.6372
  1047.0000      0.0000    692.4265      4.5148     71.9098
  1047.2500      0.0000    691.0945      4.6305     75.5961
  1047.5000      0.0000    696.3761      4.7966     79.1575
  1047.7500      0.0000    704.9837      5.0111     83.0621
  1048.0000      0.0000    713.8969      5.2452     86.8707
  1048.2500      0.0000    721.5488      5.4592     89.6022
  1048.5000      0.0000    727.7654      5.6180     91.0011
  1048.7500      0.0000    732.6050      5.6945     92.0817
  1049.0000      0.0000    735.8903      5.6705     94.3757
  1049.2500      0.0000    737.8692      5.5438     98.5907
  1049.5000      0.0000    739.0980      5.3363    103.7061
  1049.7500      0.0000    738.9070      5.0936    107.3594
  1050.0000      0.0000    735.2744      4.8824    107.5821
  1050.2500      0.0000    727.6152      4.7750    104.4762
  1050.5000      0.0000    718.8445      4.8161    100.1142
  1050.7500      0.0000    713.1985      4.9874     96.8262
  1051.0000      0.0000    712.3612      5.2095     95.5955
  1051.2500      0.0000    714.6512      5.3966     95.5824
  1051.5000      0.0000    717.3744      5.5187     94.7240
  1051.7500      0.0000    718.8344      5.6007     91.0990
  1052.0000      0.0000    718.2861      5.6598     84.4397
  1052.2500      0.0000    714.8693      5.6651     76.5320
  1052.5000      0.0000    706.8946      5.5753     69.9427
  1052.7500      0.0000    691.6065      5.4079     66.2915
  1053.0000      0.0000    665.6714      5.2417     65.5996
  1053.2500      0.0000    627.3925      5.1490     66.8349
  1053.5000      0.0000    580.7074      5.1404     68.7987
  1053.7500      0.0000    536.4583      5.1847     70.6379
  1054.0000      0.0000    505.7304      5.2612     71.7564
  1054.2500      0.0000    489.6391      5.3693     71.5074
  1054.5000      0.0000    478.0930      5.5014     69.3966
  1054.7500      0.0000    460.5211      5.6261     65.7799
  1055.0000      0.0000    435.5935      5.7080     62.0789
  1055.2500      0.0000    409.4796      5.7336     59.9323
  1055.5000      0.0000    388.1774      5.7186     59.9564
  1055.7500      0.0000    373.7689      5.6934     61.3789
  1056.0000      0.0000    365.8861      5.6828     62.9730
  1056.2500      0.0000    364.4673      5.6915     64.1455
  1056.5000      0.0000    371.7310      5.7042     64.9565
  1056.7500      0.0000    392.1498      5.6999     65.3709
  1057.0000      0.0000    429.2409      5.6717     64.8972
  1057.2500      0.0000    480.7278      5.6327     63.1459
  1057.5000      0.0000    537.3701      5.5971     60.6561
  1057.7500      0.0000    587.8539      5.5562     58.8853
  1058.0000      0.0000    625.2258      5.4836     59.1624
  1058.2500      0.0000    649.3270      5.3706     61.7147
  1058.5000      0.0000    665.0996      5.2449     65.8707
  1058.7500      0.0000    679.0007      5.1472     71.0064
  1059.0000      0.0000    695.0145      5.1013     76.9328
  1059.2500      0.0000    712.1364      5.1122     83.3681
  1059.5000      0.0000    725.8665      5.1761     89.4534
  1059.7500      0.0000    733.0422      5.2774     94.1120
  1060.0000      0.0000    734.6967      5.3883     96.8244
  1060.2500      2.0000    733.1957      5.4797     97.9567
  1060.5000      2.0000    728.0955      5.5301     98.6438
  1060.7500      0.0000    717.0813      5.5356    100.4669
  1061.0000      0.0000    700.6872      5.5254    104.6764
  1061.2500      0.0000    684.0606      5.5517    111.2249
  1061.5000      0.0000    673.4370      5.6393    118.5571
  1061.7500      0.0000    671.4516      5.7522    124.4723
  1062.0000      0.0000    676.0557      5.8309    127.4486
  1062.2500      0.0000    683.1114      5.8512    127.4377
  1062.5000      0.0000    689.3694      5.8259    125.3311
  1062.7500      0.0000    693.5682      5.7673    121.6789
  1063.0000      0.0000    696.0464      5.6755    116.6155
  1063.2500      0.0000    697.8985      5.5561    111.1510
  1063.5000      0.0000    700.2561      5.4291    107.3547
  1063.7500      0.0000    703.6762      5.3201    106.5051
  1064.0000      0.0000    707.5391      5.2539    107.8570
  1064.2500      0.0000    709.5031      5.2541    109.8548
  1064.5000      0.0000    705.1571      5.3333    111.7442
  1064.7500      0.0000    688.3408      5.4734    113.3359
