~Version Information
VERS.                      2.0: CWLS Log ASCII Standard - VERSION 2.0
WRAP.                       NO: One line per depth step
~Well Information Block
STRT.FT                -9.2500: 
STOP.FT              1945.2500: 
STEP.FT                 0.2500: 
NULL.                -999.2500: 
COMP.          Pioneer Natural Resources: COMPANY
WELL.          Titan Federal 34-17: WELL
FLD.           Purgatorie River: FIELD
LOC.           321' FSL & 1911' FEL: LOCATION
STAT.                       CO: State
CNTY.               Las Animas: COUNTY
CTRY. USA : Country
SECT. 17 : Section
TOWN. 32S : Township
RANG. 65W : Range
SRVC.          Patterson Wireline: SERVICE COMPANY
DATE.          Tue Oct 11 10:22:27 2005: LOG DATE
API.           05 071 08272 00: UNIQUE WELL ID
~Curve Information Block
DEPT.FT            0 000 00 00: Depth
CCL.                          : Casing Collar Locator
TT3.usec                      : CBL 3' Travel Time
AMP3.mV                       : CBL 3' Amplitude
GR.GAPI                       : Gamma Ray
~Parameter Information Block
~A  Depth       CCL         TT3         AMP3         GR     
# ...
  1900.2500      0.0000    777.8948      5.8894     73.2259
  1900.5000      0.0000    767.8240      5.8883     69.9081
  1900.7500      0.0000    753.3880      5.8858     68.3192
  1901.0000      0.0000    738.0161      5.8808     69.8080
  1901.2500      0.0000    727.1884      5.8758     74.5143
  1901.5000      0.0000    724.6843      5.8728     81.3401
  1901.7500      0.0000    729.5008      5.8713     88.2376
  1902.0000      0.0000    736.9294      5.8679     92.8507
  1902.2500      0.0000    742.7834      5.8570     93.5175
  1902.5000      0.0000    745.9202      5.8331     90.2906
  1902.7500      0.0000    746.7401      5.7948     84.9981
  1903.0000      0.0000    744.6948      5.7479     79.8430
  1903.2500      0.0000    738.2305      5.7043     75.7919
  1903.5000      0.0000    726.5852      5.6786     72.4737
  1903.7500      0.0000    711.0620      5.6824     69.4952
  1904.0000      0.0000    694.7573      5.7192     67.4418
  1904.2500      0.0000    681.0485      5.7868     67.4137
  1904.5000      0.0000    671.8241      5.8819     69.8692
  1904.7500      0.0000    666.8547      5.9998     74.1273
  1905.0000      0.0000    664.6680      6.1301     78.6662
  1905.2500      0.0000    663.8080      6.2574     81.5878
  1905.5000      0.0000    663.4438      6.3730     81.2717
  1905.7500      0.0000    663.3030      6.4822     77.2663
  1906.0000      0.0000    663.3832      6.5953     70.6856
  1906.2500      0.0000    663.7066      6.7105     63.6977
  1906.5000      0.0000    664.1928      6.8084     58.4697
  1906.7500      0.0000    664.6695      6.8631     56.0233
  1907.0000      0.0000    664.9731      6.8584     55.7107
  1907.2500      0.0000    665.0445      6.7958     56.1540
  1907.5000      0.0000    664.9346      6.6911     56.9521
  1907.7500      0.0000    664.7425      6.5651     59.0469
  1908.0000      0.0000    664.5593      6.4371     63.2104
  1908.2500      0.0000    664.4454      6.3207     68.6348
  1908.5000      0.0000    664.4207      6.2218     73.2418
  1908.7500      0.0000    664.4644      6.1388     75.2565
  1909.0000      0.0000    664.5374      6.0665     74.4837
  1909.2500      0.0000    664.6136      5.9996     72.0672
  1909.5000      0.0000    664.6928      5.9328     69.1430
  1909.7500      0.0000    664.7841      5.8639     66.1260
  1910.0000      0.0000    664.8826      5.7963     63.2419
  1910.2500      0.0000    664.9598      5.7379     61.0623
  1910.5000      0.0000    664.9751      5.6918     60.2223
  1910.7500      0.0000    664.9007      5.6518     61.0292
  1911.0000      0.0000    664.7401      5.6090     63.5694
  1911.2500      0.0000    664.5184      5.5625     67.8035
  1911.5000      0.0000    664.2527      5.5212     73.2983
  1911.7500      0.0000    663.9471      5.4946     79.0163
  1912.0000      0.0000    663.6302      5.4840     83.5545
  1912.2500      0.0000    663.4280      5.4780     85.8071
  1912.5000      0.0000    663.6837      5.4559     85.6063
  1912.7500      0.0000    665.1794      5.3936     83.6677
  1913.0000      0.0000    669.3563      5.2781     80.7418
  1913.2500      0.0000    678.1191      5.1301     76.9714
  1913.5000      0.0000    692.7457      5.0067     72.3429
  1913.7500      0.0000    712.2986      4.9580     67.5285
  1914.0000      0.0000    732.9313      4.9790     63.7329
  1914.2500      0.0000    749.2961      5.0261     61.6892
  1914.5000      0.0000    757.4865      5.0747     61.0984
  1914.7500      0.0000    757.2881      5.1319     60.9892
  1915.0000      0.0000    751.9296      5.2021     60.5505
  1915.2500      0.0000    745.7830      5.2734     59.7973
  1915.5000     -2.0000    741.7934      5.3421     59.5130
  1915.7500      0.0000    739.6085      5.4353     60.3909
  1916.0000      0.0000    735.3984      5.6064     62.1996
  1916.2500      0.0000    724.8668      5.8865     63.8939
  1916.5000      0.0000    707.8535      6.2253     64.5875
  1916.7500      0.0000    689.5392      6.5013     64.3946
  1917.0000      0.0000    676.5173      6.6312     64.2021
  1917.2500      0.0000    672.0825      6.6482     64.6965
  1917.5000      0.0000    675.1762      6.6382     65.8085
  1917.7500      0.0000    682.7874      6.6322     66.9186
  1918.0000      0.0000    692.7943      6.5971     67.3562
  1918.2500      0.0000    704.9699      6.5029     66.9588
  1918.5000      0.0000    719.8840      6.3603     66.3361
  1918.7500      0.0000    737.0808      6.2039     66.2173
  1919.0000      0.0000    754.2227      6.0650     66.4407
  1919.2500      0.0000    768.0366      5.9587     66.0720
  1919.5000      0.0000    776.1835      5.8865     64.5460
  1919.7500      0.0000    778.3621      5.8429     62.1468
  1920.0000      0.0000    776.2474      5.8217     59.4451
  1920.2500      0.0000    772.8939      5.8166     57.0169
  1920.5000      0.0000    771.4793      5.8200     55.7342
  1920.7500      0.0000    773.3016      5.8228     56.4695
  1921.0000      0.0000    776.6335      5.8192     59.1357
  1921.2500      0.0000    777.6958      5.8135     62.5371
  1921.5000      0.0000    772.6158      5.8175     65.4463
  1921.7500      0.0000    759.1239      5.8406     67.5779
  1922.0000      0.0000    738.1262      5.8815     69.4854
  1922.2500      0.0000    714.3604      5.9333     71.7474
  1922.5000      0.0000    694.2699      5.9946     74.2515
  1922.7500      0.0000    681.8993      6.0729     76.0383
  1923.0000      0.0000    676.6064      6.1741     75.8106
  1923.2500      0.0000    674.7130      6.2937     72.8988
  1923.5000      0.0000    672.9933      6.4169     67.9749
  1923.7500      0.0000    670.5707      6.5274     62.7407
  1924.0000      0.0000    668.1660      6.6156     58.7530
  1924.2500      0.0000    666.4728      6.6775     56.5912
  1924.5000      0.0000    665.5033      6.7095     56.1972
  1924.7500      0.0000    664.9252      6.7048     57.7164
  1925.0000      0.0000    664.4923      6.6566     61.4000
  1925.2500      0.0000    664.1257      6.5649     66.6459
  1925.5000      0.0000    663.8149      6.4413     71.8710
  1925.7500      0.0000    663.5587      6.3055     75.7257
  1926.0000      0.0000    663.3851      6.1771     77.9434
  1926.2500      0.0000    663.4769      6.0688     78.7576
  1926.5000      0.0000    664.4265      5.9827     78.2221
  1926.7500      0.0000    667.5418      5.9130     76.6173
  1927.0000      0.0000    674.6628      5.8540     74.8726
  1927.2500      0.0000    686.7200      5.8083     73.8682
  1927.5000      0.0000    701.6441      5.7859     73.6213
  1927.7500      0.0000    714.5238      5.7932     73.6492
  1928.0000      0.0000    721.5846      5.8236     73.7238
  1928.2500      0.0000    723.6769      5.8612     73.7918
  1928.5000      0.0000    723.8478      5.8915     73.5900
  1928.7500      0.0000    722.0521      5.9078     72.9246
  1929.0000      0.0000    715.1819      5.9106     72.1977
  1929.2500      0.0000    702.3955      5.9060     72.3324
  1929.5000      0.0000    687.5342      5.9059     74.0892
  1929.7500      0.0000    675.5774      5.9259     77.3101
  1930.0000      0.0000    668.6171      5.9779     80.5222
  1930.2500      0.0000    665.6970      6.0630     81.4434
  1930.5000      0.0000    664.9227      6.1682     78.2895
  1930.7500      0.0000    664.9283      6.2730     70.6101
  1931.0000      0.0000    665.0876      6.3563     58.9618
  1931.2500      0.0000    665.2144      6.4008     44.5497
  1931.5000      0.0000    665.2764      6.3961     29.5075
  1931.7500      0.0000    665.2598      6.3470     16.5895
  1932.0000      0.0000    665.1725      6.2789      7.7107
  1932.2500      0.0000    665.0918      6.2301      2.9067
  1932.5000      0.0000    665.2558      6.2291      0.8769
  1932.7500      0.0000    666.2758      6.2775      0.2097
  1933.0000      0.0000    669.5255      6.3504      0.0392
  1933.2500      0.0000    677.1776      6.4141      0.0054
  1933.5000      0.0000    690.8817      6.4472      0.0000
