~Version Information
 VERS.                                  2.0 : CWLS LAS VERSION
 WRAP.                                   NO : WRAPING MODE
 SWARE .                 MController 2.5.0J : SOFTWARE VERSION
~Well Information
 WELL.                       Ei-Ei-Oh 31-24 : WELL
 COMP.    Pioneer Natural Resources USA Inc : COMPANY
 FLD.                      Purgatoire River : FIELD
 LOC.                NW/NE Sec 24 T32S R67W : LOCATION
 DATE.                         6/12-13/2005 : DATE(S) LOGGED
 SRVC.       Blanco Geological Services LLC : SERVICE COMPANY
 STAT.                                   CO : STATE
 CNTY.                           Las Animas : COUNTY
 CTRY.                                  USA : COUNTRY
 API.                       05-071-08403-00 : API NUMBER
 STRT.FT                             436.00 : START DEPTH
 STOP.FT                            2853.00 : STOP DEPTH
 STEP.FT                               1.00 : DEPTH INCREMENT
 NULL.                                -9999 : NULL VALUE
~Curve information
 DEPTH.FT                                   :
 ROP.MIN/FT                                 :
 GAS.UNITS                                  :
~ASCII Log data
# ...
      1836.0         0.27        537.7 
      1837.0         0.27        504.9 
      1838.0         0.37        520.7 
      1839.0         0.50        538.6 
      1840.0         0.43        545.2 
      1841.0         0.30        509.9 
      1842.0         0.23        508.5 
      1843.0         0.38        494.2 
      1844.0         0.50        473.2 
      1845.0         0.47        461.8 
      1846.0         0.33        498.7 
      1847.0         0.33        503.3 
      1848.0         0.23        490.9 
      1849.0         0.37        494.2 
      1850.0         0.33        470.6 
      1851.0         0.27        441.2 
      1852.0         0.32        494.5 
      1853.0         0.20        457.8 
      1854.0         0.23        464.4 
      1855.0         0.23        474.5 
      1856.0         2.13        494.2 
      1857.0         0.13        227.5 
      1858.0         0.25        273.7 
      1859.0         0.27        346.2 
      1860.0         0.27        414.5 
      1861.0         0.27        478.9 
      1862.0         0.23       1091.5 
      1863.0         0.23       1130.1 
      1864.0         0.20       1123.9 
      1865.0         0.23       1072.2 
      1866.0         0.20        977.0 
      1867.0         0.20        883.5 
      1868.0         0.20        795.1 
      1869.0         0.23        723.2 
      1870.0         0.20        666.2 
      1871.0         0.13        610.9 
      1872.0         0.17        588.0 
      1873.0         0.15        563.2 
      1874.0         0.20        554.0 
      1875.0         0.23        541.3 
      1876.0         0.27        551.1 
      1877.0         0.27        567.1 
      1878.0         0.27        571.4 
      1879.0         0.27        568.1 
      1880.0         0.23        567.4 
      1881.0         0.20        551.1 
      1882.0         0.13        532.4 
      1883.0         0.13        528.2 
      1884.0         0.17        519.0 
      1885.0         0.23        515.7 
      1886.0         3.38        497.7 
      1887.0         0.30        474.5 
      1888.0         0.32       1000.2 
      1889.0         0.27        980.9 
      1890.0         0.20       1003.8 
      1891.0         0.23       1007.4 
      1892.0         0.27       1000.6 
      1893.0         0.30        937.8 
      1894.0         0.27        816.7 
      1895.0         0.27        720.9 
      1896.0         0.20        639.4 
      1897.0         0.27        586.4 
      1898.0         0.23        524.2 
      1899.0         0.23        485.0 
      1900.0         0.27        492.2 
      1901.0         0.32        517.1 
      1902.0         0.30        530.8 
      1903.0         0.33        523.3 
      1904.0         0.30        517.4 
      1905.0         0.27        512.8 
      1906.0         0.23        497.4 
      1907.0         0.17        480.1 
      1908.0         0.30        471.3 
      1909.0         0.30        506.3 
      1910.0         0.23        473.5 
      1911.0         0.23        494.2 
      1912.0         0.30        523.6 
      1913.0         0.32        642.0 
      1914.0         0.27       1020.2 
      1915.0         0.27       1413.1 
      1916.0         2.82       1705.3 
      1917.0         0.43       1086.9 
      1918.0         0.37       1308.4 
      1919.0         0.37       1418.0 
      1920.0         0.33       1415.4 
      1921.0         0.27       1298.3 
      1922.0         0.17       1140.3 
      1923.0         0.17       1045.7 
      1924.0         0.30        971.1 
      1925.0         0.17        873.0 
      1926.0         0.13        816.7 
      1927.0         0.13        772.9 
      1928.0         0.22        734.9 
      1929.0         0.33        736.9 
      1930.0         0.30        795.8 
      1931.0         0.23        858.9 
      1932.0         0.30        928.3 
      1933.0         0.27        945.0 
      1934.0         0.30        939.1 
      1935.0         0.30        899.2 
      1936.0         0.20        855.7 
      1937.0         0.23        820.6 
      1938.0         0.27        782.7 
      1939.0         0.38        751.3 
      1940.0         0.33        702.2 
      1941.0         0.37        686.8 
      1942.0         0.33        693.7 
      1943.0         0.33        690.8 
      1944.0         0.33        659.4 
      1945.0         0.33        644.0 
      1946.0         2.75        627.0 
      1947.0         0.67       1125.5 
      1948.0         0.37       1279.3 
      1949.0         0.37       1295.3 
      1950.0         0.35       1207.7 
      1951.0         0.77        984.2 
      1952.0         0.30        648.6 
      1953.0         0.37        581.5 
      1954.0         0.23        557.9 
      1955.0         0.23        623.7 
      1956.0         0.30        691.7 
      1957.0         0.27        717.6 
      1958.0         0.20        708.1 
      1959.0         0.13        697.3 
      1960.0         0.23        679.0 
      1961.0         0.25        657.1 
      1962.0         0.30        622.7 
      1963.0         0.27        560.6 
      1964.0         0.40        558.3 
      1965.0         0.47        600.5 
      1966.0         0.33        600.8 
      1967.0         0.33        594.9 
      1968.0         0.33        594.6 
      1969.0         0.33        590.7 
      1970.0         0.33        569.7 
      1971.0         0.35        538.0 
      1972.0         0.33        517.1 
      1973.0         0.33        530.5 
      1974.0         0.33        542.6 
      1975.0         0.40        555.7 
      1976.0         1.30        518.0 
      1977.0         0.38        201.3 
      1978.0         0.40        351.1 
      1979.0         0.40        462.0 
      1980.0         0.30       1161.9 
      1981.0         0.43       1210.9 
      1982.0         0.30       1139.0 
      1983.0         0.30        969.8 
      1984.0         0.37        820.6 
      1985.0         0.33        680.3 
      1986.0         0.33        609.0 
      1987.0         0.32        571.4 
      1988.0         0.27        568.7 
      1989.0         0.27        613.9 
      1990.0         0.37        667.9 
      1991.0         0.37        669.8 
      1992.0         0.30        651.2 
      1993.0         0.27        635.2 
      1994.0         0.30        630.2 
      1995.0         0.23        611.9 
      1996.0         0.30        596.2 
      1997.0         0.23        583.8 
      1998.0         0.28        569.7 
      1999.0         0.27        571.4 
      2000.0         0.30        563.8 
      2001.0         0.27        564.8 
      2002.0         0.23        549.1 
      2003.0         0.27        547.8 
      2004.0         0.17        561.5 
      2005.0         0.23        570.0 
      2006.0         2.22        568.7 
      2007.0         0.47        386.0 
      2008.0         0.53       1223.7 
      2009.0         0.43       1469.7 
      2010.0         0.40       1480.2 
      2011.0         0.27       1315.9 
      2012.0         0.17       1098.1 
      2013.0         0.13        986.5 
      2014.0         0.22        891.3 
      2015.0         0.20        791.5 
      2016.0         0.43        729.4 
      2017.0         0.33        601.8 
      2018.0         0.37        542.9 
      2019.0         0.43        635.5 
      2020.0         0.43        721.8 
      2021.0         0.37        722.8 
      2022.0         0.23        703.5 
      2023.0         0.27        680.0 
      2024.0         0.22        650.9 
      2025.0         0.30        622.4 
      2026.0         0.37        582.5 
      2027.0         0.27        535.4 
      2028.0         0.23        528.5 
      2029.0         0.23        564.5 
      2030.0         0.23        580.8 
      2031.0         0.20        581.2 
      2032.0         0.27        551.7 
      2033.0         0.43        524.6 
      2034.0         0.37        540.0 
      2035.0         0.32        585.1 
