~Version Information
VERS.                      2.0: CWLS Log ASCII Standard - VERSION 2.0
WRAP.                       NO: One line per depth step
~Well Information Block
STRT.FT               453.5000: 
STOP.FT              1386.0000: 
STEP.FT                 0.1000: 
NULL.                -999.2500: 
COMP.          Petrogulf Corporation: COMPANY
WELL.          Great Plains 22-22R: WELL
FLD.           Purgatoire River: FIELD
LOC.           2042' FNL & 1657' FWL--: LOCATION
PROV.                 Colorado: PROVINCE
CNTY.               Las Animas: COUNTRY
SRVC.                Patterson: SERVICE COMPANY
DATE.          Fri Sep 09 14:42:42 2005: LOG DATE
UWI.           05 071 08028 00: UNIQUE WELL ID
~Curve Information Block
DEPT.FT            0 000 00 00: Depth
DCAL.in                       : CDL Caliper
RHOB.g/cc                     : CDL Bulk Density
RHOC.g/cc                     : CDL Density Correction
DPOR.pu                       : CDL Density Porosity
NPOR.pu                       : Neutron Porosity
GR.GAPI                       : Gamma Ray
~Parameter Information Block
~A  Depth       DCAL        RHOB        RHOC        DPOR        NPOR         GR     
# ...
   943.1000      8.1151      2.5056      0.0516      8.7521     29.9038    119.7446
   943.2000      8.1151      2.5065      0.0129      8.6969     29.8980    118.2549
   943.3000      8.0777      2.5175      0.0328      8.0318     30.2307    124.9273
   943.4000      8.0777      2.5343      0.0400      7.0106     30.6960    134.3647
   943.5000      8.0588      2.5461      0.0274      6.2982     31.1157    143.6098
   943.6000      8.0588      2.5509      0.0608      6.0049     31.0852    151.8775
   943.7000      8.0588      2.5558      0.0402      5.7065     30.6378    151.5180
   943.8000      8.0437      2.5724      0.0319      4.7007     30.3318    141.0965
   943.9000      8.0437      2.5979      0.0526      3.1596     30.2230    131.1746
   944.0000      8.0223      2.6186      0.0461      1.9037     29.8530    127.9455
   944.1000      8.0223      2.6320      0.0333      1.0939     29.3935    128.4885
   944.2000      8.0223      2.6356      0.0762      0.8712     29.3452    131.1360
   944.3000      7.9949      2.6204      0.0346      1.7910     29.5272    132.7245
   944.4000      7.9949      2.5924      0.0166      3.4886     29.5245    129.4147
   944.5000      7.9699      2.5764     -0.0687      4.4595     29.2524    123.7569
   944.6000      7.9699      2.5848     -0.0057      3.9535     29.0185    121.6489
   944.7000      7.9699      2.6060     -0.0235      2.6680     29.1610    122.3094
   944.8000      7.9508      2.6334     -0.0101      1.0086     29.5871    120.4795
   944.9000      7.9508      2.6593      0.0332     -0.5608     29.8880    116.3993
   945.0000      7.9414      2.6680      0.0440     -1.0899     29.5102    113.1881
   945.1000      7.9414      2.6572      0.0287     -0.4365     28.5327    113.3802
   945.2000      7.9414      2.6417      0.0050      0.5047     27.9774    116.4386
   945.3000      7.9414      2.6427     -0.0094      0.4437     28.2002    118.3073
   945.4000      7.9414      2.6679      0.0128     -1.0869     28.4413    117.9560
   945.5000      7.9417      2.6968      0.0794     -2.8374     28.4033    117.8445
   945.6000      7.9417      2.7044      0.0563     -3.2986     28.3110    117.8021
   945.7000      7.9417      2.6917      0.0576     -2.5269     28.2493    114.8953
   945.8000      7.9350      2.6773      0.0216     -1.6560     28.4770    112.1136
   945.9000      7.9350      2.6751      0.0341     -1.5206     29.1835    115.8509
   946.0000      7.9238      2.6818      0.0532     -1.9290     30.0165    122.3785
   946.1000      7.9238      2.6815      0.0727     -1.9076     30.4049    124.0027
   946.2000      7.9238      2.6613      0.0362     -0.6876     30.1288    121.9448
   946.3000      7.9169      2.6325     -0.0260      1.0586     29.4687    120.6661
   946.4000      7.9169      2.6202     -0.0391      1.8052     28.9130    119.6474
   946.5000      7.9167      2.6264     -0.0093      1.4291     28.9065    115.7850
   946.6000      7.9167      2.6226      0.0632      1.6626     29.3183    110.9867
   946.7000      7.9167      2.5899      0.0009      3.6429     29.2187    111.7467
   946.8000      7.9214      2.5511     -0.0277      5.9945     28.3262    116.8631
   946.9000      7.9214      2.5388     -0.0438      6.7383     27.4415    121.9535
   947.0000      7.9270      2.5541     -0.0162      5.8110     27.0829    127.9700
   947.1000      7.9270      2.5836     -0.0396      4.0248     27.0547    130.8419
   947.2000      7.9270      2.6266      0.0316      1.4181     27.1767    124.4835
   947.3000      7.9302      2.6778      0.0713     -1.6852     27.6240    115.0958
   947.4000      7.9302      2.7306      0.0411     -4.8874     28.2407    110.6368
   947.5000      7.9252      2.7872      0.0753     -8.3136     28.6136    108.3490
   947.6000      7.9252      2.8361      0.1130    -11.2787     28.5167    106.3148
   947.7000      7.9252      2.8711      0.0664    -13.3984     28.2139    106.4179
   947.8000      7.9022      2.9037      0.1034    -15.3754     27.9895    107.0005
   947.9000      7.9022      2.9257      0.1698    -16.7115     27.5714    108.2475
   948.0000      7.8695      2.9234      0.1078    -16.5723     26.9946    111.7477
   948.1000      7.8695      2.9064      0.0875    -15.5380     26.8844    116.1783
   948.2000      7.8695      2.8800      0.0682    -13.9366     27.2171    116.8085
   948.3000      7.8547      2.8470     -0.0121    -11.9410     27.2248    111.5011
   948.4000      7.8547      2.8240     -0.0184    -10.5435     26.5539    106.7355
   948.5000      7.8690      2.8121      0.0199     -9.8264     25.5715    107.4313
   948.6000      7.8690      2.7924      0.0401     -8.6288     25.1768    108.2263
   948.7000      7.8690      2.7573     -0.0004     -6.5039     25.8725    104.0084
   948.8000      7.8967      2.7172      0.0315     -4.0709     26.8863    100.5430
   948.9000      7.8967      2.6812      0.0351     -1.8884     27.2713    103.2020
   949.0000      7.9151      2.6520      0.0115     -0.1196     27.1979    107.1327
   949.1000      7.9151      2.6265     -0.0599      1.4219     27.2875    110.1465
   949.2000      7.9151      2.6039     -0.0885      2.7935     27.7603    114.4429
   949.3000      7.9221      2.5919     -0.0451      3.5220     27.8839    118.3592
   949.4000      7.9221      2.5978     -0.0628      3.1666     27.1172    120.5249
   949.5000      7.9287      2.6160      0.0009      2.0585     26.6870    120.9289
   949.6000      7.9287      2.6285      0.0140      1.3060     27.2237    119.3300
   949.7000      7.9287      2.6279      0.0311      1.3365     27.3617    118.1885
   949.8000      7.9424      2.6260      0.0049      1.4555     26.6741    119.1705
   949.9000      7.9424      2.6322      0.0238      1.0808     26.0786    119.9737
   950.0000      7.9554      2.6413      0.0146      0.5259     25.9944    119.6089
   950.1000      7.9554      2.6447      0.0197      0.3233     26.2211    120.0150
   950.2000      7.9554      2.6431      0.0055      0.4196     26.2906    120.1601
   950.3000      7.9563      2.6401      0.0314      0.5979     25.9857    117.9144
   950.4000      7.9563      2.6377      0.0343      0.7461     25.6409    111.7467
   950.5000      7.9408      2.6369      0.0233      0.7954     25.6648    104.4463
   950.6000      7.9408      2.6320      0.0276      1.0888     25.6966    103.6936
   950.7000      7.9408      2.6152      0.0552      2.1062     25.3837    110.9910
   950.8000      7.9191      2.5897      0.0209      3.6540     25.1576    117.6628
   950.9000      7.9191      2.5710      0.0110      4.7885     25.2918    116.7096
   951.0000      7.9086      2.5676      0.0127      4.9925     25.6077    112.0709
   951.1000      7.9086      2.5727      0.0175      4.6873     25.9703    110.5308
   951.2000      7.9086      2.5745      0.0305      4.5775     26.1687    113.1541
   951.3000      7.9112      2.5705      0.0406      4.8195     26.0949    116.2563
   951.4000      7.9112      2.5734     -0.0029      4.6426     25.7850    114.3252
   951.5000      7.9152      2.5874      0.0534      3.7913     25.0728    107.5082
   951.6000      7.9152      2.5974      0.0552      3.1862     24.3614    102.0622
   951.7000      7.9152      2.5968      0.0527      3.2223     24.5481    101.9130
   951.8000      7.9182      2.5919      0.0550      3.5182     25.4560    106.7810
   951.9000      7.9182      2.5895      0.0299      3.6680     26.1739    113.2761
   952.0000      7.9244      2.5912      0.0496      3.5652     26.4073    116.5146
   952.1000      7.9244      2.5981     -0.0031      3.1444     26.4138    116.0788
   952.2000      7.9244      2.6127      0.0264      2.2591     26.2053    116.2134
   952.3000      7.9290      2.6245      0.0301      1.5468     25.6136    115.5981
   952.4000      7.9290      2.6237     -0.0024      1.5934     25.0637    113.3114
   952.5000      7.9290      2.6209     -0.0049      1.7629     25.2656    115.3302
   952.6000      7.9290      2.6332     -0.0027      1.0207     26.1337    120.6880
