~Version Information
 VERS.                                  2.0 : CWLS LAS VERSION
 WRAP.                                   NO : WRAPING MODE
 SWARE .                 MController 2.5.0J : SOFTWARE VERSION
~Well Information
 WELL.                      Oink Oink 14-36 : WELL
 COMP.    Pioneer Natural Resources USA Ink : COMPANY
 FLD.                      Purgatoire River : FIELD
 LOC.                SW/SW Sec 36 T32S R37W : LOCATION
 DATE.                         6/07-08/2005 : DATE(S) LOGGED
 SRVC.       Blanco Geological Services LLC : SERVICE COMPANY
 STAT.                                   CO : STATE
 CNTY.                           Las Animas : COUNTY
 CTRY.                                  USA : COUNTRY
 API.                       05-071-08394-00 : API NUMBER
 STRT.FT                             514.00 : START DEPTH
 STOP.FT                            2457.00 : STOP DEPTH
 STEP.FT                               1.00 : DEPTH INCREMENT
 NULL.                                -9999 : NULL VALUE
~Curve information
 DEPTH.FT                                   :
 ROP.MIN/FT                                 :
 GAS.UNITS                                  :
~ASCII Log data
# ...
       714.0         0.20        168.1 
       715.0         0.30        164.0 
       716.0         1.68        199.6 
       717.0         0.27         80.0 
       718.0         0.23         50.7 
       719.0         0.20         36.2 
       720.0         0.20         27.3 
       721.0         0.20         32.3 
       722.0         0.17         45.9 
       723.0         0.17         65.9 
       724.0         0.13         85.7 
       725.0         0.17        113.0 
       726.0         0.17        138.4 
       727.0         0.13        157.7 
       728.0         0.17        177.5 
       729.0         0.17        195.6 
       730.0         0.20        211.8 
       731.0         0.23        223.1 
       732.0         0.28        225.6 
       733.0         0.13        225.4 
       734.0         0.17        224.8 
       735.0         0.10        225.3 
       736.0         0.13        227.8 
       737.0         0.13        229.2 
       738.0         0.10        229.5 
       739.0         0.10        229.0 
       740.0         0.17        224.3 
       741.0         0.20        211.3 
       742.0         0.17        193.0 
       743.0         0.17        185.1 
       744.0         0.20        185.1 
       745.0         0.10        182.4 
       746.0         2.12       2073.0 
       747.0         0.30       1888.1 
       748.0         0.27       1289.4 
       749.0         0.20        975.7 
       750.0         0.17        834.4 
       751.0         0.20        752.9 
       752.0         0.20        675.4 
       753.0         0.17        630.2 
       754.0         0.20        604.7 
       755.0         0.17        587.7 
       756.0         0.10        584.1 
       757.0         0.13        578.9 
       758.0         0.10        562.9 
       759.0         0.17        551.4 
       760.0         0.25        500.0 
       761.0         0.20        508.2 
       762.0         0.17        541.9 
       763.0         0.17        548.1 
       764.0         0.20        554.7 
       765.0         0.20        555.0 
       766.0         0.10        564.2 
       767.0         0.10        551.4 
       768.0         0.13        546.2 
       769.0         0.13        535.7 
       770.0         0.17        511.8 
       771.0         0.20        544.9 
       772.0         0.20        555.7 
       773.0         0.20        561.5 
       774.0         0.20        577.9 
       775.0         0.37        571.0 
       776.0         1.58       2153.4 
       777.0         0.30       2284.6 
       778.0         0.27       1922.5 
       779.0         0.30       1380.1 
       780.0         0.23        993.1 
       781.0         0.20        825.6 
       782.0         0.20        725.8 
       783.0         0.20        666.2 
       784.0         0.20        631.9 
       785.0         0.20        590.3 
       786.0         0.22        527.8 
       787.0         0.20        494.5 
       788.0         0.17        488.9 
       789.0         0.20        440.0 
       790.0         0.23        137.4 
       791.0         0.20        158.2 
       792.0         0.20        215.7 
       793.0         0.20        245.1 
       794.0         0.17        255.5 
       795.0         0.20        262.5 
       796.0         0.20        264.9 
       797.0         0.17        264.9 
       798.0         0.13        269.9 
       799.0         0.17        279.5 
       800.0         0.17        281.6 
       801.0         0.20        280.3 
       802.0         0.17        272.4 
       803.0         0.13        267.2 
       804.0         0.10        270.3 
       805.0         0.18        287.7 
       806.0         1.77       1387.6 
       807.0         0.27       1787.0 
       808.0         0.27       1787.0 
       809.0         0.23       1462.8 
       810.0         0.20       1162.8 
       811.0         0.23        977.3 
       812.0         0.23        837.0 
       813.0         0.25        720.9 
       814.0         0.20        667.5 
       815.0         0.20        634.2 
       816.0         0.23        610.6 
       817.0         0.20        583.8 
       818.0         0.20        575.0 
       819.0         0.17        569.7 
       820.0         0.20        562.2 
       821.0         0.20        564.2 
       822.0         0.17        571.7 
       823.0         0.10        558.9 
       824.0         0.17        552.1 
       825.0         0.10        517.7 
       826.0         0.07        502.0 
       827.0         0.23        492.2 
       828.0         0.27        450.3 
       829.0         0.20        440.0 
       830.0         0.20        275.7 
       831.0         0.25        331.7 
       832.0         0.17        344.5 
       833.0         0.20        352.3 
       834.0         0.20        351.8 
       835.0         0.23        340.4 
       836.0         2.17        324.0 
       837.0         0.38       1115.7 
       838.0         0.33       1738.0 
       839.0         0.23       1781.2 
       840.0         0.27       1662.7 
       841.0         0.20       1332.3 
       842.0         0.20       1093.8 
       843.0         0.20        930.6 
       844.0         0.20        806.9 
       845.0         0.20        725.1 
       846.0         0.17        666.2 
       847.0         0.20        631.2 
       848.0         0.17        599.2 
       849.0         0.13        591.6 
       850.0         0.17        571.4 
       851.0         0.20        555.3 
       852.0         0.20        545.2 
       853.0         0.18        554.3 
       854.0         0.13        571.4 
       855.0         0.10        561.5 
       856.0         0.10        548.8 
       857.0         0.10        548.5 
       858.0         0.13        540.9 
       859.0         0.10        501.3 
       860.0         0.17        500.4 
       861.0         0.17        549.8 
       862.0         0.17        580.8 
       863.0         0.23        641.7 
       864.0         0.20        679.0 
       865.0         0.17        686.2 
       866.0         1.40        726.8 
       867.0         0.28        730.0 
       868.0         0.37       1279.6 
       869.0         0.33       2147.9 
       870.0         0.27       2294.1 
       871.0         0.23       2163.6 
       872.0         0.23       1796.9 
       873.0         0.23       1447.5 
       874.0         0.20       1214.2 
       875.0         0.17       1069.3 
       876.0         0.17        972.4 
       877.0         0.17        911.6 
       878.0         0.17        848.1 
       879.0         0.20        807.9 
       880.0         0.17        768.0 
       881.0         0.17        734.3 
       882.0         0.15        721.2 
       883.0         0.10        707.1 
       884.0         0.10        696.7 
       885.0         0.17        687.2 
       886.0         0.17        663.9 
       887.0         0.20        656.1 
       888.0         0.17        643.3 
       889.0         0.13        638.8 
       890.0         0.10        638.8 
       891.0         0.07        636.5 
       892.0         0.17        651.2 
       893.0         0.20        651.5 
       894.0         0.17        638.4 
       895.0         0.27        667.2 
       896.0         2.78       1823.0 
       897.0         0.53       2323.9 
       898.0         0.37       2268.0 
       899.0         0.20       1920.5 
       900.0         0.17       1734.7 
       901.0         0.20       1580.9 
       902.0         0.17       1422.9 
       903.0         0.22       1317.9 
       904.0         0.20       1213.9 
       905.0         0.20       1132.1 
       906.0         0.17       1070.9 
       907.0         0.20       1024.1 
       908.0         0.20        980.9 
       909.0         0.20        952.8 
       910.0         0.13        944.6 
       911.0         0.13        927.0 
       912.0         0.17        914.5 
       913.0         0.10        906.4 
