~Version Information
VERS.                      2.0: CWLS Log ASCII Standard - VERSION 2.0
WRAP.                       NO: One line per depth step
~Well Information Block
STRT.FT               700.0000: 
STOP.FT              1869.5000: 
STEP.FT                 0.2500: 
NULL.                -999.2500: 
COMP.          Petrogulf Corporation: COMPANY
WELL.             State 16-24R: WELL
FLD.           Purgatorie River: FIELD
LOC.           541' FSL & 2371' FWL: LOCATION
PROV.                 Colorado: PROVINCE
CNTY.               Las Animas: COUNTRY
SRVC.                Patterson: SERVICE COMPANY
DATE.          Fri Aug 12 09:07:22 2005: LOG DATE
UWI.                071-08312 : UNIQUE WELL ID
~Curve Information Block
DEPT.FT            0 000 00 00: Depth
SP.mV                         : DIL Spontaneous Potential
RILD.Ohm-m                    : DIL Deep Resistivity
RILM.Ohm-m                    : DIL Medium Resistivity
RLL3.Ohm-m                    : DIL Shallow Resistivity
GR.GAPI                       : Gamma Ray
~Parameter Information Block
~A  Depth        SP         RILD        RILM        RLL3         GR     
# ...
  1764.0000     80.7705      8.6969      9.7243     10.5517    135.4646
  1764.2500     78.6028      9.3073     10.6192     10.9579    134.1513
  1764.5000     76.9137      9.4913     11.3827     12.1915    115.8632
  1764.7500     76.2761     10.0979     12.3451     13.6973    118.7175
  1765.0000     74.1542     10.7354     13.9705     18.1866    101.2809
  1765.2500     72.8364     11.1680     14.4851     21.0331     95.9313
  1765.5000     69.4562     12.4730     16.5050     28.1165     83.3577
  1765.7500     69.1062     12.6423     17.2104     29.8808     73.4724
  1766.0000     68.4883     14.2104     18.7536     31.7117     67.0332
  1766.2500     67.7348     14.8708     21.5741     44.4360     52.0847
  1766.5000     68.1210     16.2228     22.8596     52.9110     49.1784
  1766.7500     67.5652     17.9427     27.1308     57.6999     47.0382
  1767.0000     67.3086     17.9459     27.1109     58.5196     38.9578
  1767.2500     65.6284     18.5263     30.0218     63.0160     33.3436
  1767.5000     66.4279     19.0536     33.2094     65.9058     46.5618
  1767.7500     67.0811     18.5404     33.6859     67.0444     42.9490
  1768.0000     67.8643     18.0932     31.9457     67.2857     60.6925
  1768.2500     68.1425     16.9653     31.2225     62.2156     74.7819
  1768.5000     69.4042     16.4873     27.0058     36.5644     98.7766
  1768.7500     71.3054     15.2859     23.4029     26.9589    105.4656
  1769.0000     73.3028     14.8600     21.9072     18.2678    122.5154
  1769.2500     75.1181     14.4848     18.6133     15.7998    128.8341
  1769.5000     75.3945     13.8640     18.0136     13.1974    133.0621
  1769.7500     74.4530     13.5347     16.5260     11.4388    133.3984
  1770.0000     74.6103     12.6534     16.0276     11.3410    126.4678
  1770.2500     73.8914     12.0484     15.2477     12.4827    129.8694
  1770.5000     75.4110     11.6635     14.5513     13.2860    136.4155
  1770.7500     75.2675     11.0869     14.4323     14.4449    130.4914
  1771.0000     75.2626     10.4078     13.4717     14.2423    134.6900
  1771.2500     74.5288      9.8568     12.8943     13.6887    133.0147
  1771.5000     74.2144      9.8736     11.9758     13.2162    133.5932
  1771.7500     74.8334      9.6028     11.5347     12.8253    131.5815
  1772.0000     74.4407      9.5215     11.1471     11.5820    136.3364
  1772.2500     74.4569      9.6646     10.8870     11.2099    141.4901
  1772.5000     74.6372      9.7083     11.0472     11.0265    144.9870
  1772.7500     74.5904      9.8207     11.0899     10.9625    147.0686
  1773.0000     74.9689     10.1623     11.1229     11.0683    125.8442
  1773.2500     74.0094     10.1622     11.2718     11.5859    127.6368
  1773.5000     73.1364     10.1599     11.5621     12.0997    121.0936
  1773.7500     71.3979     10.4594     12.0488     13.9586    113.4375
  1774.0000     70.9650     10.7468     12.3337     15.3196    120.7728
  1774.2500     69.7650     11.2804     12.6113     15.2650    126.2209
  1774.5000     69.4140     11.2629     13.2350     14.1533    116.5963
  1774.7500     68.3247     11.3634     14.1975     14.0782    114.5140
  1775.0000     65.9870     11.6744     14.9858     15.9175    112.5234
  1775.2500     65.8887     12.1050     15.2659     17.7066    110.7419
  1775.5000     64.6428     12.4912     16.4257     20.3945    103.6331
  1775.7500     64.1022     12.5322     17.6088     20.6979    108.9061
  1776.0000     62.2721     12.8941     17.8343     19.8553    108.9678
  1776.2500     60.8275     12.8744     18.9263     20.2165    104.9589
  1776.5000     60.1838     13.0038     19.1974     22.2657     99.4539
  1776.7500     59.1708     13.0068     19.0294     28.2985     99.2165
  1777.0000     58.2058     13.6217     18.5686     29.5921    111.3117
  1777.2500     56.3147     13.9285     18.2277     25.6042    129.2647
  1777.5000     56.7256     13.5133     16.7333     19.0986    132.5154
  1777.7500     55.6871     13.8390     16.2681     13.6235    133.6795
  1778.0000     54.3142     14.9185     15.9749     11.5019    120.7891
  1778.2500     52.9103     15.1371     16.4244     11.7939    112.1445
  1778.5000     51.1349     15.5491     18.0091     14.2537     91.1754
  1778.7500     49.4883     15.6045     18.5924     16.6088     88.7683
  1779.0000     47.3729     15.6554     20.1267     22.0914     66.2601
  1779.2500     45.8687     14.8317     21.2065     29.1703     55.9377
  1779.5000     43.3331     15.1427     22.1454     33.3983     51.2133
  1779.7500     42.3120     15.0093     22.4205     31.1426     51.2580
  1780.0000     40.8960     15.5086     22.8549     29.2931     46.0117
  1780.2500     39.4153     16.6252     23.0103     25.5786     44.2918
  1780.5000     38.8998     16.8441     23.6923     24.8387     45.8646
  1780.7500     36.1863     17.3259     23.0933     25.1380     49.2020
  1781.0000     35.3052     17.8963     24.4054     24.5033     50.5904
  1781.2500     36.6638     18.4711     25.9524     23.9204     50.4495
  1781.5000     38.1376     19.4742     25.8418     23.0651     47.4045
  1781.7500     38.8247     19.2744     24.5156     22.4410     46.9898
  1782.0000     38.9672     19.5424     24.9335     21.7082     51.3059
  1782.2500     35.7023     19.1381     24.3262     21.2393     44.6133
  1782.5000     34.1642     19.1308     25.1159     20.8937     47.3019
  1782.7500     35.2477     19.2818     25.7236     21.6266     43.9303
  1783.0000     34.5870     19.5830     27.2650     22.1326     45.5704
  1783.2500     34.2415     19.7242     26.5140     21.7315     44.9837
  1783.5000     33.0188     19.4937     27.4847     21.6542     50.1487
  1783.7500     32.4076     18.7450     27.3398     21.9905     48.6243
  1784.0000     32.0166     18.5593     26.6711     22.0774     49.6751
  1784.2500     30.4148     19.5988     26.9714     21.7443     45.1340
  1784.5000     31.2078     18.2402     26.6804     21.8431     40.7907
  1784.7500     31.0825     17.0622     26.3216     22.8468     43.7525
  1785.0000     33.1762     15.9027     26.2190     25.6831     42.5601
  1785.2500     33.7271     15.4673     24.6863     26.4314     44.7183
  1785.5000     35.3542     14.4668     23.0424     27.2116     56.2686
  1785.7500     37.2649     13.6896     21.6532     27.9060     59.9641
  1786.0000     39.4215     13.1430     18.9270     27.4574     88.0614
  1786.2500     43.0572     12.3675     16.9071     19.0610    110.9699
  1786.5000     44.1085     11.6555     14.9894     13.9085    143.5683
  1786.7500     47.9076     11.5000     13.4173     10.4281    155.6282
  1787.0000     50.2382     10.9080     12.5690      9.9009    163.5591
  1787.2500     52.2126     10.2914     12.0448     10.1549    171.1228
  1787.5000     53.5710      9.8155     12.0204     10.8097    159.0578
  1787.7500     53.7506      9.6513     11.5855     11.5634    163.2809
  1788.0000     55.3815      9.0359     10.9961     11.5227    170.2617
  1788.2500     54.9127      8.8323     10.6888     11.1741    167.9182
  1788.5000     56.4430      8.5676     10.4873     10.8118    169.0296
  1788.7500     56.8652      8.4859     10.3211     10.7172    164.7644
  1789.0000     57.1431      8.3646      9.8917     10.6209    166.5657
  1789.2500     57.4460      8.4185      9.9620     10.4110    157.3886
  1789.5000     57.2930      8.4218     10.0365     10.1708    152.7031
  1789.7500     58.1711      8.5525     10.1820     10.8402    142.0085
  1790.0000     58.7132      8.2769     10.3829     12.0044    134.6382
  1790.2500     60.4276      8.3631     10.8357     11.4472    135.6621
  1790.5000     61.2894      8.3363     10.9071     11.4822    135.8002
  1790.7500     62.6850      8.3835     10.9161     14.1882    132.0864
  1791.0000     63.4407      8.5290     11.2462     14.8019    124.2561
  1791.2500     64.5441      8.7812     11.1622     13.2333    131.5323
  1791.5000     66.1428      8.8780     11.0791     11.8187    136.0505
  1791.7500     66.2110      9.4395     11.2581     11.1103    133.0197
