~Version Information
VERS.                      2.0: CWLS Log ASCII Standard - VERSION 2.0
WRAP.                       NO: One line per depth step
~Well Information Block
STRT.FT               840.0000: 
STOP.FT              2019.0000: 
STEP.FT                 0.2500: 
NULL.                -999.2500: 
COMP.          Petrogulf Corporation: COMPANY
WELL.           Lavedure 7-44R: WELL
FLD.           Purgatorie River: FIELD
LOC.           946' FSL & 521' FEL: LOCATION
PROV.                 Colorado: PROVINCE
CNTY.               Las Animas: COUNTRY
SRVC.                Patterson: SERVICE COMPANY
DATE.          Mon Sep 26 08:35:42 2005: LOG DATE
UWI.                          : UNIQUE WELL ID
~Curve Information Block
DEPT.FT            0 000 00 00: Depth
SP.mV                         : DIL Spontaneous Potential
RILD.Ohm-m                    : DIL Deep Resistivity
RILM.Ohm-m                    : DIL Medium Resistivity
RLL3.Ohm-m                    : DIL Shallow Resistivity
GR.GAPI                       : Gamma Ray
~Parameter Information Block
~A  Depth        SP         RILD        RILM        RLL3         GR     
# ...
  1372.0000    169.4999     13.9310     17.5126     17.2926    103.3359
  1372.2500    169.9677     13.3390     16.3682     17.5740    105.0826
  1372.5000    170.4004     12.4805     15.0590     17.2914    106.4478
  1372.7500    170.7777     11.9440     13.5267     15.3257    124.9813
  1373.0000    171.1229     11.3451     12.4085     12.9789    125.3622
  1373.2500    171.5386     10.6509     11.3354     11.1810    139.2421
  1373.5000    171.9371     10.1583     10.1550     10.4015    144.8251
  1373.7500    172.3252      9.7371      9.3274     10.2586    130.5294
  1374.0000    172.5715      9.4187      8.7929     10.0453    128.3236
  1374.2500    172.4759      9.3307      8.3880      9.7949    142.7644
  1374.5000    172.1977      9.1895      8.1354      8.9362    163.3372
  1374.7500    171.8848      9.1261      8.0038      8.5426    173.6469
  1375.0000    171.6615      9.2161      8.0018      8.3753    146.3469
  1375.2500    171.4539      9.3759      8.2687      8.3177    155.1238
  1375.5000    171.2767      9.4382      8.7048      9.0590    168.8333
  1375.7500    171.1809      9.6622      9.3533     11.1202    145.9082
  1376.0000    171.1976      9.8608     10.1412     14.5625    147.5101
  1376.2500    171.2574     10.0407     10.7998     18.7749    135.3630
  1376.5000    171.3777     10.2252     11.4886     22.7789    128.5981
  1376.7500    171.4961     10.5221     12.0093     24.2838    130.8086
  1377.0000    171.5523     10.9554     12.7768     22.8155    124.8795
  1377.2500    171.6981     11.5109     13.2514     20.3060    116.6081
  1377.5000    172.0474     12.1574     13.6283     18.4953    132.5063
  1377.7500    172.3762     12.5919     14.0804     16.6656    164.8306
  1378.0000    172.7742     13.2555     14.7706     16.0167    158.2955
  1378.2500    173.2168     13.9045     15.1859     17.1621    148.5443
  1378.5000    173.6152     14.2041     15.1024     18.5698    130.1463
  1378.7500    173.6795     14.6431     15.3280     17.6208    128.3047
  1379.0000    173.5105     14.7704     15.2288     15.1898    138.9009
  1379.2500    173.1901     14.9194     15.3328     13.6800    129.4323
  1379.5000    172.9216     14.9736     15.2317     13.6628    128.4215
  1379.7500    172.6895     14.8831     15.7109     14.3201    107.5353
  1380.0000    172.3501     14.6632     16.0398     15.3615    112.5141
  1380.2500    172.0172     14.6406     16.6274     17.0475    125.3619
  1380.5000    171.7370     14.3597     16.6790     20.6223    119.3892
  1380.7500    171.4074     14.3621     16.6315     25.0588    115.3283
  1381.0000    171.0187     14.3092     16.3919     23.6250    139.5483
  1381.2500    170.6126     14.4359     16.1591     17.6220    119.5429
  1381.5000    170.2520     14.1439     15.8737     14.2206    106.1379
  1381.7500    170.0623     14.0092     15.8390     15.0640    113.4965
  1382.0000    170.1144     13.8128     16.0385     16.7993    144.6307
  1382.2500    170.2241     13.7408     15.9717     18.6335    144.6902
  1382.5000    170.5296     13.6267     15.8222     19.0618    159.4551
  1382.7500    170.8299     13.0193     15.3344     16.4937    145.2795
  1383.0000    171.1734     12.5152     14.7290     14.1371    129.0108
  1383.2500    171.2838     11.8560     14.1723     13.0939    128.2718
  1383.5000    171.2070     11.2705     13.5797     13.4608    117.3940
  1383.7500    171.0605     10.6637     12.9659     13.7859    133.2151
  1384.0000    170.8562     10.1262     12.1633     14.6803    129.5404
  1384.2500    170.5920      9.6438     11.2992     15.0285    129.6297
  1384.5000    170.4138      9.1148     10.3331     13.0093    125.0631
  1384.7500    170.3625      8.7594      9.3891     11.3643    118.7949
  1385.0000    170.3566      8.4696      8.5825      9.9200    123.1817
  1385.2500    170.5426      8.2737      7.8344      8.7169    128.6812
  1385.5000    170.9364      8.1339      7.4081      7.5401    123.0981
  1385.7500    171.3519      8.0327      7.1183      6.4914    146.5593
  1386.0000    171.8652      7.9679      7.0144      6.6614    154.3280
  1386.2500    172.5580      7.8564      7.0515      7.0217    176.0080
  1386.5000    173.3833      7.7294      7.1974      7.8589    152.0629
  1386.7500    174.0704      7.6394      7.2269      8.8755    139.8486
  1387.0000    174.5639      7.6550      7.3157      9.6026    128.5476
  1387.2500    175.1651      7.6456      7.4666      9.9497    123.3236
  1387.5000    175.7552      7.6637      7.5592      9.9862    137.9478
  1387.7500    176.2731      7.8479      7.7495      9.9864    127.5192
  1388.0000    176.6743      8.0525      7.9418     10.0177    127.2414
  1388.2500    176.8816      8.2219      8.1722     10.2795    113.1436
  1388.5000    176.9421      8.4782      8.5802     10.6192    104.5311
  1388.7500    176.9676      8.8134      9.1438     11.2839    116.7437
  1389.0000    176.9516      9.0995      9.5328     11.8469    101.0988
  1389.2500    176.8584      9.3233      9.9729     12.3858    100.2256
  1389.5000    176.7986      9.4287     10.3429     12.5708    118.0807
  1389.7500    176.7391      9.7443     10.5552     12.3612    122.4854
  1390.0000    176.5830      9.7305     10.6112     12.2883     96.6773
  1390.2500    176.3641      9.8810     10.6728     11.9186    104.7202
  1390.5000    175.9984      9.8559     10.6494     11.3900    100.8892
  1390.7500    175.7314      9.8972     10.6477     11.0992    108.2107
  1391.0000    175.5247      9.9096     10.5857     10.8249    109.2484
  1391.2500    175.3936      9.8283     10.5980     10.9056    127.2912
  1391.5000    175.3272      9.7239     10.5866     10.6472     99.4159
  1391.7500    175.3671      9.6529     10.4170     10.5549    121.0053
  1392.0000    175.4495      9.5710     10.3432     10.7344    126.1353
  1392.2500    175.3749      9.3964     10.2225     11.0083    121.4323
  1392.5000    175.1666      9.1618     10.0397     10.9035    102.8970
  1392.7500    174.7919      9.0575      9.8599     10.6595     95.3557
  1393.0000    174.3305      8.8963      9.7021     10.3490     95.2717
  1393.2500    173.8866      8.7444      9.5231     10.1817     87.9542
  1393.5000    173.3846      8.5819      9.2700     10.0351    108.8500
  1393.7500    172.8893      8.4671      9.0272      9.8730    111.7960
  1394.0000    172.4128      8.3753      8.9140      9.5853    121.4075
  1394.2500    171.9967      8.2905      8.6728      9.2155    109.9226
  1394.5000    171.4947      8.1728      8.4758      8.9123    100.2217
  1394.7500    170.9638      8.1878      8.3897      8.6766    106.5003
  1395.0000    170.4301      8.0537      8.3696      8.8790    124.6044
  1395.2500    170.0031      8.0086      8.2763      9.2069    111.9743
  1395.5000    169.6572      7.9698      8.2306      9.2050    107.7662
  1395.7500    169.4135      7.8867      8.1759      9.1510    121.8603
  1396.0000    169.3453      7.8975      8.1628      9.0639     95.4491
  1396.2500    169.3181      7.8503      8.1149      9.0463     90.4431
  1396.5000    169.4296      7.8481      8.0366      9.2662     85.2181
  1396.7500    169.5692      7.8541      8.0369      9.2277    102.8033
  1397.0000    169.6659      7.9187      8.0355      8.9767    107.4650
  1397.2500    169.6774      7.9609      8.0167      8.8771    102.5739
  1397.5000    169.5639      8.0281      8.0615      9.2071    114.1982
  1397.7500    169.4305      8.1983      8.0776      9.2745    121.7237
  1398.0000    169.3158      8.2994      8.0749      9.3814    112.4290
  1398.2500    169.1877      8.4679      8.1650      9.0358    115.0902
  1398.5000    169.0676      8.6281      8.3360      8.8407    123.1282
  1398.7500    169.1236      8.8492      8.5710      8.8790    132.4142
  1399.0000    169.1954      8.9467      8.8916      9.0381    135.2543
  1399.2500    169.3028      9.0874      9.4004      9.2003    120.7136
  1399.5000    169.3991      9.2363      9.9537     10.6644    107.4696
  1399.7500    169.6851      9.3668     10.3857     14.2810    119.8647
