~Version Information
 VERS.                                  2.0 : CWLS LAS VERSION
 WRAP.                                   NO : WRAPING MODE
 SWARE .                 MController 2.5.0E : SOFTWARE VERSION
~Well Information
 WELL.                          Nomad 32-10 : WELL
 COMP.            EVERGREEN OPERATING CORP. : COMPANY
 FLD.                      PURGATOIRE RIVER : FIELD
 LOC.                    SW/NE 26 T32S R66W : LOCATION
 DATE.                              6/11/04 : DATE(S) LOGGED
 SRVC.       BLANCO GEOLOGICAL SERVICES LLC : SERVICE COMPANY
 STAT.                             COLORADO : STATE
 CNTY.                           LAS ANIMAS : COUNTY
 CTRY.                                  USA : COUNTRY
 API.                       05-071-08127-00 : API NUMBER
 STRT.FT                             446.00 : START DEPTH
 STOP.FT                            2455.00 : STOP DEPTH
 STEP.FT                               1.00 : DEPTH INCREMENT
 NULL.                                -9999 : NULL VALUE
~Curve information
 DEPTH.FT                                   :
 ROP.MIN/FT                                 :
 GAS.UNITS                                  :
~ASCII Log data
# ...
     1046.00        3.550       1569.2 
     1047.00        0.233        446.9 
     1048.00        0.333        445.9 
     1049.00        0.300        440.0 
     1050.00        0.233        157.9 
     1051.00        0.267        164.8 
     1052.00        0.367        166.5 
     1053.00        0.400        165.1 
     1054.00        0.200        140.6 
     1055.00        0.267        138.4 
     1056.00        0.267        126.7 
     1057.00        0.250        132.1 
     1058.00        0.233        129.7 
     1059.00        0.233        144.3 
     1060.00        0.267        198.7 
     1061.00        0.233        205.1 
     1062.00        0.300        172.7 
     1063.00        0.233        131.4 
     1064.00        0.233        124.0 
     1065.00        0.233        124.5 
     1066.00        0.200        124.5 
     1067.00        0.167        126.7 
     1068.00        0.200        131.0 
     1069.00        0.167        131.0 
     1070.00        0.133        143.2 
     1071.00        0.167        143.2 
     1072.00        0.200        144.9 
     1073.00        0.283        127.0 
     1074.00        0.300         83.8 
     1075.00        0.267         94.8 
     1076.00        5.350       1958.3 
     1077.00        0.167        497.8 
     1078.00        0.333        505.9 
     1079.00        0.217        513.3 
     1080.00        0.233        503.8 
     1081.00        0.233        483.3 
     1082.00        0.267        479.3 
     1083.00        0.233        480.9 
     1084.00        0.200        478.6 
     1085.00        0.200        469.8 
     1086.00        0.200        463.4 
     1087.00        0.200        452.3 
     1088.00        0.100        452.3 
     1089.00        0.167        458.4 
     1090.00        0.267        460.7 
     1091.00        0.200        463.1 
     1092.00        0.233        463.1 
     1093.00        0.200        505.9 
     1094.00        0.250        521.7 
     1095.00        0.233        440.0 
     1096.00        0.267        440.0 
     1097.00        0.233        135.0 
     1098.00        0.200        123.6 
     1099.00        0.267        119.8 
     1100.00        0.233         89.8 
     1101.00        0.200         88.7 
     1102.00        0.233         99.9 
     1103.00        0.200        142.0 
     1104.00        0.233        206.7 
     1105.00        0.233        206.7 
     1106.00        4.600       1793.2 
     1107.00        0.133        440.0 
     1108.00        0.333        151.4 
     1109.00        0.367        157.9 
     1110.00        0.300        157.1 
     1111.00        0.267        157.0 
     1112.00        0.267        155.6 
     1113.00        0.267        153.1 
     1114.00        0.267        154.3 
     1115.00        0.267        152.1 
     1116.00        0.233        150.0 
     1117.00        0.167        150.6 
     1118.00        0.083        152.0 
     1119.00        0.100        152.0 
     1120.00        0.233        151.4 
     1121.00        0.233        154.3 
     1122.00        0.267        162.7 
     1123.00        0.200        186.7 
     1124.00        0.233         89.9 
     1125.00        0.233         36.2 
     1126.00        0.233         57.2 
     1127.00        0.233         58.4 
     1128.00        0.267         64.2 
     1129.00        0.233         91.6 
     1130.00        0.233        143.2 
     1131.00        0.233        143.2 
     1132.00        0.233        201.8 
     1133.00        0.217        251.5 
     1134.00        0.233        340.6 
     1135.00        0.200       1338.0 
     1136.00        3.883       1846.5 
     1137.00        0.233        443.5 
     1138.00        0.300        440.0 
     1139.00        0.233        151.2 
     1140.00        0.233        142.5 
     1141.00        0.267        135.7 
     1142.00        0.200        137.8 
     1143.00        0.133        147.5 
     1144.00        0.100        147.5 
     1145.00        0.100        161.7 
     1146.00        0.167        161.1 
     1147.00        0.383        149.4 
     1148.00        0.400        138.4 
     1149.00        0.233        144.3 
     1150.00        0.167        144.3 
     1151.00        0.200        148.4 
     1152.00        0.200        164.6 
     1153.00        0.200        164.6 
     1154.00        0.167        166.1 
     1155.00        0.200        148.4 
     1156.00        0.200        117.8 
     1157.00        0.233        101.4 
     1158.00        0.233         89.1 
     1159.00        0.200         84.7 
     1160.00        0.167         84.7 
     1161.00        0.200         90.0 
     1162.00        0.200         99.0 
     1163.00        0.183        121.4 
     1164.00        0.200        156.9 
     1165.00        0.167        156.9 
     1166.00        3.417        218.7 
     1167.00        0.400        157.1 
     1168.00        0.267        150.4 
     1169.00        0.300        144.6 
     1170.00        0.233        140.5 
     1171.00        0.333        138.2 
     1172.00        0.300        136.6 
     1173.00        0.200        150.6 
     1174.00        0.233        150.6 
     1175.00        0.333        151.4 
     1176.00        0.250        125.1 
     1177.00        0.233        130.2 
     1178.00        0.300        148.3 
     1179.00        0.233        148.3 
     1180.00        0.233        149.3 
     1181.00        0.233        160.9 
     1182.00        0.233        184.7 
     1183.00        0.233        148.0 
     1184.00        0.233        113.0 
     1185.00        0.200        113.0 
     1186.00        0.233        102.8 
     1187.00        0.167        105.3 
     1188.00        0.133        105.3 
     1189.00        0.167        107.2 
     1190.00        0.133        102.0 
     1191.00        0.200        102.0 
     1192.00        0.250        100.8 
     1193.00        0.233         89.9 
     1194.00        0.300         88.8 
     1195.00        0.267         99.6 
     1196.00        4.883        365.2 
     1197.00        0.100        152.5 
     1198.00        0.300        150.8 
     1199.00        0.300        154.6 
     1200.00        0.250        155.2 
     1201.00        0.300        145.7 
     1202.00        0.267        139.3 
     1203.00        0.267        137.0 
     1204.00        0.267        137.8 
     1205.00        0.167        138.7 
     1206.00        0.167        138.7 
     1207.00        0.233        136.3 
     1208.00        0.267        137.2 
     1209.00        0.167        135.5 
     1210.00        0.267        130.3 
     1211.00        0.233        132.4 
     1212.00        0.167        132.4 
     1213.00        0.233        142.9 
     1214.00        0.233        120.7 
     1215.00        0.250         97.7 
     1216.00        0.233         97.7 
     1217.00        0.233         99.8 
     1218.00        0.267         94.8 
     1219.00        0.233         99.6 
     1220.00        0.233        104.7 
     1221.00        0.267         97.9 
     1222.00        0.267         88.6 
     1223.00        0.267         87.6 
     1224.00        0.267         85.9 
     1225.00        0.233         97.0 
     1226.00        4.900        293.8 
     1227.00        0.100        145.5 
     1228.00        0.367        136.3 
     1229.00        0.333        119.9 
     1230.00        0.333         98.3 
     1231.00        0.400        130.8 
     1232.00        0.367        137.4 
     1233.00        0.333        123.5 
     1234.00        0.283        125.3 
     1235.00        0.233        137.0 
     1236.00        0.233        149.8 
     1237.00        0.167        154.6 
     1238.00        0.167        149.5 
     1239.00        0.167        135.9 
     1240.00        0.167        135.9 
     1241.00        0.167        129.2 
     1242.00        0.233        127.5 
     1243.00        0.267        139.6 
     1244.00        0.233        138.6 
     1245.00        0.200        127.4 
