~Version Information
VERS.                      2.0: CWLS Log ASCII Standard - VERSION 2.0
WRAP.                       NO: One line per depth step
~Well Information Block
STRT.FT               702.7000: 
STOP.FT              2529.2000: 
STEP.FT                 0.1000: 
NULL.                -999.2500: 
COMP.          Pioneer Natural Resources: COMPANY
WELL.          Aztec Federal 41-15: WELL
FLD.           Purgatorie River: FIELD
LOC.           706' FNL & 1253' FEL: LOCATION
CNTY.               Las Animas: COUNTY
SRVC.          Superior Well Services: SERVICE COMPANY
DATE.          Tue Mar 18 09-36-47 2008: LOG DATE
UWI.           05-071-08342-00: UNIQUE WELL ID
STAT.                       CO: STATE
~Curve Information Block
DEPT.FT            0 000 00 00: Depth
DCAL.in                       : CDL Caliper
DPOR.pu                       : CDL Density Porosity
GR.GAPI                       : Gamma Ray
RHOB.g/cc                     : CDL Bulk Density
RHOC.g/cc                     : CDL Density Correction
~Parameter Information Block
~A  Depth       DCAL        DPOR         GR         RHOB        RHOC    
# ...
  1553.9000      8.3051      7.4334    135.5431      2.5273      0.1633
  1554.0000      8.2980      6.2650    136.1543      2.5466      0.1844
  1554.1000      8.2946      5.6289    138.4162      2.5571      0.1932
  1554.2000      8.2972      6.9817    140.4201      2.5348      0.1792
  1554.3000      8.3075     10.1615    138.3290      2.4823      0.1386
  1554.4000      8.3253     14.0462    135.4660      2.4182      0.0807
  1554.5000      8.3487     17.0584    135.7266      2.3685      0.0316
  1554.6000      8.3735     18.1160    136.4161      2.3511      0.0133
  1554.7000      8.3934     17.8585    136.4911      2.3553      0.0162
  1554.8000      8.4011     17.1463    136.6650      2.3671      0.0201
  1554.9000      8.3900     15.8594    135.5216      2.3883      0.0238
  1555.0000      8.3567     14.2901    133.3688      2.4142      0.0307
  1555.1000      8.3031     13.3835    132.1927      2.4292      0.0293
  1555.2000      8.2363     13.0960    132.1476      2.4339      0.0134
  1555.3000      8.1665     12.9258    131.5133      2.4367     -0.0055
  1555.4000      8.1028     12.6453    130.5816      2.4414     -0.0148
  1555.5000      8.0502     11.7387    130.7101      2.4563     -0.0105
  1555.6000      8.0093      9.6163    130.2661      2.4913      0.0097
  1555.7000      7.9775      7.3122    128.2142      2.5293      0.0335
  1555.8000      7.9521      6.0131    124.0126      2.5508      0.0442
  1555.9000      7.9312      4.5012    118.2232      2.5757      0.0522
  1556.0000      7.9143      2.1807    115.3649      2.6140      0.0668
  1556.1000      7.9015      1.0181    115.8330      2.6332      0.0778
  1556.2000      7.8930      1.9944    114.6327      2.6171      0.0816
  1556.3000      7.8881      3.5633    111.6579      2.5912      0.0851
  1556.4000      7.8860      4.1317    110.2206      2.5818      0.0931
  1556.5000      7.8856      3.1806    107.4594      2.5975      0.1012
  1556.6000      7.8860      0.9998    102.8055      2.6335      0.1057
  1556.7000      7.8867     -1.2896    102.7099      2.6713      0.1115
  1556.8000      7.8876     -2.2586    107.3165      2.6873      0.1127
  1556.9000      7.8885     -2.1898    110.2506      2.6861      0.1060
  1557.0000      7.8897     -2.4129    110.2622      2.6898      0.1024
  1557.1000      7.8910     -2.5666    110.3846      2.6923      0.1017
  1557.2000      7.8925     -1.9228    111.3563      2.6817      0.0964
  1557.3000      7.8942     -1.4131    111.8311      2.6733      0.0905
  1557.4000      7.8960     -1.7042    109.5404      2.6781      0.0872
  1557.5000      7.8980     -2.0326    105.9817      2.6835      0.0783
  1557.6000      7.8998     -1.1639    105.7797      2.6692      0.0591
  1557.7000      7.9011      0.8484    107.4630      2.6360      0.0398
  1557.8000      7.9013      2.5222    107.4844      2.6084      0.0317
  1557.9000      7.9002      3.3058    105.9615      2.5955      0.0316
  1558.0000      7.8976      3.2935    104.8563      2.5957      0.0363
  1558.1000      7.8941      2.0720    106.5310      2.6158      0.0515
  1558.2000      7.8906      0.8736    112.1439      2.6356      0.0682
  1558.3000      7.8885      1.3770    119.8395      2.6273      0.0701
  1558.4000      7.8892      2.2655    122.7762      2.6126      0.0656
  1558.5000      7.8936      2.6338    117.4257      2.6065      0.0682
  1558.6000      7.9021      3.9991    110.5805      2.5840      0.0748
  1558.7000      7.9150      6.3673    109.3052      2.5449      0.0797
  1558.8000      7.9325      8.2845    113.3857      2.5133      0.0801
  1558.9000      7.9552      9.3928    118.9271      2.4950      0.0805
  1559.0000      7.9833     10.0634    121.8082      2.4840      0.0938
  1559.1000      8.0157     11.2992    119.7630      2.4636      0.1111
  1559.2000      8.0493     13.3263    113.8409      2.4301      0.1127
  1559.3000      8.0806     15.0142    107.9558      2.4023      0.1074
  1559.4000      8.1071     15.7005    106.4520      2.3909      0.1160
  1559.5000      8.1286     16.3382    109.2481      2.3804      0.1363
  1559.6000      8.1468     18.1019    112.7008      2.3513      0.1405
  1559.7000      8.1630     19.9269    116.1322      2.3212      0.1188
  1559.8000      8.1772     20.3366    119.0248      2.3144      0.0902
  1559.9000      8.1875     20.2457    118.0000      2.3159      0.0644
  1560.0000      8.1917     20.7268    114.0649      2.3080      0.0414
  1560.1000      8.1897     20.9836    112.0890      2.3038      0.0247
  1560.2000      8.1837     20.4916    114.3368      2.3119      0.0148
  1560.3000      8.1778     19.8973    119.5532      2.3217      0.0062
  1560.4000      8.1754     19.4430    123.5949      2.3292     -0.0006
  1560.5000      8.1774     18.2946    124.4013      2.3481      0.0018
  1560.6000      8.1822     16.3984    125.9831      2.3794      0.0071
  1560.7000      8.1860     14.7281    130.9593      2.4070      0.0018
  1560.8000      8.1849     13.7898    133.3237      2.4225     -0.0121
  1560.9000      8.1757     13.3790    128.5843      2.4292     -0.0234
  1561.0000      8.1569     13.1394    123.3014      2.4332     -0.0297
  1561.1000      8.1298     12.0725    123.0712      2.4508     -0.0257
  1561.2000      8.0972      9.7818    125.3494      2.4886     -0.0066
  1561.3000      8.0632      7.4755    126.3226      2.5267      0.0138
  1561.4000      8.0317      5.8717    125.0666      2.5531      0.0253
  1561.5000      8.0051      4.8920    122.1814      2.5693      0.0288
  1561.6000      7.9840      4.8533    117.8565      2.5699      0.0292
  1561.7000      7.9682      5.2441    112.9754      2.5635      0.0368
  1561.8000      7.9569      5.6210    110.1819      2.5573      0.0451
  1561.9000      7.9491      6.1916    111.4352      2.5478      0.0413
  1562.0000      7.9442      6.2502    114.6327      2.5469      0.0337
  1562.1000      7.9415      6.0382    115.8321      2.5504      0.0271
  1562.2000      7.9402      6.5400    113.7503      2.5421      0.0175
  1562.3000      7.9397      7.0552    111.3709      2.5336      0.0141
  1562.4000      7.9396      6.8204    112.4426      2.5375      0.0200
  1562.5000      7.9397      6.4693    115.4296      2.5433      0.0248
  1562.6000      7.9398      5.9173    116.0117      2.5524      0.0304
  1562.7000      7.9400      4.4760    113.5046      2.5761      0.0417
  1562.8000      7.9403      3.4614    110.2769      2.5929      0.0454
  1562.9000      7.9405      4.1888    109.5366      2.5809      0.0320
  1563.0000      7.9408      6.2538    111.1376      2.5468      0.0100
  1563.1000      7.9412      7.9997    110.8179      2.5180     -0.0007
  1563.2000      7.9418      8.0708    106.8437      2.5168      0.0082
  1563.3000      7.9428      6.6182    103.2501      2.5408      0.0266
  1563.4000      7.9441      5.2638    103.4019      2.5631      0.0355
  1563.5000      7.9456      5.3883    107.2903      2.5611      0.0216
  1563.6000      7.9473      5.9843    113.0096      2.5513      0.0028
  1563.7000      7.9488      5.8325    117.0404      2.5538      0.0038
  1563.8000      7.9500      5.3744    118.7923      2.5613      0.0169
  1563.9000      7.9510      4.8961    119.5370      2.5692      0.0273
  1564.0000      7.9518      4.5352    119.9232      2.5752      0.0332
  1564.1000      7.9526      4.7703    120.4746      2.5713      0.0347
  1564.2000      7.9533      5.6533    121.3728      2.5567      0.0333
  1564.3000      7.9543      6.1143    121.0154      2.5491      0.0344
  1564.4000      7.9555      4.9474    119.3974      2.5684      0.0451
  1564.5000      7.9572      3.2307    118.5955      2.5967      0.0583
  1564.6000      7.9595      2.8606    119.1626      2.6028      0.0600
  1564.7000      7.9627      4.1937    121.0309      2.5808      0.0493
  1564.8000      7.9666      6.2732    122.8276      2.5465      0.0324
  1564.9000      7.9713      8.0670    121.5380      2.5169      0.0136
  1565.0000      7.9767      9.3128    119.5735      2.4963     -0.0013
