~Version Information
VERS.                      2.0: CWLS Log ASCII Standard - VERSION 2.0
WRAP.                       NO: One line per depth step
~Well Information Block
STRT.FT               784.0000: 
STOP.FT              1033.0000: 
STEP.FT                 0.1000: 
NULL.                -999.2500: 
COMP.          Pioneer Natural Resources: COMPANY
WELL.          Run-Away-Train 43-26: WELL
FLD.           Purgatoire River: FIELD
LOC.           1693' FSL & 1195' FEL: LOCATION
PROV.                 Colorado: PROVINCE
CNTY.               Las Animas: COUNTRY
SRVC.                Patterson: SERVICE COMPANY
DATE.          Wed Apr 06 07:23:28 2005: LOG DATE
UWI.           05 071 08188 00: UNIQUE WELL ID
~Curve Information Block
DEPT.FT            0 000 00 00: Depth
DCAL.in                       : CDL Caliper
RHOB.g/cc                     : CDL Bulk Density
RHOC.g/cc                     : CDL Density Correction
DPOR.pu                       : CDL Density Porosity
GR.GAPI                       : Gamma Ray
NPOR.pu                       : Neutron Porosity
~Parameter Information Block
~A  Depth       DCAL        RHOB        RHOC        DPOR         GR         NPOR    
# ...
   841.6000      8.3256      1.7170      0.0579     56.5467     63.2450     18.5499
   841.7000      8.3256      1.8253      0.1251     49.9791     65.4766     20.3031
   841.8000      8.1809      1.9550      0.2385     42.1242     64.1925     21.5285
   841.9000      8.1809      2.0789      0.2769     34.6117     63.8000     22.3085
   842.0000      8.1924      2.1928      0.2426     27.7085     64.5571     23.1742
   842.1000      8.1924      2.3135      0.2557     20.3921     64.2450     24.4446
   842.2000      8.1924      2.4248      0.2494     13.6499     64.4916     25.6437
   842.3000      8.1928      2.4903      0.2663      9.6779     66.2225     26.1995
   842.4000      8.1928      2.5131      0.1665      8.2999     69.6070     26.2939
   842.5000      8.1009      2.5294      0.1289      7.3104     75.1372     26.4758
   842.6000      8.1009      2.5509      0.1693      6.0055     79.9641     26.6343
   842.7000      8.1009      2.5706      0.1091      4.8106     80.4339     26.4402
   842.8000      7.8990      2.5964      0.1310      3.2475     79.7416     25.8977
   842.9000      7.8990      2.6276      0.1708      1.3554     81.7944     25.2163
   843.0000      7.8668      2.6423      0.1868      0.4645     83.5456     24.6200
   843.1000      7.8668      2.6220      0.1676      1.6941     82.4697     24.0780
   843.2000      7.8668      2.5781      0.0919      4.3560     81.6828     23.5057
   843.3000      7.8667      2.5444      0.0786      6.3989     81.8216     23.0358
   843.4000      7.8667      2.5322      0.0632      7.1378     80.2896     22.8636
   843.5000      7.8535      2.5214      0.0561      7.7941     79.8588     22.9401
   843.6000      7.8535      2.4954      0.0696      9.3675     84.4778     23.0477
   843.7000      7.8535      2.4585      0.0224     11.6077     88.8502     23.2105
   843.8000      7.8371      2.4193      0.0398     13.9839     88.7153     23.5783
   843.9000      7.8371      2.3771      0.0168     16.5387     87.4942     23.8714
   844.0000      7.8763      2.3439     -0.0812     18.5528     87.9475     23.5036
   844.1000      7.8763      2.3428      0.0029     18.6198     91.0458     22.3991
   844.2000      7.8763      2.3728     -0.0049     16.8024     96.7985     21.5189
   844.3000      7.9101      2.4096      0.0470     14.5675    103.0895     21.6016
   844.4000      7.9101      2.4387      0.0130     12.8090    107.9942     22.0505
   844.5000      7.9093      2.4685      0.0774     11.0023    112.7385     22.1237
   844.6000      7.9093      2.5008      0.1460      9.0421    118.4553     22.0411
   844.7000      7.9093      2.5146      0.1304      8.2057    120.7848     22.3442
   844.8000      7.9201      2.4938      0.1694      9.4691    117.0273     23.0442
   844.9000      7.9201      2.4463      0.1353     12.3462    111.1406     23.7208
   845.0000      7.8878      2.4014      0.0783     15.0688    108.0149     24.2945
   845.1000      7.8878      2.3852      0.0818     16.0493    110.3751     24.8745
   845.2000      7.8878      2.3982      0.0943     15.2590    114.7113     25.2235
   845.3000      7.8816      2.4268      0.0845     13.5266    114.4714     25.2870
   845.4000      7.8816      2.4681      0.0710     11.0261    112.6523     25.3220
   845.5000      7.8900      2.5266      0.1102      7.4784    112.1406     25.3539
   845.6000      7.8900      2.5884      0.2139      3.7307    106.4719     25.2642
   845.7000      7.8900      2.6296      0.1793      1.2342     95.4360     25.0813
   845.8000      7.9040      2.6487      0.1927      0.0808     88.6543     24.8177
   845.9000      7.9040      2.6591      0.1646     -0.5486     89.4881     24.5159
   846.0000      7.8601      2.6530      0.1906     -0.1802     91.3505     24.4946
   846.1000      7.8601      2.6061      0.1145      2.6627     90.2914     24.7332
   846.2000      7.8601      2.5267      0.0648      7.4709     88.6023     24.5909
   846.3000      7.8439      2.4588     -0.0158     11.5867     87.5823     23.8567
   846.4000      7.8439      2.4411     -0.0702     12.6588     86.1105     22.9434
   846.5000      7.8745      2.4648      0.0046     11.2228     83.7416     22.2268
   846.6000      7.8745      2.4910     -0.0048      9.6359     80.6831     21.9448
   846.7000      7.8745      2.5058      0.0170      8.7398     79.0735     22.0370
   846.8000      7.9086      2.5137      0.0434      8.2634     82.6083     22.1062
   846.9000      7.9086      2.5144      0.0638      8.2195     91.9925     22.1171
   847.0000      7.9239      2.5069      0.0782      8.6747    100.8615     22.3062
   847.1000      7.9239      2.4941      0.0813      9.4476    101.7527     22.5102
   847.2000      7.9239      2.4860      0.0741      9.9410     97.2336     22.6291
   847.3000      7.9213      2.4898      0.0958      9.7104     95.7219     22.8979
   847.4000      7.9213      2.4990      0.0979      9.1495     99.2030     23.3846
   847.5000      7.9074      2.5044      0.0645      8.8237    104.6903     23.8416
   847.6000      7.9074      2.4989      0.0927      9.1580    109.7393     24.1342
   847.7000      7.9074      2.4751      0.0860     10.6018    110.5201     24.3677
   847.8000      7.9018      2.4469      0.0371     12.3069    106.8454     24.4545
   847.9000      7.9018      2.4451      0.0518     12.4165    104.7795     24.3317
   848.0000      7.9015      2.4729      0.0703     10.7332    106.4746     24.0426
   848.1000      7.9015      2.5028      0.0999      8.9230    108.8586     23.6218
   848.2000      7.9015      2.5089      0.1182      8.5505    110.6850     23.3607
   848.3000      7.9069      2.4956      0.0607      9.3547    114.0665     23.6160
   848.4000      7.9069      2.4914      0.0447      9.6102    117.2598     24.3106
   848.5000      7.9103      2.5022      0.1218      8.9587    114.9495     24.9065
   848.6000      7.9103      2.5101      0.0551      8.4786    110.0268     24.9807
   848.7000      7.9103      2.5115      0.1071      8.3966    107.0800     24.8476
   848.8000      7.9108      2.5108      0.0604      8.4340    105.5964     25.0420
   848.9000      7.9108      2.5114      0.0655      8.4004    105.7343     25.3708
   849.0000      7.8942      2.5162      0.0582      8.1111    106.6026     25.4432
   849.1000      7.8942      2.5235      0.1001      7.6687    105.9237     25.5152
   849.2000      7.8942      2.5257      0.1063      7.5315    104.6835     25.5695
   849.3000      7.8850      2.5202      0.0750      7.8669    101.9995     25.0510
   849.4000      7.8850      2.5066      0.1083      8.6898     97.0832     24.0926
   849.5000      7.8831      2.4849      0.0392     10.0083     95.6928     23.5230
   849.6000      7.8831      2.4671      0.0152     11.0828     98.7730     23.6787
   849.7000      7.8831      2.4636      0.0574     11.2966    102.8711     23.9219
   849.8000      7.8783      2.4667      0.0476     11.1075    108.4820     23.7506
   849.9000      7.8783      2.4690      0.0716     10.9696    113.7249     23.4059
   850.0000      7.8909      2.4711      0.1036     10.8400    116.3329     22.9107
   850.1000      7.8909      2.4696      0.0666     10.9305    117.5053     22.0749
   850.2000      7.8909      2.4553      0.0763     11.8022    114.9738     21.1841
   850.3000      7.8670      2.4193      0.0777     13.9843    107.4162     20.3679
   850.4000      7.8670      2.3577      0.0730     17.7176    100.5064     19.2306
   850.5000      7.8546      2.2734      0.0233     22.8222     99.4089     17.6743
   850.6000      7.8546      2.1755     -0.0118     28.7590    100.7006     16.1242
   850.7000      7.8546      2.0702     -0.0319     35.1402     99.0574     14.9080
   850.8000      7.8608      1.9627     -0.0727     41.6526     94.0882     14.0409
   850.9000      7.8608      1.8690     -0.0804     47.3330     88.1409     13.3837
   851.0000      7.8805      1.7958     -0.0201     51.7707     82.8588     12.7290
   851.1000      7.8805      1.7248     -0.0296     56.0722     79.1499     11.9769
