~Version Information
VERS.                      2.0: CWLS Log ASCII Standard - VERSION 2.0
WRAP.                       NO: One line per depth step
~Well Information Block
STRT.FT               456.0000: 
STOP.FT              1703.0000: 
STEP.FT                 0.2500: 
NULL.                -999.2500: 
COMP.          Pioneer Natural Resources: COMPANY
WELL.                Mead 11-9: WELL
FLD.           Purgatoire River: FIELD
LOC.           1127' FNL & 668' FWL: LOCATION
PROV.                 Colorado: PROVINCE
CNTY.               Las Animas: COUNTRY
SRVC.                Patterson: SERVICE COMPANY
DATE.          Fri Feb 18 16:14:34 2005: LOG DATE
UWI.           05 071 08160 00: UNIQUE WELL ID
~Curve Information Block
DEPT.FT            0 000 00 00: Depth
SN.Ohm-m                      : IEL Short Normal
SP.mV                         : IEL Spontaneous Potential
DIR.Ohm-m                     : IEL Induction Resistivity
GR.GAPI                       : Gamma Ray
~Parameter Information Block
~A  Depth        SN          SP         DIR          GR     
# ...
  1427.5000     16.8155   -103.8236     13.2579     90.5772
  1427.7500     15.7529   -103.4747     13.0723     92.5826
  1428.0000     15.0388   -103.1216     12.9652     93.1477
  1428.2500     14.6089   -102.8270     12.9556     92.2612
  1428.5000     14.4630   -102.6459     13.0579     90.4466
  1428.7500     14.6429   -102.6059     13.2806     89.3943
  1429.0000     15.2415   -102.6959     13.6248     87.3691
  1429.2500     16.3589   -102.8616     14.0811     84.7138
  1429.5000     17.9503   -103.0093     14.6297     77.4132
  1429.7500     19.8498   -103.0355     15.2466     70.3733
  1430.0000     22.1005   -102.8735     15.9160     58.1200
  1430.2500     25.2896   -102.5215     16.6396     50.1152
  1430.5000     30.5599   -102.0239     17.4363     40.0528
  1430.7500     39.0535   -101.4238     18.3345     35.0007
  1431.0000     50.9874   -100.7349     19.3574     29.6203
  1431.2500     65.1045    -99.9520     20.4990     27.1362
  1431.5000     78.8707    -99.0769     21.6865     24.6297
  1431.7500     89.4783    -98.1293     22.7467     23.7333
  1432.0000     95.1590    -97.1369     23.4272     23.8528
  1432.2500     95.4514    -96.1267     23.5069     25.2469
  1432.5000     90.5487    -95.1255     22.9273     29.8120
  1432.7500     81.2272    -94.1559     21.8178     34.4377
  1433.0000     69.1928    -93.2164     20.3996     42.8334
  1433.2500     56.4973    -92.2719     18.8790     48.7439
  1433.5000     44.5534    -91.2834     17.4010     57.6002
  1433.7500     34.1951    -90.2551     16.0470     63.6469
  1434.0000     26.0532    -89.2484     14.8503     73.1037
  1434.2500     20.3519    -88.3503     13.8134     79.3011
  1434.5000     16.8656    -87.6294     12.9246     87.2039
  1434.7500     15.1425    -87.1092     12.1688     90.9228
  1435.0000     14.5868    -86.7626     11.5313     93.7453
  1435.2500     14.5843    -86.5293     10.9984     93.8423
  1435.5000     14.7058    -86.3456     10.5572     91.8820
  1435.7500     14.7685    -86.1720     10.1960     89.8625
  1436.0000     14.7482    -86.0000      9.9063     87.2270
  1436.2500     14.6793    -85.8450      9.6836     86.2927
  1436.5000     14.6135    -85.7306      9.5289     85.9817
  1436.7500     14.5990    -85.6738      9.4493     85.8724
  1437.0000     14.6477    -85.6755      9.4577     84.6261
  1437.2500     14.7230    -85.7181      9.5691     82.7573
  1437.5000     14.7823    -85.7738      9.7961     78.9846
  1437.7500     14.8347    -85.8178     10.1425     76.5953
  1438.0000     14.9479    -85.8352     10.5980     74.2685
  1438.2500     15.2008    -85.8206     11.1375     73.6614
  1438.5000     15.6318    -85.7771     11.7257     73.4771
  1438.7500     16.2178    -85.7187     12.3252     73.1121
  1439.0000     16.9012    -85.6723     12.9013     70.8701
  1439.2500     17.6711    -85.6717     13.4197     67.8289
  1439.5000     18.6419    -85.7450     13.8458     61.3178
  1439.7500     20.0423    -85.9015     14.1543     56.2656
  1440.0000     22.0595    -86.1191     14.3448     48.4770
  1440.2500     24.5553    -86.3329     14.4471     43.5696
  1440.5000     26.8747    -86.4355     14.5078     37.8343
  1440.7500     28.0658    -86.3033     14.5680     36.0527
  1441.0000     27.5007    -85.8444     14.6481     37.6102
  1441.2500     25.3993    -85.0471     14.7453     41.3890
  1441.5000     22.7065    -83.9999     14.8397     49.7651
  1441.7500     20.3885    -82.8654     14.9027     56.0328
  1442.0000     18.8493    -81.8182     14.9044     64.7555
  1442.2500     17.9511    -80.9778     14.8193     69.4117
  1442.5000     17.3907    -80.3773     14.6340     74.0513
  1442.7500     16.9716    -79.9783     14.3577     75.6390
  1443.0000     16.6422    -79.7104     14.0279     76.5158
  1443.2500     16.4247    -79.5069     13.7031     76.6860
  1443.5000     16.3441    -79.3219     13.4448     76.8997
  1443.7500     16.3944    -79.1293     13.2979     76.9252
  1444.0000     16.5473    -78.9165     13.2815     76.3696
  1444.2500     16.7818    -78.6801     13.3918     75.5641
  1444.5000     17.0853    -78.4298     13.6117     73.9398
  1444.7500     17.4178    -78.1923     13.9206     72.6165
  1445.0000     17.7092    -78.0032     14.2978     70.0557
  1445.2500     17.9233    -77.8891     14.7198     67.9061
  1445.5000     18.0970    -77.8499     15.1549     64.3752
  1445.7500     18.3020    -77.8604     15.5610     62.1773
  1446.0000     18.5862    -77.8861     15.8926     59.5073
  1446.2500     18.9576    -77.9017     16.1159     58.1447
  1446.5000     19.3872    -77.8989     16.2216     56.5892
  1446.7500     19.7969    -77.8844     16.2245     55.8454
  1447.0000     20.0816    -77.8742     16.1519     55.1489
  1447.2500     20.1882    -77.8865     16.0312     54.9276
  1447.5000     20.1556    -77.9344     15.8849     54.8895
  1447.7500     20.0611    -78.0220     15.7289     55.0317
  1448.0000     19.9328    -78.1502     15.5701     55.4886
  1448.2500     19.7208    -78.3248     15.4034     55.9984
  1448.5000     19.3488    -78.5589     15.2143     57.2297
  1448.7500     18.7835    -78.8616     14.9877     58.4612
  1449.0000     18.0550    -79.2204     14.7175     60.8997
  1449.2500     17.2312    -79.5950     14.4078     62.6686
  1449.5000     16.4077    -79.9322     14.0632     64.7832
  1449.7500     15.7335    -80.1930     13.6778     65.5040
  1450.0000     15.3957    -80.3706     13.2324     65.5772
  1450.2500     15.5196    -80.4865     12.7044     65.1499
  1450.5000     16.0857    -80.5765     12.0845     63.8806
  1450.7500     16.9495    -80.6754     11.3863     62.5152
  1451.0000     17.8964    -80.8047     10.6461     59.7200
  1451.2500     18.6989    -80.9643      9.9127     57.5953
  1451.5000     19.2215    -81.1350      9.2368     54.5729
  1451.7500     19.4854    -81.2951      8.6622     52.9370
  1452.0000     19.6022    -81.4362      8.2245     51.2312
  1452.2500     19.6760    -81.5654      7.9572     50.4801
  1452.5000     19.7661    -81.6988      7.9049     49.5260
  1452.7500     19.8844    -81.8573      8.1466     48.8040
  1453.0000     20.0107    -82.0632      8.8387     47.3734
  1453.2500     20.1270    -82.3348     10.3319     46.0994
  1453.5000     20.2456    -82.6814     13.5842     43.8253
  1453.7500     20.3999    -83.1062     22.4065     42.4143
  1454.0000     20.6192    -83.6129     83.2596     41.2766
  1454.2500     20.9116    -84.2101 100000.0000     41.4187
  1454.5000     21.2471    -84.9185 100000.0000     42.6825
  1454.7500     21.5747    -85.7824 100000.0000     43.8467
  1455.0000     21.8873    -86.8708 100000.0000     45.5945
  1455.2500     22.2264    -88.2611 100000.0000     46.5362
  1455.5000     22.6129    -90.0177 100000.0000     46.9983
  1455.7500     23.0566    -92.1763 100000.0000     46.2972
  1456.0000     23.6097    -94.7420 100000.0000     43.7080
  1456.2500     24.3085    -97.7061 100000.0000     41.4750
  1456.5000     25.1116   -101.0798 100000.0000     38.7272
  1456.7500     25.9441   -104.9243 100000.0000     37.8860
  1457.0000     26.7324   -109.3580 100000.0000     38.1600
  1457.2500     27.3885   -114.5471 100000.0000     38.9756
  1457.5000     27.8321   -120.7022 100000.0000     40.5730
  1457.7500     28.0750   -128.0954 100000.0000     41.8384
  1458.0000     28.3018   -137.0751 100000.0000     44.0675
  1458.2500     28.8183   -148.0498 100000.0000     45.5517
  1458.5000     29.8344   -161.4188 100000.0000     47.0177
  1458.7500     31.2852   -177.4906 100000.0000     47.1759
  1459.0000     32.8882   -196.3914 100000.0000     46.2668
  1459.2500     34.3417   -217.7966 100000.0000     45.1113
  1459.5000     35.3624   -240.3950      3.9830     42.7436
  1459.7500     35.4541   -261.6569      1.3539     40.8382
  1460.0000     33.8465   -278.7312      0.6437     37.9435
  1460.2500     30.0063   -290.0662      0.3369     36.2979
  1460.5000     24.2123   -296.1633      0.1777     34.4934
  1460.7500     17.4956   -298.7906      0.0943     33.7897
