~Version Information
VERS.                      2.0: CWLS Log ASCII Standard - VERSION 2.0
WRAP.                       NO: One line per depth step
~Well Information Block
STRT.FT               491.0000: 
STOP.FT              1055.5000: 
STEP.FT                 0.1000: 
NULL.                -999.2500: 
COMP.          Evergreen Operating Corporation: COMPANY
WELL.              Sunset 24-3: WELL
FLD.           Purgatorie River: FIELD
LOC.           467' FSL & 2262' FWL: LOCATION
PROV.                 Colorado: PROVINCE
CNTY.               Las Animas: COUNTRY
SRVC.                         : SERVICE COMPANY
DATE.          Wed Sep 22 14:05:09 2004: LOG DATE
UWI.           05 071 08158 00: UNIQUE WELL ID
~Curve Information Block
DEPT.FT            0 000 00 00: Depth
DCAL.in                       : CDL Caliper
RHOB.g/cc                     : CDL Bulk Density
RHOC.g/cc                     : CDL Density Correction
DPOR.pu                       : CDL Density Porosity
GR.GAPI                       : Gamma Ray
NPOR.pu                       : Neutron Porosity
~Parameter Information Block
~A  Depth       DCAL        RHOB        RHOC        DPOR         GR         NPOR    
   491.0000      2.6788      2.3564      0.1802     17.7946     80.7509     18.7495
   491.1000      2.6788      2.3575      0.1400     17.7274     88.9680     17.9842
   491.2000      2.6788      2.3561      0.1431     17.8105     96.4362     17.7593
   491.3000      2.6784      2.3551      0.1437     17.8703    101.4209     18.9238
   491.4000      2.6784      2.3559      0.1141     17.8239    105.8060     20.4032
   491.5000      2.6807      2.3636      0.1225     17.3570    108.3607     20.2438
   491.6000      2.6807      2.3725      0.1468     16.8205    106.8138     19.1140
   491.7000      2.6807      2.3741      0.1556     16.7206    102.8753     18.6985
   491.8000      2.6777      2.3770      0.1358     16.5448     98.5404     19.2164
   491.9000      2.6777      2.3905      0.1437     15.7256     93.0646     19.9584
   492.0000      2.6786      2.4068      0.1713     14.7364     87.8511     19.9785
   492.1000      2.6786      2.4166      0.1354     14.1464     88.5185     19.1438
   492.2000      2.6786      2.4191      0.1753     13.9964     92.5436     18.1992
   492.3000      2.6782      2.4145      0.1628     14.2743     89.5587     17.8163
   492.4000      2.6782      2.4039      0.1617     14.9160     81.3640     18.0009
   492.5000      2.6792      2.3949      0.1198     15.4634     80.2148     18.3343
   492.6000      2.6792      2.3971      0.1566     15.3284     87.2373     18.4282
   492.7000      2.6792      2.4095      0.1752     14.5771     95.5633     18.3553
   492.8000      2.6798      2.4245      0.1622     13.6670    102.7141     18.3350
   492.9000      2.6798      2.4335      0.1652     13.1198    106.5541     18.4050
   493.0000      2.6776      2.4290      0.1773     13.3968    106.3738     18.4990
   493.1000      2.6776      2.4164      0.1500     14.1594    104.8829     18.9778
   493.2000      2.6776      2.4068      0.1561     14.7424    101.5078     20.9572
   493.3000      2.6782      2.3995      0.1270     15.1838     94.8996     23.8453
   493.4000      2.6782      2.3921      0.1290     15.6319     89.0125     25.3360
   493.5000      2.6780      2.3881      0.1383     15.8757     87.0853     25.1511
   493.6000      2.6780      2.3946      0.1252     15.4787     88.3389     24.3026
   493.7000      2.6780      2.4146      0.1343     14.2694     92.9846     22.6648
   493.8000      2.6775      2.4351      0.1729     13.0227    100.0758     20.7282
   493.9000      2.6775      2.4466      0.1550     12.3299    104.1435     20.3080
   494.0000      2.6769      2.4550      0.1756     11.8182    105.6093     21.6181
   494.1000      2.6769      2.4624      0.1751     11.3693    109.9029     22.4483
   494.2000      2.6769      2.4639      0.1515     11.2760    113.1249     21.7715
   494.3000      2.6778      2.4572      0.1491     11.6865    109.1696     21.1397
   494.4000      2.6778      2.4399      0.1728     12.7317    103.2215     21.5943
   494.5000      2.6752      2.4156      0.1358     14.2057    103.6208     22.3300
   494.6000      2.6752      2.3975      0.1308     15.3040    106.8632     22.6133
   494.7000      2.6752      2.3954      0.1314     15.4332    104.1309     22.2175
   494.8000      2.6777      2.4044      0.1646     14.8875     99.0238     21.1499
   494.9000      2.6777      2.4113      0.1518     14.4640    102.9471     20.2179
   495.0000      2.6789      2.4110      0.1458     14.4845    114.7486     19.8406
   495.1000      2.6789      2.4089      0.1426     14.6119    119.3744     19.6036
   495.2000      2.6789      2.4107      0.1326     14.5019    115.3410     19.4920
   495.3000      2.6776      2.4129      0.1544     14.3668    114.6203     20.0965
   495.4000      2.6776      2.4125      0.1323     14.3920    115.6812     21.2707
   495.5000      2.6790      2.4139      0.1449     14.3072    113.4166     22.0052
   495.6000      2.6790      2.4190      0.1352     13.9989    112.8034     21.6546
   495.7000      2.6790      2.4233      0.1631     13.7394    112.8926     20.1689
   495.8000      2.6763      2.4201      0.1586     13.9357    106.9446     18.5064
   495.9000      2.6763      2.4108      0.1248     14.4994     99.6298     17.8996
   496.0000      2.6767      2.4029      0.1326     14.9728    100.3579     18.7643
   496.1000      2.6767      2.3992      0.1202     15.1985    108.7436     20.6104
   496.2000      2.6767      2.3962      0.1406     15.3837    118.8840     23.0220
   496.3000      2.6780      2.3892      0.1403     15.8062    124.2940     25.1049
   496.4000      2.6780      2.3833      0.1229     16.1618    125.4592     24.6536
   496.5000      2.6794      2.3867      0.1267     15.9559    127.1715     22.2164
   496.6000      2.6794      2.3943      0.1396     15.4993    128.1011     20.9117
   496.7000      2.6794      2.3982      0.1470     15.2581    125.8391     21.8081
   496.8000      2.6785      2.4054      0.1207     14.8234    123.2170     23.4805
   496.9000      2.6785      2.4228      0.1754     13.7726    124.0637     24.0924
   497.0000      2.6790      2.4456      0.1510     12.3877    129.6518     22.8483
   497.1000      2.6790      2.4770      0.1899     10.4852    136.8823     20.6999
   497.2000      2.6790      2.5494      0.1536      6.0971    135.3614     19.5505
   497.3000      3.1961      2.7058      0.1901     -3.3792    120.6120     20.2735
   497.4000      3.1961      2.9143      0.2940    -16.0187    103.4131     22.0551
   497.5000      7.0976      3.0724      0.3477    -25.6029     96.7271     23.0148
   497.6000      7.0976      3.1409      0.3086    -29.7518    105.3046     22.0870
   497.7000      7.0976      3.1461      0.3214    -30.0676    122.3330     20.3735
   497.8000      8.1048      3.0717      0.3122    -25.5588    134.2646     19.5177
   497.9000      8.1048      2.8757      0.2136    -13.6778    132.8797     19.7153
   498.0000      8.1701      2.6075     -0.4394      2.5786    122.3032     20.3001
   498.1000      8.1701      2.3945     -0.5806     15.4854    112.1745     21.1166
   498.2000      8.1701      2.2891     -0.5949     21.8705    108.9493     21.8416
   498.3000      8.1727      2.2595     -0.6040     23.6677    110.3599     21.4887
   498.4000      8.1727      2.2674     -0.5379     23.1864    110.0241     19.9985
   498.5000      8.1730      2.2894     -0.5719     21.8522    105.8942     18.6587
   498.6000      8.1730      2.3171     -0.5573     20.1746     99.1330     18.4827
   498.7000      8.1730      2.3423     -0.5647     18.6476     93.3530     19.1207
   498.8000      8.1721      2.3569     -0.5468     17.7621     90.9557     19.2991
   498.9000      8.1721      2.3588     -0.5179     17.6459     90.2083     19.0319
   499.0000      8.1728      2.3492     -0.5666     18.2304     89.1199     19.1904
   499.1000      8.1728      2.3320     -0.5605     19.2745     88.1670     19.6915
   499.2000      8.1728      2.3131     -0.5734     20.4176     85.0337     20.0445
   499.3000      8.1717      2.3045     -0.6058     20.9411     77.8251     20.2808
   499.4000      8.1717      2.3118     -0.6165     20.4955     69.7669     20.7270
   499.5000      8.1723      2.3166     -0.5620     20.2031     63.7992     21.3448
   499.6000      8.1723      2.3034     -0.5857     21.0041     62.3927     21.6760
   499.7000      8.1723      2.2916     -0.6059     21.7238     66.4735     21.4949
   499.8000      8.1714      2.3008     -0.5494     21.1644     74.5852     21.3238
   499.9000      8.1714      2.3158     -0.5484     20.2531     84.0357     20.9714
   500.0000      8.1735      2.3140     -0.5503     20.3664     90.6900     20.4953
   500.1000      8.1735      2.2954     -0.5683     21.4903     93.1531     21.2465
   500.2000      8.1735      2.2747     -0.5352     22.7452     95.8591     23.1394
   500.3000      8.1724      2.2619     -0.5724     23.5235    101.3604     24.5817
   500.4000      8.1724      2.2549     -0.5643     23.9425    108.9423     25.2356
   500.5000      8.1720      2.2515     -0.5924     24.1542    116.2984     25.8743
