~Version Information
VERS.                      2.0: CWLS Log ASCII Standard - VERSION 2.0
WRAP.                       NO: One line per depth step
~Well Information Block
STRT.FT               475.0000: 
STOP.FT              2336.7000: 
STEP.FT                 0.1000: 
NULL.                -999.2500: 
COMP.          Pioneer Natural Resources: COMPANY
WELL.              Bobsy 34-11: WELL
FLD.           Purgatoire River: FIELD
LOC.           1937' FEL & 451' FSL----: LOCATION
PROV.                 Colorado: PROVINCE
CNTY.               Las Animas: COUNTRY
SRVC.                Patterson: SERVICE COMPANY
DATE.          Fri Apr 08 11:07:54 2005: LOG DATE
UWI.           05 071 08330 00: UNIQUE WELL ID
~Curve Information Block
DEPT.FT            0 000 00 00: Depth
DCAL.in                       : CDL Caliper
RHOB.g/cc                     : CDL Bulk Density
RHOC.g/cc                     : CDL Density Correction
DPOR.pu                       : CDL Density Porosity
NPOR.pu                       : Neutron Porosity
GR.GAPI                       : Gamma Ray
~Parameter Information Block
~A  Depth       DCAL        RHOB        RHOC        DPOR        NPOR         GR     
   475.0000      8.1010      2.5243     -0.2223      7.6197     48.6364     79.8025
   475.1000      8.1010      2.5000     -0.2600      9.0923     48.6624     81.6965
   475.2000      8.1010      2.5050     -0.2456      8.7865     48.1469     80.8343
   475.3000      8.0997      2.5291     -0.2198      7.3259     47.9047     75.9974
   475.4000      8.0997      2.5540     -0.1934      5.8195     48.1878     74.0132
   475.5000      8.0995      2.5579     -0.1265      5.5818     48.4749     77.1829
   475.6000      8.0995      2.5271     -0.1790      7.4469     48.3866     82.3014
   475.7000      8.0995      2.4835     -0.2612     10.0921     48.0584     85.1295
   475.8000      8.1002      2.4607     -0.2784     11.4724     47.6397     82.8464
   475.9000      8.1002      2.4667     -0.2628     11.1061     47.3211     78.3369
   476.0000      8.1011      2.4864     -0.2106      9.9159     47.3528     76.5802
   476.1000      8.1011      2.4962     -0.1860      9.3241     47.4796     76.5885
   476.2000      8.1011      2.4960     -0.2796      9.3334     47.3664     77.3281
   476.3000      8.1056      2.5075     -0.2457      8.6353     47.0049     83.1724
   476.4000      8.1056      2.5211     -0.1474      7.8093     46.4372     93.8603
   476.5000      8.1128      2.5038     -0.1849      8.8625     45.9103    103.3552
   476.6000      8.1128      2.4541     -0.2383     11.8754     45.6790    110.1783
   476.7000      8.1128      2.4005     -0.2576     15.1197     45.4762    113.7268
   476.8000      8.1201      2.3486     -0.2196     18.2662     44.9326    113.1331
   476.9000      8.1201      2.2887     -0.2728     21.8958     44.0671    108.6545
   477.0000      8.1250      2.2506     -0.3596     24.2078     42.9437     99.4343
   477.1000      8.1250      2.2622     -0.2808     23.5010     41.5089     90.5067
   477.2000      8.1250      2.2973     -0.2391     21.3777     39.6837     89.5813
   477.3000      8.1251      2.3194     -0.2359     20.0381     37.2686     95.2747
   477.4000      8.1251      2.3189     -0.2145     20.0681     34.3825     98.7650
   477.5000      8.1234      2.2998     -0.1630     21.2269     31.4876     95.2343
   477.6000      8.1234      2.2736     -0.2184     22.8120     28.6333     89.7618
   477.7000      8.1234      2.2539     -0.1481     24.0057     25.8468     88.9038
   477.8000      8.1237      2.2468     -0.1771     24.4363     23.5988     91.6598
   477.9000      8.1237      2.2641     -0.0758     23.3889     22.0526     93.7081
   478.0000      8.1242      2.3027      0.0753     21.0509     21.0477     93.6824
   478.1000      8.1242      2.3352      0.1109     19.0802     20.7413     94.2762
   478.2000      8.1242      2.3507      0.0873     18.1414     21.0808     96.3781
   478.3000      8.1243      2.3612      0.1191     17.5041     21.3615     96.3839
   478.4000      8.1243      2.3737      0.1560     16.7455     20.9327     95.6513
   478.5000      8.1245      2.3880      0.1541     15.8797     19.8112     97.9505
   478.6000      8.1245      2.4002      0.1662     15.1395     18.7601    102.0702
   478.7000      8.1245      2.3977      0.1644     15.2910     18.4787    106.9557
   478.8000      8.1250      2.3778      0.1529     16.4980     18.9415    110.8687
   478.9000      8.1250      2.3587      0.1045     17.6525     19.6121    107.8895
   479.0000      8.1245      2.3581      0.1178     17.6907     20.0726     99.4388
   479.1000      8.1245      2.3766      0.1373     16.5715     20.5051     94.4375
   479.2000      8.1245      2.4047      0.1448     14.8639     21.2368     95.0750
   479.3000      8.1200      2.4316      0.1502     13.2373     22.3965     97.6861
   479.4000      8.1200      2.4463      0.1692     12.3466     23.4373    102.0743
   479.5000      8.1092      2.4449      0.1557     12.4333     23.5043    107.0574
   479.6000      8.1092      2.4404      0.1592     12.7022     22.9992    108.5892
   479.7000      8.1092      2.4432      0.1578     12.5355     22.8464    108.3446
   479.8000      8.0970      2.4435      0.1783     12.5155     23.0032    110.7479
   479.9000      8.0970      2.4339      0.1571     13.0978     23.0437    113.5898
   480.0000      8.0894      2.4217      0.1203     13.8334     22.9286    114.2817
   480.1000      8.0894      2.4169      0.1144     14.1296     22.7513    113.6731
   480.2000      8.0894      2.4203      0.1465     13.9213     22.6498    109.6500
   480.3000      8.0871      2.4281      0.1318     13.4466     22.8493    102.5159
   480.4000      8.0871      2.4404      0.1539     12.7033     23.2868     99.1399
   480.5000      8.0863      2.4543      0.1559     11.8584     23.6722    101.0470
   480.6000      8.0863      2.4614      0.1565     11.4275     23.9219    102.5564
   480.7000      8.0863      2.4543      0.1638     11.8591     24.0817    101.8361
   480.8000      8.0844      2.4367      0.1058     12.9254     23.8599    101.7106
   480.9000      8.0844      2.4208      0.1122     13.8933     23.1054    103.1223
   481.0000      8.0814      2.4134      0.1008     14.3374     22.4871    103.9512
   481.1000      8.0814      2.4169      0.1021     14.1285     22.4845    103.7365
   481.2000      8.0814      2.4252      0.1345     13.6223     22.8216    103.4746
   481.3000      8.0794      2.4236      0.1378     13.7186     23.2357    103.2232
   481.4000      8.0794      2.4072      0.1022     14.7178     23.6956    104.0527
   481.5000      8.0790      2.3939      0.0688     15.5194     24.2753    106.9263
   481.6000      8.0790      2.4060      0.1011     14.7873     24.7787    109.2239
   481.7000      8.0790      2.4388      0.1479     12.7975     24.7226    109.2814
   481.8000      8.0820      2.4642      0.1769     11.2591     23.8007    109.5771
   481.9000      8.0820      2.4602      0.1567     11.5018     22.2344    110.3699
   482.0000      8.0863      2.4335      0.1171     13.1219     21.0065    107.8169
   482.1000      8.0863      2.4076      0.1235     14.6910     20.8910    103.5419
   482.2000      8.0863      2.3952      0.1027     15.4434     21.5345    105.8253
   482.3000      8.0870      2.3912      0.1225     15.6870     21.8654    113.9830
   482.4000      8.0870      2.3831      0.1074     16.1751     21.5868    119.1582
   482.5000      8.0860      2.3665      0.1178     17.1840     21.3425    117.8762
   482.6000      8.0860      2.3470      0.0792     18.3618     21.3974    114.0704
   482.7000      8.0860      2.3309      0.0870     19.3379     21.1567    113.4767
   482.8000      8.0918      2.3146      0.0986     20.3299     20.3436    114.9583
   482.9000      8.0918      2.2931      0.0992     21.6278     19.5846    113.8403
   483.0000      8.1125      2.2708      0.1094     22.9809     19.6125    110.6349
   483.1000      8.1125      2.2554      0.1171     23.9146     20.3511    111.7216
   483.2000      8.1125      2.2473      0.1748     24.4085     20.8950    119.4679
   483.3000      8.1480      2.2417      0.1649     24.7447     20.8734    126.7784
   483.4000      8.1480      2.2446      0.1826     24.5719     20.7344    128.7034
   483.5000      8.1884      2.2649      0.2001     23.3422     20.6629    126.1413
   483.6000      8.1884      2.2993      0.2344     21.2553     20.6268    120.8849
   483.7000      8.1884      2.3319      0.2858     19.2801     21.0194    115.8517
   483.8000      8.2288      2.3545      0.2653     17.9101     22.0598    115.0343
   483.9000      8.2288      2.3764      0.2655     16.5798     23.1182    121.3262
   484.0000      8.2712      2.4044      0.2879     14.8823     23.4186    131.7505
   484.1000      8.2712      2.4377      0.2846     12.8692     23.1356    138.2581
   484.2000      8.2712      2.4759      0.2851     10.5497     23.2475    135.1065
   484.3000      8.3240      2.5154      0.2964      8.1557     24.1289    124.7300
   484.4000      8.3240      2.5456      0.3005      6.3266     25.2160    116.1307
   484.5000      8.3907      2.5566      0.3042      5.6582     25.9024    114.9200
