~Version Information
VERS.                      2.0: CWLS Log ASCII Standard - VERSION 2.0
WRAP.                       NO: One line per depth step
~Well Information Block
STRT.FT               -12.3000: 
STOP.FT              1768.7000: 
STEP.FT                 0.1000: 
NULL.                -999.2500: 
COMP.          Petrogulf Corporation: COMPANY
WELL.          Alexander 9-43R: WELL
FLD.           Purgatorie River: FIELD
LOC.           1652' FSL & 1049' FEL--: LOCATION
CNTY.               Las Animas: COUNTY
SRVC.                         : SERVICE COMPANY
DATE.          Tue Sep 28 14:27:54 2004: LOG DATE
UWI.                          : UNIQUE WELL ID
STAT.                       CO: STATE
~Curve Information Block
DEPT.FT            0 000 00 00: Depth
GR.GAPI                       : Gamma Ray
CCL.                          : Casing Collar Locator
TT3.usec                      : CBL 3' Travel Time
AMP3.mV                       : CBL 3' Amplitude
~Parameter Information Block
~A  Depth        GR         CCL         TT3         AMP3    
# ...
   925.7000     88.8154      0.0000    777.2875      9.3779
   925.8000     87.1101      0.0000    807.1437      9.9559
   925.9000     87.1101      0.0000    807.1437      9.9559
   926.0000     86.2889      0.0000    833.9037     10.6530
   926.1000     86.2889      0.0000    833.9037     10.6530
   926.2000     86.2889      0.0000    833.9037     10.6530
   926.3000     87.1329      0.0000    851.2634     11.3902
   926.4000     87.1329      0.0000    851.2634     11.3902
   926.5000     90.4511      0.0000    858.6000     12.1103
   926.6000     90.4511      0.0000    858.6000     12.1103
   926.7000     90.4511      0.0000    858.6000     12.1103
   926.8000     96.4144      0.0000    858.3800     12.8031
   926.9000     96.4144      0.0000    858.3800     12.8031
   927.0000    103.8818      0.0000    851.8604     13.4798
   927.1000    103.8818      0.0000    851.8604     13.4798
   927.2000    103.8818      0.0000    851.8604     13.4798
   927.3000    111.0413      0.0000    838.7130     14.1386
   927.4000    111.0413      0.0000    838.7130     14.1386
   927.5000    116.6794      0.0000    819.4337     14.7661
   927.6000    116.6794      0.0000    819.4337     14.7661
   927.7000    116.6794      0.0000    819.4337     14.7661
   927.8000    120.5522      0.0000    796.9671     15.3513
   927.9000    120.5522      0.0000    796.9671     15.3513
   928.0000    122.9178      0.0000    776.1409     15.8710
   928.1000    122.9178      0.0000    776.1409     15.8710
   928.2000    122.9178      0.0000    776.1409     15.8710
   928.3000    124.0292      0.0000    760.9730     16.2687
   928.4000    124.0292      0.0000    760.9730     16.2687
   928.5000    123.8423      0.0000    751.8762     16.4733
   928.6000    123.8423      0.0000    751.8762     16.4733
   928.7000    123.8423      0.0000    751.8762     16.4733
   928.8000    122.1397      0.0000    745.8071     16.4521
   928.9000    122.1397      0.0000    745.8071     16.4521
   929.0000    119.0958      0.0000    739.3873     16.2585
   929.1000    119.0958      0.0000    739.3873     16.2585
   929.2000    119.0958      0.0000    739.3873     16.2585
   929.3000    115.5226      0.0000    731.2484     16.0471
   929.4000    115.5226      0.0000    731.2484     16.0471
   929.5000    112.4416      0.0000    720.8014     16.0404
   929.6000    112.4416      0.0000    720.8014     16.0404
   929.7000    112.4416      0.0000    720.8014     16.0404
   929.8000    110.6859      0.0000    704.6910     16.4474
   929.9000    110.6859      0.0000    704.6910     16.4474
   930.0000    110.9574      0.0000    675.1287     17.3835
   930.1000    110.9574      0.0000    675.1287     17.3835
   930.2000    110.9574      0.0000    675.1287     17.3835
   930.3000    113.7649      0.0000    623.8176     18.8401
   930.4000    113.7649      0.0000    623.8176     18.8401
   930.5000    118.8130      0.0000    550.4409     20.7208
   930.6000    118.8130      0.0000    550.4409     20.7208
   930.7000    118.8130      0.0000    550.4409     20.7208
   930.8000    124.4902      0.0000    467.5474     22.9018
   930.9000    124.4902      0.0000    467.5474     22.9018
   931.0000    128.3260      0.0000    394.3121     25.2501
   931.1000    128.3260      0.0000    394.3121     25.2501
   931.2000    128.3260      0.0000    394.3121     25.2501
   931.3000    128.2767      0.0000    343.7944     27.5735
   931.4000    128.2767      0.0000    343.7944     27.5735
   931.5000    123.9638      0.0000    316.5907     29.5749
   931.6000    123.9638      0.0000    316.5907     29.5749
   931.7000    123.9638      0.0000    316.5907     29.5749
   931.8000    117.1807      0.0000    305.2888     30.9161
   931.9000    117.1807      0.0000    305.2888     30.9161
   932.0000    111.2476      0.0000    302.5114     31.3753
   932.1000    111.2476      0.0000    302.5114     31.3753
   932.2000    111.2476      0.0000    302.5114     31.3753
   932.3000    109.1811      0.0000    305.6299     30.9562
   932.4000    109.1811      0.0000    305.6299     30.9562
   932.5000    111.7603      0.0000    318.0095     29.8321
   932.6000    111.7603      0.0000    318.0095     29.8321
   932.7000    111.7603      0.0000    318.0095     29.8321
   932.8000    117.3940      0.0000    347.9585     28.1760
   932.9000    117.3940      0.0000    347.9585     28.1760
   933.0000    124.0870      0.0000    403.6826     26.0583
   933.1000    124.0870      0.0000    403.6826     26.0583
   933.2000    124.0870      0.0000    403.6826     26.0583
   933.3000    131.1301      0.0000    484.3666     23.5189
   933.4000    131.1301      0.0000    484.3666     23.5189
   933.5000    138.4642      0.0000    575.1341     20.7016
   933.6000    138.4642      0.0000    575.1341     20.7016
   933.7000    138.4642      0.0000    575.1341     20.7016
   933.8000    144.8929      0.0000    654.0823     17.8622
   933.9000    144.8929      0.0000    654.0823     17.8622
   934.0000    147.9663      0.0000    706.6353     15.2453
   934.1000    147.9663      0.0000    706.6353     15.2453
   934.2000    147.9663      0.0000    706.6353     15.2453
   934.3000    145.9954      0.0000    732.7949     12.9880
   934.4000    145.9954      0.0000    732.7949     12.9880
   934.5000    139.8455      0.0000    741.8800     11.1401
   934.6000    139.8455      0.0000    741.8800     11.1401
   934.7000    139.8455      0.0000    741.8800     11.1401
   934.8000    132.5998      0.0000    743.1613      9.7290
   934.9000    132.5998      0.0000    743.1613      9.7290
   935.0000    127.5838      0.0000    741.3680      8.7704
   935.1000    127.5838      0.0000    741.3680      8.7704
   935.2000    127.5838      0.0000    741.3680      8.7704
   935.3000    126.4063      0.0000    737.6334      8.2238
   935.4000    126.4063      0.0000    737.6334      8.2238
   935.5000    128.3447      0.0000    731.8550      7.9707
   935.6000    128.3447      0.0000    731.8550      7.9707
   935.7000    128.3447      0.0000    731.8550      7.9707
   935.8000    131.4840      0.0000    724.1210      7.8603
   935.9000    131.4840      0.0000    724.1210      7.8603
   936.0000    134.3454      0.0000    715.4093      7.7825
   936.1000    134.3454      0.0000    715.4093      7.7825
   936.2000    134.3454      0.0000    715.4093      7.7825
   936.3000    136.1376      0.0000    707.9196      7.7054
   936.4000    136.1376      0.0000    707.9196      7.7054
   936.5000    135.8076      0.0000    704.6069      7.6584
   936.6000    135.8076      0.0000    704.6069      7.6584
   936.7000    135.8076      0.0000    704.6069      7.6584
   936.8000    132.1103      0.0000    707.3373      7.6883
   936.9000    132.1103      0.0000    707.3373      7.6883
   937.0000    125.4134      0.0000    714.7783      7.8213
   937.1000    125.4134      0.0000    714.7783      7.8213
   937.2000    125.4134      0.0000    714.7783      7.8213
   937.3000    118.9037      0.0000    722.5019      8.0488
   937.4000    118.9037      0.0000    722.5019      8.0488
   937.5000    116.9658      0.0000    725.8788      8.3398
   937.6000    116.9658      0.0000    725.8788      8.3398
   937.7000    116.9658      0.0000    725.8788      8.3398
   937.8000    121.8807      0.0000    723.0293      8.6622
   937.9000    121.8807      0.0000    723.0293      8.6622
   938.0000    132.0309      0.0000    715.1876      8.9868
   938.1000    132.0309      0.0000    715.1876      8.9868
   938.2000    132.0309      0.0000    715.1876      8.9868
   938.3000    143.0853      0.0000    705.2167      9.2766
   938.4000    143.0853      0.0000    705.2167      9.2766
   938.5000    150.8152      0.0000    696.2913      9.4870
   938.6000    150.8152      0.0000    696.2913      9.4870
   938.7000    150.8152      0.0000    696.2913      9.4870
   938.8000    153.3705      0.0000    690.9756      9.5884
   938.9000    153.3705      0.0000    690.9756      9.5884
   939.0000    151.9171      0.0000    690.2729      9.5944
