~Version Information
VERS.                      2.0: CWLS Log ASCII Standard - VERSION 2.0
WRAP.                       NO: One line per depth step
~Well Information Block
STRT.FT               258.0000: 
STOP.FT               998.2000: 
STEP.FT                 0.1000: 
NULL.                -999.2500: 
COMP.          Pioneer Natural Resources: COMPANY
WELL.          Piggyback 33-25: WELL
FLD.           Purgatoire River: FIELD
LOC.           1600' FSL & 1800' FEL: LOCATION
PROV.                 Colorado: PROVINCE
CNTY.               Las Animas: COUNTRY
SRVC.                Patterson: SERVICE COMPANY
DATE.          Fri Apr 29 16:11:48 2005: LOG DATE
UWI.           05 071 08233 00: UNIQUE WELL ID
~Curve Information Block
DEPT.FT            0 000 00 00: Depth
DCAL.in                       : CDL Caliper
RHOB.g/cc                     : CDL Bulk Density
RHOC.g/cc                     : CDL Density Correction
DPOR.pu                       : CDL Density Porosity
GR.GAPI                       : Gamma Ray
NPOR.pu                       : Neutron Porosity
~Parameter Information Block
~A  Depth       DCAL        RHOB        RHOC        DPOR         GR         NPOR    
# ...
   498.0000      7.8879      2.4643      0.0648     11.2555    165.3714     25.5915
   498.1000      7.8879      2.4645      0.0640     11.2447    161.1776     25.9320
   498.2000      7.8879      2.4699      0.0856     10.9175    162.4436     26.5891
   498.3000      7.8697      2.4859      0.0944      9.9424    165.3239     27.1430
   498.4000      7.8697      2.5122      0.1234      8.3508    165.2002     27.0768
   498.5000      7.8596      2.5501      0.1101      6.0555    162.9165     26.7076
   498.6000      7.8596      2.5873      0.1951      3.7986    162.4351     26.6284
   498.7000      7.8596      2.5966      0.1709      3.2375    164.5996     26.8134
   498.8000      7.8564      2.5833      0.1256      4.0427    163.6751     27.2392
   498.9000      7.8564      2.5793      0.1311      4.2855    158.6709     27.9051
   499.0000      7.8850      2.5876      0.1589      3.7790    152.8074     28.2655
   499.1000      7.8850      2.5883      0.1154      3.7394    144.3293     27.9252
   499.2000      7.8850      2.5899      0.0510      3.6431    132.9230     27.2359
   499.3000      7.8765      2.6130      0.1298      2.2399    122.7689     26.5571
   499.4000      7.8765      2.6412      0.1578      0.5338    116.5200     25.8524
   499.5000      7.8841      2.6487      0.1769      0.0793    114.3243     25.2465
   499.6000      7.8841      2.6402      0.1204      0.5940    116.5638     24.7781
   499.7000      7.8841      2.6304      0.1334      1.1887    120.6957     24.2016
   499.8000      7.8827      2.6205      0.1012      1.7881    123.1086     23.5103
   499.9000      7.8827      2.6071      0.0889      2.6019    124.7321     23.0475
   500.0000      7.8604      2.5930      0.0770      3.4525    129.9444     23.2475
   500.1000      7.8604      2.5845      0.0815      3.9700    138.9644     24.1394
   500.2000      7.8604      2.5711      0.1209      4.7834    144.9359     24.9736
   500.3000      7.8903      2.5439      0.0598      6.4316    144.5427     24.9928
   500.4000      7.8903      2.5186      0.1159      7.9637    143.9332     24.3614
   500.5000      7.9059      2.5109      0.0496      8.4304    148.6213     23.8084
   500.6000      7.9059      2.5136      0.1319      8.2648    160.0772     23.8304
   500.7000      7.9059      2.5092      0.1140      8.5319    174.7461     24.4863
   500.8000      7.8991      2.5083      0.0712      8.5878    183.8812     25.3248
   500.9000      7.8991      2.5242      0.1365      7.6243    183.8963     25.7899
   501.0000      7.8880      2.5349      0.1158      6.9762    178.6083     25.8288
   501.1000      7.8880      2.5234      0.1424      7.6722    173.4115     25.6722
   501.2000      7.8880      2.5027      0.0792      8.9290    171.6685     25.5165
   501.3000      7.9149      2.4926      0.0913      9.5418    174.0138     25.4842
   501.4000      7.9149      2.4972      0.1230      9.2611    180.1042     25.6290
   501.5000      7.9175      2.5112      0.1505      8.4105    186.8430     25.8772
   501.6000      7.9175      2.5331      0.1561      7.0867    189.1045     26.1805
   501.7000      7.9175      2.5569      0.1276      5.6450    183.7252     26.7376
   501.8000      7.9019      2.5712      0.1633      4.7783    174.8027     27.5008
   501.9000      7.9019      2.5801      0.0989      4.2348    170.3792     28.0256
   502.0000      7.9010      2.5968      0.1372      3.2229    172.2092     27.9525
   502.1000      7.9010      2.6148      0.1614      2.1304    175.6977     27.3654
   502.2000      7.9010      2.6264      0.1593      1.4316    173.6134     26.8659
   502.3000      7.8970      2.6416      0.1557      0.5098    163.8055     26.8903
   502.4000      7.8970      2.6601      0.1981     -0.6126    155.5400     27.1008
   502.5000      7.9034      2.6645      0.1664     -0.8790    154.6465     27.0925
   502.6000      7.9034      2.6502      0.1037     -0.0135    157.6347     27.0786
   502.7000      7.9034      2.6226      0.1183      1.6611    159.3977     27.3385
   502.8000      7.9057      2.5846      0.0864      3.9657    156.6496     27.5270
   502.9000      7.9057      2.5492      0.0162      6.1084    151.5686     27.2972
   503.0000      7.9129      2.5293      0.0657      7.3164    150.6649     26.9980
   503.1000      7.9129      2.5207      0.0243      7.8350    154.4483     27.0884
   503.2000      7.9129      2.5182      0.0434      7.9900    156.3918     27.3653
   503.3000      7.9249      2.5183      0.0677      7.9829    157.1619     27.4114
   503.4000      7.9249      2.5215      0.0570      7.7873    162.7774     27.1950
   503.5000      7.9447      2.5365      0.1243      6.8777    169.9423     26.8661
   503.6000      7.9447      2.5588      0.1406      5.5243    170.2109     26.6774
   503.7000      7.9447      2.5696      0.1583      4.8747    163.6590     26.7695
   503.8000      7.8812      2.5639      0.1027      5.2167    158.2857     26.7068
   503.9000      7.8812      2.5546      0.1491      5.7802    159.5579     26.0630
   504.0000      7.8613      2.5521      0.1200      5.9309    166.1023     25.3112
   504.1000      7.8613      2.5651      0.1304      5.1446    171.8673     25.0743
   504.2000      7.8613      2.5831      0.1435      4.0523    174.0206     25.1707
   504.3000      7.8429      2.5782      0.1104      4.3541    173.3454     25.3013
   504.4000      7.8429      2.5553      0.1028      5.7420    168.3516     25.4208
   504.5000      7.8771      2.5457      0.1038      6.3192    159.9097     25.5690
   504.6000      7.8771      2.5493      0.1127      6.1025    154.4816     25.9293
   504.7000      7.8771      2.5392      0.1108      6.7150    155.0866     26.3247
   504.8000      7.8955      2.5150      0.0639      8.1795    157.5816     26.4549
   504.9000      7.8955      2.4967      0.1023      9.2938    160.2651     26.5122
   505.0000      7.8847      2.4845      0.1119     10.0299    162.9351     26.6099
   505.1000      7.8847      2.4679      0.1001     11.0335    163.8275     26.7391
   505.2000      7.8847      2.4523      0.0782     11.9819    164.7959     26.7652
   505.3000      7.8604      2.4564      0.0761     11.7350    169.4564     26.4755
   505.4000      7.8604      2.4795      0.0999     10.3325    175.8426     26.1093
   505.5000      7.8268      2.5031      0.1543      8.9058    177.0043     25.9616
   505.6000      7.8268      2.5283      0.1682      7.3769    171.4055     25.8993
   505.7000      7.8268      2.5706      0.1960      4.8102    163.7859     25.6998
   505.8000      7.8180      2.6165      0.3085      2.0327    158.7425     25.4809
   505.9000      7.8180      2.6346      0.2739      0.9359    159.1606     25.4913
   506.0000      7.8145      2.6212      0.2437      1.7466    162.4569     25.6573
   506.1000      7.8145      2.5974      0.2008      3.1861    163.7164     25.8523
   506.2000      7.8145      2.5800      0.1977      4.2441    163.5731     26.3801
   506.3000      7.8467      2.5654      0.1490      5.1251    162.5979     27.1390
   506.4000      7.8467      2.5440      0.1333      6.4252    159.6661     27.3621
   506.5000      7.9017      2.5204      0.1089      7.8530    160.5565     26.9309
   506.6000      7.9017      2.5066      0.0788      8.6927    169.4191     26.4218
   506.7000      7.9017      2.5105      0.0476      8.4543    180.7207     26.2780
   506.8000      7.9203      2.5332      0.1186      7.0810    186.9117     26.4259
   506.9000      7.9203      2.5506      0.1360      6.0269    184.7883     26.5117
   507.0000      7.9395      2.5413      0.1279      6.5851    178.1863     26.3536
   507.1000      7.9395      2.5194      0.1531      7.9128    171.9157     26.0553
   507.2000      7.9395      2.5052      0.1734      8.7728    168.6352     25.8910
   507.3000      7.9429      2.4933      0.1991      9.4965    167.6299     25.7545
   507.4000      7.9429      2.4725      0.1236     10.7551    163.6186     25.2068
   507.5000      7.9465      2.4604      0.0795     11.4887    156.7994     24.3218
