~Version Information
VERS.                      2.0: CWLS Log ASCII Standard - VERSION 2.0
WRAP.                       NO: One line per depth step
~Well Information Block
STRT.FT                 5.5000: 
STOP.FT              1635.7500: 
STEP.FT                 0.2500: 
NULL.                -999.2500: 
COMP.          Pioneer Natural Resources: COMPANY
WELL.                Mead 11-9: WELL
FLD.           Purgatoire River: FIELD
LOC.           1127' FNL & 668' FWL: LOCATION
PROV.                 Colorado: PROVINCE
CNTY.               Las Animas: COUNTRY
SRVC.                Patterson: SERVICE COMPANY
DATE.          Wed Mar 02 13:48:38 2005: LOG DATE
UWI.           05 071 08160 00: UNIQUE WELL ID
~Curve Information Block
DEPT.FT            0 000 00 00: Depth
CCL.                          : Casing Collar Locator
TT3.usec                      : CBL 3' Travel Time
AMP3.mV                       : CBL 3' Amplitude
GR.GAPI                       : Gamma Ray
~Parameter Information Block
~A  Depth       CCL         TT3         AMP3         GR     
# ...
  1178.0000      0.0000   1013.3668      4.2723    102.0090
  1178.2500      0.0000   1115.1464      4.3098    102.4724
  1178.5000      0.0000   1219.8071      4.3855    103.0202
  1178.7500      0.0000   1297.2098      4.4951    102.9410
  1179.0000      0.0000   1325.7938      4.6218    102.0747
  1179.2500      0.0000   1300.8931      4.7394    100.6278
  1179.5000      0.0000   1236.9875      4.8260     99.3525
  1179.7500      0.0000   1164.8268      4.8762     99.6852
  1180.0000      0.0000   1120.0352      4.9033    102.8726
  1180.2500      0.0000   1125.3511      4.9281    108.7395
  1180.5000      0.0000   1178.5051      4.9638    115.4920
  1180.7500      0.0000   1255.5543      5.0050    120.6798
  1181.0000      0.0000   1327.0492      5.0293    122.4961
  1181.2500      0.0000   1374.2191      5.0084    120.6013
  1181.5000      0.0000   1394.0201      4.9259    116.1133
  1181.7500      0.0000   1393.8112      4.7893    110.9825
  1182.0000      0.0000   1384.0868      4.6264    107.1578
  1182.2500      0.0000   1373.5829      4.4676    105.8579
  1182.5000      0.0000   1366.5226      4.3295    107.3546
  1182.7500      0.0000   1362.4757      4.2164    111.1756
  1183.0000      0.0000   1358.3358      4.1313    116.1356
  1183.2500      0.0000   1349.5247      4.0815    120.2996
  1183.5000      0.0000   1331.0505      4.0716    121.7478
  1183.7500      0.0000   1300.4301      4.0940    119.9673
  1184.0000      0.0000   1260.2727      4.1311    116.1622
  1184.2500      0.0000   1218.1355      4.1662    111.9189
  1184.5000      0.0000   1184.4756      4.1904    108.0643
  1184.7500      0.0000   1167.4230      4.2019    105.0139
  1185.0000      0.0000   1165.9718      4.2022    103.4369
  1185.2500      0.0000   1170.8127      4.1942    103.8532
  1185.5000      0.0000   1174.6250      4.1824    105.8915
  1185.7500      0.0000   1176.5164      4.1708    108.4952
  1186.0000      0.0000   1174.1012      4.1615    110.7492
  1186.2500      0.0000   1159.8370      4.1567    112.0298
  1186.5000      0.0000   1131.3580      4.1600    111.5783
  1186.7500      0.0000   1100.0931      4.1747    108.6824
  1187.0000      0.0000   1083.1549      4.2020    103.6296
  1187.2500      0.0000   1087.5509      4.2386     98.0630
  1187.5000      0.0000   1104.7865      4.2765     93.9955
  1187.7500      0.0000   1121.0720      4.3044     92.5761
  1188.0000      0.0000   1131.0410      4.3141     93.8490
  1188.2500      0.0000   1139.0469      4.3052     97.1686
  1188.5000      0.0000   1149.8611      4.2851    101.2799
  1188.7500      0.0000   1164.9232      4.2634    104.4655
  1189.0000      0.0000   1187.2974      4.2469    105.6387
  1189.2500      0.0000   1221.4917      4.2378    105.4396
  1189.5000      0.0000   1265.6837      4.2352    105.7274
  1189.7500      0.0000   1310.4113      4.2360    107.9426
  1190.0000      0.0000   1347.4386      4.2355    112.1353
  1190.2500      0.0000   1375.2368      4.2283    117.3009
  1190.5000      0.0000   1395.4749      4.2117    122.3356
  1190.7500      0.0000   1409.1239      4.1878    126.7023
  1191.0000      0.0000   1416.8766      4.1620    130.3355
  1191.2500      0.0000   1420.3759      4.1406    132.9902
  1191.5000      0.0000   1421.5962      4.1289    133.8452
  1191.7500      0.0000   1421.9205      4.1295    131.9965
  1192.0000      0.0000   1421.9878      4.1419    127.4517
  1192.2500      0.0000   1422.0000      4.1620    121.6226
  1192.5000      0.0000   1422.0000      4.1827    116.7247
  1192.7500      0.0000   1422.0000      4.1969    114.4715
  1193.0000      0.0000   1422.0000      4.2011    115.1609
  1193.2500      0.0000   1422.0000      4.1983    117.8378
  1193.5000      0.0000   1422.0000      4.1964    121.1938
  1193.7500      0.0000   1422.0000      4.2034    124.3928
  1194.0000      0.0000   1422.0000      4.2229    127.2827
  1194.2500      0.0000   1422.0000      4.2528    129.9768
  1194.5000      0.0000   1421.9609      4.2875    132.2842
  1194.7500      0.0000   1421.7455      4.3209    133.5371
  1195.0000      0.0000   1420.7078      4.3470    133.0009
  1195.2500      0.0000   1416.8544      4.3626    130.6116
  1195.5000      0.0000   1406.0316      4.3703    127.1934
  1195.7500      0.0000   1383.0906      4.3774    123.7474
  1196.0000      0.0000   1346.9000      4.3908    120.5971
  1196.2500      0.0000   1305.2720      4.4140    117.5029
  1196.5000      0.0000   1271.5497      4.4431    114.6143
  1196.7500      0.0000   1254.1049      4.4574    112.9668
  1197.0000      0.0000   1251.8850      4.4165    113.7602
  1197.2500      0.0000   1259.9633      4.2864    117.1166
  1197.5000      0.0000   1273.7133      4.0840    121.5947
  1197.7500      0.0000   1287.2743      3.8793    124.8126
  1198.0000      0.0000   1292.6843      3.7398    124.7086
  1198.2500     -2.9367   1281.8790      3.6819    120.7453
  1198.5000     -2.1179   1251.5703      3.6837    114.3675
  1198.7500      3.0000   1210.5930      3.7286    108.3704
  1199.0000      0.0000   1180.2524      3.8271    105.6210
  1199.2500      0.0000   1180.3104      4.0054    107.7622
  1199.5000      0.0000   1212.5289      4.2681    114.3090
  1199.7500      0.0000   1260.4893      4.5615    122.5817
  1200.0000      0.0000   1305.5762      4.7883    128.7317
  1200.2500      0.0000   1340.4900      4.8817    129.7168
  1200.5000      0.0000   1367.5797      4.8594    125.3229
  1200.7500      0.0000   1389.4675      4.7897    118.4617
  1201.0000      0.0000   1405.3439      4.7240    112.8714
  1201.2500      0.0000   1413.7668      4.6731    110.2216
  1201.5000      0.0000   1414.5867      4.6284    109.6323
  1201.7500      0.0000   1407.8372      4.5859    109.5817
  1202.0000      0.0000   1392.8311      4.5486    109.5699
  1202.2500      0.0000   1368.3729      4.5183    110.0898
  1202.5000      0.0000   1333.2651      4.4890    111.7329
  1202.7500      0.0000   1288.9662      4.4535    114.5101
  1203.0000      0.0000   1244.7471      4.4148    117.7189
  1203.2500      0.0000   1215.8326      4.3850    120.3205
  1203.5000      0.0000   1209.8635      4.3703    121.5577
  1203.7500      0.0000   1219.1646      4.3627    121.2946
  1204.0000      0.0000   1233.7233      4.3487    119.9660
  1204.2500      0.0000   1255.5795      4.3223    118.3176
  1204.5000      0.0000   1290.8834      4.2860    116.9532
  1204.7500      0.0000   1333.6548      4.2435    115.9400
  1205.0000      0.0000   1366.8020      4.1951    115.0054
  1205.2500      0.0000   1376.2673      4.1388    114.0571
  1205.5000      0.0000   1359.3075      4.0741    113.2124
  1205.7500      0.0000   1322.8989      4.0068    112.4762
  1206.0000      0.0000   1279.0273      3.9479    111.7832
  1206.2500      0.0000   1240.2170      3.9065    111.2520
  1206.5000      0.0000   1216.1260      3.8827    111.2264
  1206.7500      0.0000   1210.6293      3.8699    112.1419
  1207.0000      0.0000   1219.8688      3.8594    114.1362
  1207.2500      0.0000   1233.9606      3.8434    116.5334
  1207.5000      0.0000   1242.8859      3.8176    118.0692
  1207.7500      0.0000   1242.0800      3.7861    118.1146
  1208.0000      0.0000   1233.8052      3.7606    117.5994
  1208.2500      0.0000   1224.0870      3.7517    118.2293
  1208.5000      0.0000   1218.2058      3.7605    120.6387
  1208.7500      0.0000   1218.3103      3.7800    123.7513
  1209.0000      0.0000   1223.8984      3.8035    126.1888
  1209.2500      0.0000   1234.0209      3.8316    127.8399
  1209.5000      0.0000   1249.0491      3.8711    129.5921
  1209.7500      0.0000   1269.6029      3.9252    131.6446
  1210.0000      0.0000   1293.0984      3.9889    132.7065
  1210.2500      0.0000   1313.0850      4.0531    131.2996
  1210.5000      0.0000   1325.0148      4.1105    127.5528
  1210.7500      0.0000   1332.0270      4.1554    123.2085
  1211.0000      0.0000   1341.4829      4.1829    120.0462
  1211.2500      0.0000   1355.7358      4.1913    118.7413
