~Version Information
VERS.                      2.0: CWLS Log ASCII Standard - VERSION 2.0
WRAP.                       NO: One line per depth step
~Well Information Block
STRT.FT               -11.5000: 
STOP.FT              2395.2500: 
STEP.FT                 0.2500: 
NULL.                -999.2500: 
COMP.          Petrogulf Corporation: COMPANY
WELL.            Montoya 7-21V: WELL
FLD.           Purgatorie River: FIELD
LOC.           738' FSL & 2070' FWL--: LOCATION
CNTY.               Las Animas: COUNTY
SRVC.                         : SERVICE COMPANY
DATE.          Mon Aug 30 15:10:00 2004: LOG DATE
UWI.                          : UNIQUE WELL ID
STAT.                       CO: STATE
~Curve Information Block
DEPT.FT            0 000 00 00: Depth
CCL.                          : Casing Collar Locator
TT3.usec                      : CBL 3' Travel Time
AMP3.mV                       : CBL 3' Amplitude
GR.GAPI                       : Gamma Ray
~Parameter Information Block
~A  Depth       CCL         TT3         AMP3         GR     
# ...
  2367.0000      0.0000    727.4337      7.3137     72.3663
  2367.2500      0.0000    727.8947      7.1867     71.6793
  2367.5000      0.0000    728.1940      7.0461     72.8794
  2367.7500      0.0000    728.4423      6.9236     75.9165
  2368.0000      0.0000    728.8131      6.8004     79.6356
  2368.2500      0.0000    729.3975      6.6529     83.1165
  2368.5000      0.0000    730.0353      6.4998     86.5107
  2368.7500      0.0000    730.0269      6.3944     90.3694
  2369.0000      0.0000    727.7365      6.3667     94.6761
  2369.2500      0.0000    720.8771      6.3969     98.6330
  2369.5000      0.0000    708.2126      6.4577    100.9680
  2369.7500      0.0000    691.8579      6.5513    100.5447
  2370.0000      0.0000    677.5849      6.6774     97.1950
  2370.2500      0.0000    671.7746      6.7998     92.0842
  2370.5000      0.0000    677.1791      6.8741     87.0624
  2370.7500      0.0000    690.9861      6.8794     83.5953
  2371.0000      0.0000    706.7344      6.8028     82.1832
  2371.2500      0.0000    718.5712      6.6231     82.3773
  2371.5000      0.0000    724.3619      6.3497     83.1728
  2371.7500      0.0000    725.6626      6.0766     83.6342
  2372.0000      0.0000    725.5923      5.9646     83.3604
  2372.2500      0.0000    726.2943      6.1424     82.3657
  2372.5000      0.0000    727.0947      6.6246     80.6098
  2372.7500      0.0000    724.7998      7.3288     77.8723
  2373.0000      0.0000    716.3802      8.1537     74.2427
  2373.2500      2.0000    701.0389      9.0258     70.7404
  2373.5000     -2.0000    679.5288      9.8930     69.2298
  2373.7500     -1.5594    653.1713     10.7065     71.2991
  2374.0000      0.0000    624.1003     11.4349     76.9243
  2374.2500      0.0000    593.9149     12.1039     84.1838
  2374.5000      0.0000    560.7148     12.8073     90.6747
  2374.7500      0.0000    520.4898     13.6296     95.4862
  2375.0000      0.0000    472.9982     14.5440     99.3879
  2375.2500      0.0000    423.7851     15.4234    102.9926
  2375.5000      0.0000    380.1094     16.1298    105.6293
  2375.7500      0.0000    346.8791     16.5509    106.3869
  2376.0000      0.0000    325.4981     16.6142    105.3778
  2376.2500      0.0000    314.3579     16.3372    103.4503
  2376.5000      0.0000    310.6285     15.8246    101.3131
  2376.7500      0.0000    313.0248     15.1801     99.4508
  2377.0000      0.0000    324.2829     14.4625     98.3374
  2377.2500      0.0000    351.3583     13.7246     98.0540
  2377.5000      0.0000    401.2632     13.0416     97.9233
  2377.7500      0.0000    473.1340     12.4891     97.1263
  2378.0000      0.0000    553.7252     12.1186     95.6773
  2378.2500      0.0000    623.8840     11.9176     94.3577
  2378.5000      0.0000    671.5612     11.7777     93.7230
  2378.7500      0.0000    698.2387     11.5619     93.5465
  2379.0000      0.0000    713.4426     11.2316     93.2773
  2379.2500      0.0000    724.9059     10.8670     92.6350
  2379.5000      0.0000    733.8600     10.5639     91.6521
  2379.7500      0.0000    737.6183     10.3725     90.6063
  2380.0000      0.0000    734.7071     10.3159     90.1456
  2380.2500      0.0000    726.8287     10.3850     90.8922
  2380.5000      0.0000    716.5103     10.5135     92.2907
  2380.7500      0.0000    703.8011     10.6226     91.9321
  2381.0000      0.0000    684.9166     10.6879     86.5356
  2381.2500      0.0000    653.2020     10.7180     74.1592
  2381.5000      0.0000    602.8383     10.6946     56.0135
  2381.7500      0.0000    534.9946     10.5907     36.2832
  2382.0000      0.0000    461.2200     10.4418     19.7071
  2382.2500      0.0000    397.8671     10.3548      8.8157
  2382.5000      0.0000    355.0769     10.4454      3.2033
  2382.7500      0.0000    331.7454     10.7626      0.9354
  2383.0000      0.0000    320.4494     11.2427      0.2172
  2383.2500      0.0000    314.7785     11.7261      0.0395
  2383.5000      0.0000    311.9397     12.0530      0.0050
  2383.7500      0.0000    311.5452     12.1633   -999.2500
  2384.0000      0.0000    314.6669     12.0989   -999.2500
  2384.2500      0.0000    324.2641     11.9180   -999.2500
  2384.5000      0.0000    344.6819     11.6387   -999.2500
  2384.7500      0.0000    377.7760     11.2761   -999.2500
  2385.0000      0.0000    417.6883     10.9003   -999.2500
  2385.2500      0.0000    452.1752     10.6128   -999.2500
  2385.5000      0.0000    473.9462     10.4546   -999.2500
  2385.7500      0.0000    489.6357     10.3585   -999.2500
  2386.0000      0.0000    510.8816     10.1934   -999.2500
  2386.2500      0.0000    534.3984      9.8263   -999.2500
  2386.5000      0.0000    536.1720      9.1356   -999.2500
  2386.7500      0.0000    489.7696      8.0317   -999.2500
  2387.0000      0.0000    391.0492      6.5548   -999.2500
  2387.2500      0.0000    265.1817      4.9513   -999.2500
  2387.5000      0.0000    149.5453      3.5690   -999.2500
  2387.7500      0.0000     69.0078      2.6333   -999.2500
  2388.0000      0.0000     25.7349      2.1382   -999.2500
  2388.2500      0.0000      7.6813      1.9339   -999.2500
  2388.5000      0.0000      1.8180      1.8681   -999.2500
  2388.7500      0.0000      0.3361      1.8516   -999.2500
  2389.0000      0.0000   -999.2500   -999.2500   -999.2500
  2389.2500      0.0000   -999.2500   -999.2500   -999.2500
  2389.5000      0.0000   -999.2500   -999.2500   -999.2500
  2389.7500      0.0000   -999.2500   -999.2500   -999.2500
  2390.0000      0.0000   -999.2500   -999.2500   -999.2500
  2390.2500      0.0000   -999.2500   -999.2500   -999.2500
  2390.5000      0.0000   -999.2500   -999.2500   -999.2500
  2390.7500      0.0000   -999.2500   -999.2500   -999.2500
  2391.0000      0.0000   -999.2500   -999.2500   -999.2500
  2391.2500      0.0000   -999.2500   -999.2500   -999.2500
  2391.5000      0.0000   -999.2500   -999.2500   -999.2500
  2391.7500      0.0000   -999.2500   -999.2500   -999.2500
  2392.0000      0.0000   -999.2500   -999.2500   -999.2500
  2392.2500      0.0000   -999.2500   -999.2500   -999.2500
  2392.5000      0.0000   -999.2500   -999.2500   -999.2500
  2392.7500      0.0000   -999.2500   -999.2500   -999.2500
  2393.0000      0.0000   -999.2500   -999.2500   -999.2500
  2393.2500      0.0000   -999.2500   -999.2500   -999.2500
  2393.5000      0.0000   -999.2500   -999.2500   -999.2500
  2393.7500      0.0000   -999.2500   -999.2500   -999.2500
  2394.0000      0.0000   -999.2500   -999.2500   -999.2500
  2394.2500      0.0000   -999.2500   -999.2500   -999.2500
  2394.5000      0.0000   -999.2500   -999.2500   -999.2500
  2394.7500   -999.2500   -999.2500   -999.2500   -999.2500
  2395.0000   -999.2500   -999.2500   -999.2500   -999.2500
  2395.2500   -999.2500   -999.2500   -999.2500   -999.2500
