~Version Information
 VERS.                                  2.0 : CWLS LAS VERSION
 WRAP.                                   NO : WRAPING MODE
 SWARE .                 MController 2.5.0N : SOFTWARE VERSION
~Well Information
 WELL.                     Prospector 12-19 : WELL
 COMP.    Pioneer Natural Resources USA Inc : COMPANY
 FLD.                      Purgatoire River : FIELD
 LOC.                SW/NW Sec 19 T34S R64W : LOCATION
 DATE.                           4/24-25/05 : DATE(S) LOGGED
 SRVC.       Blanco Geological Services LLC : SERVICE COMPANY
 STAT.                                   CO : STATE
 CNTY.                           Las Animas : COUNTY
 CTRY.                                  USA : COUNTRY
 API.                       05-071-08191-00 : API NUMBER
 STRT.FT                             351.00 : START DEPTH
 STOP.FT                             900.00 : STOP DEPTH
 STEP.FT                               1.00 : DEPTH INCREMENT
 NULL.                                -9999 : NULL VALUE
~Curve information
 DEPTH.FT                                   :
 ROP.MIN/FT                                 :
 GAS.UNITS                                  :
~ASCII Log data
# ...
       551.0         0.23          4.5 
       552.0         0.27          4.5 
       553.0         0.23          4.5 
       554.0         0.20          4.2 
       555.0         0.27          4.5 
       556.0         0.23          4.7 
       557.0         0.27          4.5 
       558.0         0.23          4.6 
       559.0         0.32          4.4 
       560.0         0.30          4.2 
       561.0         0.33          4.7 
       562.0         0.30          4.3 
       563.0         0.27          4.3 
       564.0         0.20          4.3 
       565.0         0.33          4.3 
       566.0         1.52          4.6 
       567.0         0.33          4.4 
       568.0         0.27          4.5 
       569.0         0.20          4.4 
       570.0         0.23          4.5 
       571.0         0.20          4.6 
       572.0         0.23          4.8 
       573.0         0.20          4.8 
       574.0         0.20          4.4 
       575.0         0.13          4.6 
       576.0         0.17          4.6 
       577.0         0.17          4.8 
       578.0         0.20          4.7 
       579.0         0.27          4.7 
       580.0         0.22          4.5 
       581.0         0.27          4.7 
       582.0         0.27          4.6 
       583.0         0.23          4.5 
       584.0         0.37        104.0 
       585.0         0.27        106.1 
       586.0         0.20         56.1 
       587.0         0.20         29.1 
       588.0         0.17         16.9 
       589.0         0.23         12.6 
       590.0         0.23         11.4 
       591.0         0.20         10.4 
       592.0         0.17          8.6 
       593.0         0.13          6.9 
       594.0         0.15          5.8 
       595.0         0.37          5.4 
       596.0         0.93          4.4 
       597.0         0.23          3.9 
       598.0         0.20          3.8 
       599.0         0.23          3.9 
       600.0         0.17          3.9 
       601.0         0.20          3.7 
       602.0         0.27          3.9 
       603.0         0.20          4.1 
       604.0         0.30          4.7 
       605.0         0.32          4.7 
       606.0         0.23          4.7 
       607.0         0.27          4.6 
       608.0         0.27          4.3 
       609.0         0.27          4.2 
       610.0         0.30          5.4 
       611.0         0.27          5.7 
       612.0         0.23          5.1 
       613.0         0.27          6.0 
       614.0         0.27          6.8 
       615.0         0.33          9.8 
       616.0         0.35         13.3 
       617.0         0.30         16.5 
       618.0         0.33         16.6 
       619.0         0.30         17.0 
       620.0         0.33         17.7 
       621.0         0.27         19.6 
       622.0         0.30         20.1 
       623.0         0.20         17.2 
       624.0         0.13         13.7 
       625.0         0.23         15.1 
       626.0         2.28         16.5 
       627.0         0.30          3.6 
       628.0         0.47          4.8 
       629.0         0.33          6.1 
       630.0         0.33          5.6 
       631.0         0.48          6.2 
       632.0         0.33          7.0 
       633.0         0.33          8.2 
       634.0         0.27          8.2 
       635.0         0.37          8.4 
       636.0         0.33          8.9 
       637.0         0.40          8.8 
       638.0         0.33          7.9 
       639.0         0.37          7.3 
       640.0         0.38          6.8 
       641.0         0.30          6.2 
       642.0         0.33          5.9 
       643.0         0.37          6.0 
       644.0         0.33          6.0 
       645.0         0.40          5.9 
       646.0         0.33          5.8 
       647.0         0.33          6.1 
       648.0         0.27          6.2 
       649.0         0.35          5.3 
       650.0         0.33          5.0 
       651.0         0.37          6.1 
       652.0         0.33          6.1 
       653.0         0.33          6.1 
       654.0         0.43          7.8 
       655.0         0.27          7.4 
       656.0         2.22          6.5 
       657.0         0.40          5.0 
       658.0         0.40          5.0 
       659.0         0.43          5.0 
       660.0         0.37          5.0 
       661.0         0.38          5.2 
       662.0         0.33          5.2 
       663.0         0.33          5.5 
       664.0         0.33          5.3 
       665.0         0.33          5.4 
       666.0         0.37          5.7 
       667.0         0.37          5.6 
       668.0         0.17          5.9 
       669.0         0.20          5.8 
       670.0         0.27          5.2 
       671.0         0.17          5.6 
       672.0         0.28          5.0 
       673.0         0.30          4.7 
       674.0         0.30          5.4 
       675.0         0.23          5.1 
       676.0         0.27          5.1 
       677.0         0.30          5.1 
       678.0         0.30          5.7 
       679.0         0.30          5.1 
       680.0         0.23          5.0 
       681.0         0.13          5.0 
       682.0         0.33          5.3 
       683.0         0.23          5.6 
       684.0         0.35          6.5 
       685.0         0.30          6.2 
       686.0         1.60          5.3 
       687.0         0.33          5.4 
       688.0         0.30          7.2 
       689.0         0.33          8.2 
       690.0         0.28          9.4 
       691.0         0.30         13.1 
       692.0         0.30         17.0 
       693.0         0.27         19.7 
       694.0         0.17         20.6 
       695.0         0.23         21.4 
       696.0         0.33         25.7 
       697.0         0.33         27.5 
       698.0         0.30         28.7 
       699.0         0.33         28.7 
       700.0         0.33         30.2 
       701.0         0.32         30.4 
       702.0         0.30         30.3 
       703.0         0.33         28.6 
       704.0         0.30         27.6 
       705.0         0.27         27.5 
       706.0         0.30         26.1 
       707.0         0.23         25.0 
       708.0         0.33         23.8 
       709.0         0.23         22.5 
       710.0         0.30         25.4 
       711.0         0.30         26.8 
       712.0         0.18         34.7 
       713.0         0.13         36.1 
       714.0         0.27         33.9 
       715.0         0.23         24.2 
       716.0         1.13         13.3 
       717.0         0.47          7.0 
       718.0         0.33          9.2 
       719.0         0.30         10.2 
       720.0         0.38         11.2 
       721.0         0.37         10.8 
       722.0         0.33         11.0 
       723.0         0.37         12.1 
       724.0         0.33         12.8 
       725.0         0.33         13.3 
       726.0         0.33         13.5 
       727.0         0.33         14.3 
       728.0         0.30         14.5 
       729.0         0.32         13.9 
       730.0         0.33         13.5 
       731.0         0.33         13.5 
       732.0         0.27         13.4 
       733.0         0.27         13.3 
       734.0         0.33         13.0 
       735.0         0.30         13.1 
       736.0         0.27         13.3 
       737.0         0.27         13.2 
       738.0         0.23         10.1 
       739.0         0.20          6.9 
       740.0         0.55         31.6 
       741.0         3.75        130.5 
       742.0         0.90         65.0 
       743.0         0.70         87.8 
       744.0         0.53         87.5 
       745.0         0.55        108.4 
       746.0         2.83        120.5 
       747.0         0.38        105.9 
       748.0         0.33        120.4 
       749.0         0.43        117.0 
       750.0         1.00         44.1 
