~Version Information
VERS.                      2.0: CWLS Log ASCII Standard - VERSION 2.0
WRAP.                       NO: One line per depth step
~Well Information Block
STRT.FT               -16.0000: 
STOP.FT              2454.2500: 
STEP.FT                 0.2500: 
NULL.                -999.2500: 
COMP.                         : COMPANY
WELL.                         : WELL
FLD.                          : FIELD
LOC.                          : LOCATION
CNTY.                         : COUNTY
SRVC.                         : SERVICE COMPANY
DATE.          Tue Aug 31 08:09:44 2004: LOG DATE
UWI.                          : UNIQUE WELL ID
STAT.                         : STATE
~Curve Information Block
DEPT.FT            0 000 00 00: Depth
GR.GAPI                       : Gamma Ray
CCL.                          : Casing Collar Locator
TT3.usec                      : CBL 3' Travel Time
AMP3.mV                       : CBL 3' Amplitude
~Parameter Information Block
~A  Depth        GR         CCL         TT3         AMP3    
# ...
  2094.5000     69.6640      0.0000    546.7094      8.1043
  2094.7500     68.0656      0.0000    542.9589      7.9592
  2095.0000     66.5554      0.0000    558.1579      7.7055
  2095.2500     65.8183      0.0000    601.3513      7.3483
  2095.5000     65.9432      0.0000    665.3300      6.9031
  2095.7500     66.2794      0.0000    728.6206      6.4023
  2096.0000     65.8779      0.0000    773.7364      5.8911
  2096.2500     64.0119      0.0000    800.2854      5.4302
  2096.5000     60.3507      0.0000    816.3378      5.0684
  2096.7500     55.0686      0.0000    825.9800      4.8024
  2097.0000     49.0929      0.0000    829.6625      4.6196
  2097.2500     43.9347      0.0000    828.1900      4.5449
  2097.5000     40.8251      0.0000    824.1520      4.5867
  2097.7500     40.0219      0.0000    822.1248      4.7018
  2098.0000     41.1056      0.0000    824.6174      4.8566
  2098.2500     43.6344      0.0000    828.1415      5.0689
  2098.5000     47.0602      0.0000    826.9485      5.3804
  2098.7500     50.2912      0.0000    818.9282      5.8349
  2099.0000     52.0874      0.0000    807.0690      6.4694
  2099.2500     52.0062      0.0000    794.8716      7.2732
  2099.5000     50.5324      0.0000    776.7270      8.1742
  2099.7500     48.4250      0.0000    733.8962      9.1129
  2100.0000     46.3642      0.0000    651.3889     10.0935
  2100.2500     44.9676      0.0000    544.9775     11.1057
  2100.5000     44.5028      0.0000    453.3596     12.0277
  2100.7500     44.5838      0.0000    398.6021     12.6610
  2101.0000     44.6734      0.0000    374.6013     12.8724
  2101.2500     44.8901      0.0000    366.7062     12.7018
  2101.5000     45.8269      0.0000    364.9441     12.3440
  2101.7500     47.5636      0.0000    364.8012     12.0128
  2102.0000     49.3331      0.0000    364.9358     11.7961
  2102.2500     50.2479      0.0000    365.4834     11.6300
  2102.5000     50.0574      0.0000    367.7611     11.4085
  2102.7500     49.2386      0.0000    375.8382     11.0846
  2103.0000     48.6314      0.0000    399.3676     10.6382
  2103.2500     48.9674      0.0000    453.1677     10.0460
  2103.5000     50.4833      0.0000    543.7654      9.3646
  2103.7500     52.8022      0.0000    649.4400      8.7587
  2104.0000     55.1114      0.0000    731.4775      8.3613
  2104.2500     56.5971      0.0000    773.1592      8.1429
  2104.5000     56.9116      0.0000    787.4995      7.9761
  2104.7500     56.2546      0.0000    792.5566      7.7899
  2105.0000     54.9974      0.0000    797.8882      7.6093
  2105.2500     53.4123      0.0000    806.4011      7.4918
  2105.5000     51.8249      0.0000    816.6044      7.4535
  2105.7500     50.6354      0.0000    824.7956      7.4372
  2106.0000     49.9858      0.0000    829.0715      7.3586
  2106.2500     49.7491      0.0000    830.4000      7.1930
  2106.5000     49.9527      0.0000    830.4623      7.0062
  2106.7500     50.8116      0.0000    830.2722      6.8947
  2107.0000     52.2686      0.0000    830.1166      6.8951
  2107.2500     53.8622      0.0000    830.0190      6.9717
  2107.5000     55.0683      0.0000    829.9277      7.0956
  2107.7500     55.5767      0.0000    827.8460      7.2869
  2108.0000     55.4277      0.0000    814.9790      7.5826
  2108.2500     55.1472      0.0000    773.2476      7.9971
  2108.5000     55.5397      0.0000    690.0566      8.4971
  2108.7500     57.0444      0.0000    584.3450      9.0267
  2109.0000     59.3062      0.0000    497.2564      9.5862
  2109.2500     61.4215      0.0000    447.7200     10.2301
  2109.5000     62.4468      0.0000    422.5765     10.9495
  2109.7500     61.7490      0.0000    406.2963     11.6187
  2110.0000     59.2747      0.0000    395.7068     12.0795
  2110.2500     55.6930      0.0000    392.7425     12.2213
  2110.5000     52.1782      0.0000    398.2076     12.0010
  2110.7500     49.9370      0.0000    409.7584     11.4783
  2111.0000     49.7329      0.0000    422.5911     10.8215
  2111.2500     51.5550      0.0000    439.6578     10.2028
  2111.5000     54.7325      0.0000    477.0626      9.6915
  2111.7500     58.5337      0.0000    542.4884      9.2749
  2112.0000     62.5281      0.0000    611.1509      8.9531
  2112.2500     66.2166      0.0000    646.8634      8.7808
  2112.5000     68.5756      0.0000    641.9815      8.8243
  2112.7500     68.3965      0.0000    613.8857      9.0898
  2113.0000     65.2547      0.0000    590.3599      9.4375
  2113.2500     60.1880      0.0000    605.1212      9.6249
  2113.5000     55.3765      0.0000    661.8113      9.6607
  2113.7500     52.8773      0.0000    722.0737      9.9348
  2114.0000     53.2987      0.0000    754.9924     10.6767
  2114.2500     55.5852     -4.2545    761.2505     11.5908
  2114.5000     58.1011      0.0000    747.8315     12.2403
  2114.7500     59.9090      5.0000    713.5581     12.4760
  2115.0000     61.1014      0.0000    665.6772     12.3475
  2115.2500     62.1356      0.0000    637.7601     11.8339
  2115.5000     63.0821      0.0000    662.5199     10.9226
  2115.7500     63.6312      0.0000    724.5321      9.8848
  2116.0000     63.6350      0.0000    779.3127      9.1487
  2116.2500     63.3805      0.0000    805.4940      8.7763
  2116.5000     63.4224      0.0000    807.0232      8.4140
  2116.7500     64.2089      0.0000    788.0373      7.8579
  2117.0000     65.5979      0.0000    744.6248      7.2128
  2117.2500     66.7118      0.0000    676.8489      6.6087
  2117.5000     66.6232      0.0000    601.9078      6.1047
  2117.7500     65.2881      0.0000    543.9267      5.7165
  2118.0000     63.6202      0.0000    512.6900      5.4270
  2118.2500     62.6875      0.0000    501.3597      5.2147
  2118.5000     62.9667      0.0000    499.6942      5.0548
  2118.7500     64.1468      0.0000    503.7027      4.9150
  2119.0000     65.2751      0.0000    517.7446      4.7801
  2119.2500     65.0716      0.0000    548.8226      4.6565
  2119.5000     62.4863      0.0000    589.3254      4.5461
  2119.7500     57.4245      0.0000    610.0565      4.4358
  2120.0000     51.0467      0.0000    592.3857      4.3127
  2120.2500     45.0834      0.0000    556.6437      4.1816
  2120.5000     40.6887      0.0000    538.3567      4.0596
  2120.7500     38.0251      0.0000    558.5985      3.9540
  2121.0000     36.7575      0.0000    618.4536      3.8551
  2121.2500     36.5363      0.0000    694.2983      3.7446
  2121.5000     37.0075      0.0000    751.9295      3.6089
  2121.7500     37.6888      0.0000    782.1709      3.4553
  2122.0000     37.9302      0.0000    802.4131      3.3109
  2122.2500     36.9877      0.0000    824.1259      3.1944
  2122.5000     34.4500      0.0000    841.1632      3.1040
  2122.7500     30.8830      0.0000    844.5366      3.0349
  2123.0000     27.8657      0.0000    833.8304      2.9869
  2123.2500     26.9566      0.0000    817.9632      2.9532
  2123.5000     28.4354      0.0000    807.4962      2.9245
  2123.7500     31.2082      0.0000    804.4021      2.9033
  2124.0000     34.0529      0.0000    803.6541      2.9034
  2124.2500     36.7793      0.0000    801.5186      2.9449
  2124.5000     40.0223      0.0000    799.1775      3.0505
  2124.7500     44.1437      0.0000    804.7069      3.2301
  2125.0000     48.6175      0.0000    829.4324      3.4729
  2125.2500     52.3911      0.0000    870.6376      3.7594
  2125.5000     54.8115      0.0000    899.9412      4.0730
  2125.7500     56.4198      0.0000    890.6218      4.4079
  2126.0000     58.7451      0.0000    847.3322      4.7698
  2126.2500     62.8174      0.0000    784.2543      5.1483
  2126.5000     67.7299      0.0000    705.7963      5.5122
  2126.7500     71.1294      0.0000    630.0047      5.8490
  2127.0000     71.4211      0.0000    591.6584      6.1654
  2127.2500     69.1778      0.0000    602.4626      6.4364
  2127.5000     66.2949      0.0000    635.0748      6.6067
  2127.7500     64.2828      0.0000    659.6695      6.6599
