~Version Information
VERS.                      2.0: CWLS Log ASCII Standard - VERSION 2.0
WRAP.                       NO: One line per depth step
~Well Information Block
STRT.FT               275.0000: 
STOP.FT              1682.2500: 
STEP.FT                 0.2500: 
NULL.                -999.2500: 
COMP.          Pioneer Natural Resources: COMPANY
WELL.               Elmo 14-21: WELL
FLD.           Purgatoire River: FIELD
LOC.           623' FSL & 450' FWL----: LOCATION
PROV.                 Colorado: PROVINCE
CNTY.               Las Animas: COUNTRY
SRVC.                Patterson: SERVICE COMPANY
DATE.          Tue May 17 16:07:31 2005: LOG DATE
UWI.           05 071 08360 00: UNIQUE WELL ID
~Curve Information Block
DEPT.FT            0 000 00 00: Depth
SN.Ohm-m                      : IEL Short Normal
SP.mV                         : IEL Spontaneous Potential
DIR.Ohm-m                     : IEL Induction Resistivity
GR.GAPI                       : Gamma Ray
~Parameter Information Block
~A  Depth        SN          SP         DIR          GR     
# ...
  1648.5000     19.9953     46.9360     21.6690     88.0097
  1648.7500     19.9198     46.9176     21.5364     88.1609
  1649.0000     19.8721     46.8751     21.4071     87.8123
  1649.2500     19.8953     46.7761     21.3128     86.3013
  1649.5000     20.0185     46.5861     21.2826     79.2288
  1649.7500     20.2495     46.2751     21.3351     69.8685
  1650.0000     20.5758     45.8228     21.4798     49.7015
  1650.2500     20.9696     45.2229     21.7221     34.9639
  1650.5000     21.3969     44.4855     22.0644     16.6120
  1650.7500     21.8277     43.6353     22.5026      8.6463
  1651.0000     22.2447     42.7095     23.0216      2.5259
  1651.2500     22.6464     41.7537     23.5932      0.9339
  1651.5000     23.0457     40.8162     24.1795      0.1591
  1651.7500     23.4640     39.9431     24.7404      0.0391
  1652.0000     23.9220     39.1740     25.2408      0.0024
  1652.2500     24.4258     38.5370     25.6551   -999.2500
  1652.5000     24.9557     38.0454     25.9700   -999.2500
  1652.7500     25.4648     37.6960     26.1874   -999.2500
  1653.0000     25.8926     37.4688     26.3252   -999.2500
  1653.2500     26.1883     37.3299     26.4134   -999.2500
  1653.5000     26.3298     37.2371     26.4855   -999.2500
  1653.7500     26.3318     37.1459     26.5695   -999.2500
  1654.0000     26.2382     37.0153     26.6790   -999.2500
  1654.2500     26.0998     36.8103     26.8096   -999.2500
  1654.5000     25.9485     36.5005     26.9435   -999.2500
  1654.7500     25.7855     36.0461     27.0622   -999.2500
  1655.0000     25.5911     35.3793     27.1571   -999.2500
  1655.2500     25.3484     34.3788     27.2297   -999.2500
  1655.5000     25.0609     32.8420     27.2784   -999.2500
  1655.7500     24.7538     30.4631     27.2884   -999.2500
  1656.0000     24.4607     26.8275     27.2339   -999.2500
  1656.2500     24.2075     21.4364     27.0923   -999.2500
  1656.5000     24.0034     13.7692     26.8567   -999.2500
  1656.7500     23.8392      3.3859     26.5392   -999.2500
  1657.0000     23.6926     -9.9471     26.1646   -999.2500
  1657.2500     23.5376    -26.1371     25.7585   -999.2500
  1657.5000     23.3555    -44.6902     25.3393   -999.2500
  1657.7500     23.1442    -64.7166     24.9195   -999.2500
  1658.0000     22.9209    -85.0308     24.5119   -999.2500
  1658.2500     22.7157   -104.3284     24.1346   -999.2500
  1658.5000     22.5577   -121.3941     23.8093   -999.2500
  1658.7500     22.4662   -135.2865     23.5591   -999.2500
  1659.0000     22.4505   -145.4533     23.4051   -999.2500
  1659.2500     22.5119   -151.7525     23.3654   -999.2500
  1659.5000     22.6421   -154.3953     23.4478   -999.2500
  1659.7500     22.8256   -153.8453     23.6425   -999.2500
  1660.0000     23.0508   -150.7154     23.9215   -999.2500
  1660.2500     23.3223   -145.6891     24.2519   -999.2500
  1660.5000     23.6617   -139.4737     24.6136   -999.2500
  1660.7500     24.0938   -132.7729     25.0050   -999.2500
  1661.0000     24.6293   -126.2587     25.4316   -999.2500
  1661.2500     25.2549   -120.5286     25.8880   -999.2500
  1661.5000     25.9356   -116.0473     26.3520   -999.2500
  1661.7500     26.6266   -113.0885     26.7930   -999.2500
  1662.0000     27.2894   -111.6934     27.1855   -999.2500
  1662.2500     27.9016   -111.6680     27.5174   -999.2500
  1662.5000     28.4556   -112.6268     27.7883   -999.2500
  1662.7500     28.9465   -114.0672     28.0031   -999.2500
  1663.0000     29.3618   -115.4581     28.1682   -999.2500
  1663.2500     29.6782   -116.3330     28.2917   -999.2500
  1663.5000     29.8671   -116.3697     28.3855   -999.2500
  1663.7500     29.9013   -115.4531     28.4605   -999.2500
  1664.0000     29.7645   -113.7106     28.5174   -999.2500
  1664.2500     29.4594   -111.5099     28.5392   -999.2500
  1664.5000     29.0134   -109.4046     28.4931   -999.2500
  1664.7500     28.4762   -108.0233     28.3445   -999.2500
  1665.0000     27.9060   -107.9167     28.0740   -999.2500
  1665.2500     27.3530   -109.4004     27.6857   -999.2500
  1665.5000     26.8474   -112.4399     27.1991   -999.2500
  1665.7500     26.3982   -116.6211     26.6303   -999.2500
  1666.0000     25.9985   -121.2181     25.9837   -999.2500
  1666.2500     25.6303   -125.3396     25.2656   -999.2500
  1666.5000     25.2692   -128.1062     24.5066   -999.2500
  1666.7500     24.8936   -128.8069     23.7667   -999.2500
  1667.0000     24.5003   -126.9944     23.1148   -999.2500
  1667.2500     24.1156   -122.5126     22.6034   -999.2500
  1667.5000     23.7926   -115.4717     22.2572   -999.2500
  1667.7500     23.5926   -106.1966     22.0773   -999.2500
  1668.0000     23.5622    -95.1708     22.0508   -999.2500
  1668.2500     23.7176    -82.9855     22.1569   -999.2500
  1668.5000     24.0420    -70.2953     22.3724   -999.2500
  1668.7500     24.4937    -57.7707     22.6780   -999.2500
  1669.0000     25.0201    -46.0435     23.0665   -999.2500
  1669.2500     25.5730    -35.6484     23.8273   -999.2500
  1669.5000     26.1214    -26.9688     24.4450   -999.2500
  1669.7500     26.6563    -20.1999     25.2186   -999.2500
  1670.0000     27.1825    -15.3377     26.1618   -999.2500
  1670.2500     27.7021    -12.1982     27.2509   -999.2500
  1670.5000     28.1959    -10.4572     28.4197   -999.2500
  1670.7500     28.6139     -9.7008     29.5685   -999.2500
  1671.0000     28.8768     -9.4838     30.5714   -999.2500
  1671.2500     28.8924     -9.3794     31.2911   -999.2500
  1671.5000     28.5817     -9.0207     31.6289   -999.2500
  1671.7500     27.9052     -8.1333     31.6392   -999.2500
  1672.0000     26.8817     -6.5576     31.6582   -999.2500
  1672.2500     25.5961     -4.2621     32.3592   -999.2500
  1672.5000     24.1927     -1.3420     34.8055   -999.2500
  1672.7500     22.8425      1.9958     39.8956   -999.2500
  1673.0000     21.6838      5.4650     53.0962   -999.2500
  1673.2500     20.7670      8.7440     86.7650   -999.2500
  1673.5000     20.0487     11.5245    223.6232   -999.2500
  1673.7500     19.4429     13.5577 100000.0000   -999.2500
  1674.0000     18.8917     14.6865 100000.0000   -999.2500
  1674.2500     18.4052     14.8625 100000.0000   -999.2500
  1674.5000     18.0626     14.1443 100000.0000   -999.2500
  1674.7500     17.9843     12.6806 100000.0000   -999.2500
  1675.0000     18.2857     10.6830 100000.0000   -999.2500
  1675.2500     19.0147      8.3937 100000.0000   -999.2500
  1675.5000     20.1085      6.0534 100000.0000   -999.2500
  1675.7500     21.4051      3.8730 100000.0000   -999.2500
  1676.0000     22.7075      2.0126 100000.0000   -999.2500
  1676.2500     23.8510      0.5685 100000.0000   -999.2500
  1676.5000     24.7162     -0.4290 100000.0000   -999.2500
  1676.7500     25.1592     -1.0087 100000.0000   -999.2500
  1677.0000     24.8787     -1.2428 100000.0000   -999.2500
  1677.2500     23.3564     -1.2270 100000.0000   -999.2500
  1677.5000     20.0974     -1.0601 100000.0000   -999.2500
  1677.7500     15.1632     -0.8279 100000.0000   -999.2500
  1678.0000      9.4891     -0.5926 100000.0000   -999.2500
  1678.2500      4.4488     -0.3914 100000.0000   -999.2500
  1678.5000      0.9731     -0.2389 100000.0000   -999.2500
  1678.7500     -0.8909     -0.1347 100000.0000   -999.2500
  1679.0000     -1.6688     -0.0698 100000.0000   -999.2500
  1679.2500     -1.9215     -0.0330 100000.0000   -999.2500
  1679.5000     -1.9855     -0.0140 100000.0000   -999.2500
  1679.7500     -1.9981     -0.0052 100000.0000   -999.2500
  1680.0000   -999.2500     -0.0015 100000.0000   -999.2500
  1680.2500   -999.2500     -0.0002  17678.9141   -999.2500
  1680.5000   -999.2500      0.0002   3973.2817   -999.2500
  1680.7500   -999.2500      0.0002   2735.1460   -999.2500
  1681.0000   -999.2500      0.0001   2369.8171   -999.2500
  1681.2500   -999.2500      0.0001   2243.9521   -999.2500
  1681.5000   -999.2500   -999.2500   2202.2048   -999.2500
  1681.7500   -999.2500   -999.2500   2189.8320   -999.2500
