~Version Information
VERS.                      2.0: CWLS Log ASCII Standard - VERSION 2.0
WRAP.                       NO: One line per depth step
~Well Information Block
STRT.FT               650.0000: 
STOP.FT              1999.0000: 
STEP.FT                 0.2500: 
NULL.                -999.2500: 
COMP.          Pioneer Natural Resources: COMPANY
WELL.           Firehawk 34-26: WELL
FLD.           Purgatoire River: FIELD
LOC.           1196' FSL & 1595' FEL--: LOCATION
STAT.                 Colorado: State
CNTY.               Las Animas: COUNTY
CTRY. USA : Country
SECT. 26 : Section
TOWN. 32S : Township
RANG. 66W : Range
SRVC.                Patterson: SERVICE COMPANY
DATE.          Sun Oct 16 16:57:28 2005: LOG DATE
API.           05 071 08389 00: UNIQUE WELL ID
~Curve Information Block
DEPT.FT            0 000 00 00: Depth
SN.Ohm-m                      : IEL Short Normal
SP.mV                         : IEL Spontaneous Potential
DIR.Ohm-m                     : IEL Induction Resistivity
GR.GAPI                       : Gamma Ray
~Parameter Information Block
~A  Depth        SN          SP         DIR          GR     
# ...
   817.5000     14.1183   -146.7792     10.3955     95.3834
   817.7500     15.7693   -146.6797     10.0051     93.1235
   818.0000     17.8320   -146.4330      9.9408     88.0924
   818.2500     19.8320   -146.1995     10.0906     83.7672
   818.5000     21.3605   -146.1427     10.4025     77.0088
   818.7500     22.2650   -146.2981     10.8549     73.3708
   819.0000     22.6428   -146.5820     11.4279     70.4857
   819.2500     22.6320   -146.8755     12.0809     70.4105
   819.5000     22.3135   -147.0835     12.7439     72.7934
   819.7500     21.7877   -147.1473     13.3327     75.9791
   820.0000     21.0993   -147.0561     13.7803     83.2030
   820.2500     20.0868   -146.8572     14.0637     89.3971
   820.5000     18.6406   -146.6185     14.2034     99.1956
   820.7500     17.0427   -146.3567     14.2385    104.6689
   821.0000     15.7132   -146.0123     14.2020    109.4152
   821.2500     14.7879   -145.4914     14.1072    110.1404
   821.5000     14.1749   -144.7165     13.9508    108.7228
   821.7500     13.7774   -143.6618     13.7237    106.7935
   822.0000     13.5051   -142.3970     13.4256    102.5369
   822.2500     13.2631   -141.1141     13.0728     98.4175
   822.5000     13.0002   -140.0601     12.6965     90.3703
   822.7500     12.7071   -139.3869     12.3328     84.8075
   823.0000     12.4105   -139.0433     12.0125     79.1240
   823.2500     12.1850   -138.8148     11.7544     78.3734
   823.5000     12.0511   -138.4946     11.5653     81.5981
   823.7500     11.8785   -138.0532     11.4413     85.3638
   824.0000     11.5403   -137.6753     11.3712     90.8648
   824.2500     11.0844   -137.6343     11.3389     93.3560
   824.5000     10.6381   -138.1063     11.3273     94.5677
   824.7500     10.3077   -139.0527     11.3205     93.9085
   825.0000     10.2128   -140.2400     11.3061     91.9331
   825.2500     10.4320   -141.3814     11.2750     90.7072
   825.5000     10.8705   -142.3013     11.2226     89.6987
   825.7500     11.3024   -142.9964     11.1505     89.6743
   826.0000     11.5659   -143.5576     11.0672     90.5328
   826.2500     11.6408   -144.0539     10.9872     91.4731
   826.5000     11.5652   -144.4931     10.9268     92.6906
   826.7500     11.3794   -144.8591     10.8986     93.0211
   827.0000     11.1625   -145.1518     10.9095     92.9256
   827.2500     11.0263   -145.3921     10.9604     92.8751
   827.5000     11.0182   -145.6080     11.0479     93.2158
   827.7500     11.0937   -145.8243     11.1647     93.4961
   828.0000     11.2049   -146.0505     11.3009     93.2269
   828.2500     11.3437   -146.2682     11.4459     92.3396
   828.5000     11.4810   -146.4425     11.5908     90.1653
   828.7500     11.5581   -146.5565     11.7296     88.4982
   829.0000     11.5536   -146.6315     11.8586     86.1928
   829.2500     11.4826   -146.7080     11.9742     84.9579
   829.5000     11.3901   -146.8167     12.0708     83.7758
   829.7500     11.3708   -146.9802     12.1417     83.6244
   830.0000     11.4809   -147.2334     12.1817     84.6306
   830.2500     11.6432   -147.6192     12.1896     86.0258
   830.5000     11.7227   -148.1425     12.1686     88.4559
   830.7500     11.6741   -148.7222     12.1251     89.7507
   831.0000     11.5717   -149.1972     12.0646     90.6233
   831.2500     11.5221   -149.3900     11.9895     90.4927
   831.5000     11.5740   -149.1945     11.8991     89.8509
   831.7500     11.6724   -148.6441     11.7929     89.7736
   832.0000     11.7070   -147.9169     11.6753     91.1176
   832.2500     11.6273   -147.2531     11.5570     92.8797
   832.5000     11.4845   -146.8123     11.4510     95.2857
   832.7500     11.3527   -146.5655     11.3670     95.6580
   833.0000     11.2453   -146.3258     11.3051     93.7919
   833.2500     11.1311   -145.9171     11.2558     91.6261
   833.5000     10.9977   -145.3458     11.2048     89.0631
   833.7500     10.8607   -144.8104     11.1401     88.7757
   834.0000     10.7172   -144.5381     11.0583     90.9540
   834.2500     10.5389   -144.6147     10.9658     93.7278
   834.5000     10.3274   -144.9609     10.8750     98.2489
   834.7500     10.1317   -145.4290     10.7989    100.3833
   835.0000     10.0202   -145.8943     10.7469    101.0955
   835.2500     10.0437   -146.2764     10.7240     99.9832
   835.5000     10.1932   -146.5219     10.7313     96.8088
   835.7500     10.3972   -146.6074     10.7679     94.2013
   836.0000     10.5520   -146.5685     10.8324     90.3545
   836.2500     10.5885   -146.5059     10.9221     88.3344
   836.5000     10.5695   -146.5341     11.0316     86.6110
   836.7500     10.6503   -146.7088     11.1528     86.1615
   837.0000     10.8815   -146.9962     11.2770     85.8519
   837.2500     11.1673   -147.3086     11.3978     85.6830
   837.5000     11.4282   -147.5680     11.5131     85.6566
   837.7500     11.6517   -147.7439     11.6248     85.9901
   838.0000     11.8229   -147.8480     11.7378     87.2150
   838.2500     11.9548   -147.9135     11.8586     88.4936
   838.5000     12.1361   -147.9729     11.9934     90.7975
   838.7500     12.4283   -148.0431     12.1469     92.2548
   839.0000     12.7455   -148.1416     12.3192     93.7075
   839.2500     12.9236   -148.3298     12.5047     94.0029
   839.5000     12.9069   -148.7016     12.6916     93.6721
   839.7500     12.8051   -149.2821     12.8663     93.3224
   840.0000     12.7815   -149.9552     13.0193     93.3673
   840.2500     12.9487   -150.5361     13.1519     94.1184
   840.5000     13.3028   -150.9289     13.2748     96.4002
   840.7500     13.6995   -151.2072     13.4006     98.2981
   841.0000     13.9562   -151.5316     13.5350    100.5608
   841.2500     14.0029   -151.9400     13.6733    101.1021
   841.5000     13.9050   -152.1773     13.8026    100.1000
   841.7500     13.7863   -151.8147     13.9068     98.3612
   842.0000     13.7674   -150.6799     13.9717     94.7461
   842.2500     13.8966   -149.1714     13.9894     92.1376
   842.5000     14.0942   -148.0130     13.9613     88.8465
   842.7500     14.2070   -147.6524     13.8989     87.5535
   843.0000     14.0771   -147.9580     13.8224     87.3363
   843.2500     13.5624   -148.4659     13.7573     88.1812
   843.5000     12.6451   -148.7963     13.7292     90.2359
   843.7500     11.5781   -148.8341     13.7570     91.6987
   844.0000     10.7701   -148.6514     13.8455     93.4926
   844.2500     10.4383   -148.3598     13.9816     94.2520
   844.5000     10.5070   -148.0273     14.1331     94.7778
   844.7500     10.8489   -147.6773     14.2518     94.9438
   845.0000     11.4091   -147.3268     14.2805     95.3315
   845.2500     12.1199   -147.0078     14.1649     95.6828
   845.5000     12.9168   -146.7578     13.8673     95.9310
   845.7500     13.7664   -146.6009     13.3781     95.7292
   846.0000     14.5096   -146.5401     12.7200     95.1047
   846.2500     14.8203   -146.5546     11.9445     94.8051
   846.5000     14.4904   -146.5917     11.1203     94.8704
   846.7500     13.6896   -146.5727     10.3186     95.1703
   847.0000     12.8434   -146.4232      9.5998     95.6679
   847.2500     12.2701   -146.1168      9.0031     96.0496
   847.5000     11.9750   -145.7000      8.5438     97.2356
   847.7500     11.7618   -145.2749      8.2149     98.7915
   848.0000     11.4786   -144.9377      7.9954    102.3767
   848.2500     11.1446   -144.7180      7.8617    105.2378
   848.5000     10.8730   -144.5744      7.8043    109.1068
   848.7500     10.7142   -144.4422      7.8456    110.8196
   849.0000     10.6123   -144.2720      8.0602    111.8960
   849.2500     10.4893   -144.0360      8.6079    111.9030
   849.5000     10.3364   -143.7378      9.8210    111.1227
   849.7500     10.2192   -143.4353     12.5247    109.8033
   850.0000     10.1926   -143.2270     19.6530    105.9149
   850.2500     10.2633   -143.1818     55.9076    102.1039
   850.5000     10.4298   -143.2780 100000.0000     96.1000
   850.7500     10.6848   -143.4227 100000.0000     93.2910
