~Version Information
VERS.                      2.0: CWLS Log ASCII Standard - VERSION 2.0
WRAP.                       NO: One line per depth step
~Well Information Block
STRT.FT               757.3000: 
STOP.FT              2418.0000: 
STEP.FT                 0.1000: 
NULL.                -999.2500: 
COMP.          Petrogulf Corporation: COMPANY
WELL.            Montoya 7-21V: WELL
FLD.           Purgatorie River: FIELD
LOC.           738' FSL & 2070' FWL: LOCATION
CNTY.               Las Animas: COUNTY
SRVC.                         : SERVICE COMPANY
DATE.          Fri Aug 20 14:08:15 2004: LOG DATE
UWI.           05 071 08018 00: UNIQUE WELL ID
STAT.                 Colorado: STATE
~Curve Information Block
DEPT.FT            0 000 00 00: Depth
DCAL.in                       : CDL Caliper
RHOB.g/cc                     : CDL Bulk Density
RHOC.g/cc                     : CDL Density Correction
DPOR.pu                       : CDL Density Porosity
GR.GAPI                       : Gamma Ray
NPOR.pu                       : Neutron Porosity
~Parameter Information Block
~A  Depth       DCAL        RHOB        RHOC        DPOR         GR         NPOR    
# ...
   786.1000   -999.2500   -999.2500   -999.2500   -999.2500     84.3506     35.0768
   786.2000   -999.2500   -999.2500   -999.2500   -999.2500     89.4134     35.1634
   786.3000   -999.2500   -999.2500   -999.2500   -999.2500     93.7081     35.5032
   786.4000   -999.2500   -999.2500   -999.2500   -999.2500     89.1178     35.6753
   786.5000   -999.2500   -999.2500   -999.2500   -999.2500     80.8431     35.2224
   786.6000   -999.2500   -999.2500   -999.2500   -999.2500     74.4656     34.8040
   786.7000   -999.2500   -999.2500   -999.2500   -999.2500     67.7562     34.8305
   786.8000   -999.2500   -999.2500   -999.2500   -999.2500     59.3236     35.0829
   786.9000   -999.2500   -999.2500   -999.2500   -999.2500     52.3085     35.7204
   787.0000   -999.2500   -999.2500   -999.2500   -999.2500     49.4337     36.4031
   787.1000   -999.2500   -999.2500   -999.2500   -999.2500     50.0434     36.4646
   787.2000   -999.2500   -999.2500   -999.2500   -999.2500     49.3107     36.1430
   787.3000   -999.2500   -999.2500   -999.2500   -999.2500     44.7348     36.0288
   787.4000   -999.2500   -999.2500   -999.2500   -999.2500     40.6240     36.0910
   787.5000   -999.2500   -999.2500   -999.2500   -999.2500     39.5348     36.1244
   787.6000   -999.2500   -999.2500     -0.7820   -999.2500     39.6399     36.4191
   787.7000   -999.2500   -999.2500     -0.7511   -999.2500     39.4665     37.2755
   787.8000   -999.2500   -999.2500     -0.7374   -999.2500     40.9331     38.2749
   787.9000   -999.2500   -999.2500     -0.7896   -999.2500     47.2037     38.8069
   788.0000      2.9374   -999.2500     -0.7916   -999.2500     56.3582     38.4960
   788.1000      2.9374      1.9060     -0.6957     45.0890     62.0540     37.6222
   788.2000      2.9374      1.9978     -0.5790     39.5282     62.6479     36.9078
   788.3000      2.9379      2.0565     -0.5740     35.9694     63.5130     36.5531
   788.4000      2.9379      2.0769     -0.6358     34.7317     66.0977     36.3474
   788.5000      2.9381      2.0795     -0.6296     34.5761     67.0668     36.2565
   788.6000      2.9381      2.0886     -0.6749     34.0232     66.6688     36.0708
   788.7000      2.9381      2.1160     -0.6273     32.3649     67.9239     35.3982
   788.8000      2.9359      2.1438     -0.5875     30.6814     71.2005     34.8097
   788.9000      2.9359      2.1508     -0.6238     30.2548     77.7716     35.1565
   789.0000      2.9267      2.1428     -0.6381     30.7402     91.1110     35.8763
   789.1000      2.9267      2.1299     -0.6390     31.5186    108.5950     35.9940
   789.2000      2.9267      2.1116     -0.6457     32.6319    119.1608     35.6946
   789.3000      2.9187      2.0868     -0.6101     34.1333    116.3423     35.6953
   789.4000      2.9187      2.0687     -0.6986     35.2319    106.4566     36.0819
   789.5000      2.9193      2.0750     -0.6205     34.8471     97.1820     36.3216
   789.6000      2.9193      2.0963     -0.6471     33.5572     91.1227     35.8232
   789.7000      2.9193      2.1093     -0.6176     32.7675     90.1782     34.9484
   789.8000      2.9259      2.1106     -0.6197     32.6898     95.6736     34.4086
   789.9000      2.9259      2.1134     -0.5896     32.5205    103.2495     34.3177
   790.0000      2.9341      2.1161     -0.5973     32.3568    107.4760     34.7202
   790.1000      2.9341      2.1049     -0.5673     33.0346    107.0213     35.3845
   790.2000      2.9341      2.0820     -0.6100     34.4260    103.0843     35.8675
   790.3000      2.9385      2.0692     -0.5952     35.1995     99.0627     35.7005
   790.4000      2.9385      2.0779     -0.6067     34.6748     95.6293     34.6042
   790.5000      2.9370      2.0935     -0.5719     33.7255     90.2636     33.4499
   790.6000      2.9370      2.1039     -0.6048     33.0989     81.5746     33.4307
   790.7000      2.9370      2.1157     -0.5811     32.3845     74.9078     34.4261
   790.8000      2.9388      2.1381     -0.5972     31.0260     78.3573     35.3675
   790.9000      2.9388      2.1644     -0.5336     29.4275     90.1227     35.6918
   791.0000      2.9397      2.1700     -0.5090     29.0893    100.5487     35.4467
   791.1000      2.9397      2.1390     -0.5410     30.9713    102.4372     34.9578
   791.2000      2.9397      2.0872     -0.6103     34.1084     96.5294     34.5872
   791.3000      2.9375      2.0471     -0.6485     36.5410     87.1474     34.4088
   791.4000      2.9375      2.0325     -0.6631     37.4220     78.2487     34.4481
   791.5000      2.9399      2.0229     -0.6036     38.0086     72.7340     35.1321
   791.6000      2.9399      1.9901     -0.6264     39.9930     71.0722     36.1673
   791.7000      2.9399      1.9293     -0.6083     43.6803     68.7517     36.5882
   791.8000      2.9474      1.8540     -0.6393     48.2420     61.6177     36.3631
   791.9000      2.9474      1.7896     -0.7330     52.1465     54.5817     36.2934
   792.0000      2.9555      1.7522     -0.7012     54.4112     51.7389     36.9604
   792.1000      2.9555      1.7291     -0.7190     55.8143     50.2520     37.9870
   792.2000      2.9555      1.7069     -0.7659     57.1561     48.8854     38.5977
   792.3000      2.9548      1.6970     -0.7983     57.7550     48.3253     38.4784
   792.4000      2.9548      1.7117     -0.7726     56.8692     49.3937     37.5737
   792.5000      2.9451      1.7409     -0.7706     55.0996     51.7152     36.5474
   792.6000      2.9451      1.7720     -0.7878     53.2122     52.9296     36.3156
   792.7000      2.9451      1.8089     -0.7278     50.9776     53.2474     36.6391
   792.8000      2.9355      1.8585     -0.7829     47.9693     55.4816     36.8456
   792.9000      2.9355      1.9110     -0.6687     44.7867     58.9063     36.9859
   793.0000      2.9313      1.9461     -0.6834     42.6626     63.2698     37.3122
   793.1000      2.9313      1.9579     -0.6862     41.9446     69.4801     37.6229
   793.2000      2.9313      1.9447     -0.6809     42.7471     74.0493     37.6153
   793.3000      2.9364      1.9044     -0.7559     45.1887     74.9118     37.5452
   793.4000      2.9364      1.8536     -0.7497     48.2663     75.5102     37.6389
   793.5000      2.9483      1.8145     -0.7263     50.6339     76.1603     37.5195
   793.6000      2.9483      1.7937     -0.7094     51.8955     74.1180     36.7327
   793.7000      2.9483      1.7815     -0.7417     52.6392     71.2452     35.6941
   793.8000      2.9510      1.7671     -0.7590     53.5076     69.0320     35.3022
   793.9000      2.9510      1.7552     -0.7274     54.2331     67.1319     35.6339
   794.0000      2.9429      1.7610     -0.7444     53.8790     70.3333     36.2384
   794.1000      2.9429      1.7904     -0.7430     52.0964     80.7315     36.8681
   794.2000      2.9429      1.8269     -0.6819     49.8834     89.0099     37.2235
   794.3000      2.9326      1.8500     -0.7527     48.4826     91.2710     36.9840
   794.4000      2.9326      1.8574     -0.6833     48.0373     91.4681     36.5368
   794.5000      2.9270      1.8580     -0.7565     48.0001     92.2306     36.3458
   794.6000      2.9270      1.8623     -0.7570     47.7377     96.1717     36.3459
   794.7000      2.9270      1.8797     -0.7520     46.6865     98.3121     36.4665
   794.8000      2.9285      1.9088     -0.6860     44.9231     94.2023     36.4742
   794.9000      2.9285      1.9271     -0.6642     43.8109     89.5837     36.2496
   795.0000      2.9333      1.9165     -0.7036     44.4562     85.8300     35.9564
   795.1000      2.9333      1.8885     -0.7014     46.1496     80.8126     35.6567
   795.2000      2.9333      1.8632     -0.6490     47.6819     79.2183     35.4525
   795.3000      2.9343      1.8432     -0.6716     48.8952     81.4581     35.5728
   795.4000      2.9343      1.8193     -0.6918     50.3466     81.3980     36.1866
   795.5000      2.9349      1.7859     -0.6975     52.3673     78.1272     37.1012
   795.6000      2.9349      1.7536     -0.7262     54.3257     76.1766     37.6227
