~Version Information
VERS.                      2.0: CWLS Log ASCII Standard - VERSION 2.0
WRAP.                       NO: One line per depth step
~Well Information Block
STRT.FT                -0.2500: 
STOP.FT              2376.7500: 
STEP.FT                 0.2500: 
NULL.                -999.2500: 
COMP.          Petrogulf Corporation: COMPANY
WELL.             State 16-23V: WELL
FLD.           Purgatorie River: FIELD
LOC.           2414' FSL & 2215' FWL: LOCATION
PROV.                 Colorado: PROVINCE
CNTY.               Las Animas: COUNTRY
SRVC.          Patterson Wireline: SERVICE COMPANY
DATE.          Wed Jun 25 14:56:54 2003: LOG DATE
UWI.           05 071 07865 00: UNIQUE WELL ID
~Curve Information Block
DEPT.FT            0 000 00 00: Depth
CCL.                          : Casing Collar Locator
TT3.usec                      : CBL 3' Travel Time
AMP3.mV                       : CBL 3' Amplitude
GR.GAPI                       : Gamma Ray
~Parameter Information Block
~A  Depth       CCL         TT3         AMP3         GR     
# ...
   770.2500      0.0000    257.2997     64.9173    113.5075
   770.5000      0.0000    257.1884     64.3758    118.5450
   770.7500      0.0000    257.1007     64.0381    117.5913
   771.0000      0.0000    257.0632     63.9485    110.8632
   771.2500      0.0000    257.0780     64.0323    100.6563
   771.5000      0.0000    257.1324     64.1637     91.0095
   771.7500      0.0000    257.2036     64.2662     85.4625
   772.0000      0.0000    257.2647     64.3540     84.5875
   772.2500      0.0000    257.2993     64.4748     85.5835
   772.5000      0.0000    257.3059     64.6141     84.3574
   772.7500      0.0000    257.2917     64.6677     78.2985
   773.0000      0.0000    257.2700     64.5322     67.7549
   773.2500      0.0000    257.2596     64.2304     55.6013
   773.5000      0.0000    257.2705     63.9264     45.5223
   773.7500      0.0000    257.2939     63.7907     40.0660
   774.0000      0.0000    257.3151     63.8556     39.5520
   774.2500      0.0000    257.3290     64.0249     42.4481
   774.5000      0.0000    257.3409     64.2118     46.9366
   774.7500      0.0000    257.3621     64.4219     52.3602
   775.0000      0.0000    257.4063     64.6839     59.2455
   775.2500      0.0000    257.4792     64.9439     68.1367
   775.5000      0.0000    257.5652     65.0813     78.6286
   775.7500      0.0000    257.6263     65.0422     89.3545
   776.0000      0.0000    257.6185     64.9207     98.6503
   776.2500      0.0000    257.5240     64.8802    105.5484
   776.5000      0.0000    257.3711     65.0009    110.5712
   776.7500      0.0000    257.2172     65.2283    115.3267
   777.0000      0.0000    257.1097     65.4625    120.9457
   777.2500      0.0000    257.0651     65.6509    126.9543
   777.5000      0.0000    257.0762     65.7710    131.6904
   777.7500      0.0000    257.1237     65.7747    133.6104
   778.0000      0.0000    257.1766     65.6238    132.4216
   778.2500      0.0000    257.2000     65.3830    129.4808
   778.5000      0.0000    257.1783     65.2145    127.0579
   778.7500      0.0000    257.1302     65.2421    126.5420
   779.0000      0.0000    257.0940     65.4433    127.2748
   779.2500      0.0000    257.1006     65.6873    127.5832
   779.5000      0.0000    257.1572     65.8550    126.7845
   779.7500      0.0000    257.2453     65.9142    125.6227
   780.0000      0.0000    257.3297     65.9101    125.0435
   780.2500      0.0000    257.3792     65.9075    125.2902
   780.5000      0.0000    257.3857     65.9355    126.0538
   780.7500      0.0000    257.3640     65.9659    126.7092
   781.0000      0.0000    257.3329     65.9408    126.3506
   781.2500      0.0000    257.3004     65.8337    124.2066
   781.5000      0.0000    257.2723     65.6868    120.1940
   781.7500      0.0000    257.2604     65.5811    114.8727
   782.0000      0.0000    257.2724     65.5796    109.0980
   782.2500      0.0000    257.3009     65.7018    103.9096
   782.5000      0.0000    257.3351     65.9174    100.3583
   782.7500      0.0000    257.3728     66.1344     98.9025
   783.0000      0.0000    257.4127     66.2256     98.9729
   783.2500      0.0000    257.4443     66.1200     99.4922
   783.5000      0.0000    257.4525     65.8685     99.9550
   783.7500      0.0000    257.4278     65.6025    100.8588
   784.0000      0.0000    257.3749     65.4368    103.0041
   784.2500      0.0000    257.3144     65.4104    106.3483
   784.5000      0.0000    257.2712     65.4774    109.6077
   784.7500      0.0000    257.2500     65.5360    111.2686
   785.0000      0.0000    257.2288     65.5054    111.0763
   785.2500      0.0000    257.1852     65.4028    110.3488
   785.5000      0.0000    257.1233     65.3234    110.8644
   785.7500      0.0000    257.0652     65.3378    113.3220
   786.0000      0.0000    257.0271     65.4355    116.4664
   786.2500      0.0000    257.0088     65.5631    117.7694
   786.5000      0.0000    257.0023     65.6839    115.4701
   786.7500      0.0000    257.0005     65.7831    109.9848
   787.0000      0.0000    257.0001     65.8415    103.3376
   787.2500      0.0000    257.0000     65.8384     97.7649
   787.5000      0.0000    256.9996     65.7859     94.9899
   787.7500      0.0000    256.9978     65.7436     95.9099
   788.0000      0.0000    256.9913     65.7811    100.0897
   788.2500      0.0000    256.9730     65.9126    105.7121
   788.5000      0.0000    256.9353     66.0732    110.5830
   788.7500      0.0000    256.8791     66.1806    113.3801
   789.0000      0.0000    256.8244     66.2171    114.0369
   789.2500      0.0000    256.8028     66.2181    113.3015
   789.5000      0.0000    256.8328     66.1880    112.1735
   789.7500      0.0000    256.9065     66.0724    111.6244
   790.0000      0.0000    257.0023     65.8263    112.5234
   790.2500      0.0000    257.1028     65.4866    115.5319
   790.5000      0.0000    257.1943     65.1608    120.9364
   790.7500      0.0000    257.2621     64.9460    128.5372
   791.0000      0.0000    257.2970     64.8724    137.6139
   791.2500      0.0000    257.2992     64.9243    146.9231
   791.5000      0.0000    257.2731     65.0700    154.6573
   791.7500      0.0000    257.2305     65.2393    158.5314
   792.0000      0.0000    257.1967     65.3180    156.4787
   792.2500      0.0000    257.1969     65.2308    147.9511
   792.5000      0.0000    257.2318     65.0270    134.8493
   792.7500      0.0000    257.2810     64.8125    121.0356
   793.0000      0.0000    257.3356     64.5405    110.5576
   793.2500      0.0000    257.4309     63.8611    105.8875
   793.5000      0.0000    257.6611     62.1937    107.0903
   793.7500      0.0000    258.1675     59.0810    111.9138
   794.0000      0.0000    259.0704     54.6579    116.8357
   794.2500      0.0000    260.3525     49.7756    119.0400
   794.5000      0.0000    261.8026     45.4543    118.1651
   794.7500      0.0000    263.1108     42.1605    116.2394
   795.0000      0.0000    264.0464     39.7467    115.7936
   795.2500      0.0000    264.5656     37.9606    117.9166
   795.5000      0.0000    264.7775     36.7260    121.9014
   795.7500      0.0000    264.8625     35.9914    126.4239
   796.0000      2.0000    265.0538     35.6090    130.7311
   796.2500      0.0000    265.6770     35.4578    134.6052
   796.5000      0.0000    267.0413     35.6741    137.6257
   796.7500      0.0000    269.0144     36.7579    139.0658
   797.0000      0.0000    270.6343     39.3516    138.6798
   797.2500      0.0000    270.5288     43.6875    137.2908
   797.5000      0.0000    268.1338     49.1804    136.1151
   797.7500      0.0000    264.3622     54.7109    135.4600
   798.0000      0.0000    260.8088     59.3281    134.5292
   798.2500      0.0000    258.4632     62.6338    132.8108
   798.5000      0.0000    257.3245     64.6793    131.3973
   798.7500      0.0000    256.9074     65.7362    132.5149
   799.0000      0.0000    256.7903     66.1415    137.5913
   799.2500      0.0000    256.7782     66.2025    145.7206
   799.5000      0.0000    256.8132     66.1422    153.9480
   799.7500      0.0000    256.8676     66.0763    159.0042
   800.0000      0.0000    256.9056     66.0337    159.1097
   800.2500      0.0000    256.8994     66.0047    154.7048
   800.5000      0.0000    256.8428     65.9872    147.8404
   800.7500      0.0000    256.7548     65.9805    140.7425
   801.0000      0.0000    256.6698     65.9611    134.6698
   801.2500      0.0000    256.6182     65.8869    129.9247
   801.5000      0.0000    256.6038     65.7336    126.7659
   801.7500      0.0000    256.6025     65.5246    125.9996
   802.0000      0.0000    256.5843     65.3092    128.3267
   802.2500      0.0000    256.5413     65.1090    133.2089
   802.5000      0.0000    256.4977     64.9081    138.7112
   802.7500      0.0000    256.4943     64.7080    142.4633
   803.0000      0.0000    256.5574     64.5619    142.7671
   803.2500      0.0000    256.6755     64.5188    139.2385
   803.5000      0.0000    256.8050     64.5516    132.9113
