~Version Information
VERS.                      2.0: CWLS Log ASCII Standard - VERSION 2.0
WRAP.                       NO: One line per depth step
~Well Information Block
STRT.FT                -8.2500: 
STOP.FT              1795.0000: 
STEP.FT                 0.2500: 
NULL.                -999.2500: 
COMP.          Petrogulf Corporation: COMPANY
WELL.           Montoya 7-21 R: WELL
FLD.           Purgatoire River: FIELD
LOC.           445' FNL & 1942' FWL----: LOCATION
PROV.                 Colorado: PROVINCE
CNTY.               Las Animas: COUNTRY
SRVC.                         : SERVICE COMPANY
DATE.          Fri Sep 30 15:33:54 2005: LOG DATE
UWI.                          : UNIQUE WELL ID
~Curve Information Block
DEPT.FT            0 000 00 00: Depth
GR.GAPI                       : Gamma Ray
CCL.                          : Casing Collar Locator
TT3.usec                      : CBL 3' Travel Time
AMP3.mV                       : CBL 3' Amplitude
~Parameter Information Block
~A  Depth        GR         CCL         TT3         AMP3    
# ...
  1633.2500     94.6839      0.0000    319.7505     12.9515
  1633.5000     91.6241      0.0000    319.7708     12.4232
  1633.7500     89.6635      0.0000    319.8519     11.9986
  1634.0000     87.7627      0.0000    320.4290     11.8080
  1634.2500     84.7556      0.0000    322.9153     11.8977
  1634.5000     80.3765      0.0000    330.7195     12.2068
  1634.7500     75.2507      0.0000    349.8712     12.5635
  1635.0000     70.0943      0.0000    386.8695     12.7280
  1635.2500     65.3286      0.0000    442.9091     12.4977
  1635.5000     61.3352      0.0000    508.8527     11.8223
  1635.7500     58.4295      0.0000    568.0711     10.8253
  1636.0000     56.3833      0.0000    607.6307      9.7099
  1636.2500     54.4513      0.0000    627.9976      8.6384
  1636.5000     52.2010      0.0000    640.7084      7.6839
  1636.7500     50.2026      0.0000    656.0342      6.8542
  1637.0000     49.7681      0.0000    675.0353      6.1345
  1637.2500     51.9431      0.0000    694.0909      5.5111
  1637.5000     56.5120      0.0000    712.2449      4.9832
  1637.7500     61.8307      0.0000    730.4191      4.5706
  1638.0000     65.8807      0.0000    746.8539      4.3097
  1638.2500     67.9739      0.0000    757.4176      4.2342
  1638.5000     69.7519      0.0000    759.5517      4.3523
  1638.7500     74.4510      0.0000    753.8482      4.6355
  1639.0000     84.7650      0.0000    742.3131      5.0315
  1639.2500    100.8145      0.0000    727.0729      5.4921
  1639.5000    119.6686      0.0000    710.9150      5.9942
  1639.7500    136.7116      0.0000    697.2798      6.5348
  1640.0000    147.9621      0.0000    688.5043      7.1131
  1640.2500    152.0490      0.0000    684.5839      7.7178
  1640.5000    150.6561      0.0000    683.9485      8.3171
  1640.7500    146.9695      0.0000    684.8110      8.8538
  1641.0000    143.4017      0.0000    685.4665      9.2639
  1641.2500    140.7935      0.0000    683.5301      9.5181
  1641.5000    139.3653      0.0000    675.0349      9.6508
  1641.7500    139.4919      0.0000    654.6827      9.7457
  1642.0000    141.5014      0.0000    618.4040      9.8942
  1642.2500    145.5461      0.0000    567.1675     10.1668
  1642.5000    151.5718      0.0000    508.3300     10.6096
  1642.7500    158.4652      0.0000    452.1494     11.2557
  1643.0000    163.4483      0.0000    406.2336     12.1377
  1643.2500    163.6842      0.0000    372.9065     13.2888
  1643.5000    159.0166      0.0000    350.6765     14.7249
  1643.7500    152.4577      0.0000    336.8395     16.4280
  1644.0000    147.6987      0.0000    328.7090     18.3465
  1644.2500    146.3764      0.0000    323.6691     20.3991
  1644.5000    147.4230      0.0000    319.2363     22.4675
  1644.7500    148.2829      0.0000    313.6132     24.3821
  1645.0000    146.6949      0.0000    306.4896     25.9200
  1645.2500    142.0011      0.0000    299.4149     26.8486
  1645.5000    135.3877      0.0000    295.3214     27.0349
  1645.7500    129.0522      0.0000    297.9048     26.5363
  1646.0000    124.8583      0.0000    311.9049     25.5510
  1646.2500    123.2920      0.0000    342.9952     24.2553
  1646.5000    123.4366      0.0000    393.3821     22.7323
  1646.7500    124.1204      0.0000    453.8841     21.0639
  1647.0000    125.2695      0.0000    503.6458     19.3905
  1647.2500    127.8567      0.0000    525.3932     17.8011
  1647.5000    132.2727      0.0000    521.6777     16.2552
  1647.7500    137.1745      0.0000    510.2428     14.7239
  1648.0000    140.4289      0.0000    503.7097     13.3502
  1648.2500    140.9925      0.0000    499.5021     12.3673
  1648.5000    139.7503      0.0000    488.3431     11.8948
  1648.7500    138.8613      0.0000    467.2030     11.8696
  1649.0000    140.2133      0.0000    443.5254     12.1332
  1649.2500    143.8266      0.0000    428.0819     12.5624
  1649.5000    147.5324      0.0000    423.2673     13.1388
  1649.7500    148.5437      0.0000    420.1709     13.8723
  1650.0000    145.6064      0.0000    408.9665     14.6257
  1650.2500    139.7973      0.0000    389.2392     15.0880
  1650.5000    133.5954      0.0000    367.8660     15.0225
  1650.7500    129.3747      0.0000    350.5930     14.4907
  1651.0000    128.3769      0.0000    339.2418     13.7483
  1651.2500    130.3435      0.0000    335.0237     12.9780
  1651.5000    133.6672      0.0000    341.8126     12.1934
  1651.7500    136.0282      0.0000    366.0681     11.3354
  1652.0000    135.6147      0.0000    412.7428     10.3794
  1652.2500    132.5136      0.0000    478.9764      9.3644
  1652.5000    128.9238      0.0000    551.7339      8.3718
  1652.7500    127.3206      0.0000    614.2087      7.4944
  1653.0000    128.3304      0.0000    655.7025      6.8035
  1653.2500    130.8651      0.0000    675.5903      6.3257
  1653.5000    133.7955      0.0000    680.2396      6.0370
  1653.7500    136.3669      0.0000    678.0221      5.8800
  1654.0000    137.3364      0.0000    674.5018      5.7922
  1654.2500    135.1315      0.0000    668.4507      5.7330
  1654.5000    129.2149      0.0000    652.2166      5.6994
  1654.7500    120.5412      0.0000    617.9964      5.7213
  1655.0000    110.5530      0.0000    565.1749      5.8357
  1655.2500    100.4304      0.0000    503.2241      6.0562
  1655.5000     91.3961      0.0000    449.3956      6.3575
  1655.7500     84.9428      0.0000    422.4047      6.6821
  1656.0000     82.3163      0.0000    433.1313      6.9666
  1656.2500     83.8964      0.0000    476.3398      7.1754
  1656.5000     89.0763      0.0000    530.1583      7.3230
  1656.7500     96.6972      0.0000    566.6986      7.4669
  1657.0000    105.7230      0.0000    567.7499      7.6737
  1657.2500    115.5005      0.0000    533.7765      7.9843
  1657.5000    125.2543      0.0000    480.4181      8.4086
  1657.7500    133.6160      0.0000    426.8746      8.9424
  1658.0000    139.1006      0.0000    385.2453      9.5761
  1658.2500    141.0926      0.0000    357.6517     10.2784
  1658.5000    140.1445      0.0000    340.6473     10.9841
  1658.7500    137.0539      0.0000    330.5210     11.6186
  1659.0000    131.7897      0.0000    325.0187     12.1381
  1659.2500    123.8898      0.0000    322.6085     12.5405
  1659.5000    113.9157      0.0000    321.8848     12.8372
  1659.7500    103.8712      0.0000    321.7238     13.0231
  1660.0000     96.0933      0.0000    321.4886     13.0818
  1660.2500     92.0472      0.0000    321.0462     13.0212
  1660.5000     91.9441      0.0000    320.5474     12.9029
  1660.7500     95.0214      0.0000    320.1646     12.8267
  1661.0000    100.0833      0.0000    319.9397     12.8715
  1661.2500    105.8707      0.0000    319.8080     13.0476
  1661.5000    111.1070      0.0000    319.6987     13.3047
  1661.7500    114.7516      0.0000    319.5826     13.5812
  1662.0000    116.4829      0.0000    319.4508     13.8425
  1662.2500    116.7156      0.0000    319.2996     14.0803
  1662.5000    116.1928      0.0000    319.1539     14.2868
  1662.7500    115.7186      0.0000    319.0756     14.4350
  1663.0000    115.9320      0.0000    319.1505     14.4789
  1663.2500    116.9978      0.0000    319.4995     14.3730
  1663.5000    118.6473      0.0000    320.5534     14.0932
  1663.7500    120.5669      0.0000    323.8212     13.6524
  1664.0000    122.6503      0.0000    332.9163     13.1036
  1664.2500    124.8379      0.0000    353.2368     12.5239
  1664.5000    126.7017      0.0000    387.7351     11.9790
  1664.7500    127.4466      0.0000    430.2464     11.4951
  1665.0000    126.8252      0.0000    464.8843     11.0580
  1665.2500    125.8710      0.0000    477.6847     10.6359
  1665.5000    126.1525      0.0000    470.3480     10.2047
  1665.7500    128.3914      0.0000    458.6430      9.7639
  1666.0000    132.1078      0.0000    457.1846      9.3335
  1666.2500    136.1007      0.0000    470.5469      8.9356
  1666.5000    138.8051      0.0000    498.0617      8.5813
