~Version Information
VERS.                      2.0: CWLS Log ASCII Standard - VERSION 2.0
WRAP.                       NO: One line per depth step
~Well Information Block
STRT.FT                -4.2500: 
STOP.FT              2018.7500: 
STEP.FT                 0.2500: 
NULL.                -999.2500: 
COMP.          Petrogulf Corporation: COMPANY
WELL.             State 16-21R: WELL
FLD.           Purgatoire River: FIELD
LOC.           203' FNL & 1560' FWL----: LOCATION
PROV.                 Colorado: PROVINCE
CNTY.               Las Animas: COUNTRY
SRVC.                         : SERVICE COMPANY
DATE.          Thu Sep 29 11:32:19 2005: LOG DATE
API.           05-071-08313 : API Number
~Curve Information Block
DEPT.FT            0 000 00 00: Depth
GR.GAPI                       : Gamma Ray
CCL.                          : Casing Collar Locator
AMP3.mV                       : CBL 3' Amplitude
AMP5.mV                       : CBL 5' Amplitude
~Parameter Information Block
~A  Depth        GR         CCL         AMP3        AMP5    
# ...
  1436.2500    158.5922      0.0000      4.2794      0.3370
  1436.5000    150.9754      0.0000      4.3064      0.3448
  1436.7500    143.6748      0.0000      4.3387      0.3636
  1437.0000    138.2265      0.0000      4.3782      0.3934
  1437.2500    135.2844      0.0000      4.4266      0.4287
  1437.5000    134.7951      0.0000      4.4816      0.4596
  1437.7500    136.0707      0.0000      4.5363      0.4754
  1438.0000    138.0884      0.0000      4.5833      0.4719
  1438.2500    140.0357      0.0000      4.6145      0.4546
  1438.5000    141.4329      0.0000      4.6220      0.4348
  1438.7500    141.8073      0.0000      4.6051      0.4245
  1439.0000    140.6496      0.0000      4.5745      0.4298
  1439.2500    137.7501      0.0000      4.5461      0.4464
  1439.5000    133.3271      0.0000      4.5273      0.4600
  1439.7500    127.8628      0.0000      4.5074      0.4547
  1440.0000    122.0305      0.0000      4.4568      0.4229
  1440.2500    116.6372      0.0000      4.3383      0.3695
  1440.5000    112.3505      0.0000      4.1242      0.3086
  1440.7500    109.4973      0.0000      3.8090      0.2538
  1441.0000    108.1606      0.0000      3.4100      0.2090
  1441.2500    108.1386      0.0000      2.9567      0.1695
  1441.5000    108.8000      0.0000      2.4806      0.1306
  1441.7500    109.4199      0.0000      2.0112      0.0942
  1442.0000    109.8346      0.0000      1.5783      0.0651
  1442.2500    110.6291      0.0000      1.2109      0.0461
  1442.5000    112.6945      0.0000      0.9279      0.0357
  1442.7500    116.6200      0.0000      0.7306      0.0305
  1443.0000    122.2900      0.0000      0.6075      0.0278
  1443.2500    128.8275      0.0000      0.5465      0.0268
  1443.5000    134.8908      0.0000      0.5392      0.0261
  1443.7500    139.2094      0.0000      0.5755      0.0235
  1444.0000    141.1433      0.0000      0.6385      0.0183
  1444.2500    140.9467      0.0000      0.7025      0.0135
  1444.5000    139.5700      0.0000      0.7415      0.0131
  1444.7500    138.1108      0.0000      0.7425      0.0190
  1445.0000    137.1018      0.0000      0.7130      0.0309
  1445.2500    136.0497      0.0000      0.6724      0.0484
  1445.5000    133.9805      0.0000      0.6408      0.0704
  1445.7500    130.7543      0.0000      0.6376      0.0939
  1446.0000    127.5033      0.0000      0.6786      0.1141
  1446.2500    125.3179      0.0000      0.7646      0.1265
  1446.5000    123.8296      0.0000      0.8757      0.1287
  1446.7500    121.6052      0.0000      0.9799      0.1194
  1447.0000    117.7283      0.0000      1.0493      0.0966
  1447.2500    112.6833      0.0000      1.0701      0.0615
  1447.5000    108.0130      0.0000      1.0444      0.0237
  1447.7500    105.3601      0.0000      0.9843     -0.0010
  1448.0000    105.3354      0.0000      0.9091     -0.0013
  1448.2500    106.8898      0.0000      0.8439      0.0206
  1448.5000    107.9791      0.0000      0.8091      0.0512
  1448.7500    107.0911      0.0000      0.8012      0.0771
  1449.0000    104.2213      0.0000      0.7923      0.0939
  1449.2500    100.6233      0.0000      0.7575      0.1030
  1449.5000     97.9094      0.0000      0.7055      0.1061
  1449.7500     97.1627      0.0000      0.6757      0.1042
  1450.0000     98.3335      0.0000      0.7010      0.1014
  1450.2500    100.2573      0.0000      0.7757      0.1027
  1450.5000    101.4841      0.0000      0.8656      0.1092
  1450.7500    101.2937      0.0000      0.9419      0.1188
  1451.0000    100.1324      0.0000      0.9963      0.1291
  1451.2500     99.3362      0.0000      1.0257      0.1378
  1451.5000    100.2977      0.0000      1.0232      0.1418
  1451.7500    103.5106      0.0000      0.9889      0.1394
  1452.0000    108.1517      0.0000      0.9425      0.1324
  1452.2500    112.3865      0.0000      0.9129      0.1244
  1452.5000    114.1360      0.0000      0.9123      0.1163
  1452.7500    112.2320      0.0000      0.9204      0.1056
  1453.0000    107.4342      0.0000      0.9036      0.0897
  1453.2500    102.2101      0.0000      0.8524      0.0694
  1453.5000     99.0740      0.0000      0.7941      0.0497
  1453.7500     98.8558      0.0000      0.7655      0.0357
  1454.0000    100.5578      0.0000      0.7805      0.0282
  1454.2500    102.7875      0.0000      0.8240      0.0244
  1454.5000    104.9900      0.0000      0.8663      0.0222
  1454.7500    107.0430      0.0000      0.8790      0.0217
  1455.0000    108.2380      0.0000      0.8458      0.0228
  1455.2500    107.6996      0.0000      0.7701      0.0232
  1455.5000    105.8001      0.0000      0.6737      0.0185
  1455.7500    104.0979      0.0000      0.5837      0.0080
  1456.0000    103.5538      0.0000      0.5185     -0.0017
  1456.2500    103.4807      0.0000      0.4845     -0.0011
  1456.5000    102.4357      0.0000      0.4791      0.0135
  1456.7500     99.7469      0.0000      0.4913      0.0362
  1457.0000     96.2353      0.0000      0.5025      0.0576
  1457.2500     94.0263      0.0000      0.4935      0.0730
  1457.5000     95.5703      0.0000      0.4602      0.0835
  1457.7500    102.0759      0.0000      0.4239      0.0937
  1458.0000    112.4552      0.0000      0.4232      0.1090
  1458.2500    124.0872      0.0000      0.4879      0.1308
  1458.5000    134.7996      0.0000      0.6165      0.1553
  1458.7500    143.7618      0.0000      0.7814      0.1757
  1459.0000    150.5676      0.0000      0.9527      0.1861
  1459.2500    154.4896      0.0000      1.1162      0.1845
  1459.5000    155.3165      0.0000      1.2748      0.1747
  1459.7500    154.4769      0.0000      1.4388      0.1630
  1460.0000    154.6059      0.0000      1.6142      0.1515
  1460.2500    157.6181      0.0000      1.7967      0.1352
  1460.5000    163.1297      0.0000      1.9703      0.1098
  1460.7500    168.9090      0.0000      2.1131      0.0783
  1461.0000    172.8777      0.0000      2.2063      0.0509
  1461.2500    174.4360      0.0000      2.2456      0.0367
  1461.5000    173.9458      0.0000      2.2407      0.0370
  1461.7500    171.7803      0.0000      2.2021      0.0456
  1462.0000    168.4497      0.0000      2.1320      0.0551
  1462.2500    164.9594      0.0000      2.0314      0.0635
  1462.5000    161.9810      0.0000      1.9134      0.0747
  1462.7500    158.8662      0.0000      1.8030      0.0926
  1463.0000    154.3251      0.0000      1.7244      0.1187
  1463.2500    147.9447      0.0000      1.6907      0.1509
  1463.5000    140.2342      0.0000      1.7018      0.1851
  1463.7500    131.4538      0.0000      1.7487      0.2151
  1464.0000    121.4828      0.0000      1.8173      0.2354
  1464.2500    110.9681      0.0000      1.8921      0.2427
  1464.5000    101.7533      0.0000      1.9657      0.2374
  1464.7500     95.7436      0.0000      2.0540      0.2251
  1465.0000     93.6310      0.0000      2.1984      0.2138
  1465.2500     94.9032      0.0000      2.4402      0.2082
  1465.5000     98.7023      0.0000      2.7853      0.2068
  1465.7500    104.1276      0.0000      3.1918      0.2062
  1466.0000    109.9483      0.0000      3.5938      0.2077
  1466.2500    114.8518      0.0000      3.9336      0.2161
  1466.5000    118.1421      0.0000      4.1813      0.2339
  1466.7500    119.8243      0.0000      4.3381      0.2573
  1467.0000    120.2836      0.0000      4.4285      0.2799
  1467.2500    120.3576      0.0000      4.4857      0.2989
  1467.5000    121.2649      0.0000      4.5327      0.3183
  1467.7500    123.8323      0.0000      4.5707      0.3436
  1468.0000    128.0404      0.0000      4.5874      0.3758
  1468.2500    133.6015      0.0000      4.5754      0.4098
  1468.5000    140.3302      0.0000      4.5413      0.4365
  1468.7500    147.4519      0.0000      4.4994      0.4478
  1469.0000    153.1642      0.0000      4.4582      0.4415
  1469.2500    155.6777      0.0000      4.4146      0.4232
  1469.5000    154.7590      0.0000      4.3588      0.4028
