~Version Information
VERS.                      2.0: CWLS Log ASCII Standard - VERSION 2.0
WRAP.                       NO: One line per depth step
~Well Information Block
STRT.FT               819.0000: 
STOP.FT              2499.5000: 
STEP.FT                 0.2500: 
NULL.                -999.2500: 
COMP.          Petrogulf Corporation: COMPANY
WELL.             State 16-21V: WELL
FLD.           Purgatorie River: FIELD
LOC.           1738' FWL & 332' FWL: LOCATION
PROV.                 Colorado: PROVINCE
CNTY.               Las Animas: COUNTRY
SRVC.          Patterson Wireline: SERVICE COMPANY
DATE.          Sun Jul 13 13:34:36 2003: LOG DATE
UWI.           05 071 08829 00: UNIQUE WELL ID
~Curve Information Block
DEPT.FT            0 000 00 00: Depth
SP.mV                         : DIL Spontaneous Potential
RILD.Ohm-m                    : DIL Deep Resistivity
RILM.Ohm-m                    : DIL Medium Resistivity
RLL3.Ohm-m                    : DIL Shallow Resistivity
GR.GAPI                       : Gamma Ray
~Parameter Information Block
~A  Depth        SP         RILD        RILM        RLL3         GR     
# ...
  1827.0000    -62.5184     24.6583     30.8935     44.4605     44.0711
  1827.2500    -62.3235     25.0472     31.9066     45.1135     41.9475
  1827.5000    -62.1711     25.3474     32.7777     45.3577     39.9909
  1827.7500    -62.0785     25.5944     33.5014     45.2420     39.5712
  1828.0000    -62.0378     25.8139     34.0769     44.8058     39.3742
  1828.2500    -62.0181     26.0162     34.5039     44.0570     38.9559
  1828.5000    -61.9816     26.1939     34.7792     43.0692     37.9752
  1828.7500    -61.9028     26.3217     34.8922     42.0813     37.6954
  1829.0000    -61.7757     26.3605     34.8225     41.4535     38.6140
  1829.2500    -61.6068     26.2629     34.5403     41.4711     39.9317
  1829.5000    -61.4037     25.9792     34.0104     42.1333     41.9242
  1829.7500    -61.1690     25.4663     33.2010     43.1255     42.7783
  1830.0000    -60.9021     24.7043     32.0947     44.0682     43.2609
  1830.2500    -60.6052     23.7116     30.7007     44.8897     43.3358
  1830.5000    -60.2825     22.5482     29.0607     45.9575     43.8101
  1830.7500    -59.9363     21.3003     27.2459     47.7017     44.8959
  1831.0000    -59.5651     20.0552     25.3459     49.8952     48.7548
  1831.2500    -59.1682     18.8812     23.4526     51.2351     53.3751
  1831.5000    -58.7493     17.8198     21.6458     49.8812     63.7099
  1831.7500    -58.3165     16.8885     19.9849     44.8260     72.5369
  1832.0000    -57.8789     16.0874     18.5064     36.9289     87.2928
  1832.2500    -57.4422     15.4074     17.2272     28.4788     97.0050
  1832.5000    -57.0062     14.8368     16.1493     21.6361    109.3625
  1832.7500    -56.5677     14.3650     15.2653     17.2665    115.3337
  1833.0000    -56.1292     13.9838     14.5628     15.0211    120.9318
  1833.2500    -55.7045     13.6855     14.0275     14.1191    123.1974
  1833.5000    -55.3146     13.4614     13.6452     13.9379    125.8352
  1833.7500    -54.9774     13.3027     13.4028     14.1434    127.3196
  1834.0000    -54.6964     13.2036     13.2889     14.6071    128.3833
  1834.2500    -54.4564     13.1632     13.2939     15.3440    127.7925
  1834.5000    -54.2266     13.1854     13.4096     16.4766    124.9643
  1834.7500    -53.9721     13.2763     13.6291     18.1332    122.2932
  1835.0000    -53.6703     13.4420     13.9467     20.2792    117.9806
  1835.2500    -53.3230     13.6894     14.3573     22.6243    115.0675
  1835.5000    -52.9582     14.0266     14.8562     24.7208    110.4401
  1835.7500    -52.6237     14.4630     15.4393     26.1929    107.0637
  1836.0000    -52.3741     15.0055     16.1024     26.9166    101.8539
  1836.2500    -52.2558     15.6520     16.8416     27.0322     98.8031
  1836.5000    -52.2915     16.3859     17.6521     26.8235     95.8307
  1836.7500    -52.4686     17.1755     18.5285     26.5845     95.0307
  1837.0000    -52.7425     17.9816     19.4633     26.5706     94.6115
  1837.2500    -53.0571     18.7687     20.4469     27.0233     93.9496
  1837.5000    -53.3716     19.5144     21.4662     28.1400     91.4371
  1837.7500    -53.6746     20.2088     22.5049     29.9302     88.8619
  1838.0000    -53.9780     20.8469     23.5435     32.1098     84.5843
  1838.2500    -54.2994     21.4227     24.5606     34.2175     81.9946
  1838.5000    -54.6470     21.9338     25.5347     35.8845     78.8425
  1838.7500    -55.0142     22.3923     26.4461     36.9889     77.0457
  1839.0000    -55.3872     22.8275     27.2792     37.5914     74.0029
  1839.2500    -55.7565     23.2739     28.0237     37.8123     71.2179
  1839.5000    -56.1260     23.7502     28.6747     37.7958     65.4999
  1839.7500    -56.5112     24.2456     29.2327     37.7061     60.8796
  1840.0000    -56.9279     24.7209     29.7023     37.6689     53.6418
  1840.2500    -57.3802     25.1251     30.0908     37.7132     49.2506
  1840.5000    -57.8545     25.4145     30.4065     37.8022     44.3772
  1840.7500    -58.3241     25.5679     30.6584     37.9094     42.6486
  1841.0000    -58.7602     25.5904     30.8547     38.0368     42.1203
  1841.2500    -59.1438     25.5067     31.0020     38.1738     42.5819
  1841.5000    -59.4729     25.3484     31.1050     38.2910     43.4937
  1841.7500    -59.7649     25.1440     31.1647     38.3842     43.9784
  1842.0000    -60.0498     24.9155     31.1787     38.4836     44.5445
  1842.2500    -60.3538     24.6780     31.1392     38.5886     44.8065
  1842.5000    -60.6802     24.4374     31.0334     38.6091     44.6926
  1842.7500    -60.9997     24.1860     30.8435     38.4091     44.1736
  1843.0000    -61.2576     23.9017     30.5481     37.9145     43.3116
  1843.2500    -61.3965     23.5536     30.1249     37.1805     43.2696
  1843.5000    -61.3792     23.1148     29.5549     36.3692     44.3671
  1843.7500    -61.2021     22.5726     28.8275     35.6808     45.4323
  1844.0000    -60.8895     21.9328     27.9449     35.2909     46.4997
  1844.2500    -60.4759     21.2192     26.9244     35.3050     46.7914
  1844.5000    -59.9884     20.4678     25.7976     35.7039     47.6411
  1844.7500    -59.4382     19.7196     24.6070     36.2444     49.1988
  1845.0000    -58.8244     19.0106     23.3995     36.3645     53.3791
  1845.2500    -58.1407     18.3655     22.2205     35.3065     57.0462
  1845.5000    -57.3850     17.7959     21.1083     32.6095     62.8648
  1845.7500    -56.5730     17.3043     20.0923     28.6449     66.4156
  1846.0000    -55.7487     16.8871     19.1914     24.5526     70.7010
  1846.2500    -54.9759     16.5372     18.4159     21.4551     72.8149
  1846.5000    -54.3089     16.2429     17.7690     19.6954     75.1739
  1846.7500    -53.7679     15.9906     17.2485     18.8418     76.5109
  1847.0000    -53.3414     15.7679     16.8488     18.3121     78.6334
  1847.2500    -53.0059     15.5691     16.5625     17.8717     80.1856
  1847.5000    -52.7435     15.3967     16.3807     17.6127     82.3371
  1847.7500    -52.5453     15.2598     16.2937     17.6694     83.3054
  1848.0000    -52.4083     15.1691     16.2908     18.0572     83.6968
  1848.2500    -52.3304     15.1325     16.3601     18.6907     83.3057
  1848.5000    -52.3075     15.1502     16.4876     19.4337     82.0814
  1848.7500    -52.3340     15.2125     16.6560     20.1237     80.9306
  1849.0000    -52.4036     15.2992     16.8438     20.6147     78.6301
  1849.2500    -52.5069     15.3809     17.0240     20.8322     76.8340
  1849.5000    -52.6277     15.4218     17.1642     20.8083     74.5471
  1849.7500    -52.7414     15.3842     17.2277     20.7241     73.8209
  1850.0000    -52.8186     15.2348     17.1780     20.9633     74.0112
  1850.2500    -52.8319     14.9513     16.9840     22.0434     74.3727
  1850.5000    -52.7639     14.5306     16.6275     24.2891     73.8193
  1850.7500    -52.6137     13.9925     16.1088     27.3828     72.3831
  1851.0000    -52.4001     13.3774     15.4485     30.2227     69.5136
  1851.2500    -52.1569     12.7341     14.6832     31.4090     68.0634
  1851.5000    -51.9226     12.1071     13.8582     30.1091     67.6884
  1851.7500    -51.7254     11.5263     13.0187     26.5989     68.7611
  1852.0000    -51.5691     11.0036     12.2029     22.0314     72.1849
  1852.2500    -51.4307     10.5349     11.4384     17.6931     75.6796
  1852.5000    -51.2738     10.1053     10.7422     14.3765     82.7248
  1852.7500    -51.0674      9.6980     10.1218     12.2432     88.1959
  1853.0000    -50.7990      9.3018      9.5782     11.0647     96.0066
  1853.2500    -50.4773      8.9149      9.1077     10.5132    100.0352
  1853.5000    -50.1310      8.5433      8.7043     10.3087    103.6167
  1853.7500    -49.8052      8.1966      8.3608     10.2515    104.4936
  1854.0000    -49.5493      7.8841      8.0700     10.2306    104.2837
  1854.2500    -49.3960      7.6128      7.8252     10.2237    103.7106
  1854.5000    -49.3417      7.3876      7.6203     10.2615    103.2105
  1854.7500    -49.3448      7.2105      7.4504     10.3611    103.4996
