~Version Information
VERS.                      2.0: CWLS Log ASCII Standard - VERSION 2.0
WRAP.                       NO: One line per depth step
~Well Information Block
STRT.FT                -3.0000: 
STOP.FT              1828.0000: 
STEP.FT                 0.2500: 
NULL.                -999.2500: 
COMP.          Pioneer Natural Resources: COMPANY
WELL.           Guajardo 24-16: WELL
FLD.           Purgatorie River: FIELD
LOC.           883' FSL & 2147' FWL--: LOCATION
PROV.                       CO: PROVINCE
CNTY.               Las Animas: COUNTRY
SRVC.          Patterson Wireline: SERVICE COMPANY
DATE.          Wed Aug 10 11:02:25 2005: LOG DATE
UWI.           05 071 08377 00: UNIQUE WELL ID
~Curve Information Block
DEPT.FT            0 000 00 00: Depth
CCL.                          : Casing Collar Locator
TT3.usec                      : CBL 3' Travel Time
AMP3.mV                       : CBL 3' Amplitude
GR.GAPI                       : Gamma Ray
~Parameter Information Block
~A  Depth       CCL         TT3         AMP3         GR     
# ...
   834.5000      0.0000    766.2830     14.5005    121.4358
   834.7500      0.0000    771.6191     14.1288    122.2385
   835.0000      0.0000    775.5814     13.7426    125.0018
   835.2500      0.0000    775.8339     13.3507    129.3226
   835.5000      0.0000    772.3453     12.9759    133.1607
   835.7500      0.0000    765.6815     12.6547    134.4816
   836.0000      0.0000    757.0828     12.4126    132.2948
   836.2500      0.0000    749.1191     12.2424    126.1989
   836.5000      0.0000    744.3900     12.1100    116.3815
   836.7500      0.0000    743.5976     11.9794    104.7328
   837.0000      0.0000    745.3878     11.8343     94.8703
   837.2500      0.0000    747.5719     11.6786     89.9123
   837.5000      0.0000    748.3346     11.5236     90.3274
   837.7500      0.0000    746.9824     11.3808     94.1597
   838.0000      0.0000    744.3069     11.2649     98.7139
   838.2500      0.0000    742.1991     11.1916    101.8037
   838.5000      0.0000    742.2589     11.1626    102.4925
   838.7500      0.0000    744.3242     11.1574    101.5077
   839.0000      0.0000    746.3470     11.1460    100.5854
   839.2500      0.0000    745.6998     11.1128    100.9849
   839.5000      0.0000    740.8684     11.0668    102.6667
   839.7500      0.0000    732.8237     11.0311    104.4609
   840.0000      0.0000    725.2930     11.0246    104.5962
   840.2500      0.0000    722.5819     11.0496    101.5669
   840.5000      0.0000    725.9727     11.0946     95.3466
   840.7500      0.0000    732.7862     11.1455     87.9256
   841.0000      0.0000    739.7058     11.1942     82.1048
   841.2500      0.0000    746.1472     11.2346     79.2274
   841.5000      0.0000    753.3357     11.2559     78.0919
   841.7500      0.0000    760.6464     11.2465     76.4385
   842.0000      0.0000    764.3691     11.2067     73.5116
   842.2500      0.0000    760.9985     11.1539     70.8687
   842.5000      0.0000    751.1971     11.1109     70.7286
   842.7500      0.0000    739.4806     11.0916     73.8257
   843.0000      0.0000    730.2534     11.0976     78.7607
   843.2500      0.0000    724.9789     11.1259     83.0485
   843.5000      0.0000    722.6972     11.1705     84.9246
   843.7500      0.0000    721.9041     11.2164     84.7215
   844.0000      0.0000    721.6304     11.2398     84.6433
   844.2500      0.0000    721.4929     11.2235     86.9244
   844.5000      0.0000    721.4141     11.1757     92.1174
   844.7500      0.0000    721.4035     11.1272     98.9858
   845.0000      0.0000    721.4675     11.1053    105.5256
   845.2500      0.0000    721.5831     11.1122    109.9433
   845.5000      0.0000    721.7183     11.1331    111.2793
   845.7500      0.0000    721.8896     11.1591    109.8184
   846.0000      0.0000    722.2740     11.1976    107.0085
   846.2500      0.0000    723.4423     11.2585    104.7296
   846.5000      0.0000    726.7424     11.3380    104.2873
   846.7500      0.0000    734.3128     11.4185    105.7450
   847.0000      0.0000    747.7847     11.4807    108.0066
   847.2500      0.0000    765.7316     11.5151    109.6257
   847.5000      0.0000    782.4320     11.5221    109.7407
   847.7500      0.0000    790.9124     11.5075    108.4832
   848.0000      0.0000    788.6835     11.4806    106.9235
   848.2500      0.0000    779.9069     11.4537    106.7811
   848.5000      0.0000    770.8967     11.4375    109.5295
   848.7500      0.0000    764.3286     11.4339    115.1783
   849.0000      0.0000    759.3306     11.4380    122.1454
   849.2500      0.0000    756.2888     11.4479    128.5171
   849.5000      0.0000    758.8053     11.4720    133.0941
   849.7500      0.0000    769.9433     11.5232    135.3828
   850.0000      0.0000    787.9589     11.6078    135.3457
   850.2500      0.0000    806.8730     11.7238    133.3106
   850.5000      0.0000    820.9639     11.8672    129.7809
   850.7500      0.0000    828.1066     12.0393    125.4460
   851.0000      0.0000    829.3177     12.2336    121.3568
   851.2500      0.0000    827.6702     12.3978    118.5148
   851.5000      0.0000    829.5447     12.4058    117.0805
   851.7500      0.0000    843.9126     12.1185    116.4199
   852.0000      0.0000    874.2472     11.5259    116.1051
   852.2500      0.0000    910.5703     10.8135    116.4966
   852.5000      0.0000    935.6202     10.2300    118.2027
   852.7500      1.5540    941.9973      9.8923    121.3336
   853.0000     -1.4990    939.1373      9.7397    125.3605
   853.2500     -2.0000    939.4913      9.6380    129.3762
   853.5000      1.3522    941.0065      9.4923    132.4690
   853.7500      0.0000    929.3357      9.2991    134.1879
   854.0000      0.0000    896.5443      9.1282    134.6185
   854.2500      0.0000    851.4971      9.0274    133.4773
   854.5000      0.0000    811.5942      8.9238    129.2389
   854.7500      0.0000    788.9595      8.6718    120.2917
   855.0000      0.0000    784.3836      8.2188    107.5075
   855.2500      0.0000    790.1699      7.6702     94.6997
   855.5000      0.0000    796.8578      7.1801     85.9552
   855.7500      0.0000    798.6384      6.8325     83.0902
   856.0000      0.0000    794.4542      6.6312     85.5690
   856.2500      0.0000    786.3677      6.5487     91.5318
   856.5000      0.0000    778.3066      6.5639     98.7628
   856.7500      0.0000    774.8171      6.6769    105.8904
   857.0000      0.0000    777.7968      6.9064    112.8969
   857.2500      0.0000    783.6438      7.2658    119.8999
   857.5000      0.0000    785.8436      7.7363    125.7637
   857.7500      0.0000    781.6860      8.2678    128.7147
   858.0000      0.0000    775.1481      8.8079    128.2433
   858.2500      0.0000    772.1193      9.3268    125.7222
   858.5000      0.0000    774.1154      9.8162    123.0466
   858.7500      0.0000    778.0420     10.2682    121.1645
   859.0000      0.0000    781.0091     10.6658    120.1427
   859.2500      0.0000    783.0800     10.9947    120.2154
   859.5000      0.0000    785.0538     11.2589    122.0749
   859.7500      0.0000    785.6770     11.4746    125.8653
   860.0000      0.0000    782.7806     11.6506    130.3295
   860.2500      0.0000    776.8132     11.7808    133.4753
   860.5000      0.0000    771.8737     11.8592    134.2027
   860.7500      0.0000    772.4822     11.8956    132.9617
   861.0000      0.0000    779.6724     11.9131    130.7171
   861.2500      0.0000    790.8077     11.9323    127.7739
   861.5000      0.0000    802.5673     11.9600    124.1170
   861.7500      0.0000    812.8614     11.9900    120.5196
   862.0000      0.0000    820.1697     12.0120    118.4966
   862.2500      0.0000    822.8146     12.0184    119.0541
   862.5000      0.0000    819.8887     12.0050    121.8511
   862.7500      0.0000    812.5341     11.9686    125.4386
   863.0000      0.0000    803.8795     11.9101    127.9962
   863.2500      0.0000    797.5905     11.8399    128.1829
   863.5000      0.0000    795.8458     11.7779    125.9046
   863.7500      0.0000    797.9874     11.7413    122.5794
   864.0000      0.0000    801.2813     11.7334    120.3719
   864.2500      0.0000    803.3437     11.7457    120.4848
   864.5000      0.0000    803.7006     11.7705    121.8678
   864.7500      0.0000    803.2482     11.8088    121.8469
   865.0000      0.0000    803.0303     11.8635    118.2939
   865.2500      0.0000    803.7698     11.9275    111.2741
   865.5000      0.0000    805.9778     11.9845    102.8443
   865.7500      0.0000    809.7722     12.0239     95.4384
   866.0000      0.0000    814.2612     12.0517     90.2792
   866.2500      0.0000    817.4745     12.0843     87.2129
   866.5000      0.0000    817.6068     12.1325     86.0056
   866.7500      0.0000    814.5967     12.1938     87.3398
   867.0000      0.0000    810.0927     12.2554     92.0886
   867.2500      0.0000    805.7790     12.3032     99.9319
   867.5000      0.0000    801.9627     12.3288    109.2858
   867.7500      0.0000    797.8106     12.3297    118.5503
