~Version Information
VERS.                      2.0: CWLS Log ASCII Standard - VERSION 2.0
WRAP.                       NO: One line per depth step
~Well Information Block
STRT.FT               950.0000: 
STOP.FT              2417.7000: 
STEP.FT                 0.1000: 
NULL.                -999.2500: 
COMP.          Pioneer Natural Resources: COMPANY
WELL.            Chevron 13-13: WELL
FLD.           Purgatoire River: FIELD
LOC.           1560' FSL & 711' FWL--: LOCATION
CNTY.               Las Animas: COUNTY
SRVC.          Superior Well Services: SERVICE COMPANY
DATE.          Mon Feb 12 14:55:24 2007: LOG DATE
UWI.           05 071 08319 00: UNIQUE WELL ID
STAT.                 Colorado: STATE
~Curve Information Block
DEPT.FT            0 000 00 00: Depth
DCAL.in                       : CDL Caliper
RHOB.g/cc                     : CDL Bulk Density
RHOC.g/cc                     : CDL Density Correction
DPOR.pu                       : CDL Density Porosity
GR.GAPI                       : Gamma Ray
~Parameter Information Block
~A  Depth       DCAL        RHOB        RHOC        DPOR         GR     
# ...
  1622.0000      8.0264      1.9853     -0.1748     40.2842    121.3097
  1622.1000      8.0264      1.8616     -0.1286     47.7844    118.1062
  1622.2000      8.0264      1.7448     -0.1633     54.8618    108.5636
  1622.3000      8.0288      1.6376     -0.2230     61.3564    100.2797
  1622.4000      8.0288      1.5830     -0.1947     64.6667     96.5809
  1622.5000      8.0361      1.5935     -0.0747     64.0330     93.6746
  1622.6000      8.0361      1.6434      0.0053     61.0056     93.7315
  1622.7000      8.0361      1.7185      0.0886     56.4569     99.5888
  1622.8000      8.0644      1.8066      0.2185     51.1154    104.6582
  1622.9000      8.0644      1.8878      0.2554     46.1952    103.3822
  1623.0000      8.1151      1.9731      0.1942     41.0228     99.1562
  1623.1000      8.1151      2.0826      0.2290     34.3858    100.3278
  1623.2000      8.1151      2.1806      0.2829     28.4487    108.7515
  1623.3000      8.1327      2.2177      0.1531     26.2030    117.9339
  1623.4000      8.1327      2.2059      0.0596     26.9167    124.1162
  1623.5000      8.0828      2.1862      0.0519     28.1077    125.4410
  1623.6000      8.0828      2.1761      0.0378     28.7206    121.2560
  1623.7000      8.0828      2.1701      0.0297     29.0875    115.7774
  1623.8000      8.0387      2.1461      0.0794     30.5415    114.0709
  1623.9000      8.0387      2.0899      0.0594     33.9479    115.5962
  1624.0000      8.0318      2.0241      0.0054     37.9322    115.8617
  1624.1000      8.0318      1.9708      0.0156     41.1643    111.8613
  1624.2000      8.0318      1.9139      0.0287     44.6135    107.2391
  1624.3000      8.0372      1.8360     -0.0049     49.3354    105.8598
  1624.4000      8.0372      1.7475     -0.0228     54.6993    105.1340
  1624.5000      8.0441      1.6694     -0.0795     59.4299    101.9966
  1624.6000      8.0441      1.6096     -0.0659     63.0557     95.4553
  1624.7000      8.0441      1.5558      0.0173     66.3159     87.5256
  1624.8000      8.0519      1.5027     -0.0228     69.5335     81.5546
  1624.9000      8.0519      1.4601      0.0134     72.1164     77.5439
  1625.0000      8.0605      1.4276     -0.0086     74.0879     74.4386
  1625.1000      8.0605      1.4046     -0.0328     75.4784     73.8605
  1625.2000      8.0605      1.4052     -0.0215     75.4400     76.9101
  1625.3000      8.0698      1.4445     -0.0079     73.0622     77.7615
  1625.4000      8.0698      1.5316      0.0492     67.7838     71.1806
  1625.5000      8.0905      1.6654      0.1201     59.6744     63.6005
  1625.6000      8.0905      1.8193      0.2341     50.3443     63.0361
  1625.7000      8.0905      1.9535      0.2835     42.2096     68.9709
  1625.8000      8.1512      2.0619      0.2906     35.6420     79.4804
  1625.9000      8.1512      2.1691      0.3001     29.1469     93.9822
  1626.0000      8.2025      2.2714      0.3181     22.9453    109.7288
  1626.1000      8.2025      2.3363      0.2684     19.0127    122.1844
  1626.2000      8.2025      2.3715      0.1220     16.8813    127.0965
  1626.3000      8.1329      2.4191      0.1236     13.9915    123.4210
  1626.4000      8.1329      2.4767      0.1390     10.5000    116.1185
  1626.5000      8.0004      2.5159      0.0953      8.1275    111.7052
  1626.6000      8.0004      2.5416      0.0629      6.5687    110.4713
  1626.7000      8.0004      2.5648      0.1183      5.1650    110.0995
  1626.8000      7.9301      2.5776      0.1110      4.3884    108.6999
  1626.9000      7.9301      2.5771      0.1102      4.4194    107.3190
  1627.0000      7.9164      2.5727      0.0777      4.6826    110.0934
  1627.1000      7.9164      2.5749      0.0800      4.5531    115.6789
  1627.2000      7.9164      2.5822      0.1085      4.1067    114.5896
  1627.3000      7.9143      2.5910      0.0564      3.5756    103.6687
  1627.4000      7.9143      2.6011      0.0966      2.9634     93.0198
  1627.5000      7.9148      2.6030      0.0696      2.8457     88.6903
  1627.6000      7.9148      2.5932      0.0549      3.4422     88.3103
  1627.7000      7.9148      2.5846      0.0515      3.9634     88.9404
  1627.8000      7.9175      2.5848      0.0596      3.9493     88.3764
  1627.9000      7.9175      2.5891      0.0586      3.6926     87.8873
  1628.0000      7.9196      2.5909      0.0820      3.5819     91.0144
  1628.1000      7.9196      2.5874      0.0739      3.7925     96.7899
  1628.2000      7.9196      2.5825      0.0958      4.0889    100.1196
  1628.3000      7.9202      2.5796      0.0621      4.2647     97.9939
  1628.4000      7.9202      2.5718      0.0705      4.7387     91.4904
  1628.5000      7.9198      2.5537      0.0568      5.8375     87.3385
  1628.6000      7.9198      2.5334      0.0644      7.0642     92.9324
  1628.7000      7.9198      2.5187      0.0700      7.9579    104.7431
  1628.8000      7.9202      2.5071      0.0553      8.6630    112.5185
  1628.9000      7.9202      2.4979      0.0179      9.2154    114.0135
  1629.0000      7.9205      2.4953      0.0191      9.3759    112.3615
  1629.1000      7.9205      2.4965      0.1012      9.3005    109.5422
  1629.2000      7.9205      2.4990      0.0902      9.1511    106.6240
  1629.3000      7.9201      2.5089      0.0948      8.5494    105.5419
  1629.4000      7.9201      2.5230      0.1281      7.6981    109.3435
  1629.5000      7.9195      2.5275      0.1086      7.4214    114.7424
  1629.6000      7.9195      2.5295      0.0690      7.3057    116.4047
  1629.7000      7.9195      2.5471      0.0742      6.2378    115.8643
  1629.8000      7.9185      2.5728      0.0839      4.6800    117.3324
  1629.9000      7.9185      2.5781      0.1141      4.3559    121.6089
  1630.0000      7.9162      2.5543      0.0748      5.8003    123.1073
  1630.1000      7.9162      2.5243      0.0870      7.6202    117.4678
  1630.2000      7.9162      2.5086      0.0667      8.5680    108.6889
  1630.3000      7.9142      2.5062      0.1160      8.7157    104.2824
  1630.4000      7.9142      2.5025      0.0726      8.9389    106.2028
  1630.5000      7.9143      2.4916      0.0526      9.6029    109.1271
  1630.6000      7.9143      2.4798      0.0593     10.3157    112.8023
  1630.7000      7.9143      2.4668      0.0632     11.1019    118.0836
  1630.8000      7.9153      2.4446      0.0493     12.4496    116.7604
  1630.9000      7.9153      2.4140      0.0130     14.3012    109.7877
  1631.0000      7.9166      2.3811      0.0250     16.2983    107.2995
  1631.1000      7.9166      2.3442      0.0153     18.5314    110.9308
  1631.2000      7.9166      2.3065      0.0278     20.8189    117.1886
  1631.3000      7.9175      2.2838     -0.0091     22.1934    119.5337
  1631.4000      7.9175      2.2911      0.0524     21.7519    116.1491
  1631.5000      7.9199      2.3207      0.0833     19.9557    114.9241
  1631.6000      7.9199      2.3494      0.1165     18.2165    118.3063
  1631.7000      7.9199      2.3626      0.1198     17.4192    120.4848
  1631.8000      7.9260      2.3626      0.1411     17.4212    119.4566
  1631.9000      7.9260      2.3602      0.1283     17.5660    118.4788
  1632.0000      7.9323      2.3607      0.1425     17.5331    121.0977
  1632.1000      7.9323      2.3607      0.1036     17.5362    127.7097
  1632.2000      7.9323      2.3585      0.1001     17.6680    132.5902
  1632.3000      7.9394      2.3479      0.0629     18.3093    132.5240
  1632.4000      7.9394      2.3095      0.0831     20.6335    131.8128
  1632.5000      7.9501      2.2397      0.0201     24.8684    130.6534
  1632.6000      7.9501      2.1637     -0.0021     29.4717    127.1688
  1632.7000      7.9501      2.0893      0.0136     33.9824    124.3272
  1632.8000      7.9576      2.0061     -0.0362     39.0261    122.5051
  1632.9000      7.9576      1.9381     -0.0626     43.1446    118.0186
  1633.0000      7.9590      1.9209     -0.0274     44.1906    111.5880
  1633.1000      7.9590      1.9448      0.0855     42.7381    110.6598
