~Version Information
VERS.                      2.0: CWLS Log ASCII Standard - VERSION 2.0
WRAP.                       NO: One line per depth step
~Well Information Block
STRT.FT                15.0000: 
STOP.FT              1211.0000: 
STEP.FT                 0.2500: 
NULL.                -999.2500: 
COMP.          Pioneer Natural Resources: COMPANY
WELL.          Santa Fe 43-27 Tr: WELL
FLD.           Purgatoire River: FIELD
LOC.           2018' FSL & 534' FEL: LOCATION
PROV.                 Colorado: PROVINCE
CNTY.               Las Animas: COUNTRY
SRVC.                Patterson: SERVICE COMPANY
DATE.          Mon Mar 14 15:43:40 2005: LOG DATE
UWI.           05 071 08303 00: UNIQUE WELL ID
~Curve Information Block
DEPT.FT            0 000 00 00: Depth
GR.GAPI                       : Gamma Ray
CCL.                          : Casing Collar Locator
TT3.usec                      : CBL 3' Travel Time
AMP3.mV                       : CBL 3' Amplitude
AMP5.mV                       : CBL 5' Amplitude
~Parameter Information Block
~A  Depth        GR         CCL         TT3         AMP3        AMP5    
# ...
   183.0000     90.5984      0.0000   1246.2704      8.6414      1.7056
   183.2500     89.9542      0.0000   1286.6738      8.3640      1.7009
   183.5000     87.8078      0.0000   1309.2911      8.2001      1.6964
   183.7500     86.1781      0.0000   1320.0195      8.1227      1.6912
   184.0000     86.5452      0.0000   1324.2074      8.0589      1.6835
   184.2500     88.7397      0.0000   1325.3766      7.9550      1.6730
   184.5000     91.2319      0.0000   1324.8732      7.8116      1.6603
   184.7500     92.5591      0.0000   1321.8311      7.6606      1.6461
   185.0000     92.4590      0.0000   1313.1943      7.5249      1.6315
   185.2500     91.7244      0.0000   1295.2808      7.4077      1.6186
   185.5000     91.1788      0.0000   1268.6090      7.3151      1.6099
   185.7500     90.9226      0.0000   1242.4966      7.2741      1.6066
   186.0000     90.4905      0.0000   1231.3783      7.3194      1.6073
   186.2500     89.5654      0.0000   1242.4966      7.4576      1.6101
   186.5000     88.5320      0.0000   1268.5771      7.6458      1.6149
   186.7500     88.2751      0.0000   1295.0416      7.8124      1.6241
   187.0000     89.2022      0.0000   1311.9020      7.9059      1.6377
   187.2500     90.4745      0.0000   1316.4015      7.9312      1.6509
   187.5000     90.5657      0.0000   1306.7699      7.9425      1.6570
   187.7500     88.6462      0.0000   1277.2832      8.0036      1.6534
   188.0000     85.1524      0.0000   1221.6077      8.1470      1.6438
   188.2500     81.1789      0.0000   1142.5768      8.3571      1.6347
   188.5000     77.8390      0.0000   1057.3052      8.5831      1.6298
   188.7500     76.0476      0.0000    987.8161      8.7676      1.6281
   189.0000     76.1911      0.0000    944.1352      8.8712      1.6265
   189.2500     77.6975      0.0000    919.1012      8.8785      1.6240
   189.5000     79.1326      0.0000    900.0718      8.7932      1.6227
   189.7500     78.9892      0.0000    881.6763      8.6329      1.6250
   190.0000     76.7490      0.0000    866.2471      8.4309      1.6302
   190.2500     73.4034      0.0000    857.1907      8.2352      1.6345
   190.5000     70.7010      0.0000    856.2944      8.0967      1.6348
   190.7500     69.5292      0.0000    866.3898      8.0458      1.6311
   191.0000     69.1783      0.0000    892.8908      8.0787      1.6269
   191.2500     68.3872      0.0000    938.8499      8.1687      1.6254
   191.5000     66.9030      0.0000    996.3544      8.2946      1.6279
   191.7500     65.7114      0.0000   1046.9824      8.4569      1.6328
   192.0000     65.8897      0.0000   1078.1658      8.6587      1.6378
   192.2500     67.6158      0.0000   1098.6190      8.8726      1.6425
   192.5000     70.2633      0.0000   1129.4968      9.0382      1.6491
   192.7500     73.0374      0.0000   1179.6117      9.1018      1.6596
   193.0000     75.4048      0.0000   1236.5879      9.0602      1.6730
   193.2500     77.1149      0.0000   1282.2361      8.9674      1.6867
   193.5000     78.0012      0.0000   1308.9750      8.9054      1.7004
   193.7500     77.9899      0.0000   1320.5850      8.9452      1.7183
   194.0000     77.4322      0.0000   1323.6888      9.1156      1.7451
   194.2500     77.1357      0.0000   1321.5955      9.3932      1.7817
   194.5000     77.7283      0.0000   1313.1365      9.7214      1.8242
   194.7500     79.1256      0.0000   1295.2180     10.0541      1.8675
   195.0000     80.8116      0.0000   1268.4600     10.3810      1.9066
   195.2500     82.4467      0.0000   1242.1190     10.7046      1.9377
   195.5000     83.9449      0.0000   1230.1338     10.9983      1.9590
   195.7500     85.0715      0.0000   1238.1370     11.2033      1.9717
   196.0000     85.3812      0.0000   1255.4476     11.2713      1.9787
   196.2500     84.7401      0.0000   1263.2089     11.2040      1.9805
   196.5000     83.5829      0.0000   1250.3267     11.0491      1.9751
   196.7500     82.3642      0.0000   1220.0936     10.8671      1.9625
   197.0000     81.0456      0.0000   1181.5073     10.7009      1.9468
   197.2500     79.4898      0.0000   1136.8752     10.5694      1.9326
   197.5000     78.1404      0.0000   1082.8291     10.4719      1.9206
   197.7500     77.8796      0.0000   1024.4088     10.3910      1.9074
   198.0000     79.2369      0.0000    980.6783     10.2916      1.8898
   198.2500     82.0556      0.0000    971.2755     10.1251      1.8672
   198.5000     85.8702      0.0000   1000.5005      9.8492      1.8410
   198.7500     90.2178      0.0000   1057.1801      9.4525      1.8126
   199.0000     94.4920      0.0000   1125.7035      8.9595      1.7839
   199.2500     97.8025      0.0000   1192.9225      8.4164      1.7584
   199.5000     99.1508      0.0000   1247.9060      7.8831      1.7390
   199.7500     97.7271      0.0000   1282.3535      7.4334      1.7232
   200.0000     93.2549      0.0000   1293.2621      7.1338      1.6980
   200.2500     86.4775      0.0000   1283.6505      6.9945      1.6417
   200.5000     79.3108      0.0000   1259.9988      6.9324      1.5349
   200.7500     73.9483      0.0000   1228.9585      6.8008      1.3794
   201.0000     71.3389      0.0000   1197.0317      6.4783      1.2071
   201.2500     70.5565      0.0000   1174.1196      5.9395      1.0628
   201.5000     69.7222      0.0000   1173.0171      5.2504      0.9729
   201.7500     67.5527      0.0000   1198.9635      4.5264      0.9296
   202.0000     64.1715      0.0000   1241.2769      3.9031      0.9066
   202.2500     60.5902      0.0000   1281.3052      3.4963      0.8829
   202.5000     57.5927      0.0000   1307.4973      3.3374      0.8567
   202.7500     55.4674      0.0000   1320.0128      3.3609      0.8404
   203.0000     54.7276      3.0000   1324.4907      3.4779      0.8476
   203.2500     56.3234      0.0000   1325.7028      3.6646      0.8805
   203.5000     60.6720      0.0000   1325.9545      3.9893      0.9277
   203.7500     66.8447      0.0000   1326.0000      4.5516      0.9739
   204.0000     73.1067      0.0000   1326.0000      5.3662      1.0132
   204.2500     78.0155      0.0000   1326.0000      6.2980      1.0558
   204.5000     80.8010      0.0000   1326.0000      7.1373      1.1210
   204.7500     81.2705      0.0000   1326.0000      7.7357      1.2207
   205.0000     80.0246      0.0000   1326.0000      8.0483      1.3455
   205.2500     78.4675      0.0000   1326.0000      8.1007      1.4700
   205.5000     77.9127      0.0000   1326.0000      7.9782      1.5752
   205.7500     78.6075      0.0000   1326.0000      7.8227      1.6615
   206.0000     79.8763      0.0000   1326.0000      7.7824      1.7359
   206.2500     81.1061      0.0000   1326.0000      7.9404      1.7982
   206.5000     82.2379      0.0000   1326.0000      8.2833      1.8457
   206.7500     83.2172      0.0000   1326.0000      8.7236      1.8828
   207.0000     83.3585      0.0000   1326.0000      9.1518      1.9195
   207.2500     81.7339      0.0000   1326.0000      9.4954      1.9619
   207.5000     78.1544      0.0000   1326.0000      9.7457      2.0089
   207.7500     73.4578      0.0000   1326.0000      9.9369      2.0546
   208.0000     69.0213      0.0000   1326.0000     10.1056      2.0919
   208.2500     66.2692      0.0000   1326.0000     10.2731      2.1162
   208.5000     66.2327      0.0000   1326.0000     10.4588      2.1273
   208.7500     68.9310      0.0000   1326.0000     10.6952      2.1319
   209.0000     73.1351      0.0000   1326.0000     11.0231      2.1407
   209.2500     77.0610      0.0000   1326.0000     11.4688      2.1642
   209.5000     79.4646      0.0000   1326.0000     12.0210      2.2071
   209.7500     80.0989      0.0000   1326.0000     12.6346      2.2676
   210.0000     79.2692      0.0000   1326.0000     13.2633      2.3383
   210.2500     77.2403      0.0000   1326.0000     13.8847      2.4100
   210.5000     74.3712      0.0000   1326.0000     14.4896      2.4760
   210.7500     71.6680      0.0000   1326.0000     15.0517      2.5360
