~Version Information
VERS.                      2.0: CWLS Log ASCII Standard - VERSION 2.0
WRAP.                       NO: One line per depth step
~Well Information Block
STRT.FT               550.0000: 
STOP.FT              1577.7500: 
STEP.FT                 0.2500: 
NULL.                -999.2500: 
COMP.          Pioneer Natural Resources: COMPANY
WELL.          Kristin 22-23 Tr: WELL
FLD.           Purgatoire River: FIELD
LOC.           2273' FNL & 2029' FWL: LOCATION
PROV.                 Colorado: PROVINCE
CNTY.               Las Animas: COUNTRY
SRVC.                Patterson: SERVICE COMPANY
DATE.          Thu Jan 20 21:18:23 2005: LOG DATE
UWI.           05 071 08259 00: UNIQUE WELL ID
~Curve Information Block
DEPT.FT            0 000 00 00: Depth
SN.Ohm-m                      : IEL Short Normal
SP.mV                         : IEL Spontaneous Potential
DIR.Ohm-m                     : IEL Induction Resistivity
GR.GAPI                       : Gamma Ray
~Parameter Information Block
~A  Depth        SN          SP         DIR          GR     
# ...
   818.0000     12.1994   -238.2701     10.1310    124.5919
   818.2500     12.2011   -238.4172     10.0921    123.8304
   818.5000     12.4059   -238.5525     10.1348    126.1013
   818.7500     12.7118   -238.6248     10.2283    128.9385
   819.0000     12.9930   -238.6062     10.3315    132.9902
   819.2500     13.1404   -238.4910     10.3969    134.7997
   819.5000     13.1075   -238.2880     10.3810    136.3464
   819.7500     12.9200   -238.0117     10.2596    137.2026
   820.0000     12.6410   -237.6764     10.0379    139.0880
   820.2500     12.3285   -237.2950      9.7475    140.8398
   820.5000     12.0151   -236.8831      9.4331    143.7665
   820.7500     11.7081   -236.4632      9.1363    145.5103
   821.0000     11.3988   -236.0658      8.8874    147.0872
   821.2500     11.0767   -235.7256      8.7038    147.1198
   821.5000     10.7447   -235.4729      8.5934    145.5865
   821.7500     10.4241   -235.3240      8.5579    143.8030
   822.0000     10.1497   -235.2741      8.5950    140.4741
   822.2500      9.9593   -235.2971      8.6988    137.6794
   822.5000      9.8840   -235.3501      8.8598    131.6468
   822.7500      9.9392   -235.3829      9.0654    125.9732
   823.0000     10.1206   -235.3483      9.3013    115.7908
   823.2500     10.4053   -235.2119      9.5520    109.3182
   823.5000     10.7583   -234.9588      9.8000    102.6439
   823.7500     11.1365   -234.5964     10.0259    100.7726
   824.0000     11.4904   -234.1525     10.2081    100.9210
   824.2500     11.7679   -233.6699     10.3258    102.1243
   824.5000     11.9294   -233.1982     10.3618    104.7610
   824.7500     11.9668   -232.7835     10.3094    106.9256
   825.0000     11.9106   -232.4588     10.1783    110.4734
   825.2500     11.8139   -232.2371      9.9967    112.7884
   825.5000     11.7255   -232.1098      9.8035    115.9246
   825.7500     11.6705   -232.0520      9.6358    117.7583
   826.0000     11.6521   -232.0336      9.5195    120.1806
   826.2500     11.6646   -232.0315      9.4674    121.7185
   826.5000     11.7074   -232.0352      9.4832    124.1942
   826.7500     11.7915   -232.0443      9.5663    125.8615
   827.0000     11.9371   -232.0588      9.7150    127.5572
   827.2500     12.1664   -232.0725      9.9273    127.6470
   827.5000     12.4965   -232.0729     10.2004    126.2918
   827.7500     12.9373   -232.0521     10.5311    125.0605
   828.0000     13.4931   -232.0217     10.9179    123.9467
   828.2500     14.1664   -232.0239     11.3625    123.8145
   828.5000     14.9631   -232.1316     11.8728    123.5258
   828.7500     15.9006   -232.4342     12.4638    122.5103
   829.0000     17.0150   -233.0125     13.1567    119.1977
   829.2500     18.3596   -233.9088     13.9766    115.9829
   829.5000     19.9844   -235.1065     14.9477    110.1630
   829.7500     21.8934   -236.5268     16.0885    105.7662
   830.0000     24.0086   -238.0457     17.4064     98.5996
   830.2500     26.1836   -239.5240     18.8910     93.6886
   830.5000     28.2695   -240.8374     20.5065     86.5845
   830.7500     30.1751   -241.8957     22.1812     82.2738
   831.0000     31.8680   -242.6486     23.8016     77.4397
   831.2500     33.3249   -243.0816     25.2286     76.3355
   831.5000     34.4869   -243.2083     26.3401     79.2001
   831.7500     35.2580   -243.0619     27.0778     83.7838
   832.0000     35.5475   -242.6892     27.4536     92.2231
   832.2500     35.3185   -242.1428     27.5159     97.3710
   832.5000     34.6092   -241.4753     27.3113    103.1430
   832.7500     33.5171   -240.7342     26.8689    105.6203
   833.0000     32.1673   -239.9593     26.2083    107.2400
   833.2500     30.6857   -239.1834     25.3599    106.9587
   833.5000     29.1817   -238.4341     24.3835    105.5945
   833.7500     27.7334   -237.7354     23.3684    105.3772
   834.0000     26.3801   -237.1080     22.4091    108.1631
   834.2500     25.1331   -236.5657     21.5741    112.3949
   834.5000     23.9978   -236.1133     20.8846    121.0337
   834.7500     22.9813   -235.7441     20.3170    127.0443
   835.0000     22.0840   -235.4408     19.8230    134.4361
   835.2500     21.2958   -235.1789     19.3564    137.6290
   835.5000     20.6067   -234.9317     18.8958    139.8829
   835.7500     20.0185   -234.6743     18.4492    140.3240
   836.0000     19.5440   -234.3887     18.0419    140.7789
   836.2500     19.1965   -234.0681     17.6986    141.3830
   836.5000     18.9767   -233.7215     17.4347    142.2029
   836.7500     18.8681   -233.3735     17.2597    141.9038
   837.0000     18.8448   -233.0593     17.1828    139.3399
   837.2500     18.8855   -232.8122     17.2132    136.3632
   837.5000     18.9854   -232.6513     17.3521    130.7624
   837.7500     19.1577   -232.5756     17.5854    126.7272
   838.0000     19.4226   -232.5698     17.8853    121.1242
   838.2500     19.7935   -232.6183     18.2206    118.2624
   838.5000     20.2716   -232.7181     18.5706    115.7387
   838.7500     20.8533   -232.8830     18.9301    115.0162
   839.0000     21.5376   -233.1369     19.3064    114.7014
   839.2500     22.3208   -233.5014     19.7127    114.8336
   839.5000     23.1788   -233.9843     20.1654    115.5358
   839.7500     24.0585   -234.5749     20.6819    116.1426
   840.0000     24.8910   -235.2426     21.2763    116.4349
   840.2500     25.6125   -235.9382     21.9446    115.7651
   840.5000     26.1756   -236.5947     22.6487    113.2559
   840.7500     26.5543   -237.1303     23.3100    110.8258
   841.0000     26.7418   -237.4576     23.8274    106.8312
   841.2500     26.7342   -237.4990     24.1129    104.3343
   841.5000     26.5116   -237.2047     24.1165    101.0727
   841.7500     26.0424   -236.5668     23.8213     99.2952
   842.0000     25.3137   -235.6233     23.2211     98.0687
   842.2500     24.3602   -234.4495     22.3084     99.1387
   842.5000     23.2587   -233.1421     21.0837    104.7230
   842.7500     22.0926   -231.8017     19.5748    110.8105
   843.0000     20.9157   -230.5186     17.8537    121.2925
   843.2500     19.7431   -229.3651     16.0402    127.6029
   843.5000     18.5748   -228.3903     14.2822    134.3249
   843.7500     17.4314   -227.6189     12.7157    136.8649
   844.0000     16.3754   -227.0506     11.4336    138.6636
   844.2500     15.5009   -226.6618     10.4821    139.1465
   844.5000     14.8934   -226.4136      9.8860    139.1453
   844.7500     14.5827   -226.2616      9.6881    138.3120
   845.0000     14.5193   -226.1680      9.9965    135.0391
   845.2500     14.5980   -226.1095     11.0526    131.6433
   845.5000     14.7156   -226.0781     13.3553    126.5134
   845.7500     14.8163   -226.0768     17.8774    124.5043
   846.0000     14.8937   -226.1136     25.9993    124.9031
   846.2500     14.9649   -226.1979     36.3800    126.8762
   846.5000     15.0507   -226.3396     38.7842    129.7471
   846.7500     15.1700   -226.5507     30.8720    130.1031
   847.0000     15.3370   -226.8437     23.3067    127.2981
   847.2500     15.5561   -227.2289     19.4341    123.5466
   847.5000     15.8192   -227.7088     18.6596    116.5450
   847.7500     16.1054   -228.2771     20.6513    112.0422
   848.0000     16.3812   -228.9217     25.6933    107.4494
   848.2500     16.6020   -229.6343     32.8366    106.4659
   848.5000     16.7222   -230.4224     35.4431    107.2356
   848.7500     16.7132   -231.3183     29.1256    107.6934
   849.0000     16.5797   -232.3811     22.0602    105.9805
   849.2500     16.3593   -233.6929     19.6491    103.3391
   849.5000     16.1032   -235.3480     27.5845     99.8228
   849.7500     15.8436   -237.4392 100000.0000     99.5815
   850.0000     15.5672   -240.0418 100000.0000    103.5968
   850.2500     15.2089   -243.1977 100000.0000    108.5380
   850.5000     14.6721   -246.9005 100000.0000    116.8066
   850.7500     13.8648   -251.1061 100000.0000    121.3402
   851.0000     12.7309   -255.7727 100000.0000    125.3063
   851.2500     11.2682   -260.9380 100000.0000    126.4038
