~Version Information
VERS.                      2.0: CWLS Log ASCII Standard - VERSION 2.0
WRAP.                       NO: One line per depth step
~Well Information Block
STRT.FT               710.0000: 
STOP.FT              2921.0000: 
STEP.FT                 0.1000: 
NULL.                -999.2500: 
COMP.          Petrogulf Corporation: COMPANY
WELL.            Montoya 1-41V: WELL
FLD.           Purgatorie River: FIELD
LOC.           610' FNL & 1205' FEL: LOCATION
PROV.                 Colorado: PROVINCE
CNTY.               Las Animas: COUNTRY
SRVC.                Patterson: SERVICE COMPANY
DATE.          Mon Aug 22 07:54:27 2005: LOG DATE
UWI.                          : UNIQUE WELL ID
~Curve Information Block
DEPT.FT            0 000 00 00: Depth
DCAL.in                       : CDL Caliper
RHOB.g/cc                     : CDL Bulk Density
RHOC.g/cc                     : CDL Density Correction
DPOR.pu                       : CDL Density Porosity
GR.GAPI                       : Gamma Ray
NPOR.pu                       : Neutron Porosity
~Parameter Information Block
~A  Depth       DCAL        RHOB        RHOC        DPOR         GR         NPOR    
# ...
  2025.2000      8.3298      2.5130      0.0730      8.3022    185.5197     29.7201
  2025.3000      8.2086      2.4807      0.0712     10.2627    190.5583     29.7067
  2025.4000      8.2086      2.4611      0.0438     11.4513    189.3121     29.9290
  2025.5000      8.2061      2.4592      0.0960     11.5641    185.1900     30.3260
  2025.6000      8.2061      2.4741      0.0468     10.6603    181.6108     30.8220
  2025.7000      8.2061      2.5076      0.0839      8.6320    176.9064     31.1224
  2025.8000      8.2630      2.5434      0.1803      6.4615    170.4770     31.0733
  2025.9000      8.2630      2.5535      0.1464      5.8496    164.2358     30.8418
  2026.0000      8.3825      2.5298      0.1556      7.2829    160.3518     30.5730
  2026.1000      8.3825      2.4880      0.1086      9.8153    157.9400     30.4573
  2026.2000      8.3825      2.4479      0.1692     12.2477    155.7530     30.5542
  2026.3000      8.3373      2.4116      0.1174     14.4507    156.4776     30.7632
  2026.4000      8.3373      2.3797      0.0576     16.3791    160.0524     30.9487
  2026.5000      8.2446      2.3707      0.0147     16.9243    161.9791     31.0150
  2026.6000      8.2446      2.4010      0.0496     15.0935    158.7589     31.1126
  2026.7000      8.2446      2.4628      0.1305     11.3445    153.3864     31.2331
  2026.8000      8.3695      2.5324      0.2163      7.1283    151.1067     31.1205
  2026.9000      8.3695      2.5870      0.3216      3.8187    151.0905     30.9054
  2027.0000      8.3308      2.6139      0.2884      2.1852    149.2085     30.7551
  2027.1000      8.3308      2.6199      0.2504      1.8231    144.2006     30.3314
  2027.2000      8.3308      2.6178      0.2235      1.9525    137.7147     29.6222
  2027.3000      8.3032      2.6070      0.2065      2.6050    132.2459     29.1179
  2027.4000      8.3032      2.5862      0.1208      3.8675    130.3127     28.9552
  2027.5000      8.2493      2.5653      0.0578      5.1322    130.5317     28.7345
  2027.6000      8.2493      2.5520      0.0794      5.9378    130.3556     28.0864
  2027.7000      8.2493      2.5492      0.0488      6.1098    129.7225     27.3702
  2027.8000      8.0948      2.5561      0.0532      5.6883    131.1093     27.1028
  2027.9000      8.0948      2.5650      0.0481      5.1543    135.2235     27.2041
  2028.0000      8.0654      2.5717      0.0510      4.7474    136.1388     27.2145
  2028.1000      8.0654      2.5732      0.0896      4.6539    132.2696     26.9665
  2028.2000      8.0654      2.5660      0.0914      5.0896    130.7819     26.6546
  2028.3000      8.0332      2.5589      0.0591      5.5192    133.4400     26.4007
  2028.4000      8.0332      2.5597      0.1100      5.4726    136.8329     26.0489
  2028.5000      8.0089      2.5647      0.0736      5.1712    141.8757     25.6833
  2028.6000      8.0089      2.5740      0.0868      4.6036    148.4777     25.8248
  2028.7000      8.0089      2.5878      0.1015      3.7670    151.2417     26.3200
  2028.8000      8.0027      2.5981      0.1549      3.1438    148.2172     26.4950
  2028.9000      8.0027      2.6021      0.0999      2.9056    143.7043     26.5021
  2029.0000      8.0148      2.6093      0.1006      2.4677    140.1541     26.7144
  2029.1000      8.0148      2.6328      0.0882      1.0398    137.4898     26.8110
  2029.2000      8.0148      2.6752      0.1085     -1.5287    134.4958     26.6220
  2029.3000      8.0171      2.7147      0.1632     -3.9190    127.2512     26.4724
  2029.4000      8.0171      2.7288      0.1393     -4.7735    115.2184     26.5075
  2029.5000      8.0404      2.7234      0.1151     -4.4461    102.8106     26.4883
  2029.6000      8.0404      2.7132      0.0998     -3.8330     95.3882     26.1760
  2029.7000      8.0404      2.7004      0.0918     -3.0555     92.9181     25.6990
  2029.8000      8.0388      2.6823      0.0394     -1.9552     90.5567     25.3745
  2029.9000      8.0388      2.6660     -0.0028     -0.9709     87.3646     25.3318
  2030.0000      8.0030      2.6627      0.0194     -0.7707     85.1315     25.2083
  2030.1000      8.0030      2.6681      0.0635     -1.0959     84.5028     24.7540
  2030.2000      8.0030      2.6678      0.0290     -1.0758     86.4664     24.4029
  2030.3000      7.9926      2.6597      0.0598     -0.5894     89.1457     24.3139
  2030.4000      7.9926      2.6492      0.0792      0.0461     89.2483     24.0389
  2030.5000      7.9699      2.6388      0.0855      0.6800     87.9870     23.4644
  2030.6000      7.9699      2.6324      0.0872      1.0679     88.1065     22.9502
  2030.7000      7.9699      2.6310      0.1299      1.1506     90.5014     22.7348
  2030.8000      7.9653      2.6250      0.1099      1.5175     94.8293     22.7415
  2030.9000      7.9653      2.6088      0.0855      2.4952     99.3578     22.9274
  2031.0000      7.9587      2.5907      0.0467      3.5962    101.0362     23.3408
  2031.1000      7.9587      2.5835      0.0020      4.0284     99.8872     23.7249
  2031.2000      7.9587      2.5918      0.0563      3.5278     98.8141     23.7049
  2031.3000      8.0051      2.6034      0.1062      2.8223     97.0455     23.3836
  2031.4000      8.0051      2.6092      0.0365      2.4756     92.6042     23.2411
  2031.5000      8.0921      2.6128      0.0397      2.2560     88.5952     23.3225
  2031.6000      8.0921      2.6160      0.0446      2.0582     86.6412     23.2602
  2031.7000      8.0921      2.6178      0.0155      1.9527     84.0612     22.9516
  2031.8000      8.1490      2.6198      0.0462      1.8296     79.9239     22.4589
  2031.9000      8.1490      2.6253      0.0373      1.4952     76.2006     21.7568
  2032.0000      8.0392      2.6368      0.0494      0.7991     73.7415     21.1214
  2032.1000      8.0392      2.6521      0.0654     -0.1299     71.8199     20.8133
  2032.2000      8.0392      2.6659      0.1022     -0.9663     70.2418     20.6335
  2032.3000      8.0176      2.6732      0.0819     -1.4039     69.9750     20.4422
  2032.4000      8.0176      2.6706      0.0697     -1.2469     71.8014     20.3201
  2032.5000      7.9958      2.6577      0.0546     -0.4641     74.9930     20.3058
  2032.6000      7.9958      2.6429      0.0242      0.4276     79.0244     20.3716
  2032.7000      7.9958      2.6373      0.0397      0.7698     85.5211     20.4744
  2032.8000      7.9965      2.6354      0.0596      0.8862     94.7340     20.7207
  2032.9000      7.9965      2.6198      0.0859      1.8299    105.2705     21.1227
  2033.0000      7.9778      2.5915      0.0146      3.5465    114.7518     21.5926
  2033.1000      7.9778      2.5700      0.0389      4.8466    119.5108     22.1435
  2033.2000      7.9778      2.5610      0.0137      5.3933    121.0762     22.7166
  2033.3000      7.9853      2.5584     -0.0076      5.5520    126.1780     23.1996
  2033.4000      7.9853      2.5552      0.0535      5.7448    136.6925     23.5483
  2033.5000      7.9854      2.5439      0.0504      6.4307    147.0215     23.8681
  2033.6000      7.9854      2.5301      0.0476      7.2649    151.3348     24.4875
  2033.7000      7.9854      2.5272      0.0064      7.4447    151.6435     25.4546
  2033.8000      7.9915      2.5357      0.0419      6.9291    155.9197     26.3464
  2033.9000      7.9915      2.5381      0.0897      6.7790    163.2304     26.9291
  2034.0000      8.0384      2.5212      0.0545      7.8050    167.4151     27.4866
  2034.1000      8.0384      2.4889      0.0691      9.7638    169.9757     28.2070
  2034.2000      8.0384      2.4532      0.0322     11.9283    173.9963     28.7877
  2034.3000      8.0580      2.4271      0.0675     13.5098    177.0809     28.9491
  2034.4000      8.0580      2.4151      0.0377     14.2341    175.6038     28.7632
  2034.5000      8.1053      2.4114      0.0746     14.4620    170.7464     28.4866
  2034.6000      8.1053      2.3993      0.0803     15.1920    166.7241     28.3018
  2034.7000      8.1053      2.3569      0.0971     17.7616    165.5076     28.2722
