~Version Information
VERS.                      2.0: CWLS Log ASCII Standard - VERSION 2.0
WRAP.                       NO: One line per depth step
~Well Information Block
STRT.FT               472.0000: 
STOP.FT              2430.5000: 
STEP.FT                 0.2500: 
NULL.                -999.2500: 
COMP.          Pioneer Natural Resources: COMPANY
WELL.          Flying Horse 12-11: WELL
FLD.           Purgatoire River: FIELD
LOC.           2428' FNL & 308' FWL: LOCATION
PROV.                 Colorado: PROVINCE
CNTY.               Las Animas: COUNTRY
SRVC.                Patterson: SERVICE COMPANY
DATE.          Sun May 29 11:58:35 2005: LOG DATE
UWI.           05 071 08378 00: UNIQUE WELL ID
~Curve Information Block
DEPT.FT            0 000 00 00: Depth
SN.Ohm-m                      : IEL Short Normal
SP.mV                         : IEL Spontaneous Potential
DIR.Ohm-m                     : IEL Induction Resistivity
GR.GAPI                       : Gamma Ray
~Parameter Information Block
~A  Depth        SN          SP         DIR          GR     
# ...
  2113.5000     19.8359    -22.9709     21.9226     56.3604
  2113.7500     20.0598    -23.0215     22.3240     55.3772
  2114.0000     20.2777    -23.1004     22.7068     53.0459
  2114.2500     20.5126    -23.1932     23.0205     51.7039
  2114.5000     20.8013    -23.2646     23.2490     50.8192
  2114.7500     21.1670    -23.2728     23.4199     50.8289
  2115.0000     21.5895    -23.1924     23.5898     51.0898
  2115.2500     22.0075    -23.0309     23.8142     51.3586
  2115.5000     22.3562    -22.8272     24.1191     52.4566
  2115.7500     22.5987    -22.6271     24.4873     54.0164
  2116.0000     22.7327    -22.4541     24.8670     57.7076
  2116.2500     22.7683    -22.3013     25.1953     60.7508
  2116.5000     22.7109    -22.1510     25.4263     65.0304
  2116.7500     22.5918    -22.0042     25.5448     66.8003
  2117.0000     22.4870    -21.8880     25.5630     66.7435
  2117.2500     22.4753    -21.8336     25.5063     65.0384
  2117.5000     22.5960    -21.8444     25.4060     61.4873
  2117.7500     22.8412    -21.8893     25.2965     59.4252
  2118.0000     23.1585    -21.9231     25.2127     57.5933
  2118.2500     23.4728    -21.9128     25.1798     57.2517
  2118.5000     23.7330    -21.8431     25.2032     58.0124
  2118.7500     23.9397    -21.7057     25.2594     59.3367
  2119.0000     24.1342    -21.4939     25.2942     62.0486
  2119.2500     24.3682    -21.2127     25.2308     63.6619
  2119.5000     24.6575    -20.8843     24.9916     64.5081
  2119.7500     24.9551    -20.5324     24.5294     63.7516
  2120.0000     25.1848    -20.1598     23.8492     61.4778
  2120.2500     25.2690    -19.7489     23.0036     60.1586
  2120.5000     25.0966    -19.2843     22.0670     60.0989
  2120.7500     24.5153    -18.7708     21.1066     62.2236
  2121.0000     23.4175    -18.2289     20.1648     70.2339
  2121.2500     21.8583    -17.6754     19.2584     79.4139
  2121.5000     20.0689    -17.1163     18.3910     98.1544
  2121.7500     18.3207    -16.5586     17.5670    112.0601
  2122.0000     16.7702    -16.0272     16.7996    130.4341
  2122.2500     15.4403    -15.5631     16.1063    138.8630
  2122.5000     14.3132    -15.2020     15.5012    144.9227
  2122.7500     13.4047    -14.9556     14.9916    145.8008
  2123.0000     12.7777    -14.8108     14.5790    145.6548
  2123.2500     12.4950    -14.7450     14.2608    145.9209
  2123.5000     12.5231    -14.7410     14.0315    147.1470
  2123.7500     12.6955    -14.7940     13.8830    147.9727
  2124.0000     12.8344    -14.9075     13.8073    148.5892
  2124.2500     12.8878    -15.0852     13.8000    148.6283
  2124.5000     12.9037    -15.3257     13.8600    147.8660
  2124.7500     12.9476    -15.6199     13.9839    145.8723
  2125.0000     13.0734    -15.9532     14.1610    138.4688
  2125.2500     13.3172    -16.3066     14.3750    130.1809
  2125.5000     13.6884    -16.6561     14.6103    114.5479
  2125.7500     14.1693    -16.9745     14.8577    103.7650
  2126.0000     14.7332    -17.2394     15.1100     89.1615
  2126.2500     15.3562    -17.4453     15.3545     80.7474
  2126.5000     15.9884    -17.6066     15.5724     69.6655
  2126.7500     16.5344    -17.7453     15.7514     63.0764
  2127.0000     16.9023    -17.8745     15.9019     54.5443
  2127.2500     17.0679    -17.9885     16.0587     50.0637
  2127.5000     17.0707    -18.0654     16.2617     45.4877
  2127.7500     16.9640    -18.0807     16.5257     43.7102
  2128.0000     16.7964    -18.0228     16.8253     42.2078
  2128.2500     16.6244    -17.8981     17.1042     41.5921
  2128.5000     16.5029    -17.7235     17.3052     41.0422
  2128.7500     16.4593    -17.5189     17.3980     40.9622
  2129.0000     16.4871    -17.3035     17.3875     41.2869
  2129.2500     16.5505    -17.0941     17.3045     41.7981
  2129.5000     16.6018    -16.9048     17.1901     43.1204
  2129.7500     16.6126    -16.7489     17.0858     44.3877
  2130.0000     16.5912    -16.6376     17.0271     46.4622
  2130.2500     16.5830    -16.5726     17.0406     47.5533
  2130.5000     16.6469    -16.5411     17.1422     48.3039
  2130.7500     16.8083    -16.5259     17.3376     48.2335
  2131.0000     17.0388    -16.5217     17.6215     47.4738
  2131.2500     17.2867    -16.5421     17.9752     46.6075
  2131.5000     17.5147    -16.6077     18.3667     45.0047
  2131.7500     17.7217    -16.7261     18.7556     44.0626
  2132.0000     17.9418    -16.8811     19.1039     43.5790
  2132.2500     18.2195    -17.0437     19.3877     44.1774
  2132.5000     18.5893    -17.1919     19.6042     46.3364
  2132.7500     19.0669    -17.3195     19.7723     48.0676
  2133.0000     19.6369    -17.4283     19.9278     49.6166
  2133.2500     20.2532    -17.5174     20.1135     49.2145
  2133.5000     20.8594    -17.5795     20.3630     46.3075
  2133.7500     21.4079    -17.6064     20.6849     43.5033
  2134.0000     21.8752    -17.5948     21.0551     39.8224
  2134.2500     22.2741    -17.5484     21.4291     38.6966
  2134.5000     22.6434    -17.4763     21.7689     39.9598
  2134.7500     23.0103    -17.3920     22.0624     42.7987
  2135.0000     23.3690    -17.3161     22.3157     49.3160
  2135.2500     23.6987    -17.2825     22.5267     54.5174
  2135.5000     23.9828    -17.3417     22.6652     62.5815
  2135.7500     24.2145    -17.5551     22.6766     67.6421
  2136.0000     24.4015    -17.9717     22.5034     74.1021
  2136.2500     24.5345    -18.5973     22.1109     77.5186
  2136.5000     24.5390    -19.3737     21.5032     81.6636
  2136.7500     24.2958    -20.1812     20.7232     84.1544
  2137.0000     23.7396    -20.8684     19.8364     88.0460
  2137.2500     22.9244    -21.2980     18.9118     90.9702
  2137.5000     21.9837    -21.3888     18.0078     96.1289
  2137.7500     21.0313    -21.1384     17.1672    100.1687
  2138.0000     20.0846    -20.6204     16.4129    106.9326
  2138.2500     19.0718    -19.9530     15.7473    111.4429
  2138.5000     17.9561    -19.2516     15.1572    116.9230
  2138.7500     16.8405    -18.5890     14.6233    119.0866
  2139.0000     15.8586    -17.9867     14.1308    119.8914
  2139.2500     15.0160    -17.4325     13.6736    119.2157
  2139.5000     14.2513    -16.9041     13.2526    117.6915
  2139.7500     13.5513    -16.3826     12.8726    117.2567
  2140.0000     12.9425    -15.8556     12.5401    118.6207
  2140.2500     12.4524    -15.3162     12.2649    120.7466
  2140.5000     12.1054    -14.7631     12.0588    124.0623
  2140.7500     11.9260    -14.2009     11.9329    125.2068
  2141.0000     11.9220    -13.6383     11.8928    124.5157
  2141.2500     12.0792    -13.0878     11.9365    122.7713
  2141.5000     12.3896    -12.5621     12.0546    119.3800
  2141.7500     12.8484    -12.0681     12.2324    117.1680
  2142.0000     13.3988    -11.6000     12.4513    114.1913
  2142.2500     13.9141    -11.1426     12.6880    112.2306
  2142.5000     14.2758    -10.6854     12.9144    109.1070
  2142.7500     14.4812    -10.2364     13.0997    107.1034
  2143.0000     14.6560     -9.8164     13.2184    104.6300
  2143.2500     14.9371     -9.4359     13.2596    103.2511
  2143.5000     15.3321     -9.0818     13.2294    101.3341
  2143.7500     15.6977     -8.7292     13.1440    100.5498
  2144.0000     15.8475     -8.3657     13.0161    101.7285
  2144.2500     15.6893     -8.0018     12.8504    104.7227
  2144.5000     15.2813     -7.6623     12.6485    111.7056
  2144.7500     14.7682     -7.3685     12.4172    116.6174
  2145.0000     14.2599     -7.1243     12.1702    122.0098
  2145.2500     13.7765     -6.9151     11.9230    123.6692
  2145.5000     13.3052     -6.7198     11.6876    123.7158
  2145.7500     12.8614     -6.5258     11.4731    122.8584
  2146.0000     12.4780     -6.3351     11.2908    121.2311
  2146.2500     12.1683     -6.1567     11.1565    120.0035
  2146.5000     11.9346     -5.9962     11.0861    117.5222
  2146.7500     11.7973     -5.8512     11.0887    115.3067
