~Version Information
VERS.                      2.0: CWLS Log ASCII Standard - VERSION 2.0
WRAP.                       NO: One line per depth step
~Well Information Block
STRT.FT               500.0000: 
STOP.FT              2760.5000: 
STEP.FT                 0.1000: 
NULL.                -999.2500: 
COMP.          Petrogulf Corporation: COMPANY
WELL.              Silva 1-43V: WELL
FLD.           Purgatorie River: FIELD
LOC.           2010' FSL & 614' FEL: LOCATION
PROV.                 Colorado: PROVINCE
CNTY.               Las Animas: COUNTRY
SRVC.                Patterson: SERVICE COMPANY
DATE.          Mon Aug 29 08:02:37 2005: LOG DATE
UWI.                          : UNIQUE WELL ID
~Curve Information Block
DEPT.FT            0 000 00 00: Depth
DCAL.in                       : CDL Caliper
RHOB.g/cc                     : CDL Bulk Density
RHOC.g/cc                     : CDL Density Correction
DPOR.pu                       : CDL Density Porosity
GR.GAPI                       : Gamma Ray
NPOR.pu                       : Neutron Porosity
~Parameter Information Block
~A  Depth       DCAL        RHOB        RHOC        DPOR         GR         NPOR    
# ...
   797.6000      8.0765      2.6113      0.0669      2.3447     93.0669     21.2599
   797.7000      8.0765      2.6142      0.0696      2.1706     89.1017     20.4801
   797.8000      8.0423      2.6079      0.1031      2.5496     85.1663     19.8621
   797.9000      8.0423      2.5879      0.0561      3.7647     83.5245     19.4076
   798.0000      8.0596      2.5663      0.0267      5.0737     84.9763     19.0789
   798.1000      8.0596      2.5534      0.0536      5.8572     87.7418     18.7181
   798.2000      8.0596      2.5515      0.0337      5.9696     88.2128     18.3462
   798.3000      8.0478      2.5623      0.0929      5.3126     86.3149     18.1399
   798.4000      8.0478      2.5788      0.1135      4.3133     83.2511     18.1152
   798.5000      8.0568      2.5871      0.1124      3.8136     78.2092     18.1892
   798.6000      8.0568      2.5854      0.0716      3.9126     72.7819     18.1358
   798.7000      8.0568      2.5830      0.0883      4.0622     69.7665     18.0006
   798.8000      8.0385      2.5805      0.0725      4.2148     69.1675     18.1084
   798.9000      8.0385      2.5739      0.0630      4.6094     69.6357     18.3793
   799.0000      8.0647      2.5610      0.1015      5.3919     71.7632     18.5305
   799.1000      8.0647      2.5415      0.0488      6.5783     76.7129     18.3184
   799.2000      8.0647      2.5226      0.0585      7.7215     80.7419     17.6183
   799.3000      8.1033      2.5123      0.0240      8.3465     79.8551     16.8959
   799.4000      8.1033      2.5089      0.0558      8.5522     77.5777     16.5255
   799.5000      8.1252      2.4997      0.0528      9.1101     76.5956     16.2082
   799.6000      8.1252      2.4788      0.0367     10.3764     75.9884     15.6858
   799.7000      8.1252      2.4564      0.0530     11.7333     77.2251     15.1590
   799.8000      8.1181      2.4455      0.0328     12.3938     80.4764     14.9443
   799.9000      8.1181      2.4516      0.0541     12.0265     83.3668     15.0158
   800.0000      8.0987      2.4667      0.0762     11.1082     84.4048     15.2652
   800.1000      8.0987      2.4744      0.0890     10.6411     83.5086     15.6251
   800.2000      8.0987      2.4684      0.0747     11.0075     81.9721     15.8001
   800.3000      8.1182      2.4560      0.0843     11.7563     80.6700     15.6497
   800.4000      8.1182      2.4485      0.0673     12.2128     79.0368     15.5274
   800.5000      8.0842      2.4536      0.0556     11.9020     78.0963     15.6865
   800.6000      8.0842      2.4635      0.0982     11.3003     78.8565     15.9100
   800.7000      8.0842      2.4488      0.1211     12.1934     79.8475     16.1244
   800.8000      8.0703      2.3866      0.0565     15.9611     80.1917     16.4080
   800.9000      8.0703      2.2760      0.0564     22.6647     80.7805     16.7158
   801.0000      8.0686      2.1251     -0.0254     31.8123     82.2060     16.9030
   801.1000      8.0686      1.9583     -0.0777     41.9224     85.3831     16.5934
   801.2000      8.0686      1.8068     -0.1418     51.1023     91.0041     15.7177
   801.3000      8.1196      1.6803     -0.1599     58.7694     97.0676     14.7129
   801.4000      8.1196      1.5716     -0.1452     65.3605    100.7016     13.8128
   801.5000      8.1208      1.4828     -0.1641     70.7393    100.5910     12.9298
   801.6000      8.1208      1.4314     -0.0785     73.8566     97.6835     11.9591
   801.7000      8.1208      1.4368      0.0455     73.5275     93.8919     10.9240
   801.8000      8.1705      1.4910      0.2881     70.2439     90.5839      9.9754
   801.9000      8.1705      1.5519      0.3125     66.5523     88.7829      9.3526
   802.0000      8.1930      1.5967      0.2814     63.8374     87.4728      9.1845
   802.1000      8.1930      1.6371      0.2506     61.3900     86.1200      9.3320
   802.2000      8.1930      1.6899      0.2563     58.1892     87.7303      9.5634
   802.3000      8.3857      1.7624      0.2629     53.7919     92.1620      9.9409
   802.4000      8.3857      1.8449      0.3026     48.7942     97.5440     10.9563
   802.5000      8.5415      1.9183      0.3106     44.3463    105.0874     12.9337
   802.6000      8.5415      1.9768      0.2671     40.8014    113.2937     15.3572
   802.7000      8.5415      2.0342      0.1542     37.3183    119.5322     17.4529
   802.8000      8.3384      2.1089      0.1891     32.7910    123.8623     19.2521
   802.9000      8.3384      2.1982      0.2289     27.3809    126.8792     21.0890
   803.0000      8.2775      2.2847      0.2141     22.1381    129.9250     22.8092
   803.1000      8.2775      2.3642      0.1912     17.3233    132.5884     24.1481
   803.2000      8.2775      2.4367      0.1969     12.9285    133.4730     25.1428
   803.3000      8.2344      2.4902      0.2122      9.6864    135.4110     25.9541
   803.4000      8.2344      2.5209      0.1888      7.8248    140.4961     26.7286
   803.5000      8.2051      2.5402      0.1079      6.6549    144.4441     27.4555
   803.6000      8.2051      2.5497      0.1310      6.0769    145.2991     27.9495
   803.7000      8.2051      2.5478      0.0894      6.1950    146.3676     28.0262
   803.8000      8.2504      2.5466      0.0868      6.2660    147.7960     27.8369
   803.9000      8.2504      2.5495      0.0981      6.0935    148.6445     27.7602
   804.0000      8.3016      2.5458      0.0747      6.3168    148.5380     27.7966
   804.1000      8.3016      2.5329      0.0778      7.0983    146.7803     27.7675
   804.2000      8.3016      2.5150      0.0690      8.1803    143.5308     27.5928
   804.3000      8.2322      2.4970      0.0420      9.2716    138.8172     27.2563
   804.4000      8.2322      2.4837      0.0422     10.0792    133.9761     26.8858
   804.5000      8.1795      2.4767      0.0056     10.5012    132.6756     26.7215
   804.6000      8.1795      2.4734      0.0202     10.7028    137.1167     26.7363
   804.7000      8.1795      2.4708      0.0449     10.8634    143.3076     26.7118
   804.8000      8.1839      2.4777     -0.0199     10.4420    143.9856     26.5491
   804.9000      8.1839      2.5021      0.0580      8.9642    139.7637     26.2488
   805.0000      8.1862      2.5284      0.0752      7.3676    137.1020     25.8560
   805.1000      8.1862      2.5405      0.1040      6.6373    135.7115     25.4330
   805.2000      8.1862      2.5387      0.0886      6.7448    131.6834     25.1596
   805.3000      8.1933      2.5279      0.1211      7.4028    125.3376     25.3084
   805.4000      8.1933      2.5148      0.0985      8.1936    121.8457     25.8123
   805.5000      8.2020      2.5149      0.0915      8.1867    121.7193     26.1521
   805.6000      8.2020      2.5366      0.0852      6.8733    120.2414     25.9074
   805.7000      8.2020      2.5603      0.1527      5.4345    119.4938     25.3235
   805.8000      8.2335      2.5638      0.0899      5.2272    121.4053     24.8763
   805.9000      8.2335      2.5592      0.0585      5.5025    121.0468     24.5604
   806.0000      8.2564      2.5642      0.1110      5.1984    118.2594     24.1792
   806.1000      8.2564      2.5711      0.1180      4.7803    118.8287     23.7861
   806.2000      8.2564      2.5677      0.1394      4.9891    123.0778     23.5442
   806.3000      8.2864      2.5474      0.1453      6.2208    127.5222     23.4228
   806.4000      8.2864      2.5129      0.0815      8.3100    131.5904     23.2250
   806.5000      8.3260      2.4851      0.0473      9.9954    137.1520     22.9105
   806.6000      8.3260      2.4779      0.0911     10.4312    145.2757     22.8360
   806.7000      8.3260      2.4860      0.0807      9.9380    153.7727     23.2581
   806.8000      8.3690      2.5051      0.0828      8.7809    160.2840     23.8364
   806.9000      8.3690      2.5262      0.1241      7.5060    163.8041     24.1340
   807.0000      8.3932      2.5358      0.1468      6.9237    162.4713     24.1039
   807.1000      8.3932      2.5415      0.1241      6.5781    157.5423     24.0688
