~Version Information
VERS.                      2.0: CWLS Log ASCII Standard - VERSION 2.0
WRAP.                       NO: One line per depth step
~Well Information Block
STRT.FT               250.0000: 
STOP.FT              2600.7500: 
STEP.FT                 0.2500: 
NULL.                -999.2500: 
COMP.          Pioneer Natural Resources: COMPANY
WELL.              Quack 22-24: WELL
FLD.           Purgatoire River: FIELD
LOC.           2492' FNL & 2459' FWL--: LOCATION
PROV.                 Colorado: PROVINCE
CNTY.               Las Animas: COUNTRY
SRVC.                Patterson: SERVICE COMPANY
DATE.          Sun Jun 12 09:02:01 2005: LOG DATE
UWI.            05 071 0840200: UNIQUE WELL ID
~Curve Information Block
DEPT.FT            0 000 00 00: Depth
SN.Ohm-m                      : IEL Short Normal
SP.mV                         : IEL Spontaneous Potential
DIR.Ohm-m                     : IEL Induction Resistivity
GR.GAPI                       : Gamma Ray
~Parameter Information Block
~A  Depth        SN          SP         DIR          GR     
# ...
  2092.5000     22.1347    -61.9005     21.7928     61.0435
  2092.7500     21.5252    -61.0913     21.0571     64.0331
  2093.0000     21.0013    -60.4233     20.4231     68.3898
  2093.2500     20.5841    -59.9281     19.8843     71.3300
  2093.5000     20.2871    -59.6226     19.4382     75.5004
  2093.7500     20.1101    -59.5073     19.0898     77.6883
  2094.0000     20.0367    -59.5659     18.8465     79.6628
  2094.2500     20.0396    -59.7677     18.7117     80.4823
  2094.5000     20.0889    -60.0706     18.6830     82.2739
  2094.7500     20.1568    -60.4259     18.7544     84.2398
  2095.0000     20.2187    -60.7832     18.9195     87.7433
  2095.2500     20.2536    -61.0947     19.1690     89.8823
  2095.5000     20.2475    -61.3198     19.4829     92.6421
  2095.7500     20.2002    -61.4283     19.8198     94.4522
  2096.0000     20.1254    -61.4029     20.1163     97.2747
  2096.2500     20.0429    -61.2404     20.3044     99.0872
  2096.5000     19.9673    -60.9519     20.3392    101.6718
  2096.7500     19.9005    -60.5610     20.2157    103.4514
  2097.0000     19.8293    -60.1004     19.9613    106.3591
  2097.2500     19.7259    -59.6084     19.6142    108.5102
  2097.5000     19.5600    -59.1232     19.2090    112.1549
  2097.7500     19.3165    -58.6792     18.7760    114.5565
  2098.0000     19.0048    -58.3024     18.3459    116.5651
  2098.2500     18.6517    -58.0093     17.9481    115.9091
  2098.5000     18.2888    -57.8053     17.6037    111.7650
  2098.7500     17.9416    -57.6860     17.3194    107.6246
  2099.0000     17.6254    -57.6390     17.0904    100.7706
  2099.2500     17.3452    -57.6456     16.9091     96.2538
  2099.5000     17.1016    -57.6836     16.7713     89.9464
  2099.7500     16.8956    -57.7298     16.6757     86.2920
  2100.0000     16.7308    -57.7624     16.6190     82.2753
  2100.2500     16.6124    -57.7638     16.5933     81.0750
  2100.5000     16.5433    -57.7218     16.5860     82.6053
  2100.7500     16.5204    -57.6317     16.5829     86.4873
  2101.0000     16.5300    -57.4952     16.5692     96.5435
  2101.2500     16.5494    -57.3201     16.5307    104.7449
  2101.5000     16.5551    -57.1182     16.4555    115.5546
  2101.7500     16.5337    -56.9028     16.3369    120.0970
  2102.0000     16.4855    -56.6879     16.1779    122.7228
  2102.2500     16.4198    -56.4861     15.9934    122.8552
  2102.5000     16.3470    -56.3092     15.8080    123.0227
  2102.7500     16.2772    -56.1679     15.6465    123.9946
  2103.0000     16.2214    -56.0721     15.5259    126.8546
  2103.2500     16.1918    -56.0305     15.4526    129.0395
  2103.5000     16.1964    -56.0509     15.4272    131.3227
  2103.7500     16.2333    -56.1389     15.4509    131.8778
  2104.0000     16.2904    -56.2972     15.5274    131.9382
  2104.2500     16.3516    -56.5243     15.6616    131.9606
  2104.5000     16.4074    -56.8129     15.8559    131.6542
  2104.7500     16.4660    -57.1485     16.1072    130.3870
  2105.0000     16.5563    -57.5086     16.4061    125.9138
  2105.2500     16.7170    -57.8632     16.7340    121.6784
  2105.5000     16.9726    -58.1767     17.0621    115.4284
  2105.7500     17.3097    -58.4113     17.3531    112.0616
  2106.0000     17.6729    -58.5322     17.5694    107.6888
  2106.2500     17.9881    -58.5127     17.6847    104.5632
  2106.5000     18.1997    -58.3387     17.6929     99.7966
  2106.7500     18.2917    -58.0114     17.6073     97.5749
  2107.0000     18.2780    -57.5477     17.4514     96.9204
  2107.2500     18.1774    -56.9782     17.2501     97.7665
  2107.5000     18.0000    -56.3433     17.0239     98.5226
  2107.7500     17.7531    -55.6883     16.7866     97.5636
  2108.0000     17.4509    -55.0577     16.5455     94.1555
  2108.2500     17.1177    -54.4910     16.3023     91.6542
  2108.5000     16.7827    -54.0193     16.0567     89.0655
  2108.7500     16.4755    -53.6639     15.8108     88.1291
  2109.0000     16.2202    -53.4354     15.5721     87.0515
  2109.2500     16.0282    -53.3352     15.3521     86.1474
  2109.5000     15.8938    -53.3565     15.1628     84.3971
  2109.7500     15.7985    -53.4871     15.0123     83.1348
  2110.0000     15.7250    -53.7113     14.9047     81.4170
  2110.2500     15.6704    -54.0117     14.8417     80.4184
  2110.5000     15.6510    -54.3710     14.8264     79.0795
  2110.7500     15.6908    -54.7728     14.8641     78.4768
  2111.0000     15.8030    -55.2024     14.9601     78.5449
  2111.2500     15.9762    -55.6456     15.1152     79.1705
  2111.5000     16.1794    -56.0883     15.3232     79.9399
  2111.7500     16.3800    -56.5148     15.5691     79.7863
  2112.0000     16.5577    -56.9076     15.8305     78.9485
  2112.2500     16.7059    -57.2470     16.0809     78.8901
  2112.5000     16.8280    -57.5132     16.2965     80.7925
  2112.7500     16.9343    -57.6889     16.4632     83.3576
  2113.0000     17.0382    -57.7627     16.5792     88.3923
  2113.2500     17.1496    -57.7327     16.6513     92.3430
  2113.5000     17.2638    -57.6077     16.6895     99.4487
  2113.7500     17.3578    -57.4071     16.7029    105.1049
  2114.0000     17.3996    -57.1586     16.6999    114.7113
  2114.2500     17.3685    -56.8935     16.6879    121.5212
  2114.5000     17.2688    -56.6425     16.6729    131.3881
  2114.7500     17.1282    -56.4315     16.6591    136.7789
  2115.0000     16.9852    -56.2785     16.6503    141.1377
  2115.2500     16.8758    -56.1923     16.6518    141.0136
  2115.5000     16.8242    -56.1729     16.6716    137.2657
  2115.7500     16.8374    -56.2124     16.7174    133.6598
  2116.0000     16.9023    -56.2974     16.7917    128.5716
  2116.2500     16.9904    -56.4106     16.8867    126.1964
  2116.5000     17.0726    -56.5338     16.9838    124.8721
  2116.7500     17.1345    -56.6500     17.0577    125.3027
  2117.0000     17.1817    -56.7460     17.0837    126.7981
  2117.2500     17.2291    -56.8155     17.0444    127.8813
  2117.5000     17.2872    -56.8604     16.9344    129.5718
  2117.7500     17.3557    -56.8920     16.7613    130.6087
  2118.0000     17.4268    -56.9289     16.5431    131.0990
  2118.2500     17.4927    -56.9932     16.3028    130.3804
  2118.5000     17.5486    -57.1043     16.0608    128.5819
  2118.7500     17.5886    -57.2719     15.8304    127.8352
  2119.0000     17.5951    -57.4901     15.6150    128.1726
  2119.2500     17.5263    -57.7347     15.4093    129.1101
  2119.5000     17.3169    -57.9648     15.2003    130.7081
  2119.7500     16.9010    -58.1285     14.9685    131.4125
  2120.0000     16.2534    -58.1727     14.6880    130.9029
  2120.2500     15.4187    -58.0534     14.3302    129.0545
  2120.5000     14.5029    -57.7451     13.8708    125.0337
  2120.7500     13.6288    -57.2461     13.3013    123.5081
  2121.0000     12.8827    -56.5789     12.6344    126.6255
  2121.2500     12.2853    -55.7864     11.8997    132.7999
  2121.5000     11.8000    -54.9238     11.1331    145.1226
  2121.7500     11.3682    -54.0503     10.3688    152.5988
  2122.0000     10.9456    -53.2203      9.6373    159.9362
  2122.2500     10.5193    -52.4765      8.9664    162.6595
  2122.5000     10.1008    -51.8463      8.3808    166.0065
  2122.7500      9.7084    -51.3393      7.8987    168.6900
  2123.0000      9.3522    -50.9481      7.5298    172.9408
  2123.2500      9.0266    -50.6501      7.2751    174.9744
  2123.5000      8.7107    -50.4107      7.1283    175.2271
  2123.7500      8.3747    -50.1875      7.0775    172.8858
  2124.0000      7.9940    -49.9356      7.1073    165.5904
  2124.2500      7.5703    -49.6121      7.2008    159.1969
  2124.5000      7.1482    -49.1825      7.3426    150.1106
  2124.7500      6.8178    -48.6250      7.5203    145.6863
  2125.0000      6.6912    -47.9347      7.7263    142.0979
  2125.2500      6.8596    -47.1251      7.9566    141.5264
  2125.5000      7.3449    -46.2267      8.2067    143.2966
  2125.7500      8.0728    -45.2828      8.4665    146.4948
