~Version Information
VERS.                      2.0: CWLS Log ASCII Standard - VERSION 2.0
WRAP.                       NO: One line per depth step
~Well Information Block
STRT.FT               554.0000: 
STOP.FT              1002.0000: 
STEP.FT                 0.1000: 
NULL.                -999.2500: 
COMP.          Pioneer Natural Resources: COMPANY
WELL.          Rising Star 22-11: WELL
FLD.           Purgatoire River: FIELD
LOC.           2152' FNL & 2105' FWL: LOCATION
PROV.                 Colorado: PROVINCE
CNTY.               Las Animas: COUNTRY
SRVC.                Patterson: SERVICE COMPANY
DATE.          Mon Apr 11 16:46:53 2005: LOG DATE
UWI.           05 071 08354 00: UNIQUE WELL ID
~Curve Information Block
DEPT.FT            0 000 00 00: Depth
DCAL.in                       : CDL Caliper
RHOB.g/cc                     : CDL Bulk Density
RHOC.g/cc                     : CDL Density Correction
DPOR.pu                       : CDL Density Porosity
GR.GAPI                       : Gamma Ray
NPOR.pu                       : Neutron Porosity
~Parameter Information Block
~A  Depth       DCAL        RHOB        RHOC        DPOR         GR         NPOR    
# ...
   698.0000      7.9219      2.5629      0.0470      5.2808    118.7754     20.8795
   698.1000      7.9219      2.5243      0.0184      7.6155    114.2943     21.1461
   698.2000      7.9219      2.5045     -0.0027      8.8161    108.0956     21.5252
   698.3000      7.9304      2.5069     -0.0546      8.6700    103.1624     21.7510
   698.4000      7.9304      2.5232     -0.0149      7.6867     98.2133     21.6641
   698.5000      7.9343      2.5381      0.0131      6.7831     94.2373     21.4386
   698.6000      7.9343      2.5407      0.0289      6.6272     93.2014     21.2374
   698.7000      7.9343      2.5286      0.0160      7.3600     93.2151     21.2628
   698.8000      7.9387      2.5173     -0.0451      8.0448     91.5627     21.5084
   698.9000      7.9387      2.5248      0.0388      7.5881     89.8129     21.5887
   699.0000      7.9451      2.5444      0.0127      6.4009     90.4970     21.3246
   699.1000      7.9451      2.5652      0.0470      5.1398     94.2118     21.0421
   699.2000      7.9451      2.5834      0.1253      4.0368     99.8305     21.0418
   699.3000      7.9398      2.5939      0.0697      3.3981    106.8375     21.1935
   699.4000      7.9398      2.6022      0.0916      2.8988    113.7132     21.1870
   699.5000      7.9276      2.6140      0.0778      2.1832    115.6517     21.1115
   699.6000      7.9276      2.6212      0.0575      1.7471    111.0287     21.3672
   699.7000      7.9276      2.6103      0.1071      2.4080    105.0943     21.7065
   699.8000      7.9240      2.5839      0.0545      4.0045    104.1744     21.5297
   699.9000      7.9240      2.5642      0.0629      5.2024    108.2556     21.0700
   700.0000      7.9277      2.5578      0.0710      5.5907    111.5298     20.8134
   700.1000      7.9277      2.5542      0.0215      5.8056    110.8650     20.6324
   700.2000      7.9277      2.5542     -0.0162      5.8044    110.0773     20.3671
   700.3000      7.9391      2.5602      0.0090      5.4413    112.3018     20.2062
   700.4000      7.9391      2.5643      0.0100      5.1933    113.5082     20.2785
   700.5000      7.9332      2.5598      0.0641      5.4678    113.0421     20.5830
   700.6000      7.9332      2.5482      0.0235      6.1724    116.6875     21.0140
   700.7000      7.9332      2.5419      0.0298      6.5495    123.1732     21.3311
   700.8000      7.9373      2.5479      0.0105      6.1849    124.6265     21.4329
   700.9000      7.9373      2.5563      0.0595      5.6769    122.7145     21.3888
   701.0000      7.9257      2.5522      0.0611      5.9282    124.3705     21.2799
   701.1000      7.9257      2.5294      0.0925      7.3088    129.5165     21.2058
   701.2000      7.9257      2.4909      0.0673      9.6444    137.4574     21.0259
   701.3000      7.9316      2.4513     -0.0043     12.0404    146.5168     20.4786
   701.4000      7.9316      2.4356     -0.0367     12.9968    150.9648     19.7173
   701.5000      7.9306      2.4456      0.0734     12.3867    149.3829     19.0388
   701.6000      7.9306      2.4570      0.0639     11.6964    146.5059     18.5962
   701.7000      7.9306      2.4551      0.0255     11.8146    144.9991     18.5207
   701.8000      7.9290      2.4380      0.0279     12.8489    144.2960     18.7247
   701.9000      7.9290      2.4105      0.0270     14.5176    144.2878     18.8743
   702.0000      7.9294      2.3828      0.0470     16.1964    144.5301     18.9661
   702.1000      7.9294      2.3550      0.0300     17.8775    146.3794     19.2461
   702.2000      7.9294      2.3266      0.0269     19.6019    151.9382     19.7387
   702.3000      7.9317      2.3050      0.0427     20.9115    160.9082     20.1832
   702.4000      7.9317      2.2943      0.0639     21.5571    166.4285     20.4426
   702.5000      7.9492      2.2878      0.0658     21.9498    163.8889     20.7741
   702.6000      7.9492      2.2811      0.0180     22.3549    161.7862     21.1865
   702.7000      7.9492      2.2842      0.0069     22.1687    166.0259     21.2468
   702.8000      7.9868      2.2991      0.0199     21.2640    169.2008     21.0423
   702.9000      7.9868      2.3185      0.0423     20.0898    166.2440     21.1207
   703.0000      8.0179      2.3471     -0.0087     18.3601    161.2155     21.4156
   703.1000      8.0179      2.3882      0.0421     15.8658    154.3943     21.7024
   703.2000      8.0179      2.4224      0.0987     13.7969    145.2568     22.0225
   703.3000      8.0119      2.4364      0.0206     12.9460    140.0857     22.2155
   703.4000      8.0119      2.4448      0.0559     12.4394    141.2698     22.0089
   703.5000      8.0375      2.4528      0.0800     11.9544    142.2143     21.5280
   703.6000      8.0375      2.4518      0.0527     12.0108    135.3184     21.1900
   703.7000      8.0375      2.4427      0.0190     12.5652    122.8140     21.1226
   703.8000      8.0689      2.4311      0.0397     13.2688    114.4814     21.0230
   703.9000      8.0689      2.4174      0.0285     14.0949    112.6700     20.8551
   704.0000      8.0666      2.4029     -0.0048     14.9733    112.8382     21.0725
   704.1000      8.0666      2.3935      0.0310     15.5461    111.7746     21.7795
   704.2000      8.0666      2.3937     -0.0111     15.5356    110.9434     22.5069
   704.3000      8.0677      2.4033      0.0296     14.9513    115.6849     22.8589
   704.4000      8.0677      2.4180      0.0274     14.0587    122.9706     22.7241
   704.5000      8.0527      2.4400      0.0556     12.7298    124.5024     22.3929
   704.6000      8.0527      2.4712      0.1304     10.8371    120.8548     22.2344
   704.7000      8.0527      2.5038      0.1086      8.8630    117.0556     22.4857
   704.8000      7.9529      2.5293      0.1649      7.3176    114.7283     23.1887
   704.9000      7.9529      2.5474      0.1539      6.2153    115.4420     23.8489
   705.0000      7.9121      2.5641      0.1537      5.2090    119.8859     24.1035
   705.1000      7.9121      2.5800      0.0988      4.2416    122.3083     24.3298
   705.2000      7.9121      2.5934      0.1378      3.4331    117.1538     24.6523
   705.3000      7.9095      2.5981      0.1353      3.1455    109.0261     24.6932
   705.4000      7.9095      2.5877      0.1386      3.7729    106.1629     24.5966
   705.5000      7.9255      2.5685      0.0769      4.9374    109.9227     24.6621
   705.6000      7.9255      2.5537      0.0182      5.8390    113.8079     24.5767
   705.7000      7.9255      2.5427      0.0445      6.5052    112.5095     24.2451
   705.8000      7.9342      2.5241      0.0388      7.6323    110.8984     24.1055
   705.9000      7.9342      2.5001     -0.0131      9.0869    113.6227     24.1026
   706.0000      7.9220      2.4813      0.0380     10.2247    116.5346     23.8821
   706.1000      7.9220      2.4700     -0.0313     10.9086    115.5773     23.6046
   706.2000      7.9220      2.4694     -0.0399     10.9443    110.7763     23.6214
   706.3000      7.9200      2.4692      0.0662     10.9550    105.1351     23.9931
   706.4000      7.9200      2.4546     -0.0237     11.8411    103.7104     24.4829
   706.5000      7.9284      2.4396     -0.0281     12.7513    109.0649     24.7058
   706.6000      7.9284      2.4427     -0.0241     12.5644    116.8277     24.5892
   706.7000      7.9284      2.4624      0.0207     11.3681    121.7184     24.3239
   706.8000      7.9275      2.4792      0.0508     10.3509    123.3914     24.0753
   706.9000      7.9275      2.4734      0.0456     10.7016    122.3072     23.9062
   707.0000      7.9282      2.4566     -0.0131     11.7196    117.6704     23.6711
   707.1000      7.9282      2.4533      0.0318     11.9206    111.4345     23.4268
   707.2000      7.9282      2.4701      0.0005     10.9016    108.5976     23.3472
   707.3000      7.9204      2.5020      0.0376      8.9669    109.7564     23.3887
   707.4000      7.9204      2.5369      0.1013      6.8559    111.5986     23.4724
   707.5000      7.9094      2.5638      0.0975      5.2241    113.4636     23.4749
