~Version Information
VERS.                      2.0: CWLS Log ASCII Standard - VERSION 2.0
WRAP.                       NO: One line per depth step
~Well Information Block
STRT.FT               651.5000: 
STOP.FT              2190.5000: 
STEP.FT                 0.2500: 
NULL.                -999.2500: 
COMP.          Pioneer Natural Resources: COMPANY
WELL.               King 22-13: WELL
FLD.           Purgatoire River: FIELD
LOC.           2419' FNL & 1806' FWL----: LOCATION
PROV.                 Colorado: PROVINCE
CNTY.               Las Animas: COUNTRY
SRVC.                Patterson: SERVICE COMPANY
DATE.          Thu Mar 31 14:33:28 2005: LOG DATE
UWI.           05 071 08318 00: UNIQUE WELL ID
~Curve Information Block
DEPT.FT            0 000 00 00: Depth
SN.Ohm-m                      : IEL Short Normal
SP.mV                         : IEL Spontaneous Potential
DIR.Ohm-m                     : IEL Induction Resistivity
GR.GAPI                       : Gamma Ray
~Parameter Information Block
~A  Depth        SN          SP         DIR          GR     
   651.5000   -999.2500   -999.2500   -999.2500   -999.2500
   651.7500   -999.2500   -999.2500   -999.2500     35.6068
   652.0000   -999.2500   -999.2500   -999.2500     33.1806
   652.2500   -999.2500   -999.2500   -999.2500     31.2954
   652.5000   -999.2500   -999.2500   -999.2500     29.0819
   652.7500   -999.2500   -999.2500   -999.2500     28.7116
   653.0000   -999.2500   -999.2500   -999.2500     30.0663
   653.2500   -999.2500   -999.2500   -999.2500     31.6349
   653.5000   -999.2500   -999.2500   -999.2500     33.6541
   653.7500   -999.2500   -999.2500   -999.2500     34.4384
   654.0000   -999.2500   -999.2500   -999.2500     34.9815
   654.2500   -999.2500   -999.2500   -999.2500     35.2531
   654.5000   -999.2500   -999.2500   -999.2500     36.3269
   654.7500   -999.2500   -999.2500   -999.2500     38.0425
   655.0000   -999.2500   -999.2500   -999.2500     42.6248
   655.2500   -999.2500   -999.2500   -999.2500     46.7341
   655.5000   -999.2500   -999.2500   -999.2500     53.4014
   655.7500   -999.2500   -999.2500   -999.2500     57.6680
   656.0000   -999.2500   -999.2500   -999.2500     63.0819
   656.2500   -999.2500   -999.2500   -999.2500     65.4009
   656.5000   -999.2500   -999.2500   -999.2500     65.9658
   656.7500   -999.2500   -999.2500   -999.2500     64.5352
   657.0000   -999.2500   -999.2500   -999.2500     61.2877
   657.2500   -999.2500   -999.2500   -999.2500     59.5462
   657.5000   -999.2500   -999.2500   -999.2500     58.8521
   657.7500   -999.2500   -999.2500   -999.2500     59.8380
   658.0000   -999.2500   -999.2500   -999.2500     63.0974
   658.2500   -999.2500   -999.2500   -999.2500     66.0626
   658.5000   -999.2500   -999.2500   -999.2500     70.9966
   658.7500   -999.2500   -999.2500   -999.2500     74.1288
   659.0000   -999.2500   -999.2500   -999.2500     77.4639
   659.2500   -999.2500   -999.2500   -999.2500     78.1860
   659.5000   -999.2500   -999.2500   -999.2500     77.1200
   659.7500   -999.2500   -999.2500   -999.2500     75.8187
   660.0000   -999.2500   -999.2500   -999.2500     74.4033
   660.2500   -999.2500   -999.2500   -999.2500     73.8615
   660.5000   -999.2500   -999.2500   -999.2500     72.6121
   660.7500   -999.2500   -999.2500   -999.2500     70.9462
   661.0000   -999.2500   -999.2500   -999.2500     67.3187
   661.2500   -999.2500   -999.2500   -999.2500     64.8721
   661.5000   -999.2500   -999.2500   -999.2500     62.8127
   661.7500   -999.2500   -999.2500   -999.2500     63.0424
   662.0000   -999.2500   -999.2500   -999.2500     65.1770
   662.2500   -999.2500   -999.2500   -999.2500     66.9080
   662.5000   -999.2500   -999.2500   -999.2500     68.9962
   662.7500   -999.2500   -999.2500   -999.2500     70.1317
   663.0000   -999.2500   -999.2500   -999.2500     71.8574
   663.2500   -999.2500   -999.2500   -999.2500     72.8325
   663.5000   -999.2500   -999.2500   -999.2500     73.0727
   663.7500   -999.2500   -999.2500   -999.2500     72.0937
   664.0000   -999.2500   -999.2500   -999.2500     69.5348
   664.2500   -999.2500   -999.2500   -999.2500     67.9891
   664.5000   -999.2500   -999.2500   -999.2500     67.2366
   664.7500   -999.2500   -999.2500   -999.2500     67.9293
   665.0000   -999.2500   -999.2500   -999.2500     70.0446
   665.2500   -999.2500   -999.2500   -999.2500     71.7079
   665.5000   -999.2500   -999.2500   -999.2500     74.3688
   665.7500   -999.2500   -999.2500   -999.2500     76.2961
   666.0000   -999.2500   -999.2500   -999.2500     79.0866
   666.2500   -999.2500   -999.2500   -999.2500     80.3871
   666.5000   -999.2500   -999.2500   -999.2500     80.7851
   666.7500   -999.2500   -999.2500   -999.2500     79.9946
   667.0000   -999.2500   -999.2500   -999.2500     77.6377
   667.2500   -999.2500   -999.2500   -999.2500     75.4336
   667.5000   -999.2500   -999.2500   -999.2500     71.1574
   667.7500   -999.2500   -999.2500   -999.2500     67.7464
   668.0000   -999.2500   -999.2500   -999.2500     62.3599
   668.2500   -999.2500   -999.2500   -999.2500     59.0168
   668.5000   -999.2500   -999.2500   -999.2500     55.0326
   668.7500   -999.2500   -999.2500   -999.2500     53.4621
   669.0000   -999.2500   -999.2500   -999.2500     53.3608
   669.2500   2000.0000   2080.0000   -999.2500     54.7412
   669.5000   2000.0000   2080.0000   -999.2500     57.6548
   669.7500   2000.0000   2080.0000   -999.2500     59.0526
   670.0000   2000.0000   2080.0000   -999.2500     59.3027
   670.2500   2000.0000   2080.0000   -999.2500     58.5053
   670.5000   2000.0000   2080.0000   -999.2500     57.1941
   670.7500   2000.0000   2080.0000     10.1910     56.9899
   671.0000   2000.0000   2080.0000     10.3542     58.2979
   671.2500   2000.0000   2080.0000     10.5044     60.0907
   671.5000   2000.0000   2080.0000     10.6307     63.1543
   671.7500   2000.0000   2080.0000     10.7281     64.7736
   672.0000   2000.0000   2080.0000     10.7995     66.1864
   672.2500   2000.0000   2080.0000     10.8534     66.8182
   672.5000   2000.0000   2080.0000     10.8988     68.2247
   672.7500   2000.0000   2080.0000     10.9407     69.7215
   673.0000   2000.0000   2080.0000     10.9786     72.6164
   673.2500   2000.0000   2080.0000     11.0091     74.7127
   673.5000   2000.0000   2080.0000     11.0292     77.6359
   673.7500   2000.0000   2080.0000     11.0379     79.1689
   674.0000   2000.0000   2080.0000     11.0339     80.4142
   674.2500   2000.0000   2080.0000     11.0147     80.4068
   674.5000   2000.0000   2080.0000     10.9787     79.3077
   674.7500   2000.0000   2080.0000     10.9303     78.1013
   675.0000   2000.0000   2080.0000     10.8833     75.9916
   675.2500   2000.0000   2080.0000     10.8564     74.5691
   675.5000   2000.0000   2080.0000     10.8644     72.7317
   675.7500   2000.0000   2080.0000     10.9106     71.8874
   676.0000   2000.0000   2080.0000     10.9851     71.3892
   676.2500   2000.0000   2080.0000     11.0704     71.4603
   676.5000   2000.0000   2080.0000     11.1483     71.5763
   676.7500   2000.0000   2080.0000     11.2038     71.4545
   677.0000   2000.0000   2080.0000     11.2248     71.4438
   677.2500   2000.0000   2080.0000     11.2029     71.9030
   677.5000   2000.0000   2080.0000     11.1366     72.9505
   677.7500   2000.0000   2080.0000     11.0365     73.3168
   678.0000   2000.0000   2080.0000     10.9245     73.0057
   678.2500   2000.0000   2080.0000     10.8252     72.6051
   678.5000   2000.0000   2080.0000     10.7564     72.5285
   678.7500   2000.0000   2080.0000     10.7228     72.8093
   679.0000   2000.0000   2080.0000     10.7161     72.7727
   679.2500   2000.0000   2080.0000     10.7209     71.9566
   679.5000   2000.0000   2080.0000     10.7226     69.9097
   679.7500   2000.0000   2080.0000     10.7151     68.8052
   680.0000   2000.0000   2080.0000     10.7034     68.7260
   680.2500   2000.0000   2080.0000     10.7006     69.8412
   680.5000   2000.0000   2080.0000     10.7196     72.5266
   680.7500   2000.0000   2080.0000     10.7649     74.3078
   681.0000   2000.0000   2080.0000     10.8290     75.7192
   681.2500   2000.0000   2080.0000     10.8957     75.1517
   681.5000   2000.0000   2080.0000     10.9471     71.5139
   681.7500   2000.0000   2080.0000     10.9699     67.7429
   682.0000   2000.0000   2080.0000     10.9574     62.3873
   682.2500   2000.0000   2080.0000     10.9090     60.4081
   682.5000   2000.0000   2080.0000     10.8290     60.3682
   682.7500   2000.0000   2080.0000     10.7264     61.3672
   683.0000   2000.0000   2080.0000     10.6149     62.4353
   683.2500   2000.0000   2080.0000     10.5115     62.5757
   683.5000   2000.0000   2080.0000     10.4335     63.0133
   683.7500   2000.0000   2080.0000     10.3933     63.9763
   684.0000   2000.0000   2080.0000     10.3954     65.4846
   684.2500   2000.0000   2080.0000     10.4369     65.1465
   684.5000   2000.0000   2080.0000     10.5095     61.0628
   684.7500   2000.0000   2080.0000     10.6020     56.5180
