~Version Information
VERS.                      2.0: CWLS Log ASCII Standard - VERSION 2.0
WRAP.                       NO: One line per depth step
~Well Information Block
STRT.FT               483.0000: 
STOP.FT              1702.5000: 
STEP.FT                 0.2500: 
NULL.                -999.2500: 
COMP.          Pioneer Natural Resources: COMPANY
WELL.            Mad Dog 42-31: WELL
FLD.           Purgatorie River: FIELD
LOC.           2064' FNL & 479' FEL: LOCATION
PROV.                 Colorado: PROVINCE
CNTY.               Las Animas: COUNTRY
SRVC.                         : SERVICE COMPANY
DATE.          Sun Oct 10 04:26:24 2004: LOG DATE
UWI.           05 071 08195 00: UNIQUE WELL ID
~Curve Information Block
DEPT.FT            0 000 00 00: Depth
LTEN.lb                       : Surface Line Tension
SN.Ohm-m                      : IEL Short Normal
SP.mV                         : IEL Spontaneous Potential
DIR.Ohm-m                     : IEL Induction Resistivity
GR.GAPI                       : Gamma Ray
~Parameter Information Block
~A  Depth       LTEN         SN          SP         DIR          GR     
# ...
  1435.0000    785.6100     35.1257     17.1668     30.2026     44.3512
  1435.2500    789.9822     34.3137     17.1350     29.5720     45.7853
  1435.5000    794.6075     33.3619     17.0200     28.3703     48.2693
  1435.7500    796.7684     32.2851     16.7169     26.9433     49.9818
  1436.0000    794.9287     31.1043     16.2124     25.6681     52.4460
  1436.2500    790.3575     29.8542     15.6074     24.7604     54.0000
  1436.5000    785.8506     28.5826     15.0791     24.2231     56.3119
  1436.7500    783.1805     27.3441     14.8199     23.9033     58.0098
  1437.0000    782.1989     26.1947     14.9586     23.5966     61.3057
  1437.2500    781.9801     25.1837     15.5075     23.1504     64.1911
  1437.5000    781.9731     24.3439     16.3410     22.5206     68.7803
  1437.7500    781.8368     23.6839     17.2286     21.7601     70.8969
  1438.0000    780.9594     23.1927     17.8928     20.9750     71.1407
  1438.2500    778.9576     22.8516     18.0864     20.2764     69.5168
  1438.5000    776.5576     22.6387     17.6534     19.7400     66.0094
  1438.7500    775.3636     22.5245     16.5580     19.3894     63.7069
  1439.0000    776.5031     22.4652     14.8860     19.1993     60.6378
  1439.2500    779.7466     22.4103     12.8130     19.1137     58.9315
  1439.5000    784.0617     22.3219     10.5699     19.0650     57.3739
  1439.7500    788.6032     22.1923      8.4034     18.9966     57.1052
  1440.0000    792.8573     22.0424      6.5481     18.8926     56.9626
  1440.2500    796.1992     21.9037      5.2081     18.7928     56.2222
  1440.5000    797.7896     21.8007      4.5365     18.7694     53.6315
  1440.7500    796.9796     21.7437      4.6142     18.8749     51.3822
  1441.0000    794.0441     21.7318      5.4342     19.0970     48.4058
  1441.2500    790.8359     21.7541      6.8945     19.3565     47.0919
  1441.5000    790.0893     21.7871      8.8070     19.5486     46.3131
  1441.7500    793.1035     21.7945     10.9278     19.6000     46.6098
  1442.0000    798.2283     21.7370     13.0064     19.4919     48.1808
  1442.2500    802.2075     21.5885     14.8261     19.2416     49.7332
  1442.5000    802.9622     21.3496     16.2449     18.8787     52.1468
  1442.7500    800.7736     21.0467     17.2076     18.4460     53.4835
  1443.0000    797.1694     20.7175     17.7392     18.0063     54.9056
  1443.2500    793.4810     20.3900     17.9200     17.6291     55.5497
  1443.5000    790.4847     20.0706     17.8586     17.3619     56.3053
  1443.7500    788.5864     19.7481     17.6627     17.2119     56.8820
  1444.0000    787.8694     19.4079     17.4197     17.1479     58.5106
  1444.2500    788.1479     19.0463     17.1829     17.1180     60.6363
  1444.5000    789.1479     18.6724     16.9551     17.0707     66.0134
  1444.7500    790.7231     18.3000     16.6951     16.9752     70.8119
  1445.0000    792.9901     17.9419     16.3260     16.8321     78.1246
  1445.2500    796.1081     17.6131     15.7539     16.6706     81.8602
  1445.5000    799.5313     17.3406     14.9002     16.5312     84.8264
  1445.7500    801.6279     17.1681     13.7302     16.4469     85.4663
  1446.0000    800.8541     17.1477     12.2724     16.4319     85.6384
  1446.2500    797.6863     17.3235     10.6204     16.4796     85.3821
  1446.5000    794.7827     17.7180      8.9153     16.5657     83.7018
  1446.7500    794.6474     18.3281      7.3167     16.6599     81.5040
  1447.0000    797.2433     19.1289      5.9683     16.7453     77.4626
  1447.2500    800.0568     20.0807      4.9656     16.8393     75.0101
  1447.5000    800.3242     21.1356      4.3461     16.9958     72.1118
  1447.7500    797.1374     22.2390      4.0910     17.2792     70.4347
  1448.0000    791.7962     23.3284      4.1450     17.7283     67.7792
  1448.2500    786.5471     24.3337      4.4454     18.3322     65.7786
  1448.5000    782.9757     25.1885      4.9414     19.0348     62.2713
  1448.7500    781.4019     25.8468      5.6097     19.7718     59.5329
  1449.0000    781.5555     26.2977      6.4464     20.5187     55.2903
  1449.2500    783.3409     26.5646      7.4460     21.3111     53.1520
  1449.5000    786.5498     26.6913      8.5859     22.2081     52.5357
  1449.7500    790.1282     26.7284      9.8145     23.2159     54.2709
  1450.0000    792.4224     26.7243     11.0453     24.2312     59.3295
  1450.2500    792.5129     26.7254     12.1758     25.0733     63.1161
  1450.5000    791.1059     26.7788     13.1046     25.6057     66.8863
  1450.7500    789.9339     26.9313     13.7513     25.8277     67.1282
  1451.0000    790.3118     27.2198     14.0706     25.8280     64.1732
  1451.2500    792.2939     27.6553     14.0585     25.6845     60.9275
  1451.5000    794.9614     28.2124     13.7527     25.4538     55.9383
  1451.7500    797.1229     28.8396     13.2298     25.2327     53.1599
  1452.0000    797.7685     29.4848     12.5910     25.1698     50.2918
  1452.2500    796.5065     30.1200     11.9413     25.3997     49.4116
  1452.5000    793.9868     30.7443     11.3692     25.9759     49.7393
  1452.7500    791.6532     31.3708     10.9246     26.8670     50.9073
  1453.0000    790.7556     32.0137     10.6112     27.9962     53.2905
  1453.2500    791.4525     32.6879     10.3952     29.2677     54.4933
  1453.5000    792.7311     33.4142     10.2272     30.5437     54.3333
  1453.7500    793.2779     34.2163     10.0651     31.6112     52.6969
  1454.0000    792.6954     35.1059      9.8906     32.2319     48.8534
  1454.2500    791.8689     36.0678      9.7088     32.3043     46.1917
  1454.5000    792.1042     37.0562      9.5358     31.9870     43.2019
  1454.7500    794.0625     38.0084      9.3724     31.6234     42.3201
  1455.0000    797.3466     38.8677      9.1868     31.5315     42.9134
  1455.2500    800.6510     39.6021      8.9029     31.8527     44.2378
  1455.5000    802.4448     40.2092      8.4229     32.5271     46.2541
  1455.7500    802.0404     40.7010      7.6494     33.3447     46.8551
  1456.0000    800.0083     41.0778      6.5246     34.0009     46.3203
  1456.2500    797.4795     41.3083      5.0642     34.1327     45.3732
  1456.5000    795.3883     41.3334      3.3657     33.4253     43.7663
  1456.7500    794.3947     41.0918      1.5999     31.8356     42.7081
  1457.0000    794.7471     40.5476     -0.0149     29.7228     41.1922
  1457.2500    795.6744     39.7007     -1.2557     27.6478     40.4123
  1457.5000    795.3879     38.5820     -1.9325     26.0400     40.1043
  1457.7500    792.5696     37.2494     -1.9211     25.0584     40.6843
  1458.0000    788.1454     35.7871     -1.1829     24.6394     42.9146
  1458.2500    785.1053     34.2968      0.2353     24.6037     45.5153
  1458.5000    786.0448     32.8739      2.1995     24.7580     51.6364
  1458.7500    790.9235     31.5838      4.5145     24.9690     57.2549
  1459.0000    797.4379     30.4594      6.9478     25.1687     67.0404
  1459.2500    803.0815     29.5153      9.2692     25.2993     73.5186
  1459.5000    806.2621     28.7629     11.2883     25.2741     81.9001
  1459.7500    806.1945     28.2134     12.8806     25.0279     86.3466
  1460.0000    803.1919     27.8788     13.9949     24.6070     91.3953
  1460.2500    799.0821     27.7801     14.6462     24.1699     93.7381
  1460.5000    796.1375     27.9568     14.8873     23.8816     95.4292
  1460.7500    795.3714     28.4592     14.7846     23.8069     94.8205
  1461.0000    796.3598     29.3151     14.4026     23.8973     90.1353
  1461.2500    798.2065     30.4824     13.8008     24.0492     84.2470
  1461.5000    800.0574     31.8148     13.0473     24.1730     72.4775
  1461.7500    801.2512     33.0685     12.2346     24.2199     64.1204
  1462.0000    801.6458     33.9625     11.4841     24.1720     53.3610
  1462.2500    801.6645     34.2765     10.9411     24.0206     48.5148
  1462.5000    801.8523     33.9394     10.7511     23.7585     46.0928
  1462.7500    802.5095     33.0543     11.0218     23.3890     48.0716
