~Version Information
VERS.                      2.0: CWLS Log ASCII Standard - VERSION 2.0
WRAP.                       NO: One line per depth step
~Well Information Block
STRT.FT                 0.5000: 
STOP.FT              1575.0000: 
STEP.FT                 0.2500: 
NULL.                -999.2500: 
COMP.          Evergreen Operating Corporation: COMPANY
WELL.                Eric 42-9: WELL
FLD.           Purgatorie River: FIELD
LOC.           2050' FNL & 850' FEL: LOCATION
PROV.                 Colorado: PROVINCE
CNTY.               Las Animas: COUNTRY
SRVC.                         : SERVICE COMPANY
DATE.          Tue Nov 09 16:28:59 2004: LOG DATE
UWI.           05 071 07999 00: UNIQUE WELL ID
~Curve Information Block
DEPT.FT            0 000 00 00: Depth
LTEN.lb                       : Surface Line Tension
TT3.usec                      : CBL 3' Travel Time
AMP3.mV                       : CBL 3' Amplitude
ATT3.db/ft                    : CBL 3' Attenuation
GR.GAPI                       : Gamma Ray
CCL.                          : Casing Collar Locator
~Parameter Information Block
~A  Depth       LTEN        TT3         AMP3        ATT3         GR         CCL     
# ...
   312.5000    445.9027    871.0826      4.7641     -8.6591     76.4534      0.0000
   312.7500    441.8235    877.7988      4.8162     -8.6277     77.7635      0.0000
   313.0000    438.6691    880.6182      4.9977     -8.5205     82.4061      0.0000
   313.2500    436.6424    870.1794      5.2785     -8.3623     88.2312      0.0000
   313.5000    435.5996    852.9070      5.6633     -8.1586     92.7374      0.0000
   313.7500    435.4481    845.1209      6.1872     -7.9024     94.7149      0.0000
   314.0000    436.0388    853.6620      6.8463     -7.6093     94.6619      0.0000
   314.2500    436.8568    868.4976      7.5373     -7.3309     93.7541      0.0000
   314.5000    437.2384    875.2405      8.1014     -7.1220     92.6899      0.0000
   314.7500    436.9120    870.3270      8.4370     -7.0044     91.6970      0.0000
   315.0000    436.1450    863.1038      8.5535     -6.9647     91.1644      0.0000
   315.2500    435.4493    867.1428      8.5262     -6.9740     91.6346      0.0000
   315.5000    435.2220    890.9913      8.4313     -7.0064     93.1427      0.0000
   315.7500    435.6545    932.3651      8.3185     -7.0454     94.9151      0.0000
   316.0000    436.8766    976.5596      8.2056     -7.0850     95.9365      0.0000
   316.2500    438.9367   1003.4165      8.0791     -7.1299     95.8821      0.0000
   316.5000    441.4937   1001.9867      7.9123     -7.1903     95.4849      0.0000
   316.7500    443.7590    979.6594      7.6980     -7.2699     95.9041      0.0000
   317.0000    444.9745    954.8994      7.4642     -7.3591     97.7041      0.0000
   317.2500    444.7965    940.8010      7.2563     -7.4409    100.3546      0.0000
   317.5000    443.2077    936.6455      7.1098     -7.5000    102.5164      0.0000
   317.7500    440.5844    933.9560      7.0454     -7.5263    102.9104      0.0000
   318.0000    438.0429    927.0437      7.0775     -7.5132    101.3736      0.0000
   318.2500    437.0801    915.6257      7.2111     -7.4590     99.1923      0.0000
   318.5000    438.3053    900.0964      7.4276     -7.3734     98.1068      0.0000
   318.7500    440.8841    878.9630      7.6849     -7.2748     98.9800      0.0000
   319.0000    443.6488    851.2817      7.9353     -7.1820    101.5137      0.0000
   319.2500    446.1617    818.1428      8.1434     -7.1070    104.7984      0.0000
   319.5000    448.1144    781.3517      8.2900     -7.0553    107.6506      0.0000
   319.7500    448.5407    743.2675      8.3663     -7.0288    108.7727      0.0000
   320.0000    446.6595    708.0305      8.3730     -7.0265    107.3029      0.0000
   320.2500    443.0999    680.4568      8.3239     -7.0435    103.4334      0.0000
   320.5000    439.4149    662.8066      8.2475     -7.0702     98.4187      0.0000
   320.7500    436.5442    653.5692      8.1785     -7.0945     93.9963      0.0000
   321.0000    434.4826    649.4268      8.1389     -7.1086     91.5740      0.0000
   321.2500    433.4059    647.6500      8.1218     -7.1147     91.4742      0.0000
   321.5000    434.3003    646.8724      8.0977     -7.1233     92.6982      0.0000
   321.7500    438.0242    646.6264      8.0408     -7.1437     93.6481      0.0000
   322.0000    443.9968    646.7562      7.9498     -7.1767     93.4222      0.0000
   322.2500    450.1428    647.1032      7.8416     -7.2163     92.5225      0.0000
   322.5000    454.0733    647.3239      7.7285     -7.2584     92.1358      0.0000
   322.7500    454.3024    646.7003      7.6105     -7.3030     92.6784      0.0000
   323.0000    450.9806    644.0931      7.4880     -7.3499     93.3922      0.0000
   323.2500    446.1074    638.4175      7.3677     -7.3968     93.4948      0.0000
   323.5000    442.5743    629.6469      7.2484     -7.4441     93.2155      0.0000
   323.7500    442.2733    619.4438      7.1101     -7.4999     93.4056      0.0000
   324.0000    445.0817    610.4123      6.9296     -7.5743     94.5445      0.0000
   324.2500    449.5193    604.4044      6.7099     -7.6676     96.3986      0.0000
   324.5000    453.8504    601.5612      6.4919     -7.7632     98.3162      0.0000
   324.7500    456.6192    600.8900      6.3336     -7.8347     99.5355      0.0000
   325.0000    456.8126    601.4993      6.2734     -7.8623     99.4792      0.0000
   325.2500    454.0732    603.1620      6.3004     -7.8499     98.2583      0.0000
   325.5000    449.0385    605.7770      6.3577     -7.8237     96.9282      0.0000
   325.7500    443.2144    608.5237      6.3857     -7.8110     96.8204      0.0000
   326.0000    437.9909    609.9755      6.3726     -7.8169     98.2729      0.0000
   326.2500    433.8719    609.2978      6.3598     -7.8228    100.1821      0.0000
   326.5000    431.0263    607.0343      6.3965     -7.8061    101.1866      0.0000
   326.7500    430.2761    604.4446      6.4930     -7.7627    101.1664      0.0000
   327.0000    432.8558    602.3840      6.6171     -7.7079    101.1894      0.0000
   327.2500    438.9273    601.0201      6.7219     -7.6624    102.1302      0.0000
   327.5000    446.5348    600.2156      6.7710     -7.6414    103.6473      0.0000
   327.7500    452.3776    599.8185      6.7442     -7.6528    104.3444      0.0000
   328.0000    454.0873    599.7075      6.6335     -7.7007    102.7583      0.0000
   328.2500    451.9856    599.7858      6.4440     -7.7847     98.6006      0.0000
   328.5000    448.5206    599.9823      6.2013     -7.8958     93.4163      0.0000
   328.7500    446.1501    600.2392      5.9504     -8.0154     89.7232      0.0000
   329.0000    445.9779    600.5094      5.7370     -8.1211     89.0969      0.0000
   329.2500    447.7657    600.7498      5.5876     -8.1975     91.1777      0.0000
   329.5000    450.3455    600.9094      5.4999     -8.2433     94.5253      0.0000
   329.7500    452.1788    600.9385      5.4450     -8.2724     97.9263      0.0000
   330.0000    452.3047    600.8290      5.3807     -8.3068    100.7228      0.0000
   330.2500    451.0489    600.6326      5.2789     -8.3621    102.5601      0.0000
   330.5000    449.5651    600.4193      5.1425     -8.4379    103.4719      0.0000
   330.7500    448.5266    600.2325      4.9948     -8.5223    104.0499      0.0000
   331.0000    447.4267    600.1151      4.8542     -8.6049    105.0108      0.0000
   331.2500    445.3064    600.1759      4.7295     -8.6803    106.3746      0.0000
   331.5000    442.1454    600.5906      4.6401     -8.7355    107.1584      0.0000
   331.7500    439.4555    601.4874      4.6322     -8.7405    106.0722      0.0000
   332.0000    439.3257    602.9677      4.7542     -8.6652    102.7372      0.0000
   332.2500    442.4968    605.5578      5.0085     -8.5143     98.2483      0.0000
   332.5000    447.1435    611.4677      5.3355     -8.3312     94.2762      0.0000
   332.7500    449.8658    625.8096      5.6504     -8.1652     91.5009      0.0000
   333.0000    448.5856    656.2103      5.8855     -8.0471     89.1643      0.0000
   333.2500    444.5187    708.7512      5.9966     -7.9930     86.3573      0.0000
   333.5000    440.7141    781.0047      5.9612     -8.0102     83.4490      0.0000
   333.7500    438.8367    857.6022      5.7921     -8.0935     81.7302     -3.0000
   334.0000    438.0714    915.0929      5.5342     -8.2253     81.8130      0.0000
   334.2500    436.8878    934.9036      5.2318     -8.3881     83.1944      3.0000
   334.5000    435.0652    914.0640      4.9041     -8.5753     85.3916      0.0000
   334.7500    434.0118    865.3895      4.5524     -8.7908     88.4676      0.0000
   335.0000    435.4466    808.1583      4.1784     -9.0390     92.1877      0.0000
   335.2500    439.6812    756.1087      3.8017     -9.3125     95.6453      0.0000
   335.5000    445.1749    710.9899      3.4693     -9.5774     98.1149      0.0000
   335.7500    450.0201    666.1246      3.2384     -9.7768     99.5209      0.0000
   336.0000    453.7046    615.5708      3.1354     -9.8704     99.8579      0.0000
   336.2500    457.0108    560.5462      3.1350     -9.8708     98.9139      0.0000
