~Version Information
VERS.                      2.0: CWLS Log ASCII Standard - VERSION 2.0
WRAP.                       NO: One line per depth step
~Well Information Block
STRT.FT               260.0000: 
STOP.FT              2269.5000: 
STEP.FT                 0.1000: 
NULL.                -999.2500: 
COMP.          Pioneer Natural Resources: COMPANY
WELL.            Moo Moo 31-36: WELL
FLD.           Purgatoire River: FIELD
LOC.           612' FNL & 2326' FEL: LOCATION
PROV.                 Colorado: PROVINCE
CNTY.               Las Animas: COUNTRY
SRVC.                Patterson: SERVICE COMPANY
DATE.          Fri Jun 17 07:04:43 2005: LOG DATE
UWI.           05 071 08395 00: UNIQUE WELL ID
~Curve Information Block
DEPT.FT            0 000 00 00: Depth
DCAL.in                       : CDL Caliper
RHOB.g/cc                     : CDL Bulk Density
RHOC.g/cc                     : CDL Density Correction
DPOR.pu                       : CDL Density Porosity
GR.GAPI                       : Gamma Ray
NPOR.pu                       : Neutron Porosity
~Parameter Information Block
~A  Depth       DCAL        RHOB        RHOC        DPOR         GR         NPOR    
   260.0000      5.0954      2.4344     -0.4459     13.0649    136.1342     24.8460
   260.1000      5.0954      2.3835     -0.4781     16.1509    125.0009     24.0375
   260.2000      5.0954      2.3268     -0.4558     19.5860    114.6442     23.6627
   260.3000      5.0993      2.2827     -0.5461     22.2608    115.4521     23.8835
   260.4000      5.0993      2.2661     -0.5204     23.2685    125.2121     24.2717
   260.5000      5.0934      2.2751     -0.5187     22.7242    129.7904     24.3119
   260.6000      5.0934      2.2950     -0.4800     21.5147    125.4301     23.9327
   260.7000      5.0934      2.3052     -0.4761     20.8994    119.0268     23.4389
   260.8000      5.0962      2.2932     -0.4936     21.6268    113.0521     23.1615
   260.9000      5.0962      2.2850     -0.5423     22.1212    109.0001     23.0053
   261.0000      5.0913      2.3213     -0.5263     19.9217    109.8924     22.9008
   261.1000      5.0913      2.3793     -0.3503     16.4076    116.8504     23.0632
   261.2000      5.0913      2.3978     -0.3796     15.2845    126.6508     23.1018
   261.3000      5.1012      2.3771     -0.4574     16.5396    132.6330     22.6809
   261.4000      5.1012      2.3620     -0.4942     17.4545    128.9989     22.4295
   261.5000      5.0960      2.3752     -0.4066     16.6548    117.0630     22.5846
   261.6000      5.0960      2.4265     -0.4298     13.5426    108.0079     22.5227
   261.7000      5.0960      2.5016     -0.3415      8.9932    105.9530     22.1301
   261.8000      5.0976      2.5458     -0.3373      6.3163    104.1921     21.8356
   261.9000      5.0976      2.5290     -0.3881      7.3313    100.0616     21.7691
   262.0000      5.0992      2.4737     -0.3784     10.6870     98.0944     22.1141
   262.1000      5.0992      2.4109     -0.3875     14.4921     98.6013     22.7666
   262.2000      5.0992      2.3699     -0.4722     16.9739     95.2928     22.8720
   262.3000      5.1011      2.3723     -0.4684     16.8328     90.0510     22.1219
   262.4000      5.1011      2.4040     -0.4372     14.9117     89.9338     21.2192
   262.5000      5.0921      2.4284     -0.3525     13.4324     93.2521     20.4091
   262.6000      5.0921      2.4234     -0.4310     13.7355     93.7679     19.6460
   262.7000      5.0921      2.3928     -0.4213     15.5893     89.9498     18.9877
   262.8000      5.1061      2.3624     -0.4581     17.4289     85.7295     18.4339
   262.9000      5.1061      2.3562     -0.4659     17.8054     83.0066     18.3890
   263.0000      5.0946      2.3593     -0.3699     17.6201     80.4813     18.5473
   263.1000      5.0946      2.3528     -0.4368     18.0148     79.9319     18.2014
   263.2000      5.0946      2.3382     -0.3993     18.8977     81.7428     17.8157
   263.3000      5.0918      2.3124     -0.5003     20.4603     80.5343     17.6313
   263.4000      5.0918      2.3007     -0.5512     21.1693     73.2509     17.4548
   263.5000      5.0978      2.3260     -0.4261     19.6335     65.6996     17.2736
   263.6000      5.0978      2.3489     -0.3838     18.2497     64.4382     17.1097
   263.7000      5.0978      2.3356     -0.4027     19.0535     65.8391     17.1429
   263.8000      5.0943      2.3126     -0.4321     20.4488     65.1933     17.3251
   263.9000      5.0943      2.3037     -0.4395     20.9850     62.2940     17.4440
   264.0000      5.1017      2.3031     -0.4493     21.0238     60.5681     17.5179
   264.1000      5.1017      2.3171     -0.5141     20.1764     63.2954     17.4734
   264.2000      5.1017      2.3464     -0.3717     18.4019     65.9741     17.1500
   264.3000      5.1017      2.3587     -0.3449     17.6565     64.8073     16.6748
   264.4000      5.1017      2.3470     -0.4651     18.3652     64.7028     16.2918
   264.5000      5.1053      2.3305     -0.4622     19.3654     68.7070     16.1807
   264.6000      5.1053      2.3106     -0.4451     20.5703     73.2736     16.4534
   264.7000      5.1053      2.2957     -0.4669     21.4749     72.0300     16.7921
   264.8000      5.0969      2.3032     -0.4086     21.0165     64.2138     16.9410
   264.9000      5.0969      2.3283     -0.4624     19.4991     56.5294     17.1468
   265.0000      5.0980      2.3517     -0.4366     18.0774     53.6622     17.2470
   265.1000      5.0980      2.3488     -0.3512     18.2561     54.9526     16.8879
   265.2000      5.0980      2.3222     -0.5378     19.8648     59.6968     16.5526
   265.3000      5.1010      2.3092     -0.4653     20.6518     67.9283     16.5894
   265.4000      5.1010      2.3093     -0.4128     20.6500     77.3945     16.7387
   265.5000      5.1186      2.3003     -0.4342     21.1923     82.8386     16.7952
   265.6000      5.1186      2.2856     -0.4061     22.0819     82.2291     16.6030
   265.7000      5.1186      2.2753     -0.5188     22.7079     79.0694     16.3217
   265.8000      5.1050      2.2686     -0.3324     23.1134     76.6337     16.4707
   265.9000      5.1050      2.2677     -0.4811     23.1673     76.5946     17.1168
   266.0000      5.1020      2.2901     -0.4299     21.8099     79.7579     17.5203
   266.1000      5.1020      2.3182     -0.3783     20.1094     83.4582     17.3938
   266.2000      5.1020      2.3091     -0.3473     20.6585     83.3749     17.3073
   266.3000      5.1050      2.2622     -0.4619     23.5038     78.4167     17.2838
   266.4000      5.1050      2.2096     -0.4684     26.6897     69.7146     17.1294
   266.5000      5.0781      2.1720     -0.4794     28.9720     60.8796     17.0646
   266.6000      5.0781      2.1598     -0.5338     29.7104     58.7086     17.1952
   266.7000      5.0781      2.1814     -0.5255     28.4001     63.9890     17.4068
   266.8000      5.0989      2.2250     -0.4316     25.7557     67.7755     17.5651
   266.9000      5.0989      2.2582     -0.3911     23.7446     63.7986     17.7527
   267.0000      5.0961      2.2696     -0.4498     23.0529     58.3670     17.9524
   267.1000      5.0961      2.2729     -0.4748     22.8518     58.8805     18.0285
   267.2000      5.0961      2.2697     -0.4805     23.0485     64.8203     18.0580
   267.3000      5.0900      2.2495     -0.4658     24.2729     71.5792     17.8626
   267.4000      5.0900      2.2192     -0.4999     26.1105     74.6128     17.4842
   267.5000      5.0826      2.1995     -0.4889     27.3014     74.0369     17.6134
   267.6000      5.0826      2.1962     -0.5179     27.5001     73.3627     18.0817
   267.7000      5.0826      2.2040     -0.5001     27.0319     71.8010     18.0208
   267.8000      5.0966      2.2212     -0.4738     25.9894     68.0596     17.4683
   267.9000      5.0966      2.2324     -0.4167     25.3087     65.1347     16.8927
   268.0000      5.0966      2.2207     -0.5015     26.0200     62.7633     16.3152
   268.1000      5.0966      2.2004     -0.5545     27.2468     59.4921     15.6808
   268.2000      5.0966      2.1971     -0.5183     27.4475     58.1498     15.1427
   268.3000      5.0953      2.2177     -0.4773     26.1989     60.1291     15.1759
   268.4000      5.0953      2.2477     -0.4589     24.3800     60.9133     15.6980
   268.5000      5.0965      2.2639     -0.4063     23.3992     58.4270     15.5809
   268.6000      5.0965      2.2559     -0.4163     23.8844     57.9171     14.2133
   268.7000      5.0965      2.2345     -0.4086     25.1845     59.3152     12.3950
   268.8000      5.0867      2.2223     -0.4399     25.9182     57.5764     11.3025
   268.9000      5.0867      2.2362     -0.4158     25.0799     53.9576     11.7138
   269.0000      5.0899      2.2617     -0.3713     23.5335     51.9319     13.4991
   269.1000      5.0899      2.2736     -0.4340     22.8118     52.2262     15.2927
   269.2000      5.0899      2.2688     -0.4573     23.1053     53.9139     15.8563
   269.3000      5.0937      2.2530     -0.3930     24.0629     57.5543     15.6708
   269.4000      5.0937      2.2262     -0.4348     25.6868     63.2967     15.5155
   269.5000      5.0949      2.2089     -0.5073     26.7325     65.7081     15.3371
