~Version Information
VERS.                      2.0: CWLS Log ASCII Standard - VERSION 2.0
WRAP.                       NO: One line per depth step
~Well Information Block
STRT.FT               480.0000: 
STOP.FT              1625.5000: 
STEP.FT                 0.1000: 
NULL.                -999.2500: 
COMP.          Pioneer Natural Resources: COMPANY
WELL.          Dude Canyon 22-32 Tr: WELL
FLD.           Purgatoire River: FIELD
LOC.           1741' FNL & 2331' FWL: LOCATION
PROV.                 Colorado: PROVINCE
CNTY.               Las Animas: COUNTRY
SRVC.                Patterson: SERVICE COMPANY
DATE.          Mon Jul 11 10:33:06 2005: LOG DATE
UWI.           05 071 08421 00: UNIQUE WELL ID
~Curve Information Block
DEPT.FT            0 000 00 00: Depth
DCAL.in                       : CDL Caliper
RHOB.g/cc                     : CDL Bulk Density
RHOC.g/cc                     : CDL Density Correction
DPOR.pu                       : CDL Density Porosity
GR.GAPI                       : Gamma Ray
NPOR.pu                       : Neutron Porosity
~Parameter Information Block
~A  Depth       DCAL        RHOB        RHOC        DPOR         GR         NPOR    
   480.0000      5.0933      2.2092     -0.2961     -0.0088    160.2237     23.1697
   480.1000      5.0933      2.1989     -0.3385     -0.0090    164.9049     23.3469
   480.2000      5.0933      2.1851     -0.3163     -0.0093    163.9227     23.4466
   480.3000      5.0921      2.1824     -0.2884     -0.0094    160.0887     23.2271
   480.4000      5.0921      2.1901     -0.3028     27.8719    155.3606     23.0855
   480.5000      5.0990      2.2224     -0.3343     25.9133    149.7106     22.9382
   480.6000      5.0990      2.2832     -0.2668     22.2287    144.2653     22.5322
   480.7000      5.0990      2.3388     -0.2389     18.8613    139.0509     22.1574
   480.8000      5.1101      2.3634     -0.2789     17.3703    133.2359     21.9765
   480.9000      5.1101      2.3546     -0.2803     17.9045    131.7385     21.8050
   481.0000      5.4265      2.3142     -0.3329     20.3525    136.3361     21.7049
   481.1000      5.4265      2.2571     -0.3313     23.8093    140.3811     21.7519
   481.2000      5.4265      2.1986     -0.4066     27.3587    141.0717     22.0044
   481.3000      7.8273      2.1492     -0.4947     30.3522    143.9979     22.6628
   481.4000      7.8273      2.1257     -0.5185     31.7755    148.1969     23.5939
   481.5000      8.1647      2.1383     -0.5310     31.0143    146.9763     24.6869
   481.6000      8.1647      2.1747     -0.4974     28.8088    142.2655     25.3810
   481.7000      8.1647      2.2080     -0.4531     26.7908    139.6860     24.8933
   481.8000      8.1696      2.2174     -0.4097     26.2165    137.0036     23.7995
   481.9000      8.1696      2.2008     -0.4469     27.2263    130.8652     23.3085
   482.0000      8.1673      2.1753     -0.3995     28.7724    125.4239     23.1421
   482.1000      8.1673      2.1575     -0.5098     29.8457    124.3608     22.6573
   482.2000      8.1673      2.1404     -0.4508     30.8825    127.2490     22.5025
   482.3000      8.1675      2.1056     -0.4425     32.9910    132.9743     23.2973
   482.4000      8.1675      2.0811     -0.6875     34.4802    139.6761     24.3003
   482.5000      8.1657      2.1129     -0.4686     32.5538    143.7895     24.2293
   482.6000      8.1657      2.1829     -0.4360     28.3080    142.7052     23.2611
   482.7000      8.1657      2.2310     -0.4086     25.3932    138.9492     22.6235
   482.8000      8.1681      2.2248     -0.4135     25.7678    139.3276     22.4524
   482.9000      8.1681      2.1969     -0.5402     27.4596    144.9662     22.3750
   483.0000      8.1634      2.1893     -0.4755     27.9185    147.5217     22.6806
   483.1000      8.1634      2.1897     -0.4277     27.8982    143.0178     23.1044
   483.2000      8.1634      2.1749     -0.4591     28.7949    136.7553     22.8473
   483.3000      8.1598      2.1573     -0.5217     29.8580    131.0806     22.2905
   483.4000      8.1598      2.1614     -0.5063     29.6144    129.9585     22.3813
   483.5000      8.1627      2.1885     -0.5314     27.9722    134.4278     23.0357
   483.6000      8.1627      2.2159     -0.3893     26.3119    136.0874     23.5973
   483.7000      8.1627      2.2254     -0.4703     25.7336    134.4758     23.5068
   483.8000      8.1667      2.2188     -0.4390     26.1350    135.6442     23.0066
   483.9000      8.1667      2.1998     -0.4070     27.2877    137.3961     22.7983
   484.0000      8.1653      2.1698     -0.4507     29.1025    136.7897     22.6574
   484.1000      8.1653      2.1437     -0.5349     30.6843    135.9269     22.4056
   484.2000      8.1653      2.1419     -0.5153     30.7956    134.0428     22.6899
   484.3000      8.1607      2.1596     -0.4350     29.7239    129.4230     23.4292
   484.4000      8.1607      2.1793     -0.4879     28.5265    122.3294     23.6972
   484.5000      8.1565      2.1998     -0.4856     27.2862    113.7763     22.9829
   484.6000      8.1565      2.2224     -0.4936     25.9134    109.2115     21.8275
   484.7000      8.1565      2.2317     -0.4255     25.3526    111.0159     21.4557
   484.8000      8.1592      2.2106     -0.4552     26.6273    113.8981     22.1945
   484.9000      8.1592      2.1752     -0.5266     28.7763    114.8158     23.0911
   485.0000      8.1592      2.1565     -0.4726     29.9084    111.8205     23.0172
   485.1000      8.1592      2.1562     -0.4914     29.9299    104.2361     22.2363
   485.2000      8.1592      2.1650     -0.4713     29.3912     97.8980     21.6797
   485.3000      8.1561      2.1897     -0.4739     27.8967     96.6363     21.1940
   485.4000      8.1561      2.2308     -0.4293     25.4035     97.5645     20.2238
   485.5000      8.1562      2.2602     -0.3959     23.6222     97.8411     19.0044
   485.6000      8.1562      2.2428     -0.3904     24.6766     97.6468     18.3446
   485.7000      8.1562      2.1992     -0.5665     27.3216     95.2206     18.5489
   485.8000      8.1512      2.1913     -0.5221     27.8013     87.1229     18.8587
   485.9000      8.1512      2.2230     -0.4233     25.8803     77.0011     18.5104
   486.0000      8.1573      2.2409     -0.4199     24.7930     72.5370     18.0043
   486.1000      8.1573      2.2221     -0.4654     25.9334     72.7027     17.9058
   486.2000      8.1573      2.1907     -0.4641     27.8356     73.9096     17.7486
   486.3000      8.1575      2.1632     -0.4495     29.5013     77.0393     17.0138
   486.4000      8.1575      2.1461     -0.5074     30.5414     80.6176     16.0786
   486.5000      8.1582      2.1554     -0.5089     29.9761     78.3794     15.5892
   486.6000      8.1582      2.1820     -0.4429     28.3653     68.4663     15.7102
   486.7000      8.1582      2.2081     -0.5348     26.7796     58.1036     15.7948
   486.8000      8.1575      2.2331     -0.3824     25.2646     52.7513     15.5946
   486.9000      8.1575      2.2427     -0.4208     24.6843     52.5538     15.9094
   487.0000      8.1582      2.2336     -0.4518     25.2391     56.0173     16.5287
   487.1000      8.1582      2.2258     -0.4343     25.7100     61.0264     15.9777
   487.2000      8.1582      2.2322     -0.3764     25.3236     65.2061     14.4117
   487.3000      8.1576      2.2565     -0.4399     23.8472     66.2747     13.4245
   487.4000      8.1576      2.3055     -0.4336     20.8815     67.4507     13.5200
   487.5000      8.1593      2.3636     -0.4117     17.3570     74.4533     14.0157
   487.6000      8.1593      2.3895     -0.3785     15.7903     81.3965     14.3792
   487.7000      8.1593      2.3677     -0.3702     17.1114     80.4033     14.6942
   487.8000      8.1595      2.3344     -0.4328     19.1247     76.6672     14.7695
   487.9000      8.1595      2.3269     -0.4519     19.5815     76.3196     14.3019
   488.0000      8.1623      2.3410     -0.4160     18.7276     78.1934     13.5601
   488.1000      8.1623      2.3562     -0.3965     17.8053     78.5467     13.1076
   488.2000      8.1623      2.3626     -0.4059     17.4168     76.4022     12.8814
   488.3000      8.1634      2.3551     -0.4070     17.8722     75.5624     12.8572
   488.4000      8.1634      2.3277     -0.3901     19.5321     75.7219     13.3987
   488.5000      8.1649      2.2922     -0.5616     21.6838     73.6088     14.0960
   488.6000      8.1649      2.2675     -0.3874     23.1837     71.2670     14.1464
   488.7000      8.1649      2.2567     -0.5215     23.8367     71.4188     13.4864
   488.8000      8.1621      2.2674     -0.5346     23.1859     72.3541     12.5905
   488.9000      8.1621      2.2847     -0.4347     22.1377     73.0922     12.0264
   489.0000      8.1641      2.2749     -0.4483     22.7344     77.1903     11.9849
   489.1000      8.1641      2.2442     -0.5052     24.5940     84.5608     12.1939
   489.2000      8.1641      2.2163     -0.4926     26.2831     87.1254     12.3146
   489.3000      8.1684      2.1910     -0.4851     27.8158     79.6667     12.5277
   489.4000      8.1684      2.1676     -0.5420     29.2357     68.3810     13.2456
   489.5000      8.1677      2.1496     -0.4532     30.3247     60.7838     14.2051
