~Version Information
VERS.                      2.0: CWLS Log ASCII Standard - VERSION 2.0
WRAP.                       NO: One line per depth step
~Well Information Block
STRT.FT               745.0000: 
STOP.FT              2945.7000: 
STEP.FT                 0.1000: 
NULL.                -999.2500: 
COMP.          Pioneer Natural Resources: COMPANY
WELL.          Old Yeller 31-32: WELL
FLD.           Purgatoire River: FIELD
LOC.           1832' FEL & 793' FNL--: LOCATION
STAT.                 Colorado: State
CNTY.               Las Animas: COUNTY
CTRY. USA : Country
SECT. 32 : Section
TOWN. 32S : Township
RANG. 67W : Range
SRVC.                Patterson: SERVICE COMPANY
DATE.          Mon Aug 29 11:12:35 2005: LOG DATE
API.           05 071 08356 00: UNIQUE WELL ID
~Curve Information Block
DEPT.FT            0 000 00 00: Depth
DCAL.in                       : CDL Caliper
RHOB.g/cc                     : CDL Bulk Density
RHOC.g/cc                     : CDL Density Correction
DPOR.pu                       : CDL Density Porosity
NPOR.pu                       : Neutron Porosity
GR.GAPI                       : Gamma Ray
~Parameter Information Block
~A  Depth       DCAL        RHOB        RHOC        DPOR        NPOR         GR     
# ...
  1753.0000      8.1096      2.6288      0.0545      1.2875     24.5125    101.7746
  1753.1000      8.1096      2.6381      0.0662      0.7215     24.8278    106.7725
  1753.2000      8.1096      2.6382      0.0421      0.7178     25.0904    113.9395
  1753.3000      8.1074      2.6311      0.0577      1.1459     25.4690    124.4076
  1753.4000      8.1074      2.6244      0.0037      1.5525     26.0889    134.2263
  1753.5000      8.1065      2.6205      0.0328      1.7902     26.5719    136.7906
  1753.6000      8.1065      2.6132      0.0333      2.2313     26.6901    133.8640
  1753.7000      8.1065      2.6050      0.0647      2.7260     26.5610    130.4339
  1753.8000      8.1086      2.6045      0.0633      2.7558     26.1986    127.1438
  1753.9000      8.1086      2.6102      0.1025      2.4137     25.6812    123.6935
  1754.0000      8.1087      2.6190      0.0381      1.8787     25.2966    121.1244
  1754.1000      8.1087      2.6345      0.0664      0.9367     25.3041    120.2103
  1754.2000      8.1087      2.6562      0.0660     -0.3752     25.5388    123.4178
  1754.3000      8.1078      2.6813      0.0543     -1.8944     25.5420    130.4520
  1754.4000      8.1078      2.7102      0.0783     -3.6488     25.3905    135.0685
  1754.5000      8.1080      2.7454      0.0969     -5.7810     25.2836    132.1582
  1754.6000      8.1080      2.7844      0.1036     -8.1461     24.8716    124.9596
  1754.7000      8.1080      2.8135      0.1163     -9.9092     24.4930    120.4959
  1754.8000      8.1082      2.8219      0.0609    -10.4189     24.9921    119.8246
  1754.9000      8.1082      2.8198      0.0696    -10.2906     25.9505    118.5047
  1755.0000      8.1093      2.8124      0.0989     -9.8413     26.3300    112.9039
  1755.1000      8.1093      2.7886      0.0159     -8.4025     25.9507    104.1505
  1755.2000      8.1093      2.7534     -0.0042     -6.2681     25.5150     98.3975
  1755.3000      8.1108      2.7289     -0.0274     -4.7835     25.7368     98.4986
  1755.4000      8.1108      2.7288     -0.0118     -4.7730     26.3223    101.3854
  1755.5000      8.1110      2.7494     -0.0031     -6.0266     26.5054    104.3132
  1755.6000      8.1110      2.7787     -0.0005     -7.7982     26.4528    107.8729
  1755.7000      8.1110      2.7982      0.0557     -8.9828     26.6988    114.5070
  1755.8000      8.1106      2.7970      0.0176     -8.9104     27.0536    121.6799
  1755.9000      8.1106      2.7851      0.0359     -8.1858     27.0235    125.8233
  1756.0000      8.1099      2.7713      0.0769     -7.3539     26.7702    129.4947
  1756.1000      8.1099      2.7517      0.0455     -6.1626     26.8233    136.2619
  1756.2000      8.1099      2.7163      0.0574     -4.0204     27.2042    142.2663
  1756.3000      8.1099      2.6528      0.0136     -0.1692     27.3693    141.9868
  1756.4000      8.1099      2.5715     -0.0633      4.7556     26.9269    139.3811
  1756.5000      8.1103      2.5142     -0.0948      8.2331     26.4583    139.8266
  1756.6000      8.1103      2.5009     -0.0194      9.0342     26.6128    141.6423
  1756.7000      8.1103      2.5051      0.0181      8.7817     27.1046    140.3793
  1756.8000      8.1102      2.4963      0.0600      9.3124     27.1800    138.5293
  1756.9000      8.1102      2.4791      0.0070     10.3552     26.7570    143.4330
  1757.0000      8.1104      2.4754      0.0130     10.5811     26.5821    151.9541
  1757.1000      8.1104      2.5004      0.0065      9.0649     27.0899    154.4663
  1757.2000      8.1104      2.5535      0.0472      5.8467     27.7126    149.8490
  1757.3000      8.1101      2.6090      0.0866      2.4846     28.0693    142.6530
  1757.4000      8.1101      2.6446      0.0905      0.3282     28.3319    136.1590
  1757.5000      8.1082      2.6624      0.1058     -0.7513     28.2717    132.8958
  1757.6000      8.1082      2.6631      0.0930     -0.7925     27.4259    133.6773
  1757.7000      8.1082      2.6462      0.0900      0.2309     25.9492    133.5486
  1757.8000      8.1075      2.6274      0.0744      1.3704     24.5678    127.2534
  1757.9000      8.1075      2.6231      0.0492      1.6315     23.7860    115.8345
  1758.0000      8.1076      2.6304      0.0255      1.1860     23.3669    105.8309
  1758.1000      8.1076      2.6286     -0.0148      1.2986     22.9219    101.8200
  1758.2000      8.1076      2.6069     -0.0897      2.6107     22.5331    101.4354
  1758.3000      8.1092      2.5771     -0.0664      4.4178     22.3058    102.5349
  1758.4000      8.1092      2.5555     -0.0700      5.7301     21.8118    103.5936
  1758.5000      8.1117      2.5526     -0.0564      5.9016     20.6996    100.0934
  1758.6000      8.1117      2.5649     -0.0207      5.1599     19.5350     94.7686
  1758.7000      8.1117      2.5742      0.0419      4.5948     19.1393     95.2608
  1758.8000      8.1126      2.5744      0.0030      4.5815     19.4445    100.9464
  1758.9000      8.1126      2.5793      0.0432      4.2839     19.7634    105.0512
  1759.0000      8.1110      2.5940      0.0691      3.3910     19.9891    105.3998
  1759.1000      8.1110      2.6121      0.0764      2.2989     20.6865    105.6243
  1759.2000      8.1110      2.6269      0.0794      1.4019     21.8694    107.1670
  1759.3000      8.1087      2.6286      0.1462      1.3000     22.8562    110.7945
  1759.4000      8.1087      2.6207      0.0400      1.7769     23.4562    116.8754
  1759.5000      8.1080      2.6270      0.0457      1.3917     23.8556    120.5614
  1759.6000      8.1080      2.6504      0.0784     -0.0232     23.9908    118.1303
  1759.7000      8.1080      2.6711      0.0872     -1.2790     23.7377    114.1350
  1759.8000      8.1088      2.6826      0.0591     -1.9774     23.1437    114.4445
  1759.9000      8.1088      2.6872      0.1055     -2.2554     22.6519    119.2094
  1760.0000      8.1107      2.6865      0.0735     -2.2118     22.6029    125.1007
  1760.1000      8.1107      2.6945      0.0582     -2.6989     22.9389    128.3161
  1760.2000      8.1107      2.7198      0.0594     -4.2319     23.2988    129.0886
  1760.3000      8.1109      2.7433      0.1206     -5.6544     23.3677    130.0415
  1760.4000      8.1109      2.7410      0.1123     -5.5124     23.1530    131.2883
  1760.5000      8.1083      2.7150      0.0876     -3.9403     23.3425    131.8506
  1760.6000      8.1083      2.6831      0.1035     -2.0054     24.5409    129.8664
  1760.7000      8.1083      2.6531     -0.0057     -0.1892     26.1447    124.5667
  1760.8000      8.1073      2.6256      0.0129      1.4763     27.1419    121.8095
  1760.9000      8.1073      2.6030     -0.0335      2.8488     27.4575    124.4782
  1761.0000      8.1104      2.5935     -0.0527      3.4254     27.5682    127.3055
  1761.1000      8.1104      2.5949      0.0089      3.3412     27.6112    129.0285
  1761.2000      8.1104      2.5926     -0.0146      3.4812     27.5641    134.1710
  1761.3000      8.1161      2.5832     -0.0152      4.0482     27.3655    140.2376
  1761.4000      8.1161      2.5789      0.0059      4.3079     27.0301    142.2821
  1761.5000      8.1211      2.5886      0.0451      3.7195     26.8590    144.9665
  1761.6000      8.1211      2.6077      0.0203      2.5615     26.9507    148.5900
  1761.7000      8.1211      2.6305      0.0209      1.1804     26.9514    147.9354
  1761.8000      8.1237      2.6594      0.0600     -0.5675     26.6803    146.6362
  1761.9000      8.1237      2.6891      0.1028     -2.3718     26.3130    147.8083
  1762.0000      8.1258      2.7034      0.0958     -3.2370     26.2386    144.7674
  1762.1000      8.1258      2.6949      0.0825     -2.7195     26.4801    134.0674
  1762.2000      8.1258      2.6678      0.0450     -1.0760     26.3444    120.3519
  1762.3000      8.1288      2.6303      0.0581      1.1910     25.7746    111.6407
  1762.4000      8.1288      2.5958      0.0331      3.2853     25.3354    114.5908
  1762.5000      8.1316      2.5805      0.0062      4.2127     25.1378    123.9366
