~Version Information
VERS.                      2.0: CWLS Log ASCII Standard - VERSION 2.0
WRAP.                       NO: One line per depth step
~Well Information Block
STRT.FT               987.5000: 
STOP.FT              2426.0000: 
STEP.FT                 0.5000: 
NULL.                -999.2500: 
COMP.          Evergreen Operating Corporation: COMPANY
WELL.          McCullough 34-32: WELL
FLD.           Purgatorie River: FIELD
LOC.           261' FSL & 2098' FEL--: LOCATION
PROV.                 Colorado: PROVINCE
CNTY.               Las Animas: COUNTRY
SRVC.          Patterson Wireline: SERVICE COMPANY
DATE.          Mon May 17 13:38:56 2004: LOG DATE
UWI.           05-071-07953-00: UNIQUE WELL ID
~Curve Information Block
DEPT.FT            0 000 00 00: Depth
CCL.                          : Casing Collar Locator
TT3.usec                      : CBL 3' Travel Time
AMP3.mV                       : CBL 3' Amplitude
GR.GAPI                       : Gamma Ray
~Parameter Information Block
~A  Depth       CCL         TT3         AMP3         GR     
# ...
  1188.5000      0.0000    275.1783     68.5601    106.9526
  1189.0000      0.0000    275.0918     68.4024    107.2195
  1189.5000      0.0000    275.1324     68.6578    105.6043
  1190.0000      0.0000    275.2344     68.8775    105.9094
  1190.5000      0.0000    275.2805     68.5629    113.5940
  1191.0000      0.0000    275.2086     68.1619    119.4305
  1191.5000      0.0000    274.7800     68.0714    121.1183
  1192.0000      0.0000    274.6307     67.9103    128.1993
  1192.5000      0.0000    275.0197     67.7544    129.6575
  1193.0000      0.0000    275.2712     67.8210    116.9893
  1193.5000      0.0000    275.2629     68.0259    109.9027
  1194.0000      0.0000    275.1298     68.2447    113.7193
  1194.5000      0.0000    275.0270     68.1362    116.6654
  1195.0000      0.0000    274.9934     67.8348    121.9415
  1195.5000      0.0000    274.9353     67.8090    133.6532
  1196.0000      0.0000    274.8240     67.7954    144.5288
  1196.5000      0.0000    274.8240     67.8656    156.5281
  1197.0000      0.0000    274.9352     68.1082    168.5915
  1197.5000      0.0000    274.9913     68.2526    173.7335
  1198.0000      0.0000    275.0015     68.3240    175.5967
  1198.5000      0.0000    275.0283     68.3913    173.8679
  1199.0000      0.0000    275.2715     67.5360    165.7037
  1199.5000      0.0000    277.0671     62.7221    153.8777
  1200.0000      0.0000    283.2939     53.3787    146.1589
  1200.5000      0.0000    289.7028     45.8159    144.6505
  1201.0000      0.0000    288.1465     41.7574    136.9690
  1201.5000      3.2986    284.8523     40.5559    122.8973
  1202.0000      0.0000    286.0096     40.5775    118.6972
  1202.5000      0.0000    289.8318     40.9305    118.4342
  1203.0000      0.0000    288.0314     45.2666    108.6470
  1203.5000      0.0000    280.7715     54.7617    106.3734
  1204.0000      0.0000    276.3292     63.4215    118.0077
  1204.5000      0.0000    275.2266     67.7181    125.0723
  1205.0000      0.0000    275.1853     68.6511    123.4148
  1205.5000      0.0000    275.1762     68.6887    136.3557
  1206.0000      0.0000    275.0648     68.7183    160.5043
  1206.5000      0.0000    275.0092     68.8601    176.1129
  1207.0000      0.0000    275.0092     69.0214    172.5002
  1207.5000      0.0000    275.0652     69.0767    156.9451
  1208.0000      0.0000    275.1852     69.1463    145.8067
  1208.5000      0.0000    275.2500     69.2760    141.6458
  1209.0000      0.0000    275.3143     69.2850    131.4547
  1209.5000      0.0000    275.4256     69.3331    104.2020
  1210.0000      0.0000    275.4173     69.4063     73.0425
  1210.5000      0.0000    275.2496     69.4384     54.7646
  1211.0000      0.0000    275.0744     69.3981     47.9997
  1211.5000      0.0000    275.0180     69.1591     45.4180
  1212.0000      0.0000    275.0652     68.9338     44.8957
  1212.5000      0.0000    275.1761     68.9387     47.1266
  1213.0000      0.0000    275.1787     69.0284     55.2243
  1213.5000      0.0000    275.1032     69.0488     67.2759
  1214.0000      0.0000    275.2307     69.0922     69.0986
  1214.5000      0.0000    275.5705     69.2911     60.0573
  1215.0000      0.0000    275.7373     69.5307     57.8174
  1215.5000      0.0000    275.5649     69.7045     65.6084
  1216.0000      0.0000    275.2810     69.7456     74.4855
  1216.5000      0.0000    275.1032     69.7217     72.9411
  1217.0000      0.0000    275.1303     69.7050     66.8893
  1217.5000      0.0000    275.2026     69.5807     69.8376
  1218.0000      0.0000    275.1567     69.4139     84.0744
  1218.5000      0.0000    275.2127     69.3958    102.7413
  1219.0000      0.0000    275.3782     69.5821    115.7869
  1219.5000      0.0000    275.3058     69.7617    123.7116
  1220.0000      0.0000    275.1566     69.7532    131.5084
  1220.5000      0.0000    275.1897     69.6589    136.4604
  1221.0000      0.0000    275.2123     69.5119    137.9384
  1221.5000      0.0000    275.2505     69.3979    133.1749
  1222.0000      0.0000    275.3847     69.4705    122.5603
  1222.5000      0.0000    275.3062     69.6776    120.4906
  1223.0000      0.0000    275.1565     69.7285    129.2012
  1223.5000      0.0000    275.1870     69.4991    139.5014
  1224.0000      0.0000    275.1766     69.3230    141.6809
  1224.5000      0.0000    275.0674     69.4565    138.0909
  1225.0000      0.0000    275.0445     69.5379    137.5432
  1225.5000      0.0000    275.1867     69.1061    137.8142
  1226.0000      0.0000    275.3865     68.0603    139.7408
  1226.5000      0.0000    275.3893     66.5870    148.7048
  1227.0000      0.0000    275.3997     66.0618    144.2254
  1227.5000      0.0000    275.4787     66.7772    128.1001
  1228.0000      0.0000    275.4930     66.7733    117.1879
  1228.5000      0.0000    275.4963     64.5909    118.0067
  1229.0000      0.0000    275.5324     60.2717    123.4697
  1229.5000      0.0000    275.7881     56.4397    117.5904
  1230.0000      0.0000    276.0170     55.4241    104.4273
  1230.5000      0.0000    276.0076     56.0679     88.0171
  1231.0000      0.0000    275.8745     56.7210     67.1594
  1231.5000      0.0000    275.7065     57.1203     50.9121
  1232.0000      0.0000    275.5462     57.4675     50.6659
  1232.5000      0.0000    275.4091     58.5451     68.6272
  1233.0000      0.0000    275.4003     60.3600     99.4404
  1233.5000      0.0000    275.4699     61.8958    128.6615
  1234.0000      0.0000    275.4268     63.4979    146.3814
  1234.5000      0.0000    275.2917     65.8939    155.4592
  1235.0000      0.0000    275.1320     67.9639    153.9998
  1235.5000      0.0000    275.0275     68.7441    144.3252
  1236.0000      0.0000    275.0022     68.8087    144.8257
  1236.5000      0.0000    275.0005     68.8192    145.6713
  1237.0000      0.0000    275.0088     68.6323    130.8060
  1237.5000      0.0000    275.0675     67.8574    119.2504
  1238.0000      0.0000    275.2150     66.4791    118.3695
  1238.5000      0.0000    275.4117     63.4513    118.1132
  1239.0000      0.0000    275.7654     57.4830    109.0299
  1239.5000      0.0000    276.2766     50.2778     93.3077
  1240.0000      0.0000    276.6162     44.9902     81.7952
  1240.5000      0.0000    276.6295     42.4186     77.0459
  1241.0000      0.0000    276.5823     41.9768     79.1803
  1241.5000      0.0000    276.5167     42.1955     92.6777
  1242.0000      0.0000    276.3820     42.8884    104.4973
  1242.5000      0.0000    276.4055     45.2494    102.6359
  1243.0000      0.0000    277.6082     48.8531     96.5382
  1243.5000      0.0000    282.3424     50.0933     95.3904
  1244.0000      0.0000    289.5434     44.4281    104.8857
  1244.5000      0.0000    290.9099     37.4991    121.9136
  1245.0000     -1.8164    286.9517     35.8818    128.4638
  1245.5000      0.0000    286.0853     35.6617    126.2554
  1246.0000      0.0000    289.6285     35.1943    125.4877
  1246.5000      0.0000    291.2766     38.0702    123.1603
  1247.0000      0.0000    286.3770     43.4278    125.3553
  1247.5000      0.0000    288.2147     41.4698    133.8061
  1248.0000      0.0000    302.3593     32.0340    134.7666
  1248.5000      0.0000    315.1067     22.7777    119.9589
  1249.0000      0.0000    319.9648     16.8565     96.9600
  1249.5000      0.0000    321.1471     14.2789     77.0914
  1250.0000      0.0000    321.1917     13.8830     70.4401
  1250.5000      0.0000    319.9664     14.9873     81.6566
  1251.0000      0.0000    314.9390     18.9019    103.0866
  1251.5000      0.0000    301.7479     26.5483    122.6008
  1252.0000      0.0000    285.7560     37.3155    132.5580
  1252.5000      0.0000    277.6897     48.2936    132.5356
  1253.0000      0.0000    276.0060     54.7934    125.9614
  1253.5000      0.0000    275.7736     55.5703    123.5373
  1254.0000      0.0000    275.6364     53.1753    131.4317
  1254.5000      0.0000    275.5597     50.8184    140.5087
  1255.0000      0.0000    275.6942     50.2785    133.6949
