~Version Information
 VERS.                                  2.0 : CWLS LAS VERSION
 WRAP.                                   NO : WRAPING MODE
 SWARE .                 MController 2.5.0J : SOFTWARE VERSION
~Well Information
 WELL.              Cock-A-Doodle-Doo 44-27 : WELL
 COMP.      Pioneer Natural Resources, Inc. : COMPANY
 FLD.                      Purgatoire River : FIELD
 LOC.                SE/SE Sec.27 T32S R67W : LOCATION
 DATE.                              6/30/05 : DATE(S) LOGGED
 SRVC.       BLANCO Geological Services LLC : SERVICE COMPANY
 STAT.                                   CO : STATE
 CNTY.                           Las Animas : COUNTY
 CTRY.                                  USA : COUNTRY
 API.                             071 08429 : API NUMBER
 STRT.FT                             394.00 : START DEPTH
 STOP.FT                            2540.00 : STOP DEPTH
 STEP.FT                               1.00 : DEPTH INCREMENT
 NULL.                                -9999 : NULL VALUE
~Curve information
 DEPTH.FT                                   :
 ROP.MIN/FT                                 :
 GAS.UNITS                                  :
~ASCII Log data
# ...
       594.0         0.20         17.4 
       595.0         0.17         19.0 
       596.0         1.07         25.6 
       597.0         0.15         19.1 
       598.0         0.17         15.0 
       599.0         0.27         12.3 
       600.0         0.13          8.0 
       601.0         0.27          6.8 
       602.0         0.17          4.5 
       603.0         0.20          4.0 
       604.0         0.23          3.2 
       605.0         0.17          3.7 
       606.0         0.17          5.5 
       607.0         0.17          8.4 
       608.0         0.13         10.6 
       609.0         0.17         13.6 
       610.0         0.13         14.8 
       611.0         0.20         15.6 
       612.0         0.23         16.6 
       613.0         0.20         16.3 
       614.0         0.20         15.9 
       615.0         0.22         14.7 
       616.0         0.20         14.5 
       617.0         0.23         13.6 
       618.0         0.13         14.1 
       619.0         0.30         15.0 
       620.0         0.20         15.6 
       621.0         0.20         15.9 
       622.0         0.23         16.7 
       623.0         0.20         16.8 
       624.0         0.23         17.8 
       625.0         0.23         21.1 
       626.0         1.12         28.6 
       627.0         0.10         18.6 
       628.0         0.20         16.0 
       629.0         0.33         12.0 
       630.0         0.30          7.0 
       631.0         0.27          4.5 
       632.0         0.23          3.3 
       633.0         0.23          4.0 
       634.0         0.20          6.0 
       635.0         0.20          8.8 
       636.0         0.20         11.6 
       637.0         0.20         13.9 
       638.0         0.27         14.4 
       639.0         0.17         14.1 
       640.0         0.13         13.5 
       641.0         0.13         13.4 
       642.0         0.28         12.5 
       643.0         0.23         12.1 
       644.0         0.23         12.0 
       645.0         0.53         11.0 
       646.0         0.37         10.8 
       647.0         0.20         11.0 
       648.0         0.17         11.2 
       649.0         0.23         10.7 
       650.0         0.23         10.2 
       651.0         0.23          9.6 
       652.0         0.20          9.1 
       653.0         0.17          8.6 
       654.0         0.20          8.7 
       655.0         0.25          8.5 
       656.0         1.87         10.2 
       657.0         0.40          3.9 
       658.0         0.27          3.2 
       659.0         0.33          3.9 
       660.0         0.35          7.2 
       661.0         0.20          9.2 
       662.0         0.13         10.6 
       663.0         0.17         11.4 
       664.0         0.10         12.4 
       665.0         0.17         13.6 
       666.0         0.13         13.6 
       667.0         0.20         13.5 
       668.0         0.17         13.6 
       669.0         0.13         13.4 
       670.0         0.40         13.8 
       671.0         0.20         14.4 
       672.0         0.27         14.7 
       673.0         0.20         14.5 
       674.0         0.20         13.6 
       675.0         0.20         12.3 
       676.0         0.13         11.0 
       677.0         0.17         10.6 
       678.0         0.22          9.3 
       679.0         0.20          8.6 
       680.0         0.23          8.1 
       681.0         0.20          8.0 
       682.0         0.27          8.5 
       683.0         0.27          8.8 
       684.0         0.23          9.3 
       685.0         0.20          8.9 
       686.0         1.88          9.9 
       687.0         0.30          5.0 
       688.0         0.23          4.1 
       689.0         0.30          4.2 
       690.0         0.30          5.6 
       691.0         0.20          7.6 
       692.0         0.30          9.7 
       693.0         0.20         10.8 
       694.0         0.20         11.3 
       695.0         0.20         11.8 
       696.0         0.20         11.8 
       697.0         0.17         11.7 
       698.0         0.17         11.0 
       699.0         0.17         11.3 
       700.0         0.17         10.8 
       701.0         0.22         10.2 
       702.0         0.20          9.9 
       703.0         0.23          9.5 
       704.0         0.33          9.2 
       705.0         0.30          9.0 
       706.0         0.20          8.4 
       707.0         0.17          7.6 
       708.0         0.17          6.8 
       709.0         0.20          6.3 
       710.0         0.23          5.8 
       711.0         0.17          5.6 
       712.0         0.20          5.3 
       713.0         0.27          5.1 
       714.0         0.23          5.3 
       715.0         0.17          6.3 
       716.0         0.88         33.6 
       717.0         0.23         60.6 
       718.0         0.13         85.9 
       719.0         0.27        168.0 
       720.0         0.23        248.8 
       721.0         0.30        258.5 
       722.0         0.13        229.5 
       723.0         0.40        206.5 
       724.0         0.27        157.7 
       725.0         0.20        132.3 
       726.0         0.20        115.6 
       727.0         0.22        103.5 
       728.0         0.23         95.0 
       729.0         0.27         88.9 
       730.0         0.23         82.7 
       731.0         0.23         79.7 
       732.0         0.17         78.5 
       733.0         0.33         77.5 
       734.0         0.10         72.5 
       735.0         0.33         71.8 
       736.0         0.13         75.8 
       737.0         0.20         79.4 
       738.0         0.13         84.2 
       739.0         0.20         93.2 
       740.0         0.40         95.0 
       741.0         0.27         85.5 
       742.0         0.15         85.4 
       743.0         0.20         84.7 
       744.0         0.20         78.8 
       745.0         0.23         67.3 
       746.0         0.17         54.8 
       747.0         0.33         84.8 
       748.0         0.20        125.1 
       749.0         0.27        235.9 
       750.0         0.27        322.2 
       751.0         0.27        322.3 
       752.0         0.20        271.1 
       753.0         0.23        222.3 
       754.0         0.13        172.5 
       755.0         0.17        149.6 
       756.0         0.20        127.8 
       757.0         0.13        109.6 
       758.0         0.12        101.4 
       759.0         0.27         96.8 
       760.0         0.17         84.6 
       761.0         0.17         76.9 
       762.0         0.13         78.3 
       763.0         0.40         83.1 
       764.0         0.13         80.7 
       765.0         0.13         78.1 
       766.0         0.10         76.4 
       767.0         0.17         79.3 
       768.0         0.17         81.8 
       769.0         0.13         82.7 
       770.0         0.10         82.6 
       771.0         0.13         82.1 
       772.0         0.17         80.8 
       773.0         0.27         78.6 
       774.0         0.27         78.4 
       775.0         0.17         74.9 
       776.0         0.82         81.1 
       777.0         0.23        136.3 
       778.0         0.50        312.2 
       779.0         0.37        312.7 
       780.0         0.27        249.5 
       781.0         0.23        190.1 
       782.0         0.20        149.0 
       783.0         0.20        124.6 
       784.0         0.20        108.4 
       785.0         0.17         97.6 
       786.0         0.20         91.5 
       787.0         0.17         85.9 
       788.0         0.15         82.8 
       789.0         0.17         80.9 
       790.0         0.17         79.0 
       791.0         0.20         77.6 
       792.0         0.23         76.1 
       793.0         0.20         74.7 
