~Version Information
VERS.                      2.0: CWLS Log ASCII Standard - VERSION 2.0
WRAP.                       NO: One line per depth step
~Well Information Block
STRT.FT               510.0000: 
STOP.FT              1848.7500: 
STEP.FT                 0.2500: 
NULL.                -999.2500: 
COMP.          Pioneer Natural Resources: COMPANY
WELL.           Stampede 42-18: WELL
FLD.           Purgatoire River: FIELD
LOC.           2479' FNL & 160' FEL--: LOCATION
CNTY.               Las Animas: COUNTY
SRVC.          Superior Well Services: SERVICE COMPANY
DATE.          Sat Jun 09 02:07:27 2007: LOG DATE
UWI.           05 071 08237 00: UNIQUE WELL ID
STAT.                 Colorado: STATE
~Curve Information Block
DEPT.FT            0 000 00 00: Depth
SN.Ohm-m                      : IEL Short Normal
SP.mV                         : IEL Spontaneous Potential
DIR.Ohm-m                     : IEL Induction Resistivity
GR.GAPI                       : Gamma Ray
~Parameter Information Block
~A  Depth        SN          SP         DIR          GR     
# ...
   610.5000   2000.0000   2000.0000     27.1472    106.6438
   610.7500   2000.0000   2000.0000     25.5731    107.1141
   611.0000   2000.0000   2000.0000     24.2399    108.9279
   611.2500   2000.0000   2000.0000     23.1597    111.0507
   611.5000   2000.0000   2000.0000     22.3017    115.5928
   611.7500   2000.0000   2000.0000     21.6253    119.1406
   612.0000   2000.0000   2000.0000     21.1058    124.1476
   612.2500   2000.0000   2000.0000     20.7386    126.7235
   612.5000   2000.0000   2000.0000     20.5221    129.0816
   612.7500   2000.0000   2000.0000     20.4341    129.7209
   613.0000   2000.0000   2000.0000     20.4188    129.4578
   613.2500   2000.0000   2000.0000     20.3964    128.4822
   613.5000   2000.0000   2000.0000     20.2934    125.6740
   613.7500   2000.0000   2000.0000     20.0701    122.7070
   614.0000   2000.0000   2000.0000     19.7255    116.1984
   614.2500   2000.0000   2000.0000     19.2825    110.4529
   614.5000   2000.0000   2000.0000     18.7735    100.4039
   614.7500   2000.0000   2000.0000     18.2396     93.5749
   615.0000   2000.0000   2000.0000     17.7321     85.0420
   615.2500   2000.0000   2000.0000     17.3058     81.6795
   615.5000   2000.0000   2000.0000     17.0013     81.7171
   615.7500   2000.0000   2000.0000     16.8294     85.4747
   616.0000   2000.0000   2000.0000     16.7641     95.8181
   616.2500   2000.0000   2000.0000     16.7480    104.4033
   616.5000   2000.0000   2000.0000     16.7059    116.4616
   616.7500   2000.0000   2000.0000     16.5651    122.2710
   617.0000   2000.0000   2000.0000     16.2768    126.3122
   617.2500   2000.0000   2000.0000     15.8355    126.0235
   617.5000   2000.0000   2000.0000     15.2827    122.4294
   617.7500   2000.0000   2000.0000     14.6929    119.1658
   618.0000   2000.0000   2000.0000     14.1477    115.3539
   618.2500   2000.0000   2000.0000     13.7142    114.4533
   618.5000   2000.0000   2000.0000     13.4336    115.5594
   618.7500   2000.0000   2000.0000     13.3178    117.3459
   619.0000   2000.0000   2000.0000     13.3495    120.8214
   619.2500   2000.0000   2000.0000     13.4858    123.4581
   619.5000   2000.0000   2000.0000     13.6686    127.0941
   619.7500   2000.0000   2000.0000     13.8397    128.5663
   620.0000   2000.0000   2000.0000     13.9585    128.8988
   620.2500   2000.0000   2000.0000     14.0134    128.4475
   620.5000   2000.0000   2000.0000     14.0214    127.9990
   620.7500   2000.0000   2000.0000     14.0152    127.9708
   621.0000   2000.0000   2000.0000     14.0235    127.7446
   621.2500   2000.0000   2000.0000     14.0562    127.3406
   621.5000   2000.0000   2000.0000     14.1047    126.9183
   621.7500   2000.0000   2000.0000     14.1546    127.0941
   622.0000   2000.0000   2000.0000     14.2024    127.7976
   622.2500   2000.0000   2000.0000     14.2585    128.0701
   622.5000   2000.0000   2000.0000     14.3360    127.6858
   622.7500   2000.0000   2000.0000     14.4377    127.0228
   623.0000   2000.0000   2000.0000     14.5510    125.8881
   623.2500   2000.0000   2000.0000     14.6548    125.2237
   623.5000   2000.0000   2000.0000     14.7295    124.5954
   623.7500   2000.0000   2000.0000     14.7662    124.5579
   624.0000   2000.0000   2000.0000     14.7706    125.0679
   624.2500   2000.0000   2000.0000     14.7603    125.4915
   624.5000   2000.0000   2000.0000     14.7539    125.4751
   624.7500   2000.0000   2000.0000     14.7593    124.7140
   625.0000   2000.0000   2000.0000     14.7699    122.5676
   625.2500   2000.0000   2000.0000     14.7713    120.9183
   625.5000   2000.0000   2000.0000     14.7532    119.1694
   625.7500   2000.0000   2000.0000     14.7134    119.0027
   626.0000   2000.0000   2000.0000     14.6553    120.5412
   626.2500   2000.0000   2000.0000     14.5816    122.4575
   626.5000   2000.0000   2000.0000     14.4934    125.5141
   626.7500   2000.0000   2000.0000     14.3922    126.9945
   627.0000   2000.0000   2000.0000     14.2837    127.8842
   627.2500   2000.0000   2000.0000     14.1789    127.6631
   627.5000   2000.0000   2000.0000     14.0926    126.2881
   627.7500   2000.0000   2000.0000     14.0388    124.7346
   628.0000   2000.0000   2000.0000     14.0269    121.8322
   628.2500   2000.0000   2000.0000     14.0611    119.8848
   628.5000   2000.0000   2000.0000     14.1434    117.3121
   628.7500   2000.0000   2000.0000     14.2772    115.8444
   629.0000   2000.0000   2000.0000     14.4687    114.0861
   629.2500   2000.0000   2000.0000     14.7250    113.3525
   629.5000   2000.0000   2000.0000     15.0543    113.0047
   629.7500   2000.0000   2000.0000     15.4679    113.0693
   630.0000   2000.0000   2000.0000     15.9837    112.7441
   630.2500   2000.0000   2000.0000     16.6255    111.5790
   630.5000   2000.0000   2000.0000     17.4148    107.5422
   630.7500   2000.0000   2000.0000     18.3593    103.2285
   631.0000   2000.0000   2000.0000     19.4512     94.9102
   631.2500   2000.0000   2000.0000     20.6821     88.8129
   631.5000   2000.0000   2000.0000     22.0663     80.3189
   631.7500   2000.0000   2000.0000     23.6545     75.8291
   632.0000   2000.0000   2000.0000     25.5241     71.1792
   632.2500   2000.0000   2000.0000     27.7556     69.0752
   632.5000   2000.0000   2000.0000     30.4176     66.5766
   632.7500   2000.0000   2000.0000     33.5714     65.1951
   633.0000   2000.0000   2000.0000     37.2809     63.7355
   633.2500   2000.0000   2000.0000     41.5829     63.1748
   633.5000   2000.0000   2000.0000     46.3832     62.4688
   633.7500   2000.0000   2000.0000     51.3120     61.6913
   634.0000   2000.0000   2000.0000     55.6954     59.7637
   634.2500   2000.0000   2000.0000     58.8383     58.1321
   634.5000   2000.0000   2000.0000     60.5138     55.7179
   634.7500   2000.0000   2000.0000     61.1813     54.4140
   635.0000   2000.0000   2000.0000     61.6782     53.2285
   635.2500   2000.0000   2000.0000     62.7650     52.9585
   635.5000   2000.0000   2000.0000     64.8864     52.8689
   635.7500   2000.0000   2000.0000     68.1246     52.6155
   636.0000   2000.0000   2000.0000     72.1812     51.7428
   636.2500   2000.0000   2000.0000     76.3337     51.1624
   636.5000   2000.0000   2000.0000     79.5311     50.9661
   636.7500   2000.0000   2000.0000     80.8221     51.2696
   637.0000   2000.0000   2000.0000     79.9492     51.7207
   637.2500   2000.0000   2000.0000     77.4890     51.7408
   637.5000   2000.0000   2000.0000     74.3696     51.6132
   637.7500   2000.0000   2000.0000     71.3512     51.8334
   638.0000   2000.0000   2000.0000     68.8729     53.0168
   638.2500   2000.0000   2000.0000     67.1320     54.2019
   638.5000   2000.0000   2000.0000     66.1381     55.8914
   638.7500   2000.0000   2000.0000     65.6920     56.6996
   639.0000   2000.0000   2000.0000     65.3979     57.4988
   639.2500   2000.0000   2000.0000     64.8338     57.9222
   639.5000   2000.0000   2000.0000     63.8265     58.5382
   639.7500   2000.0000   2000.0000     62.5764     58.9469
   640.0000   2000.0000   2000.0000     61.4838     59.6065
   640.2500   2000.0000   2000.0000     60.8751     60.0787
   640.5000   2000.0000   2000.0000     60.8511     60.6128
   640.7500   2000.0000   2000.0000     61.2975     60.6677
   641.0000   2000.0000   2000.0000     61.9763     60.2450
   641.2500   2000.0000   2000.0000     62.6289     59.7730
   641.5000   2000.0000   2000.0000     63.0568     59.0236
   641.7500   2000.0000   2000.0000     63.1510     58.5199
   642.0000   2000.0000   2000.0000     62.8915     57.6745
   642.2500   2000.0000   2000.0000     62.3657     57.0192
   642.5000   2000.0000   2000.0000     61.7956     55.9290
   642.7500   2000.0000   2000.0000     61.5025     55.1546
   643.0000   2000.0000   2000.0000     61.7695     53.9287
   643.2500   2000.0000   2000.0000     62.6741     53.1447
   643.5000   2000.0000   2000.0000     64.0024     52.4810
   643.7500   2000.0000   2000.0000     65.3167     52.7466
