~Version Information
VERS.                      2.0: CWLS Log ASCII Standard - VERSION 2.0
WRAP.                       NO: One line per depth step
~Well Information Block
STRT.FT               546.2500: 
STOP.FT              2488.5000: 
STEP.FT                 0.2500: 
NULL.                -999.2500: 
COMP.          Petrogulf Corporation: COMPANY
WELL.               Egan 9-11V: WELL
FLD.           Purgatorie River: FIELD
LOC.           724' FNL & 1379' FWL: LOCATION
PROV.                 Colorado: PROVINCE
CNTY.               Las Animas: COUNTRY
SRVC.          Patterson Wireline: SERVICE COMPANY
DATE.          Fri Jul 11 23:16:48 2003: LOG DATE
UWI.           05 071 07875 00: UNIQUE WELL ID
~Curve Information Block
DEPT.FT            0 000 00 00: Depth
DCAL.in                       : CDL Caliper
RHOB.g/cc                     : CDL Bulk Density
RHOC.g/cc                     : CDL Density Correction
DPOR.pu                       : CDL Density Porosity
GR.GAPI                       : Gamma Ray
NPOR.pu                       : Neutron Porosity
~Parameter Information Block
~A  Depth       DCAL        RHOB        RHOC        DPOR         GR         NPOR    
# ...
   834.2500      8.4386      2.2481     -0.0367     24.3567    137.1466     19.1862
   834.5000      8.4403      2.1334     -0.0178     31.3093    131.8468     18.0905
   834.7500      8.4404      2.0673      0.0168     35.3140    127.4818     17.9281
   835.0000      8.4445      1.9929      0.0860     39.8267    120.6218     18.3768
   835.2500      8.4532      1.9600      0.1279     41.8196    116.2425     18.9218
   835.5000      8.4617      1.9302      0.1638     43.6216    110.4805     19.7553
   835.7500      8.4693      1.9198      0.1671     44.2517    107.4202     20.2709
   836.0000      8.4843      1.9168      0.1571     44.4353    104.1822     21.2161
   836.2500      8.5071      1.9258      0.1573     43.8887    102.8635     22.1519
   836.5000      8.5228      1.9637      0.1823     41.5956    102.0718     24.1444
   836.7500      8.5285      2.0086      0.2069     38.8751    102.3684     25.7662
   837.0000      8.5165      2.1049      0.2300     33.0339    103.8554     28.2415
   837.2500      8.4822      2.1837      0.2274     28.2608    105.2044     29.6272
   837.5000      8.4507      2.3091      0.1976     20.6626    107.2885     30.8497
   837.7500      8.4369      2.3877      0.1665     15.8993    108.6676     30.9473
   838.0000      8.4343      2.4841      0.1140     10.0558    110.7127     30.1045
   838.2500      8.4335      2.5297      0.0809      7.2916    111.9497     29.1124
   838.5000      8.4323      2.5702      0.0431      4.8365    113.4604     27.4802
   838.7500      8.4324      2.5819      0.0282      4.1249    114.4475     26.5385
   839.0000      8.4337      2.5846      0.0193      3.9662    117.0579     25.5794
   839.2500      8.4340      2.5807      0.0192      4.1991    120.4176     25.2799
   839.5000      8.4319      2.5726      0.0236      4.6919    128.2982     25.2956
   839.7500      8.4308      2.5681      0.0288      4.9612    134.5532     25.5688
   840.0000      8.4320      2.5657      0.0408      5.1076    142.9833     26.3276
   840.2500      8.4336      2.5676      0.0513      4.9936    147.0491     27.0567
   840.5000      8.4350      2.5753      0.0665      4.5288    150.6004     28.3963
   840.7500      8.4353      2.5828      0.0732      4.0710    151.3030     29.3173
   841.0000      8.4354      2.5963      0.0765      3.2562    149.6532     30.4466
   841.2500      8.4365      2.6059      0.0767      2.6746    147.0359     30.9297
   841.5000      8.4373      2.6200      0.0801      1.8205    142.7442     31.3061
   841.7500      8.4376      2.6283      0.0857      1.3155    140.9786     31.4534
   842.0000      8.4385      2.6376      0.0946      0.7536    140.7648     31.7101
   842.2500      8.4386      2.6409      0.0965      0.5534    141.4924     31.9178
   842.5000      8.4379      2.6413      0.0897      0.5268    141.6860     32.1496
   842.7500      8.4368      2.6392      0.0795      0.6558    140.2922     32.1589
   843.0000      8.4353      2.6342      0.0596      0.9595    135.8425     31.8976
   843.2500      8.4349      2.6308      0.0457      1.1640    132.0689     31.5662
   843.5000      8.4351      2.6275      0.0275      1.3624    127.2657     30.9083
   843.7500      8.4332      2.6274      0.0187      1.3702    125.7908     30.3969
   844.0000      8.4299      2.6311      0.0109      1.1435    126.7433     29.5764
   844.2500      8.4280      2.6360      0.0090      0.8483    128.4921     29.0324
   844.5000      8.4282      2.6442      0.0100      0.3531    129.9061     28.2586
   844.7500      8.4294      2.6471      0.0107      0.1784    129.3179     27.7569
   845.0000      8.4296      2.6405      0.0044      0.5732    128.1964     26.9622
   845.2500      8.4292      2.6254     -0.0071      1.4914    129.3430     26.3693
   845.5000      8.4307      2.5843     -0.0279      3.9848    135.5272     25.3719
   845.7500      8.4320      2.5465     -0.0352      6.2726    141.8060     24.6937
   846.0000      8.4315      2.4827     -0.0260     10.1376    151.4034     23.9282
   846.2500      8.4326      2.4419     -0.0061     12.6126    156.2689     23.8074
   846.5000      8.4382      2.3938      0.0402     15.5297    159.8216     24.5028
   846.7500      8.4451      2.3749      0.0778     16.6716    159.6064     25.5550
   847.0000      8.4475      2.3698      0.1315     16.9801    155.7128     27.6372
   847.2500      8.4419      2.3811      0.1561     16.2971    151.0428     28.9821
   847.5000      8.4303      2.4148      0.1654     14.2528    142.4064     30.3494
   847.7500      8.4208      2.4441      0.1529     12.4773    137.1364     30.6971
   848.0000      8.4165      2.4901      0.1178      9.6881    132.5611     30.5741
   848.2500      8.4158      2.5181      0.0935      7.9926    132.2721     30.3244
   848.5000      8.4170      2.5517      0.0687      5.9600    134.9656     30.1091
   848.7500      8.4177      2.5678      0.0611      4.9811    137.6306     30.1773
   849.0000      8.4164      2.5847      0.0584      3.9562    140.7886     30.5203
   849.2500      8.4146      2.5933      0.0592      3.4383    141.4403     30.7827
   849.5000      8.4143      2.6055      0.0621      2.6993    139.6478     31.0250
   849.7500      8.4150      2.6142      0.0651      2.1675    136.7119     31.0170
   850.0000      8.4156      2.6280      0.0693      1.3327    130.4121     30.6960
   850.2500      8.4160      2.6365      0.0697      0.8207    125.7238     30.2679
   850.5000      8.4167      2.6458      0.0631      0.2542    119.6865     29.3697
   850.7500      8.4179      2.6491      0.0541      0.0569    117.1156     28.7086
   851.0000      8.4196      2.6496      0.0385      0.0247    115.8705     27.8716
   851.2500      8.4207      2.6477      0.0302      0.1374    116.6124     27.5205
   851.5000      8.4207      2.6430      0.0229      0.4258    119.4290     27.3165
   851.7500      8.4211      2.6390      0.0205      0.6662    121.9508     27.3220
   852.0000      8.4216      2.6321      0.0177      1.0857    125.8477     27.3926
   852.2500      8.4213      2.6267      0.0158      1.4103    128.0673     27.4422
   852.5000      8.4207      2.6175      0.0129      1.9696    130.2052     27.5648
   852.7500      8.4202      2.6108      0.0113      2.3788    130.7381     27.7342
   853.0000      8.4192      2.6006      0.0099      2.9947    130.5235     28.1708
   853.2500      8.4184      2.5946      0.0096      3.3596    129.8768     28.5576
   853.5000      8.4178      2.5882      0.0109      3.7449    128.0963     29.1468
   853.7500      8.4160      2.5865      0.0140      3.8462    126.3454     29.4447
   854.0000      8.4113      2.5885      0.0245      3.7248    123.0788     29.6227
   854.2500      8.4028      2.5927      0.0354      3.4712    120.6249     29.5522
   854.5000      8.3925      2.6024      0.0546      2.8840    116.7418     29.2660
   854.7500      8.3881      2.6108      0.0667      2.3781    114.1903     29.0634
   855.0000      8.3933      2.6264      0.0811      1.4286    110.6136     28.9307
   855.2500      8.4025      2.6397      0.0889      0.6272    108.2399     29.0072
   855.5000      8.4063      2.6643      0.1024     -0.8661    103.9847     29.2640
   855.7500      8.4006      2.6830      0.1133     -1.9978    100.4429     29.3715
   856.0000      8.3886      2.7096      0.1264     -3.6095     94.9021     29.1807
   856.2500      8.3795      2.7224      0.1263     -4.3900     92.2471     28.7983
   856.5000      8.3758      2.7290      0.1062     -4.7876     91.7358     28.0960
   856.7500      8.3735      2.7240      0.0826     -4.4858     93.8937     27.7686
   857.0000      8.3828      2.7058      0.0464     -3.3836     99.3916     27.7418
   857.2500      8.4085      2.6902      0.0287     -2.4360    103.3554     28.0157
   857.5000      8.4261      2.6675      0.0126     -1.0578    108.4364     28.6015
   857.7500      8.4287      2.6549      0.0057     -0.2972    111.0212     28.9234
   858.0000      8.4276      2.6411     -0.0031      0.5405    113.7873     29.1141
