~Version Information
VERS.                      2.0: CWLS Log ASCII Standard - VERSION 2.0
WRAP.                       NO: One line per depth step
~Well Information Block
STRT.FT               -13.0000: 
STOP.FT              1411.2500: 
STEP.FT                 0.2500: 
NULL.                -999.2500: 
COMP.                         : COMPANY
WELL.                         : WELL
FLD.                          : FIELD
LOC.                          : LOCATION
CNTY.                         : COUNTY
SRVC.                         : SERVICE COMPANY
DATE.          Sat Jan 17 07:25:27 2004: LOG DATE
UWI.                          : UNIQUE WELL ID
STAT.                         : STATE
~Curve Information Block
DEPT.FT            0 000 00 00: Depth
CCL.                          : Casing Collar Locator
TT3.usec                      : CBL 3' Travel Time
AMP3.mV                       : CBL 3' Amplitude
GR.GAPI                       : Gamma Ray
~Parameter Information Block
~A  Depth       CCL         TT3         AMP3         GR     
# ...
   824.5000      0.0000    396.6418     20.7664     74.8680
   824.7500      0.0000    443.8786     19.1824     76.5958
   825.0000      0.0000    478.9758     17.7520     78.3488
   825.2500      0.0000    493.1931     16.5503     79.4233
   825.5000      0.0000    490.1924     15.6024     79.4108
   825.7500      0.0000    478.8304     14.9002     78.3238
   826.0000      0.0000    462.2610     14.4666     76.3842
   826.2500      0.0000    437.0873     14.3676     73.7409
   826.5000      0.0000    402.3107     14.6374     70.6480
   826.7500      0.0000    364.9983     15.1901     67.9108
   827.0000      0.0000    335.2946     15.8270     66.7949
   827.2500      0.0000    318.0853     16.3571     68.1198
   827.5000      0.0000    310.9398     16.7137     71.4027
   827.7500      0.0000    308.3162     16.9568     75.1027
   828.0000      0.0000    306.2165     17.1807     77.8003
   828.2500      0.0000    303.6387     17.4403     79.1262
   828.5000      0.0000    301.2848     17.7569     79.6561
   828.7500      0.0000    299.8080     18.1514     80.0733
   829.0000      0.0000    299.1644     18.6406     80.5504
   829.2500      0.0000    298.9698     19.2144     80.8740
   829.5000      0.0000    298.9080     19.8532     80.8484
   829.7500      0.0000    298.8406     20.5883     80.2467
   830.0000      0.0000    298.7402     21.5530     78.5382
   830.2500      0.0000    298.6116     22.9573     75.1762
   830.5000      0.0000    298.4088     24.9746     70.3284
   830.7500      0.0000    297.9306     27.6275     65.0129
   831.0000      0.0000    296.6955     30.7797     60.3580
   831.2500      0.0000    293.9324     34.2296     56.9615
   831.5000      0.0000    288.9321     37.8119     55.0528
   831.7500      0.0000    281.7453     41.4377     54.8938
   832.0000      0.0000    273.5886     45.0816     56.6057
   832.2500      0.0000    266.2776     48.7644     59.6450
   832.5000      0.0000    261.0669     52.5356     62.8330
   832.7500      0.0000    258.0549     56.4184     65.1148
   833.0000      0.0000    256.5724     60.3135     66.2410
   833.2500      0.0000    255.8905     63.9453     66.6443
   833.5000      0.0000    255.5823     66.9278     66.7326
   833.7500      0.0000    255.4925     68.9569     66.4190
   834.0000      0.0000    255.5732     70.0139     65.5149
   834.2500      0.0000    255.7695     70.3918     64.5695
   834.5000      0.0000    256.0066     70.4671     64.9190
   834.7500      0.0000    256.2521     70.3611     67.5273
   835.0000      0.0000    256.5779     69.7597     71.8966
   835.2500      0.0000    257.1447     68.0777     76.3886
   835.5000      0.0000    258.0887     64.9364     79.4889
   835.7500      0.0000    259.3950     60.5800     80.4030
   836.0000      0.0000    260.8826     55.7943     78.6529
   836.2500      0.0000    262.3500     51.4144     74.0573
   836.5000      0.0000    263.7983     47.9444     67.5223
   836.7500      0.0000    265.6173     45.5081     61.1328
   837.0000      0.0000    268.5837     43.9467     56.9743
   837.2500      0.0000    273.4270     42.9655     56.2144
   837.5000     -4.0000    279.9748     42.3780     59.2440
   837.7500      0.0000    286.5962     42.3477     65.8309
   838.0000      0.0000    290.8143     43.3905     74.6496
   838.2500      0.0000    290.9167     45.9537     83.2143
   838.5000      0.0000    287.1855     49.7751     89.1145
   838.7500      0.0000    281.5298     53.7108     91.6286
   839.0000      0.0000    275.8288     56.5327     92.0006
   839.2500      0.0000    270.7318     57.9741     92.1498
   839.5000      0.0000    266.0890     58.7500     93.1725
   839.7500      0.0000    262.0060     59.6179     94.7862
   840.0000      0.0000    258.9587     60.7542     95.8985
   840.2500      0.0000    257.1698     61.9749     95.6066
   840.5000      0.0000    256.3649     63.1724     93.6501
   840.7500      0.0000    256.0887     64.4220     90.2179
   841.0000      0.0000    256.0168     65.8171     85.7930
   841.2500      0.0000    256.0025     67.3114     81.0535
   841.5000      0.0000    256.0000     68.7297     76.4725
   841.7500      0.0000    256.0000     69.9188     72.1416
   842.0000      0.0000    256.0000     70.8675     68.1612
   842.2500      0.0000    255.9999     71.6864     64.8621
   842.5000      0.0000    255.9995     72.5148     62.3983
   842.7500      0.0000    255.9974     73.4375     60.4631
   843.0000      0.0000    255.9890     74.4350     58.5667
   843.2500      0.0000    255.9643     75.4040     56.4453
   843.5000      0.0000    255.9087     76.2559     54.2357
   843.7500      0.0000    255.8164     76.9841     52.4142
   844.0000      0.0000    255.7113     77.6069     51.4990
   844.2500      0.0000    255.6493     78.0753     51.7074
   844.5000      0.0000    255.6805     78.2817     52.9544
   844.7500      0.0000    255.7970     78.1493     55.0220
   845.0000      0.0000    255.9255     77.6972     57.4699
   845.2500      0.0000    255.9867     77.0342     59.4232
   845.5000      0.0000    255.9643     76.2950     59.7814
   845.7500      0.0000    255.9105     75.5654     57.9292
   846.0000      0.0000    255.8861     74.8666     54.3717
   846.2500      0.0000    255.9055     74.1963     50.6460
   846.5000      0.0000    255.9439     73.5313     48.3997
   846.7500      0.0000    255.9753     72.7547     48.3603
   847.0000      0.0000    255.9917     71.6300     50.0990
   847.2500      0.0000    255.9979     69.9307     52.6558
   847.5000      0.0000    256.0001     67.6213     55.2959
   847.7500      0.0000    256.0027     64.9090     57.8376
   848.0000      0.0000    256.0115     62.1394     60.5107
   848.2500      0.0000    256.0385     59.6384     63.5605
   848.5000      0.0000    256.1037     57.5815     66.9731
   848.7500      0.0000    256.2290     55.9481     70.5464
   849.0000      0.0000    256.4287     54.6017     74.1208
   849.2500      0.0000    256.7333     53.4126     77.5921
   849.5000      0.0000    257.2966     52.2704     80.6220
   849.7500      0.0000    258.5711     50.9618     82.3999
   850.0000      0.0000    261.4251     49.0660     81.9943
   850.2500      0.0000    267.0007     46.0392     79.2109
   850.5000      0.0000    276.3395     41.5127     74.9251
   850.7500      0.0000    290.3365     35.6209     70.2866
   851.0000      0.0000    310.3664     29.0498     65.8015
   851.2500      0.0000    339.1642     22.6876     61.5476
   851.5000      0.0000    380.7859     17.1711     57.9934
   851.7500      0.0000    438.2049     12.7194     56.0337
   852.0000      0.0000    508.6579      9.2813     56.2574
   852.2500      0.0000    581.1526      6.7327     58.4824
   852.5000      0.0000    641.2832      4.9463     61.8560
   852.7500      0.0000    680.2195      3.7736     65.2166
   853.0000      0.0000    698.4893      3.0405     67.7008
   853.2500      0.0000    701.8998      2.5822     69.3574
   853.5000      0.0000    696.1235      2.2822     71.1025
   853.7500      0.0000    685.1789      2.0823     73.8146
   854.0000      0.0000    672.5726      1.9598     77.4339
   854.2500      0.0000    661.8090      1.8987     81.1204
   854.5000      0.0000    655.3343      1.8773     84.2650
   854.7500      0.0000    652.8925      1.8776     86.9558
   855.0000      4.0000    651.2418      1.8973     89.3997
   855.2500      0.0000    646.7467      1.9468     91.4626
   855.5000      0.0000    639.0625      2.0301     93.1153
   855.7500      0.0000    630.7492      2.1341     94.8508
   856.0000      0.0000    621.9755      2.2424     97.0300
   856.2500      0.0000    608.3940      2.3538     99.0680
   856.5000      0.0000    588.2042      2.4807     99.8753
   856.7500      0.0000    570.1755      2.6268     98.9172
   857.0000      0.0000    569.8279      2.7710     96.4466
   857.2500      0.0000    595.2080      2.8726     93.0815
   857.5000     -4.0000    637.8456      2.8981     89.6897
   857.7500      0.0000    678.9764      2.8438     87.5636
