~Version Information
VERS.                      2.0: CWLS Log ASCII Standard - VERSION 2.0
WRAP.                       NO: One line per depth step
~Well Information Block
STRT.FT               580.0000: 
STOP.FT              2729.7500: 
STEP.FT                 0.2500: 
NULL.                -999.2500: 
COMP.          Pioneer Natural Resources: COMPANY
WELL.          Sand Pebbles 13-33: WELL
FLD.           Purgatoire River: FIELD
LOC.           1883' FSL & 63' FWL----: LOCATION
PROV.                 Colorado: PROVINCE
CNTY.               Las Animas: COUNTRY
SRVC.                Patterson: SERVICE COMPANY
DATE.          Fri Mar 11 13:47:45 2005: LOG DATE
UWI.           05 071 08224 00: UNIQUE WELL ID
~Curve Information Block
DEPT.FT            0 000 00 00: Depth
SN.Ohm-m                      : IEL Short Normal
SP.mV                         : IEL Spontaneous Potential
DIR.Ohm-m                     : IEL Induction Resistivity
GR.GAPI                       : Gamma Ray
~Parameter Information Block
~A  Depth        SN          SP         DIR          GR     
# ...
  1551.5000     61.8184   -179.1648     40.6893     63.0279
  1551.7500     62.5667   -180.9222     41.8032     62.9452
  1552.0000     63.2230   -182.6942     42.8984     61.9667
  1552.2500     63.8354   -184.4139     43.8741     60.9349
  1552.5000     64.4518   -186.0172     44.6831     58.9285
  1552.7500     65.1293   -187.4431     45.3602     57.4043
  1553.0000     65.9200   -188.6384     45.9820     55.5398
  1553.2500     66.8383   -189.5646     46.6038     55.0504
  1553.5000     67.8378   -190.2033     47.2272     55.5219
  1553.7500     68.8235   -190.5592     47.8163     56.2424
  1554.0000     69.6935   -190.6618     48.3403     57.2003
  1554.2500     70.3844   -190.5658     48.8104     57.4577
  1554.5000     70.8878   -190.3497     49.2743     56.7581
  1554.7500     71.2311   -190.1055     49.7650     55.2910
  1555.0000     71.4383   -189.9200     50.2441     51.5104
  1555.2500     71.5021   -189.8520     50.5969     48.2114
  1555.5000     71.3878   -189.9166     50.6987     42.9945
  1555.7500     71.0587   -190.0837     50.5023     39.9521
  1556.0000     70.4969   -190.2936     50.0634     36.7800
  1556.2500     69.7042   -190.4802     49.4887     35.6192
  1556.5000     68.6987   -190.5908     48.8690     34.7412
  1556.7500     67.5205   -190.5954     48.2581     34.3272
  1557.0000     66.2363   -190.4854     47.6916     33.5238
  1557.2500     64.9287   -190.2671     47.2077     32.7467
  1557.5000     63.6752   -189.9545     46.8451     31.2481
  1557.7500     62.5324   -189.5667     46.6225     30.2900
  1558.0000     61.5350   -189.1259     46.5255     29.6585
  1558.2500     60.7016   -188.6571     46.5156     30.0541
  1558.5000     60.0402   -188.1858     46.5561     31.6591
  1558.7500     59.5501   -187.7353     46.6291     33.0144
  1559.0000     59.2243   -187.3237     46.7313     34.8948
  1559.2500     59.0557   -186.9627     46.8657     35.8427
  1559.5000     59.0419   -186.6595     47.0400     36.4738
  1559.7500     59.1874   -186.4197     47.2679     36.1924
  1560.0000     59.5024   -186.2508     47.5596     34.8042
  1560.2500     59.9964   -186.1637     47.9070     33.5312
  1560.5000     60.6716   -186.1714     48.2740     31.5296
  1560.7500     61.5198   -186.2850     48.6092     30.1825
  1561.0000     62.5223   -186.5092     48.8793     28.2592
  1561.2500     63.6505   -186.8393     49.1031     27.3230
  1561.5000     64.8745   -187.2590     49.3535     26.9441
  1561.7500     66.1783   -187.7413     49.7208     27.3264
  1562.0000     67.5673   -188.2525     50.2647     28.0808
  1562.2500     69.0527   -188.7552     50.9876     28.2070
  1562.5000     70.6184   -189.2134     51.8358     27.6220
  1562.7500     72.1875   -189.5938     52.7100     27.0003
  1563.0000     73.6064   -189.8645     53.4840     26.2428
  1563.2500     74.6602   -189.9908     54.0318     25.8490
  1563.5000     75.1134   -189.9276     54.2524     25.0668
  1563.7500     74.7462   -189.6139     54.0678     24.4080
  1564.0000     73.3774   -188.9745     53.4076     23.9162
  1564.2500     70.9037   -187.9309     52.2198     24.4873
  1564.5000     67.3762   -186.4231     50.5090     27.1759
  1564.7500     63.0602   -184.4339     48.3563     30.1156
  1565.0000     58.3961   -182.0053     45.8985     36.2197
  1565.2500     53.8491   -179.2401     43.2929     41.7886
  1565.5000     49.7436   -176.2853     40.6942     53.1562
  1565.7500     46.1910   -173.3061     38.2372     62.6292
  1566.0000     43.1373   -170.4590     36.0165     78.1442
  1566.2500     40.4719   -167.8721     34.0713     88.1724
  1566.5000     38.1131   -165.6352     32.3904    101.2967
  1566.7500     36.0347   -163.7971     30.9388    108.4218
  1567.0000     34.2519   -162.3688     29.6910    116.5825
  1567.2500     32.7989   -161.3300     28.6547    120.4100
  1567.5000     31.7105   -160.6392     27.8688    124.0437
  1567.7500     31.0043   -160.2445     27.3818    125.3196
  1568.0000     30.6705   -160.0919     27.2264    125.7314
  1568.2500     30.6767   -160.1295     27.4050    124.7944
  1568.5000     30.9915   -160.3055     27.8876    120.7641
  1568.7500     31.6124   -160.5670     28.6217    116.0222
  1569.0000     32.5772   -160.8583     29.5455    106.3768
  1569.2500     33.9497   -161.1252     30.5992     99.2646
  1569.5000     35.7804   -161.3208     31.7311     89.8731
  1569.7500     38.0503   -161.4112     32.8983     85.7078
  1570.0000     40.6088   -161.3777     34.0632     83.7941
  1570.2500     43.1407   -161.2131     35.1804     85.2277
  1570.5000     45.2037   -160.9148     36.1791     89.5777
  1570.7500     46.3492   -160.4770     36.9547     92.3053
  1571.0000     46.2890   -159.8862     37.3861     93.5659
  1571.2500     45.0299   -159.1204     37.3765     91.8943
  1571.5000     42.8931   -158.1523     36.8949     86.8235
  1571.7500     40.3846   -156.9577     35.9937     83.4217
  1572.0000     37.9715   -155.5259     34.7936     81.0216
  1572.2500     35.8920   -153.8701     33.4399     81.8976
  1572.5000     34.1162   -152.0348     32.0529     86.3179
  1572.7500     32.4672   -150.0966     30.6992     90.3583
  1573.0000     30.7937   -148.1541     29.3946     96.1684
  1573.2500     29.0669   -146.3128     28.1278     99.0941
  1573.5000     27.3603   -144.6666     26.8865    102.0162
  1573.7500     25.7696   -143.2837     25.6719    103.7186
  1574.0000     24.3524   -142.2011     24.4993    107.3520
  1574.2500     23.1181   -141.4258     23.3919    110.6384
  1574.5000     22.0474   -140.9407     22.3736    115.5421
  1574.7500     21.1139   -140.7119     21.4631    117.8362
  1575.0000     20.2975   -140.6938     20.6707    119.4638
  1575.2500     19.5905   -140.8351     19.9973    119.9235
  1575.5000     18.9932   -141.0837     19.4378    120.5838
  1575.7500     18.5037   -141.3927     18.9838    120.8640
  1576.0000     18.1096   -141.7242     18.6230    120.0973
  1576.2500     17.7887   -142.0506     18.3369    118.5943
  1576.5000     17.5164   -142.3530     18.0983    115.7661
  1576.7500     17.2723   -142.6187     17.8750    114.3458
  1577.0000     17.0411   -142.8381     17.6406    113.7782
  1577.2500     16.8104   -143.0049     17.3840    114.4380
  1577.5000     16.5695   -143.1174     17.1110    116.5745
  1577.7500     16.3145   -143.1794     16.8365    118.5160
  1578.0000     16.0523   -143.2000     16.5723    121.7507
  1578.2500     15.7982   -143.1918     16.3211    123.7413
  1578.5000     15.5666   -143.1670     16.0776    125.7060
  1578.7500     15.3619   -143.1352     15.8355    126.0138
  1579.0000     15.1771   -143.1037     15.5934    124.9914
  1579.2500     14.9998   -143.0791     15.3566    123.7142
  1579.5000     14.8223   -143.0715     15.1316    121.9524
  1579.7500     14.6478   -143.0965     14.9198    121.4424
  1580.0000     14.4869   -143.1743     14.7145    122.1981
  1580.2500     14.3474   -143.3254     14.5048    123.6554
  1580.5000     14.2237   -143.5649     14.2829    126.4976
  1580.7500     14.0958   -143.8996     14.0498    128.1889
  1581.0000     13.9396   -144.3283     13.8133    129.5301
  1581.2500     13.7433   -144.8444     13.5829    129.2837
  1581.5000     13.5182   -145.4379     13.3650    126.8653
  1581.7500     13.2947   -146.0948     13.1626    124.1234
  1582.0000     13.1041   -146.7973     12.9762    119.9942
  1582.2500     12.9625   -147.5259     12.8051    118.5643
  1582.5000     12.8650   -148.2650     12.6471    119.6816
  1582.7500     12.7937   -149.0080     12.4999    122.2989
  1583.0000     12.7291   -149.7590     12.3631    127.3407
  1583.2500     12.6613   -150.5276     12.2409    130.3906
  1583.5000     12.5947   -151.3213     12.1407    133.3713
  1583.7500     12.5413   -152.1396     12.0707    134.2621
  1584.0000     12.5106   -152.9741     12.0358    134.9240
  1584.2500     12.5031   -153.8131     12.0373    135.6473
  1584.5000     12.5144   -154.6481     12.0750    137.6829
  1584.7500     12.5433   -155.4772     12.1499    139.3980
