~Version Information
VERS.                      2.0: CWLS Log ASCII Standard - VERSION 2.0
WRAP.                       NO: One line per depth step
~Well Information Block
STRT.FT               802.1000: 
STOP.FT              1915.0000: 
STEP.FT                 0.1000: 
NULL.                -999.2500: 
COMP.          Petrogulf Corporation: COMPANY
WELL.             State 16-32R: WELL
FLD.           Purgatorie River: FIELD
LOC.           1849' FNL & 1677' FEL: LOCATION
CNTY.               Las Animas: COUNTY
SRVC.                         : SERVICE COMPANY
DATE.          Thu May 13 18:17:16 2004: LOG DATE
UWI.           05 071 08033 00: UNIQUE WELL ID
STAT.                 Colorado: STATE
~Curve Information Block
DEPT.FT            0 000 00 00: Depth
DCAL.in                       : CDL Caliper
RHOB.g/cc                     : CDL Bulk Density
RHOC.g/cc                     : CDL Density Correction
DPOR.pu                       : CDL Density Porosity
GR.GAPI                       : Gamma Ray
NPOR.pu                       : Neutron Porosity
~Parameter Information Block
~A  Depth       DCAL        RHOB        RHOC        DPOR         GR         NPOR    
# ...
  1061.3000      7.7874      2.6370      0.1289      0.7901    104.3145     26.6703
  1061.4000      7.7874      2.5980      0.0847      3.1498    108.6449     27.1271
  1061.5000      7.7914      2.5590      0.1009      5.5176    121.0881     27.8931
  1061.6000      7.7914      2.5232      0.0468      7.6833    128.2912     28.7925
  1061.7000      7.7914      2.4997     -0.0438      9.1114    125.7427     29.8022
  1061.8000      7.8458      2.5183      0.0389      7.9838    121.0347     30.9132
  1061.9000      7.8458      2.5839      0.0872      4.0075    117.6187     32.0161
  1062.0000      7.8589      2.6614      0.1749     -0.6902    116.1745     33.0156
  1062.1000      7.8589      2.7140      0.1053     -3.8806    112.9478     33.6068
  1062.2000      7.8589      2.7270      0.1311     -4.6639    103.4550     33.5309
  1062.3000      7.8459      2.7044      0.1162     -3.2978     93.4641     33.1161
  1062.4000      7.8459      2.6805      0.0584     -1.8504     87.2594     32.7743
  1062.5000      7.8561      2.6857      0.0427     -2.1633     85.2281     32.6082
  1062.6000      7.8561      2.6981      0.1028     -2.9123     85.9894     32.5813
  1062.7000      7.8561      2.6826      0.0655     -1.9754     86.7978     32.5404
  1062.8000      7.8556      2.6569     -0.0155     -0.4163     88.9357     32.1608
  1062.9000      7.8556      2.6555      0.0587     -0.3315     93.6351     31.2789
  1063.0000      7.8652      2.6674      0.0872     -1.0543    100.4375     30.2570
  1063.1000      7.8652      2.6691      0.1490     -1.1604    103.6200     29.5499
  1063.2000      7.8652      2.6501      0.1585     -0.0069     99.8212     29.0802
  1063.3000      7.8466      2.6015      0.1225      2.9395     98.6007     28.5214
  1063.4000      7.8466      2.5413     -0.0261      6.5898    104.0932     28.0698
  1063.5000      7.8419      2.5069      0.0042      8.6728    108.4727     27.9008
  1063.6000      7.8419      2.5025     -0.0029      8.9418    108.4813     27.6859
  1063.7000      7.8419      2.5027      0.0684      8.9255    107.4169     27.3224
  1063.8000      7.8678      2.4971      0.0189      9.2677    104.5328     27.0623
  1063.9000      7.8678      2.4889      0.1682      9.7644     98.0127     26.9698
  1064.0000      7.9113      2.4752      0.0530     10.5939     94.6122     26.9429
  1064.1000      7.9113      2.4545      0.1160     11.8466     99.1722     26.9422
  1064.2000      7.9113      2.4265      0.0930     13.5452    105.0623     26.9932
  1064.3000      7.9540      2.4004      0.0803     15.1272    112.7806     27.1307
  1064.4000      7.9540      2.3906      0.0453     15.7192    126.4112     27.1474
  1064.5000      7.9624      2.3959      0.0697     15.3970    133.4838     27.0341
  1064.6000      7.9624      2.4063      0.1095     14.7687    128.3486     27.2851
  1064.7000      7.9624      2.4167      0.1094     14.1385    126.9504     28.1820
  1064.8000      7.9714      2.4214      0.1336     13.8517    134.0664     29.1502
  1064.9000      7.9714      2.4193      0.1568     13.9816    138.8804     29.6285
  1065.0000      8.0096      2.4319      0.0772     13.2152    133.4210     29.9896
  1065.1000      8.0096      2.4799      0.1326     10.3099    119.4023     30.7892
  1065.2000      8.0096      2.5594      0.0393      5.4900    106.5820     31.8198
  1065.3000      7.9795      2.6622      0.1491     -0.7388    102.4192     32.4209
  1065.4000      7.9795      2.7714      0.2097     -7.3602    104.7510     32.5400
  1065.5000      7.9078      2.8714      0.2213    -13.4176    108.0940     32.8485
  1065.6000      7.9078      2.9623      0.3263    -18.9277    108.1876     33.6120
  1065.7000      7.9078      3.0423      0.2927    -23.7781    104.8537     34.2163
  1065.8000      7.9123      3.0836      0.3173    -26.2818    105.3463     34.0675
  1065.9000      7.9123      3.0464      0.2707    -24.0232    114.6904     33.4623
  1066.0000      8.0401      2.9392      0.0203    -17.5283    129.5856     33.0122
  1066.1000      8.0401      2.8207     -0.0920    -10.3429    139.0785     32.8270
  1066.2000      8.0401      2.7250     -0.1099     -4.5473    134.0606     32.5745
  1066.3000      7.8442      2.6464     -0.0406      0.2167    120.4741     31.9363
  1066.4000      7.8442      2.5949     -0.1620      3.3413    110.5985     31.2168
  1066.5000      7.8470      2.5940     -0.0840      3.3952    106.5671     30.9826
  1066.6000      7.8470      2.6110      0.0578      2.3608    101.0646     30.9431
  1066.7000      7.8470      2.5981      0.0387      3.1431     94.1536     30.5876
  1066.8000      7.8949      2.5697      0.0407      4.8658     93.5184     30.2027
  1066.9000      7.8949      2.5524      0.1021      5.9136     99.0571     30.0417
  1067.0000      7.8982      2.5435      0.0218      6.4541    103.1235     30.1356
  1067.1000      7.8982      2.5340      0.0615      7.0328    103.1221     30.7163
  1067.2000      7.8982      2.5204      0.0587      7.8565    103.1533     31.5944
  1067.3000      7.8766      2.5146      0.1007      8.2073    105.3859     32.1633
  1067.4000      7.8766      2.5241      0.0937      7.6301    110.7906     32.2163
  1067.5000      7.8657      2.5336      0.1671      7.0522    120.4935     32.1369
  1067.6000      7.8657      2.5350      0.0980      6.9697    130.1334     32.1568
  1067.7000      7.8657      2.5342      0.1286      7.0188    129.6697     32.0111
  1067.8000      7.8524      2.5270      0.0913      7.4551    117.5279     31.5461
  1067.9000      7.8524      2.5115      0.1323      8.3922    104.5541     30.9406
  1068.0000      7.8837      2.4972      0.0311      9.2600     95.9076     30.4988
  1068.1000      7.8837      2.4812      0.1249     10.2289     88.7522     30.2170
  1068.2000      7.8837      2.4562      0.0313     11.7438     86.5794     29.6697
  1068.3000      7.9061      2.4397      0.0012     12.7442     91.1174     28.7044
  1068.4000      7.9061      2.4350      0.1002     13.0328     96.6550     27.6158
  1068.5000      7.9327      2.4149      0.0890     14.2497    101.4869     26.3011
  1068.6000      7.9327      2.3686      0.0598     17.0520    102.9725     24.4482
  1068.7000      7.9327      2.3006      0.0084     21.1752     97.3946     22.4541
  1068.8000      7.9358      2.2101     -0.0020     26.6617     88.7606     20.6397
  1068.9000      7.9358      2.1030     -0.0236     33.1507     82.2651     18.5265
  1069.0000      7.9331      2.0030     -0.0349     39.2119     76.8759     15.9943
  1069.1000      7.9331      1.9247     -0.0023     43.9590     71.5259     13.8593
  1069.2000      7.9331      1.8429      0.0448     48.9162     66.3173     12.6635
  1069.3000      7.9464      1.7359      0.0697     55.4018     61.8083     12.2141
  1069.4000      7.9464      1.6277      0.1038     61.9587     57.6337     12.3644
  1069.5000      8.1061      1.5513      0.0590     66.5904     53.6786     13.0953
  1069.6000      8.1061      1.5225      0.0659     68.3344     56.1836     14.2696
  1069.7000      8.1061      1.5449      0.1186     66.9754     66.2249     16.0625
  1069.8000      8.2596      1.6136      0.1774     62.8113     70.9688     18.6135
  1069.9000      8.2596      1.7257      0.1779     56.0178     66.6286     21.4129
  1070.0000      8.3653      1.8710      0.2939     47.2119     68.2185     23.7748
  1070.1000      8.3653      2.0294      0.2694     37.6148     82.6644     25.5056
  1070.2000      8.3653      2.1893      0.3729     27.9229     97.4548     26.8685
  1070.3000      8.3226      2.3340      0.4144     19.1493    103.8519     27.9535
  1070.4000      8.3226      2.4281      0.3891     13.4503    103.8576     28.7126
  1070.5000      8.1366      2.4463      0.3379     12.3479    102.8048     29.4428
  1070.6000      8.1366      2.4182      0.1605     14.0500    102.0001     30.3641
  1070.7000      8.1366      2.4052      0.1105     14.8362     93.1653     31.2710
  1070.8000      8.0133      2.4279      0.0716     13.4587     73.5638     31.7473
