~Version Information
VERS.                      2.0: CWLS Log ASCII Standard - VERSION 2.0
WRAP.                       NO: One line per depth step
~Well Information Block
STRT.FT                30.0000: 
STOP.FT              2789.0000: 
STEP.FT                 0.1000: 
NULL.                -999.2500: 
COMP.          Pioneer Natural Resources: COMPANY
WELL.          Rabbit Bush Federal 44-19: WELL
FLD.           Purgatorie River: FIELD
LOC.           826' FSL & 1127' FEL: LOCATION
CNTY.               Las Animas: COUNTY
SRVC.                Patterson: SERVICE COMPANY
DATE.          Mon Aug 28 10:56:57 2006: LOG DATE
UWI.           05-071-08149-00: UNIQUE WELL ID
STAT.                 Colorado: STATE
~Curve Information Block
DEPT.FT            0 000 00 00: Depth
DCAL.in                       : CDL Caliper
RHOB.g/cc                     : CDL Bulk Density
RHOC.g/cc                     : CDL Density Correction
DPOR.pu                       : CDL Density Porosity
GR.GAPI                       : Gamma Ray
NPOR.pu                       : Neutron Porosity
~Parameter Information Block
~A  Depth       DCAL        RHOB        RHOC        DPOR         GR         NPOR    
# ...
   394.8000     17.2885      2.3471      2.0000     -0.0061    125.0803     22.9473
   394.9000     17.2885      2.3559      2.0000     -0.0059    125.9058     23.3722
   395.0000     17.2948      2.3701      2.0000     -0.0056    122.7530     23.1680
   395.1000     17.2948      2.3736      2.0000     -0.0055    119.2814     22.6862
   395.2000     17.2948      2.3687      2.0000     -0.0056    115.8136     22.6817
   395.3000     17.2991      2.3658      2.0000     -0.0057    112.4480     23.0692
   395.4000     17.2991      2.3629      2.0000     -0.0057    112.3517     22.9796
   395.5000     17.3004      2.3518      2.0000     -0.0060    115.4902     22.4628
   395.6000     17.3004      2.3361      2.0000     -0.0063    117.5658     22.1748
   395.7000     17.3004      2.3250      2.0000     -0.0065    115.8644     22.0327
   395.8000     17.3002      2.3169      2.0000     -0.0067    113.5785     22.0145
   395.9000     17.3002      2.3025      2.0000     -0.0070    115.5056     22.5120
   396.0000     17.2993      2.2814      2.0000     -0.0074    120.5351     23.0092
   396.1000     17.2993      2.2679      2.0000     -0.0076    122.6405     22.7680
   396.2000     17.2993      2.2710      2.0000     -0.0076    120.1876     22.4348
   396.3000     17.2981      2.2874      2.0000     -0.0073    117.2073     22.7433
   396.4000     17.2981      2.3132      2.0000     -0.0067    115.3147     23.2836
   396.5000     17.2971      2.3379      2.0000     -0.0062    112.8079     23.4098
   396.6000     17.2971      2.3527      2.0000     -0.0059    109.3620     23.1730
   396.7000     17.2971      2.3593      2.0000     -0.0058    107.6464     23.2624
   396.8000     17.2987      2.3589      2.0000     -0.0058    107.9272     23.7080
   396.9000     17.2987      2.3492      2.0000     -0.0060    110.6038     23.8384
   397.0000     17.3012      2.3264      2.0000     -0.0065    116.9688     23.6348
   397.1000     17.3012      2.3016      2.0000     -0.0070    122.2897     23.5385
   397.2000     17.3012      2.2981      2.0000     -0.0070    122.2968     23.5922
   397.3000     17.3011      2.3175      2.0000     -0.0067    120.3399     23.5302
   397.4000     17.3011      2.3307      2.0000     -0.0064    120.1876     23.2498
   397.5000     17.3005      2.3168      2.0000     -0.0067    120.8173     22.8064
   397.6000     17.3005      2.2844      2.0000     -0.0073    119.2774     22.4211
   397.7000     17.3005      2.2570      2.0000     -0.0079    113.9824     22.3643
   397.8000     17.2999      2.2552      2.0000     -0.0079    107.0610     22.4876
   397.9000     17.2999      2.2746      2.0000     -0.0075    103.1846     22.4297
   398.0000     17.3010      2.2894      2.0000     -0.0072    103.7086     22.1591
   398.1000     17.3010      2.2930      2.0000     -0.0071    106.8660     22.0701
   398.2000     17.3010      2.2986      2.0000     -0.0070    110.8114     22.5938
   398.3000     17.3027      2.3079      2.0000     -0.0068    114.6478     23.4953
   398.4000     17.3027      2.3090      2.0000     -0.0068    117.2962     23.9871
   398.5000     17.3022      2.3002      2.0000     -0.0070    117.8985     23.9076
   398.6000     17.3022      2.2963      2.0000     -0.0071    118.0126     23.7200
   398.7000     17.3022      2.3037      2.0000     -0.0069    118.2113     23.6034
   398.8000     17.3012      2.3128      2.0000     -0.0067    116.9914     23.6440
   398.9000     17.3012      2.3185      2.0000     -0.0066    113.8697     23.8524
   399.0000     17.3019      2.3296      2.0000     -0.0064    112.1979     23.9523
   399.1000     17.3019      2.3491      2.0000     -0.0060    114.4403     23.8505
   399.2000     17.3019      2.3645      2.0000     -0.0057    117.1298     23.8128
   399.3000     17.3036      2.3694      2.0000     -0.0056    116.1628     23.8183
   399.4000     17.3036      2.3689      2.0000     -0.0056    112.2731     23.7512
   399.5000     17.3056      2.3637      2.0000     -0.0057    109.3655     23.8502
   399.6000     17.3056      2.3587      2.0000     -0.0058    111.1732     24.0370
   399.7000     17.3056      2.3686      2.0000     -0.0056    116.7245     23.8150
   399.8000     17.3055      2.3899      2.0000     -0.0052    118.3756     23.2191
   399.9000     17.3055      2.4006      2.0000     -0.0050    113.2791     22.7286
   400.0000     17.3033      2.3925      2.0000     -0.0052    107.0280     22.4697
   400.1000     17.3033      2.3820      2.0000     -0.0054    104.1781     22.4154
   400.2000     17.3033      2.3905      2.0000     -0.0052    105.5634     22.7885
   400.3000     17.3012      2.4093      2.0000     -0.0048    110.8197     23.6351
   400.4000     17.3012      2.4166      2.0000     -0.0047    116.8241     24.4296
   400.5000     17.3018      2.4129      2.0000     -0.0047    118.9497     24.5742
   400.6000     17.3018      2.4050      2.0000     -0.0049    116.8878     24.1588
   400.7000     17.3018      2.4009      2.0000     -0.0050    113.7712     23.5856
   400.8000     17.3040      2.4094      2.0000     -0.0048    111.7891     23.1188
   400.9000     17.3040      2.4192      2.0000     -0.0046    110.6521     22.6897
   401.0000     17.3040      2.4170      2.0000     -0.0047    109.0962     22.1015
   401.1000     17.3040      2.4093      2.0000     -0.0048    107.8193     21.6813
   401.2000     17.3040      2.3971      2.0000     -0.0051    109.1692     21.7127
   401.3000     17.3030      2.3742      2.0000     -0.0055    113.4095     21.9040
   401.4000     17.3030      2.3583      2.0000     -0.0058    117.6365     22.0251
   401.5000     17.3032      2.3659      2.0000     -0.0057    120.2038     22.1692
   401.6000     17.3032      2.3846      2.0000     -0.0053    123.7759     22.3483
   401.7000     17.3032      2.3988      2.0000     -0.0050    131.0479     22.5128
   401.8000     17.3045      2.4115      2.0000     -0.0048    140.1059     22.9171
   401.9000     17.3045      2.4299      2.0000     -0.0044    146.5185     23.7919
   402.0000     17.3064      2.4462      2.0000     -0.0041    147.9479     24.8320
   402.1000     17.3064      2.4468      2.0000     -0.0041    146.4580     25.4737
   402.2000     17.3064      2.4326      2.0000     -0.0044    146.3707     25.7795
   402.3000     17.3064      2.4159      2.0000     -0.0047    147.2917     26.2286
   402.4000     17.3064      2.4059      2.0000     -0.0049    147.1313     26.7209
   402.5000     17.3053      2.4031      2.0000     -0.0049    149.4519     26.9378
   402.6000     17.3053      2.3987      2.0000     -0.0050    154.4623     26.8780
   402.7000     17.3053      2.3885      2.0000     -0.0052    155.8946     26.6813
   402.8000     17.3063      2.3799      2.0000     -0.0054    152.9897     26.3848
   402.9000     17.3063      2.3760      2.0000     -0.0055    149.6593     25.9988
   403.0000     17.3086      2.3747      2.0000     -0.0055    145.8736     25.9267
   403.1000     17.3086      2.3807      2.0000     -0.0054    142.1315     26.2985
   403.2000     17.3086      2.3957      2.0000     -0.0051    140.4593     26.4020
   403.3000     17.3095      2.4120      2.0000     -0.0048    140.8188     25.9299
   403.4000     17.3095      2.4185      2.0000     -0.0046    141.6690     25.4583
   403.5000     17.3080      2.4093      2.0000     -0.0048    141.7662     25.4997
   403.6000     17.3080      2.3896      2.0000     -0.0052    140.4414     25.7841
   403.7000     17.3080      2.3725      2.0000     -0.0056    137.4751     25.5439
   403.8000     17.3072      2.3734      2.0000     -0.0055    133.6063     24.7794
   403.9000     17.3072      2.3906      2.0000     -0.0052    130.1221     24.2695
   404.0000     17.3083      2.4046      2.0000     -0.0049    128.0205     24.2868
   404.1000     17.3083      2.4084      2.0000     -0.0048    126.7123     24.2660
   404.2000     17.3083      2.4134      2.0000     -0.0047    125.1838     23.8708
   404.3000     17.3083      2.4291      2.0000     -0.0044    123.2454     23.3056
