~Version Information
VERS.                      2.0: CWLS Log ASCII Standard - VERSION 2.0
WRAP.                       NO: One line per depth step
~Well Information Block
STRT.FT               550.0000: 
STOP.FT              1577.7500: 
STEP.FT                 0.2500: 
NULL.                -999.2500: 
COMP.          Pioneer Natural Resources: COMPANY
WELL.          Kristin 22-23 Tr: WELL
FLD.           Purgatoire River: FIELD
LOC.           2273' FNL & 2029' FWL: LOCATION
PROV.                 Colorado: PROVINCE
CNTY.               Las Animas: COUNTRY
SRVC.                Patterson: SERVICE COMPANY
DATE.          Thu Jan 20 21:18:23 2005: LOG DATE
UWI.           05 071 08259 00: UNIQUE WELL ID
~Curve Information Block
DEPT.FT            0 000 00 00: Depth
SN.Ohm-m                      : IEL Short Normal
SP.mV                         : IEL Spontaneous Potential
DIR.Ohm-m                     : IEL Induction Resistivity
GR.GAPI                       : Gamma Ray
~Parameter Information Block
~A  Depth        SN          SP         DIR          GR     
# ...
  1488.0000     61.9614    -35.3534     22.5475     38.2456
  1488.2500     63.3616    -35.1479     24.0399     40.6385
  1488.5000     62.6968    -33.7064     25.0534     46.5742
  1488.7500     60.0373    -31.0535     25.4513     51.4974
  1489.0000     55.5608    -27.3345     25.1825     57.9440
  1489.2500     49.7607    -22.8058     24.3109     60.4650
  1489.5000     43.4401    -17.7764     23.0081     62.1079
  1489.7500     37.4406    -12.5370     21.4952     63.5577
  1490.0000     32.3184     -7.3163     19.9685     69.6002
  1490.2500     28.2053     -2.2788     18.5528     76.9147
  1490.5000     24.9178      2.4514     17.2957     91.1569
  1490.7500     22.1927      6.7684     16.1898    101.0458
  1491.0000     19.8677     10.5808     15.2041    114.1798
  1491.2500     17.9171     13.8266     14.3093    121.2484
  1491.5000     16.3836     16.4895     13.4920    128.9005
  1491.7500     15.2868     18.6051     12.7527    131.9802
  1492.0000     14.5700     20.2488     12.0985    134.4608
  1492.2500     14.1103     21.5145     11.5358    135.6290
  1492.5000     13.7710     22.4920     11.0695    137.4339
  1492.7500     13.4563     23.2528     10.7037    138.2879
  1493.0000     13.1327     23.8479     10.4411    138.0972
  1493.2500     12.8124     24.3137     10.2777    136.9687
  1493.5000     12.5209     24.6802     10.2003    134.7874
  1493.7500     12.2777     24.9782     10.1871    133.9001
  1494.0000     12.0922     25.2402     10.2152    134.6343
  1494.2500     11.9620     25.4967     10.2666    136.4617
  1494.5000     11.8709     25.7704     10.3294    139.5398
  1494.7500     11.7900     26.0720     10.3929    140.6774
  1495.0000     11.6862     26.3995     10.4450    140.6732
  1495.2500     11.5342     26.7425     10.4746    140.3336
  1495.5000     11.3281     27.0892     10.4765    140.7980
  1495.7500     11.0866     27.4307     10.4541    141.9747
  1496.0000     10.8508     27.7612     10.4160    144.2161
  1496.2500     10.6721     28.0750     10.3708    145.1516
  1496.5000     10.5884     28.3631     10.3240    144.4789
  1496.7500     10.6007     28.6128     10.2773    142.6803
  1497.0000     10.6673     28.8116     10.2305    139.5148
  1497.2500     10.7311     28.9526     10.1827    138.1516
  1497.5000     10.7590     29.0388     10.1327    137.6837
  1497.7500     10.7547     29.0826     10.0775    137.7984
  1498.0000     10.7350     29.1016     10.0123    137.3145
  1498.2500     10.7007     29.1137      9.9318    136.2979
  1498.5000     10.6363     29.1336      9.8334    134.1039
  1498.7500     10.5307     29.1741      9.7189    132.5603
  1499.0000     10.3896     29.2506      9.5916    130.6997
  1499.2500     10.2301     29.3845      9.4518    130.0018
  1499.5000     10.0676     29.6009      9.2952    129.8380
  1499.7500      9.9083     29.9204      9.1153    130.2507
  1500.0000      9.7493     30.3457      8.9098    131.7515
  1500.2500      9.5843     30.8543      8.6830    133.4679
  1500.5000      9.4108     31.3994      8.4441    136.9565
  1500.7500      9.2318     31.9216      8.2023    139.5743
  1501.0000      9.0537     32.3626      7.9652    143.5901
  1501.2500      8.8847     32.6748      7.7396    146.3931
  1501.5000      8.7343     32.8235      7.5340    151.0838
  1501.7500      8.6098     32.7877      7.3580    154.5900
  1502.0000      8.5114     32.5647      7.2212    159.9347
  1502.2500      8.4333     32.1785      7.1319    162.9221
  1502.5000      8.3691     31.6834      7.0963    165.5737
  1502.7500      8.3164     31.1530      7.1189    166.1212
  1503.0000      8.2759     30.6539      7.2022    166.0243
  1503.2500      8.2464     30.2172      7.3460    165.8486
  1503.5000      8.2220     29.8240      7.5464    165.3356
  1503.7500      8.1954     29.4192      7.7955    164.2279
  1504.0000      8.1715     28.9457      8.0831    160.2493
  1504.2500      8.1873     28.3819      8.3997    155.8667
  1504.5000      8.3265     27.7601      8.7400    147.7796
  1504.7500      8.7068     27.1579      9.1040    142.4537
  1505.0000      9.4321     26.6668      9.4969    135.6809
  1505.2500     10.5305     26.3566      9.9252    131.8606
  1505.5000     11.9183     26.2517     10.3903    126.7443
  1505.7500     13.4163     26.3253     10.8802    124.0315
  1506.0000     14.8149     26.5114     11.3650    121.9507
  1506.2500     15.9532     26.7241     11.8049    121.9122
  1506.5000     16.7703     26.8769     12.1697    122.7657
  1506.7500     17.3019     26.8959     12.4570    123.2603
  1507.0000     17.6395     26.7261     12.6967    123.4473
  1507.2500     17.8823     26.3310     12.9392    123.1264
  1507.5000     18.1100     25.6913     13.2376    121.5825
  1507.7500     18.3776     24.8042     13.6348    119.5483
  1508.0000     18.7243     23.6890     14.1552    114.7068
  1508.2500     19.1812     22.3963     14.8026    110.2455
  1508.5000     19.7655     21.0155     15.5617    101.9832
  1508.7500     20.4651     19.6715     16.4029     96.0999
  1509.0000     21.2261     18.5070     17.2857     88.7970
  1509.2500     21.9560     17.6509     18.1572     86.0744
  1509.5000     22.5504     17.1867     18.9464     85.6048
  1509.7500     22.9245     17.1340     19.5640     87.0366
  1510.0000     23.0319     17.4523     19.9214     90.7219
  1510.2500     22.8637     18.0630     19.9644     94.3765
  1510.5000     22.4425     18.8780     19.6962    102.9633
  1510.7500     21.8166     19.8190     19.1677    111.2122
  1511.0000     21.0511     20.8225     18.4482    126.4555
  1511.2500     20.2102     21.8331     17.6046    137.1481
  1511.5000     19.3399     22.7963     16.6977    151.4129
  1511.7500     18.4609     23.6595     15.7821    158.7422
  1512.0000     17.5765     24.3824     14.9030    165.9467
  1512.2500     16.6918     24.9506     14.0923    168.6005
  1512.5000     15.8260     25.3834     13.3680    171.0922
  1512.7500     15.0034     25.7288     12.7374    172.9650
  1513.0000     14.2345     26.0464     12.2004    176.8077
  1513.2500     13.5111     26.3854     11.7515    179.3707
  1513.5000     12.8198     26.7677     11.3804    181.6260
  1513.7500     12.1547     27.1843     11.0723    181.7646
  1514.0000     11.5145     27.6046     10.8087    180.2173
  1514.2500     10.8900     27.9926     10.5708    178.0812
  1514.5000     10.2720     28.3222     10.3443    173.1520
  1514.7500      9.6794     28.5846     10.1229    169.0043
  1515.0000      9.1727     28.7869      9.9075    162.5428
  1515.2500      8.8281     28.9441      9.7025    158.4929
  1515.5000      8.6899     29.0704      9.5120    152.6699
  1515.7500      8.7404     29.1727      9.3374    148.7123
  1516.0000      8.9091     29.2513      9.1784    142.6540
  1516.2500      9.1100     29.3035      9.0352    138.8514
  1516.5000      9.2830     29.3295      8.9104    134.4566
  1516.7500      9.4110     29.3371      8.8097    132.9142
  1517.0000      9.5051     29.3402      8.7403    132.5385
  1517.2500      9.5811     29.3551      8.7093    132.7377
  1517.5000      9.6472     29.3926      8.7212    132.1097
  1517.7500      9.7077     29.4513      8.7778    130.8338
  1518.0000      9.7689     29.5158      8.8762    128.4582
  1518.2500      9.8409     29.5607      9.0093    127.1216
  1518.5000      9.9353     29.5600      9.1668    125.6478
  1518.7500     10.0631     29.4964      9.3384    124.7749
  1519.0000     10.2301     29.3664      9.5180    123.5100
  1519.2500     10.4334     29.1769      9.7047    123.0389
  1519.5000     10.6608     28.9378      9.9026    123.5879
  1519.7500     10.8996     28.6542     10.1186    124.6753
  1520.0000     11.1449     28.3237     10.3605    126.0567
  1520.2500     11.4041     27.9386     10.6362    125.8619
  1520.5000     11.6931     27.4906     10.9524    123.0783
  1520.7500     12.0290     26.9745     11.3153    119.7867
  1521.0000     12.4217     26.3876     11.7300    113.9772
  1521.2500     12.8730     25.7284     12.2015    110.3374
