~Version Information
VERS.                      2.0: CWLS Log ASCII Standard - VERSION 2.0
WRAP.                       NO: One line per depth step
~Well Information Block
STRT.FT               454.0000: 
STOP.FT              1392.0000: 
STEP.FT                 0.2500: 
NULL.                -999.2500: 
COMP.          Pioneer Natural Resources: COMPANY
WELL.          Lorencito 6-3-34-66: WELL
FLD.           Purgatoire River: FIELD
LOC.           2545' FNL & 1914' FWL: LOCATION
STAT.                 Colorado: State
CNTY.               Las Animas: COUNTY
CTRY. USA : Country
SECT. 3 : Section
TOWN. 34S : Township
RANG. 66W : Range
SRVC.                Patterson: SERVICE COMPANY
DATE.          Fri Sep 09 22:07:39 2005: LOG DATE
API.           05 071 08369 00: UNIQUE WELL ID
~Curve Information Block
DEPT.FT            0 000 00 00: Depth
SN.Ohm-m                      : IEL Short Normal
SP.mV                         : IEL Spontaneous Potential
DIR.Ohm-m                     : IEL Induction Resistivity
GR.GAPI                       : Gamma Ray
~Parameter Information Block
~A  Depth        SN          SP         DIR          GR     
# ...
  1191.0000     43.7334    -16.4797     37.5925     55.7631
  1191.2500     43.2505    -16.1300     36.7922     54.0879
  1191.5000     42.8305    -15.7052     35.9191     51.6426
  1191.7500     42.3912    -15.2480     34.8190     50.5989
  1192.0000     41.8281    -14.7875     33.3839     49.6607
  1192.2500     41.0570    -14.2957     31.5926     48.8873
  1192.5000     40.0340    -13.7163     29.5308     47.1732
  1192.7500     38.7503    -13.0339     27.3542     46.2103
  1193.0000     37.2110    -12.2991     25.2313     46.5646
  1193.2500     35.4189    -11.5881     23.2899     48.6614
  1193.5000     33.3854    -10.9544     21.5996     55.0277
  1193.7500     31.1635    -10.4254     20.1780     61.4060
  1194.0000     28.8701    -10.0242     19.0071     73.6992
  1194.2500     26.6632     -9.7777     18.0487     82.9675
  1194.5000     24.6791     -9.7057     17.2583     96.3435
  1194.7500     22.9710     -9.8072     16.5911    103.5190
  1195.0000     21.4988    -10.0557     16.0076    110.1455
  1195.2500     20.1836    -10.4063     15.4755    111.8701
  1195.5000     18.9879    -10.8047     14.9719    112.0561
  1195.7500     17.9598    -11.1931     14.4846    111.7813
  1196.0000     17.2007    -11.5123     14.0135    111.7534
  1196.2500     16.7824    -11.7131     13.5699    111.6296
  1196.5000     16.6785    -11.7797     13.1724    109.9385
  1196.7500     16.7596    -11.7464     12.8427    107.4436
  1197.0000     16.8437    -11.6754     12.6004    102.6355
  1197.2500     16.7703    -11.6020     12.4589     99.8975
  1197.5000     16.4721    -11.4997     12.4235     97.9103
  1197.7500     16.0255    -11.3183     12.4917     97.8823
  1198.0000     15.6419    -11.0564     12.6525     98.5736
  1198.2500     15.5786    -10.7704     12.8885     98.9888
  1198.5000     16.0021    -10.5027     13.1780     99.3611
  1198.7500     16.8969    -10.2307     13.4969     99.3824
  1199.0000     18.0892     -9.9084     13.8220     98.6322
  1199.2500     19.3561     -9.5248     14.1333     97.4479
  1199.5000     20.5259     -9.1020     14.4167     94.9938
  1199.7500     21.4979     -8.6616     14.6657     93.2615
  1200.0000     22.2066     -8.2128     14.8834     90.8628
  1200.2500     22.6021     -7.7487     15.0820     89.5291
  1200.5000     22.6872     -7.2394     15.2835     88.2392
  1200.7500     22.5711     -6.6450     15.5152     87.8085
  1201.0000     22.4684     -5.9498     15.8069     86.9495
  1201.2500     22.6180     -5.1872     16.1866     85.6983
  1201.5000     23.1709     -4.4390     16.6769     82.9288
  1201.7500     24.1379     -3.8156     17.2923     81.0865
  1202.0000     25.4325     -3.4147     18.0379     78.9556
  1202.2500     26.9668     -3.2762     18.9093     77.6311
  1202.5000     28.7180     -3.3795     19.8947     74.5367
  1202.7500     30.7241     -3.6805     20.9758     71.1904
  1203.0000     33.0344     -4.1195     22.1292     64.2736
  1203.2500     35.6625     -4.5782     23.3243     58.9194
  1203.5000     38.5602     -4.8699     24.5198     51.0241
  1203.7500     41.6139     -4.8295     25.6617     46.4830
  1204.0000     44.6559     -4.4331     26.6827     41.1996
  1204.2500     47.4909     -3.8177     27.5095     38.4231
  1204.5000     49.9341     -3.1748     28.0772     34.2421
  1204.7500     51.8389     -2.6275     28.3433     30.8799
  1205.0000     53.1113     -2.1940     28.2951     25.0082
  1205.2500     53.7132     -1.8324     27.9490     21.1399
  1205.5000     53.6624     -1.4966     27.3363     16.7306
  1205.7500     53.0161     -1.1577     26.4943     15.3268
  1206.0000     51.8357     -0.7984     25.4567     16.1458
  1206.2500     50.1467     -0.4092     24.2611     18.8771
  1206.5000     47.9243      0.0071     22.9516     26.6421
  1206.7500     45.1281      0.4354     21.5831     34.4152
  1207.0000     41.7754      0.8537     20.2181     49.5327
  1207.2500     38.0095      1.2328     18.9186     60.9352
  1207.5000     34.1039      1.5291     17.7363     77.2609
  1207.7500     30.3905      1.6828     16.7059     86.0266
  1208.0000     27.1511      1.6323     15.8449     94.6224
  1208.2500     24.5388      1.3323     15.1550     97.4845
  1208.5000     22.5652      0.7709     14.6256     98.6447
  1208.7500     21.1439     -0.0105     14.2373     97.9806
  1209.0000     20.1609     -0.9026     13.9649     95.4947
  1209.2500     19.5382     -1.7449     13.7818     93.1054
  1209.5000     19.2602     -2.3754     13.6628     88.9120
  1209.7500     19.3481     -2.6970     13.5890     85.9177
  1210.0000     19.7987     -2.7300     13.5500     81.1173
  1210.2500     20.5325     -2.6030     13.5449     77.7157
  1210.5000     21.3926     -2.4650     13.5789     73.1439
  1210.7500     22.1953     -2.3965     13.6589     71.4636
  1211.0000     22.7974     -2.4066     13.7868     72.4886
  1211.2500     23.1386     -2.4857     13.9555     75.4364
  1211.5000     23.2403     -2.6303     14.1461     81.0997
  1211.7500     23.1715     -2.8270     14.3289     83.9859
  1212.0000     23.0094     -3.0355     14.4691     84.9495
  1212.2500     22.8142     -3.1793     14.5360     83.0627
  1212.5000     22.6226     -3.1544     14.5125     77.1180
  1212.7500     22.4528     -2.8831     14.4004     71.9745
  1213.0000     22.3037     -2.3831     14.2204     64.9282
  1213.2500     22.1492     -1.7650     14.0053     62.3657
  1213.5000     21.9404     -1.1568     13.7892     63.5168
  1213.7500     21.6292     -0.6435     13.6008     67.3296
  1214.0000     21.1974     -0.2541     13.4578     75.4732
  1214.2500     20.6683      0.0362     13.3673     81.2437
  1214.5000     20.0944      0.2772     13.3260     88.9857
  1214.7500     19.5445      0.4913     13.3231     92.9248
  1215.0000     19.1033      0.6579     13.3424     96.0961
  1215.2500     18.8653      0.7518     13.3640     96.1793
  1215.5000     18.8988      0.7784     13.3675     93.6265
  1215.7500     19.1921      0.7655     13.3342     90.5354
  1216.0000     19.6340      0.7333     13.2526     84.5145
  1216.2500     20.0644      0.6818     13.1217     80.1452
  1216.5000     20.3570      0.6120     12.9524     74.3565
  1216.7500     20.4677      0.5442     12.7650     71.6686
  1217.0000     20.4160      0.5002     12.5834     69.9483
  1217.2500     20.2340      0.4793     12.4283     70.3755
  1217.5000     19.9398      0.4706     12.3122     73.0182
  1217.7500     19.5521      0.4830     12.2374     75.5791
  1218.0000     19.1199      0.5480     12.1972     79.1132
  1218.2500     18.7224      0.6934     12.1788     80.2708
  1218.5000     18.4200      0.9241     12.1676     79.1289
  1218.7500     18.2049      1.2254     12.1523     76.6385
  1219.0000     18.0022      1.5697     12.1269     72.2335
  1219.2500     17.7325      1.9146     12.0928     70.4008
  1219.5000     17.3819      2.2025     12.0587     71.1000
  1219.7500     17.0258      2.3753     12.0381     73.8602
  1220.0000     16.8015      2.3932     12.0467     80.0027
  1220.2500     16.8571      2.2467     12.0992     84.3202
  1220.5000     17.2886      1.9608     12.2052     89.3394
  1220.7500     18.0824      1.5868     12.3657     90.7361
  1221.0000     19.1053      1.1803     12.5703     88.4361
  1221.2500     20.1766      0.7794     12.7955     83.6123
  1221.5000     21.1747      0.4041     13.0074     72.5575
  1221.7500     22.0874      0.0752     13.1678     64.2647
  1222.0000     22.9613     -0.1678     13.2440     53.4346
  1222.2500     23.8068     -0.2762     13.2190     48.3410
  1222.5000     24.5482     -0.2337     13.0960     44.3895
  1222.7500     25.0475     -0.0960     12.8952     44.2510
  1223.0000     25.1702      0.0230     12.6442     48.0424
  1223.2500     24.8412      0.0246     12.3678     53.2995
  1223.5000     24.0751     -0.1026     12.0818     64.3934
  1223.7500     22.9812     -0.2776     11.7918     72.6552
  1224.0000     21.7358     -0.3957     11.4957     83.6769
  1224.2500     20.5187     -0.4085     11.1894     89.0865
