~Version Information
 VERS.                                  2.0 : CWLS LAS VERSION
 WRAP.                                   NO : WRAPING MODE
 SWARE .                 MController 2.5.0J : SOFTWARE VERSION
~Well Information
 WELL.                         Hill 33-22Tr : WELL
 COMP.    Pioneer Natural Resources USA Inc : COMPANY
 FLD.                      Purgatoire River : FIELD
 LOC.                 NW/SE Sec22 T32S R66W : LOCATION
 DATE.                           4/13-14/05 : DATE(S) LOGGED
 SRVC.       Blanco Geological Services LLC : SERVICE COMPANY
 STAT.                                   CO : STATE
 CNTY.                           Las Animas : COUNTY
 CTRY.                                  USA : COUNTRY
 API.                       05-071-08316-00 : API NUMBER
 STRT.FT                             642.00 : START DEPTH
 STOP.FT                            1810.00 : STOP DEPTH
 STEP.FT                               1.00 : DEPTH INCREMENT
 NULL.                                -9999 : NULL VALUE
~Curve information
 DEPTH.FT                                   :
 ROP.MIN/FT                                 :
 GAS.UNITS                                  :
~ASCII Log data
# ...
      1442.0         1.13        440.0 
      1443.0         0.50        180.9 
      1444.0         0.43        169.9 
      1445.0         0.37        154.2 
      1446.0         0.23        136.6 
      1447.0         0.35        125.3 
      1448.0         0.23        125.3 
      1449.0         0.17        125.1 
      1450.0         0.17        122.1 
      1451.0         0.17        122.1 
      1452.0         0.17        121.4 
      1453.0         0.23        120.4 
      1454.0         0.20        118.5 
      1455.0         0.20        115.4 
      1456.0         0.20        137.5 
      1457.0         0.17        161.2 
      1458.0         0.20        161.2 
      1459.0         0.20        172.2 
      1460.0         0.23        171.6 
      1461.0         0.33        165.7 
      1462.0         0.38        157.3 
      1463.0         0.33        111.9 
      1464.0         0.27         91.3 
      1465.0         0.27         88.7 
      1466.0         3.28       1140.9 
      1467.0         0.10        843.2 
      1468.0         0.17        822.0 
      1469.0         0.33        726.4 
      1470.0         0.43        604.1 
      1471.0         0.40        476.2 
      1472.0         0.23        457.5 
      1473.0         0.23        478.8 
      1474.0         0.20        484.7 
      1475.0         0.20        470.9 
      1476.0         0.15        470.9 
      1477.0         0.33        467.7 
      1478.0         0.33        447.0 
      1479.0         0.30        440.0 
      1480.0         0.27        153.9 
      1481.0         0.30        152.6 
      1482.0         0.27        145.6 
      1483.0         0.30        141.3 
      1484.0         0.33        133.6 
      1485.0         0.30        126.6 
      1486.0         0.30        122.4 
      1487.0         0.28        100.5 
      1488.0         0.23        116.9 
      1489.0         0.27        158.5 
      1490.0         0.23        185.7 
      1491.0         0.20        189.6 
      1492.0         0.20        166.9 
      1493.0         0.30        127.0 
      1494.0         0.27        108.5 
      1495.0         0.30        106.6 
      1496.0         3.52       1302.2 
      1497.0         0.23        926.0 
      1498.0         0.10        827.2 
      1499.0         0.33        814.4 
      1500.0         0.40        607.7 
      1501.0         0.38        486.6 
      1502.0         0.33        503.0 
      1503.0         0.27        514.4 
      1504.0         0.33        513.5 
      1505.0         0.27        490.2 
      1506.0         0.30        476.5 
      1507.0         0.27        448.4 
      1508.0         0.27        173.2 
      1509.0         0.27        172.1 
      1510.0         0.27        155.6 
      1511.0         0.33        146.4 
      1512.0         0.28        139.0 
      1513.0         0.23        121.2 
      1514.0         0.30        130.8 
      1515.0         0.20        138.0 
      1516.0         0.17        147.8 
      1517.0         0.27        150.2 
      1518.0         0.30        150.2 
      1519.0         0.47        143.4 
      1520.0         0.40        139.0 
      1521.0         0.33        122.4 
      1522.0         0.33         95.7 
      1523.0         0.32         80.5 
      1524.0         0.23         80.5 
      1525.0         0.40         97.3 
      1526.0         3.32       1470.7 
      1527.0         0.10        763.1 
      1528.0         0.13        763.1 
      1529.0         0.13        744.7 
      1530.0         0.10        707.1 
      1531.0         0.33        664.9 
      1532.0         0.43        573.6 
      1533.0         0.37        440.0 
      1534.0         0.23        440.0 
      1535.0         0.23        180.4 
      1536.0         0.20        180.7 
      1537.0         0.20        180.7 
      1538.0         0.22        178.2 
      1539.0         0.27        180.6 
      1540.0         0.23        181.5 
      1541.0         0.57        179.5 
      1542.0         0.27        169.4 
      1543.0         0.23        162.9 
      1544.0         0.27        159.4 
      1545.0         0.27        150.9 
      1546.0         0.27        143.5 
      1547.0         0.23        140.0 
      1548.0         0.30        134.4 
      1549.0         0.42        131.4 
      1550.0         0.40        125.8 
      1551.0         0.37        121.8 
      1552.0         0.33        111.2 
      1553.0         0.30         66.9 
      1554.0         0.27         65.5 
      1555.0         0.47         83.7 
      1556.0         2.72       1086.6 
      1557.0         0.40        944.6 
      1558.0         0.27        837.7 
      1559.0         0.10        730.7 
      1560.0         0.37        705.2 
      1561.0         0.27        623.7 
      1562.0         0.30        554.0 
      1563.0         0.25        450.6 
      1564.0         0.17        447.4 
      1565.0         0.23        451.3 
      1566.0         0.20        471.9 
      1567.0         0.13        493.8 
      1568.0         0.33        496.4 
      1569.0         0.23        481.7 
      1570.0         0.17        481.7 
      1571.0         0.10        464.1 
      1572.0         0.23        441.5 
      1573.0         0.27        440.0 
      1574.0         0.33        159.6 
      1575.0         0.27        145.5 
      1576.0         0.33        143.5 
      1577.0         0.25        131.2 
      1578.0         0.27        129.4 
      1579.0         0.27        134.0 
      1580.0         0.27        138.7 
      1581.0         0.17        141.3 
      1582.0         0.27        134.9 
      1583.0         0.37        122.4 
      1584.0         0.33        114.4 
      1585.0         0.23         88.5 
      1586.0         3.25        468.7 
      1587.0         1.52        458.6 
      1588.0         0.60        183.5 
      1589.0         0.67        192.2 
      1590.0         0.60        195.0 
      1591.0         0.57        175.2 
      1592.0         0.62        148.6 
      1593.0         0.83        147.7 
      1594.0         1.20        138.0 
      1595.0         0.63        122.3 
      1596.0         0.43        120.3 
      1597.0         0.52        118.1 
      1598.0         0.47        118.8 
      1599.0         0.53        107.7 
      1600.0         0.30        117.9 
      1601.0         0.37        122.9 
      1602.0         0.43        123.8 
      1603.0         0.33        123.6 
      1604.0         0.40        121.0 
      1605.0         0.42        120.6 
      1606.0         0.40        121.6 
      1607.0         0.47        121.1 
      1608.0         0.47        119.8 
      1609.0         0.47        124.3 
      1610.0         0.43        130.6 
      1611.0         0.23         85.6 
      1612.0         0.23         76.7 
      1613.0         0.23         80.3 
      1614.0         0.18         80.3 
      1615.0         0.43         93.8 
      1616.0         2.60       1349.3 
      1617.0         0.42        934.5 
      1618.0         0.13        801.7 
      1619.0         0.20        726.1 
      1620.0         0.40        687.8 
      1621.0         0.33        554.3 
      1622.0         0.30        463.7 
      1623.0         0.27        471.6 
      1624.0         0.23        482.7 
      1625.0         0.30        477.5 
      1626.0         0.30        466.7 
      1627.0         0.33        449.0 
      1628.0         0.38        440.0 
      1629.0         0.37        159.8 
      1630.0         0.30        136.1 
      1631.0         0.27        131.2 
      1632.0         0.27        127.9 
      1633.0         0.17        127.2 
      1634.0         0.27        122.9 
      1635.0         0.37        118.9 
      1636.0         0.35        118.2 
      1637.0         0.43        117.6 
      1638.0         0.47        112.1 
      1639.0         0.30        106.6 
      1640.0         0.43        103.5 
      1641.0         0.23         92.3 
