~Version Information
VERS.                      2.0: CWLS Log ASCII Standard - VERSION 2.0
WRAP.                       NO: One line per depth step
~Well Information Block
STRT.FT               234.0000: 
STOP.FT              1773.2000: 
STEP.FT                 0.1000: 
NULL.                -999.2500: 
COMP.          Pioneer Natural Resources: COMPANY
WELL.             Tami J 23-18: WELL
FLD.           Purgatorie River: FIELD
LOC.           2250' FSL & 2400' FWL: LOCATION
PROV.                 Colorado: PROVINCE
CNTY.               Las Animas: COUNTRY
SRVC.                         : SERVICE COMPANY
DATE.          Mon Dec 13 07:02:50 2004: LOG DATE
UWI.           05 071 08073 00: UNIQUE WELL ID
~Curve Information Block
DEPT.FT            0 000 00 00: Depth
LTEN.lb                       : Surface Line Tension
DCAL.in                       : CDL Caliper
RHOB.g/cc                     : CDL Bulk Density
RHOC.g/cc                     : CDL Density Correction
DPOR.pu                       : CDL Density Porosity
GR.GAPI                       : Gamma Ray
NPOR.pu                       : Neutron Porosity
~Parameter Information Block
~A  Depth       LTEN        DCAL        RHOB        RHOC        DPOR         GR         NPOR    
# ...
   536.4000    808.0115      7.9385      2.5731     -0.0237      4.6612    119.3808     26.3311
   536.5000    814.6455      7.9394      2.5896      0.0491      3.6631    120.7389     25.7925
   536.6000    814.6455      7.9394      2.5834     -0.0231      4.0386    121.8262     25.3009
   536.7000    814.6455      7.9394      2.5657     -0.0271      5.1099    118.9323     25.3856
   536.8000    857.0551      7.9402      2.5527     -0.0172      5.8964    114.9624     25.8884
   536.9000    857.0551      7.9402      2.5494     -0.0314      6.0995    111.2995     26.2007
   537.0000    756.9996      7.9363      2.5537      0.0257      5.8380    107.7765     25.9598
   537.1000    756.9996      7.9363      2.5546      0.0164      5.7832    107.9806     25.3363
   537.2000    756.9996      7.9363      2.5465      0.0133      6.2719    111.6757     24.7882
   537.3000    778.5184      7.9318      2.5358      0.0094      6.9229    115.4052     24.4530
   537.4000    778.5184      7.9318      2.5313      0.0199      7.1966    116.8094     24.1649
   537.5000    845.1782      7.9262      2.5362      0.0480      6.8999    114.0261     23.9036
   537.6000    845.1782      7.9262      2.5489      0.0225      6.1254    109.3249     23.7743
   537.7000    845.1782      7.9262      2.5688      0.0423      4.9230    106.2819     23.8352
   537.8000    822.5565      7.9227      2.5921      0.0232      3.5103    105.0097     23.9057
   537.9000    822.5565      7.9227      2.6099      0.0760      2.4323    105.0308     23.6136
   538.0000    827.2386      7.9270      2.6157      0.0587      2.0794    105.7144     23.0658
   538.1000    827.2386      7.9270      2.6152      0.0787      2.1117    102.4143     22.6200
   538.2000    827.2386      7.9270      2.6119      0.0690      2.3078     93.6873     22.2814
   538.3000    788.4695      7.9327      2.6025      0.0541      2.8790     88.2089     21.9998
   538.4000    788.4695      7.9327      2.5906      0.0387      3.5977     91.4177     21.7180
   538.5000    793.0493      7.9361      2.5815      0.0232      4.1506     97.5297     21.3417
   538.6000    793.0493      7.9361      2.5708      0.0397      4.8030     99.1254     21.0085
   538.7000    793.0493      7.9361      2.5542      0.0320      5.8046     95.4633     20.8811
   538.8000    814.5707      7.9399      2.5375     -0.0051      6.8166     89.6586     20.8400
   538.9000    814.5707      7.9399      2.5298     -0.0316      7.2864     83.7032     20.6414
   539.0000    816.3976      7.9462      2.5328     -0.0004      7.1006     78.9919     20.3482
   539.1000    816.3976      7.9462      2.5371      0.0113      6.8413     78.9844     20.2788
   539.2000    816.3976      7.9462      2.5321     -0.0001      7.1464     84.0385     20.4969
   539.3000    811.6164      7.9518      2.5213     -0.0057      7.8006     87.5095     20.9229
   539.4000    811.6164      7.9518      2.5134      0.0033      8.2774     85.1808     21.3618
   539.5000    801.7438      7.9523      2.5119      0.0141      8.3692     81.0013     21.5833
   539.6000    801.7438      7.9523      2.5199      0.0043      7.8875     80.3555     21.7306
   539.7000    801.7438      7.9523      2.5344      0.0461      7.0087     83.4562     21.9487
   539.8000    828.1972      7.9515      2.5425      0.0418      6.5174     88.2844     21.9461
   539.9000    828.1972      7.9515      2.5351      0.0219      6.9628     92.3154     21.5211
   540.0000    811.8519      7.9463      2.5209      0.0011      7.8252     92.6597     20.9229
   540.1000    811.8519      7.9463      2.5121     -0.0091      8.3558     90.2211     20.4840
   540.2000    811.8519      7.9463      2.5038      0.0067      8.8616     88.4619     20.2518
   540.3000    830.3255      7.9391      2.4872      0.0178      9.8651     91.1398     20.1570
   540.4000    830.3255      7.9391      2.4698     -0.0165     10.9193     97.3471     20.1295
   540.5000    834.6851      7.9343      2.4655      0.0056     11.1789     99.4417     19.9503
   540.6000    834.6851      7.9343      2.4725      0.0317     10.7562     94.8407     19.4417
   540.7000    834.6851      7.9343      2.4800      0.0119     10.3001     88.1511     18.7542
   540.8000    822.2358      7.9306      2.4848      0.0449     10.0123     83.3882     18.2315
   540.9000    822.2358      7.9306      2.4847      0.0236     10.0192     81.6866     18.0283
   541.0000    828.4342      7.9277      2.4760      0.0569     10.5455     80.3447     18.1634
   541.1000    828.4342      7.9277      2.4598      0.0502     11.5243     77.9753     18.6422
   541.2000    828.4342      7.9277      2.4482      0.0090     12.2319     77.4955     19.2520
   541.3000    813.6460      7.9321      2.4538      0.0066     11.8937     78.5612     19.8221
   541.4000    813.6460      7.9321      2.4749      0.0132     10.6099     77.2218     20.3258
   541.5000    812.1931      7.9423      2.4975      0.0698      9.2407     74.4391     20.5294
   541.6000    812.1931      7.9423      2.5088      0.0562      8.5556     73.6289     20.2676
   541.7000    812.1931      7.9423      2.5066      0.0800      8.6901     74.1902     19.9485
   541.8000    825.0690      7.9500      2.5011      0.0452      9.0261     73.6587     19.7324
   541.9000    825.0690      7.9500      2.5074      0.0542      8.6424     71.4651     19.3438
   542.0000    819.9946      7.9526      2.5220      0.0770      7.7573     69.4691     19.1015
   542.1000    819.9946      7.9526      2.5302      0.0977      7.2591     70.1950     19.4073
   542.2000    819.9946      7.9526      2.5312      0.0969      7.1990     74.0312     19.9263
   542.3000    806.2165      7.9528      2.5264      0.1395      7.4905     79.3697     20.1356
   542.4000    806.2165      7.9528      2.5070      0.0980      8.6666     83.5556     20.0541
   542.5000    806.0276      7.9469      2.4718      0.0534     10.7984     83.4217     19.8646
   542.6000    806.0276      7.9469      2.4349      0.0390     13.0336     80.6004     19.5672
   542.7000    806.0276      7.9469      2.4135      0.0488     14.3349     79.0280     19.2655
   542.8000    819.6491      7.9417      2.4089      0.0881     14.6111     76.8956     19.0390
   542.9000    819.6491      7.9417      2.4189      0.0145     14.0068     72.7797     18.8227
   543.0000    860.6843      7.9412      2.4478      0.0723     12.2520     71.3669     18.6822
   543.1000    860.6843      7.9412      2.4815      0.1643     10.2131     74.5074     18.7207
   543.2000    860.6843      7.9412      2.5001      0.1433      9.0877     79.5970     18.6885
   543.3000    827.5980      7.9326      2.5039      0.1696      8.8539     85.4996     18.5782
   543.4000    827.5980      7.9326      2.4974      0.1341      9.2458     88.7158     18.9003
   543.5000    814.0479      7.9114      2.4849      0.1283     10.0060     85.9023     19.6499
   543.6000    814.0479      7.9114      2.4785      0.1110     10.3924     79.4395     20.3040
   543.7000    814.0479      7.9114      2.4920      0.0999      9.5744     73.4080     20.6931
   543.8000    803.0737      7.9018      2.5251      0.0871      7.5668     68.8533     21.0049
   543.9000    803.0737      7.9018      2.5595      0.1207      5.4865     66.0306     21.3186
   544.0000    840.6906      7.9129      2.5767      0.0811      4.4425     64.3972     21.4301
   544.1000    840.6906      7.9129      2.5779      0.0588      4.3694     64.0017     21.1834
   544.2000    840.6906      7.9129      2.5724      0.0499      4.7010     65.9289     20.8278
   544.3000    840.4951      7.9220      2.5648      0.0226      5.1629     69.0342     20.5803
   544.4000    840.4951      7.9220      2.5568      0.0440      5.6489     72.6784     20.3951
   544.5000    798.6864      7.9136      2.5492      0.0036      6.1091     74.6951     20.2032
   544.6000    798.6864      7.9136      2.5414     -0.0312      6.5832     70.7203     19.9051
   544.7000    798.6864      7.9136      2.5255      0.0114      7.5447     63.5606     19.5038
