~Version Information
VERS.                      2.0: CWLS Log ASCII Standard - VERSION 2.0
WRAP.                       NO: One line per depth step
~Well Information Block
STRT.FT               250.0000: 
STOP.FT              2600.7000: 
STEP.FT                 0.1000: 
NULL.                -999.2500: 
COMP.          Pioneer Natural Resources: COMPANY
WELL.              Quack 22-24: WELL
FLD.           Purgatoire River: FIELD
LOC.           2492' FNL & 2459' FWL--: LOCATION
PROV.                 Colorado: PROVINCE
CNTY.               Las Animas: COUNTRY
SRVC.                Patterson: SERVICE COMPANY
DATE.          Mon Jun 13 08:03:15 2005: LOG DATE
UWI.            05 071 0840200: UNIQUE WELL ID
~Curve Information Block
DEPT.FT            0 000 00 00: Depth
DCAL.in                       : CDL Caliper
RHOB.g/cc                     : CDL Bulk Density
RHOC.g/cc                     : CDL Density Correction
DPOR.pu                       : CDL Density Porosity
NPOR.pu                       : Neutron Porosity
GR.GAPI                       : Gamma Ray
~Parameter Information Block
~A  Depth       DCAL        RHOB        RHOC        DPOR        NPOR         GR     
# ...
  2112.4000      7.9283      2.5192      0.0856      7.9266     22.7470     71.9999
  2112.5000      7.9198      2.5205      0.0819      7.8507     22.4007     76.6722
  2112.6000      7.9198      2.5205      0.0852      7.8455     21.7594     80.4599
  2112.7000      7.9198      2.5322      0.1340      7.1374     21.7957     86.6937
  2112.8000      7.9177      2.5548      0.1094      5.7714     22.0159     93.6049
  2112.9000      7.9177      2.5874      0.1103      3.7955     21.4976     93.2258
  2113.0000      7.9194      2.6229      0.1465      1.6397     20.9011     87.4454
  2113.1000      7.9194      2.6392      0.1471      0.6551     21.2455     84.7094
  2113.2000      7.9194      2.6355      0.0811      0.8790     22.2792     86.0449
  2113.3000      7.9204      2.6314      0.0994      1.1280     23.0357     89.9352
  2113.4000      7.9204      2.6241      0.0995      1.5691     23.0236     95.4838
  2113.5000      7.9214      2.6019      0.0845      2.9134     22.6747     97.1098
  2113.6000      7.9214      2.5721      0.0701      4.7235     22.8041     94.4168
  2113.7000      7.9214      2.5452      0.0581      6.3504     23.4894     97.5372
  2113.8000      7.9250      2.5265      0.0262      7.4842     23.9958    110.0439
  2113.9000      7.9250      2.5255      0.0029      7.5457     23.9670    120.1241
  2114.0000      7.9272      2.5454      0.0276      6.3424     23.6369    118.4946
  2114.1000      7.9272      2.5697      0.0809      4.8664     23.2539    114.4503
  2114.2000      7.9272      2.5769      0.0975      4.4292     22.9707    116.8472
  2114.3000      7.9263      2.5627      0.0570      5.2938     22.7550    121.7379
  2114.4000      7.9263      2.5394      0.0609      6.7018     22.4423    126.8168
  2114.5000      7.9256      2.5232      0.0298      7.6820     22.2948    132.0834
  2114.6000      7.9256      2.5250      0.0635      7.5785     22.6472    135.9758
  2114.7000      7.9256      2.5364      0.0867      6.8843     23.1672    140.0233
  2114.8000      7.9282      2.5475      0.0888      6.2105     23.4150    145.8262
  2114.9000      7.9282      2.5594      0.0988      5.4936     23.3222    153.2262
  2115.0000      7.9351      2.5676      0.0955      4.9919     23.1634    160.0343
  2115.1000      7.9351      2.5675      0.0819      4.9972     23.5150    162.8578
  2115.2000      7.9351      2.5639      0.0447      5.2189     24.1393    158.6961
  2115.3000      7.9405      2.5548      0.1002      5.7684     24.1028    146.5064
  2115.4000      7.9405      2.5303      0.0870      7.2543     23.6427    131.2061
  2115.5000      7.9424      2.4996      0.0442      9.1178     23.5162    123.0047
  2115.6000      7.9424      2.4887      0.0454      9.7758     23.3328    124.9719
  2115.7000      7.9424      2.5048      0.0509      8.7977     22.8219    132.9278
  2115.8000      7.9454      2.5330      0.0672      7.0880     22.6224    139.3488
  2115.9000      7.9454      2.5655      0.0724      5.1226     22.8676    136.7372
  2116.0000      7.9487      2.5989      0.1070      3.0947     22.9921    130.2798
  2116.1000      7.9487      2.6133      0.1459      2.2261     22.7654    127.1908
  2116.2000      7.9487      2.5991      0.0919      3.0859     22.4099    121.8325
  2116.3000      7.9510      2.5832      0.0828      4.0498     22.1433    112.9489
  2116.4000      7.9510      2.5903      0.1002      3.6210     22.2294    108.9810
  2116.5000      7.9558      2.6166      0.1214      2.0221     22.7804    113.8304
  2116.6000      7.9558      2.6421      0.1721      0.4813     23.5260    120.4263
  2116.7000      7.9558      2.6540      0.1341     -0.2432     24.0750    123.2744
  2116.8000      7.9691      2.6584      0.1134     -0.5115     23.8796    129.2526
  2116.9000      7.9691      2.6603      0.1106     -0.6262     23.2260    137.9897
  2117.0000      7.9862      2.6540      0.0953     -0.2436     22.9761    139.9879
  2117.1000      7.9862      2.6336      0.1039      0.9939     22.7118    135.7520
  2117.2000      7.9862      2.6055      0.0566      2.6965     21.7481    128.3342
  2117.3000      7.9963      2.5848      0.0701      3.9529     20.7978    119.2244
  2117.4000      7.9963      2.5727      0.0872      4.6821     20.8438    113.8058
  2117.5000      7.9989      2.5631      0.0313      5.2648     21.6406    115.8301
  2117.6000      7.9989      2.5607      0.0286      5.4120     22.1275    124.6053
  2117.7000      7.9989      2.5679      0.0447      4.9770     21.8385    136.6955
  2117.8000      7.9984      2.5786      0.0466      4.3285     21.2817    144.5103
  2117.9000      7.9984      2.5854      0.0557      3.9147     21.0926    143.8227
  2118.0000      7.9973      2.5808      0.0693      4.1912     21.6100    139.3465
  2118.1000      7.9973      2.5666      0.0137      5.0563     22.4209    137.7120
  2118.2000      7.9973      2.5517      0.0499      5.9562     22.6522    137.2431
  2118.3000      7.9956      2.5393      0.0407      6.7090     22.4349    131.6707
  2118.4000      7.9956      2.5358      0.0561      6.9187     22.4650    122.4386
  2118.5000      7.9945      2.5516      0.0402      5.9649     22.5995    118.1927
  2118.6000      7.9945      2.5748      0.0987      4.5561     22.5491    121.2123
  2118.7000      7.9945      2.5822      0.0609      4.1080     22.5160    123.9996
  2118.8000      7.9961      2.5768      0.0790      4.4378     22.4885    122.0078
  2118.9000      7.9961      2.5794      0.0474      4.2774     22.4362    119.2883
  2119.0000      7.9977      2.5966      0.0901      3.2386     22.6012    123.5794
  2119.1000      7.9977      2.6134      0.0745      2.2162     22.9547    134.2582
  2119.2000      7.9977      2.6186      0.0751      1.9056     22.7904    140.0706
  2119.3000      7.9976      2.6140      0.0373      2.1805     21.6947    136.5756
  2119.4000      7.9976      2.5951      0.1015      3.3257     20.6489    131.2013
  2119.5000      7.9989      2.5565      0.0270      5.6652     20.6692    126.6690
  2119.6000      7.9989      2.5252     -0.0283      7.5657     21.2725    124.0695
  2119.7000      7.9989      2.5360     -0.0182      6.9063     21.5453    126.1843
  2119.8000      8.0017      2.5787      0.0975      4.3217     21.5068    129.6766
  2119.9000      8.0017      2.6077      0.1077      2.5664     21.6211    132.0706
  2120.0000      8.0025      2.6053      0.0600      2.7084     21.4917    138.4360
  2120.1000      8.0025      2.5938      0.0681      3.4081     20.5914    147.8317
  2120.2000      8.0025      2.5892      0.0752      3.6877     19.6196    149.4764
  2120.3000      8.0017      2.5835      0.0868      4.0316     19.5222    139.3500
  2120.4000      8.0017      2.5719      0.0652      4.7317     20.1675    127.0072
  2120.5000      7.9992      2.5715      0.0267      4.7573     20.9272    121.4395
  2120.6000      7.9992      2.5927      0.0782      3.4721     21.4439    118.3279
  2120.7000      7.9992      2.6190      0.0688      1.8784     21.8891    110.5938
  2120.8000      7.9911      2.6329      0.0954      1.0371     22.6323    100.8357
  2120.9000      7.9911      2.6314      0.1131      1.1260     23.2669     96.7723
  2121.0000      7.9783      2.6227      0.0739      1.6524     23.1747    102.2366
  2121.1000      7.9783      2.6174      0.0503      1.9767     22.9541    113.2179
  2121.2000      7.9783      2.6134      0.0936      2.2182     23.4773    123.2804
  2121.3000      7.9737      2.6075      0.0497      2.5734     24.4217    133.1576
  2121.4000      7.9737      2.6072      0.0743      2.5919     25.3218    144.6320
  2121.5000      7.9905      2.6061      0.1206      2.6613     26.0620    155.3048
  2121.6000      7.9905      2.5870      0.1353      3.8173     26.4945    163.2224
  2121.7000      7.9905      2.5551      0.0598      5.7544     26.8458    169.8778
  2121.8000      8.0288      2.5372      0.0376      6.8371     27.2456    176.7171
  2121.9000      8.0288      2.5409      0.0808      6.6116     27.3027    176.7887
