~Version Information
VERS.                      2.0: CWLS Log ASCII Standard - VERSION 2.0
WRAP.                       NO: One line per depth step
~Well Information Block
STRT.FT               185.2500: 
STOP.FT              2109.7500: 
STEP.FT                 0.2500: 
NULL.                -999.2500: 
COMP.    Petrogulf Corporation: COMPANY
WELL.             State 16-44V: WELL
FLD.          Purgatorie River: FIELD
LOC.       320' FSL & 320' FEL: LOCATION
PROV.                 Colorado: PROVINCE
CNTY.               Las Animas: COUNTRY
SRVC.                Patterson: SERVICE COMPANY
DATE. Thu Aug 11 12:58:04 2005: LOG DATE
UWI.               071-08263  : UNIQUE WELL ID
~Curve Information Block
DEPT.FT            0 000 00 00: Depth
GR.GAPI                       : Gamma Ray
CCL.                          : Casing Collar Locator
TT3.usec                      : CBL 3' Travel Time
AMP3.mV                       : CBL 3' Amplitude
~Parameter Information Block
~A  Depth        GR         CCL         TT3         AMP3    
# ...
  1424.7500    103.0883      0.0000    588.6359      1.8797
  1425.0000    107.4891      0.0000    591.4396      1.8787
  1425.2500    115.6662      0.0000    597.3929      1.8547
  1425.5000    127.1031      0.0000    602.5707      1.8073
  1425.7500    140.5067      0.0000    605.4215      1.7520
  1426.0000    154.4158      0.0000    607.7625      1.7036
  1426.2500    167.5118      0.0000    610.2887      1.6655
  1426.5000    178.1959      0.0000    612.2094      1.6392
  1426.7500    184.3515      0.0000    613.4263      1.6293
  1427.0000    184.2980      0.0000    614.4116      1.6406
  1427.2500    178.2432      0.0000    615.3160      1.6706
  1427.5000    168.4943      0.0000    615.9542      1.7067
  1427.7500    158.0997      0.0000    616.2196      1.7360
  1428.0000    149.3921      0.0000    616.2236      1.7523
  1428.2500    143.7451      0.0000    616.0558      1.7627
  1428.5000    142.1818      0.0000    615.7214      1.7881
  1428.7500    145.5485      0.0000    615.3732      1.8397
  1429.0000    153.7312      0.0000    615.3954      1.9082
  1429.2500    164.8197      0.0000    616.4301      1.9952
  1429.5000    175.4164      0.0000    619.1964      2.1203
  1429.7500    182.0865      0.0000    623.0399      2.2858
  1430.0000    182.8396      0.0000    625.3384      2.4798
  1430.2500    177.6724      0.0000    625.7405      2.7172
  1430.5000    168.1093      0.0000    628.8553      3.0466
  1430.7500    156.2896      0.0000    637.7720      3.5117
  1431.0000    144.1971      0.0000    649.0875      4.0911
  1431.2500    133.3960      0.0000    656.5208      4.6744
  1431.5000    125.1064      0.0000    655.1766      5.1326
  1431.7500    120.0672      0.0000    646.1003      5.4004
  1432.0000    118.1437      0.0000    638.3309      5.4680
  1432.2500    118.4860      0.0000    642.0829      5.3457
  1432.5000    120.5115      0.0000    660.5275      5.0813
  1432.7500    124.5229      0.0000    685.7634      4.7707
  1433.0000    130.8721      0.0000    703.6931      4.5043
  1433.2500    138.7768      0.0000    709.6109      4.3034
  1433.5000    146.6762      0.0000    711.8729      4.1367
  1433.7500    153.5168      0.0000    713.9864      3.9886
  1434.0000    158.8843      0.0000    708.6319      3.8726
  1434.2500    162.1621      0.0000    695.2306      3.8001
  1434.5000    162.6612      0.0000    684.0394      3.7673
  1434.7500    160.6707      0.0000    679.5087      3.7690
  1435.0000    157.6055      0.0000    676.5538      3.8041
  1435.2500    154.9198      0.0000    672.5718      3.8626
  1435.5000    153.3000      0.0000    670.3192      3.9201
  1435.7500    152.9786      0.0000    670.8402      3.9621
  1436.0000    154.2120      0.0000    672.0134      3.9970
  1436.2500    156.9312      0.0000    671.8306      4.0361
  1436.5000    160.2088      0.0000    669.6415      4.0885
  1436.7500    162.6630      0.0000    666.4441      4.1739
  1437.0000    163.4781      0.0000    663.8264      4.3098
  1437.2500    162.9430      0.0000    662.3868      4.4955
  1437.5000    162.1929      0.0000    661.9030      4.7191
  1437.7500    162.4904      0.0000    662.0462      4.9627
  1438.0000    164.1812      0.0000    662.7916      5.1858
  1438.2500    166.0204      0.0000    664.8740      5.3226
  1438.5000    166.2313      0.0000    669.1310      5.3470
  1438.7500    164.6009      0.0000    673.5012      5.3040
  1439.0000    162.9669      0.0000    672.5056      5.2224
  1439.2500    163.5783      0.0000    663.7769      5.0543
  1439.5000    167.4152      0.0000    650.6014      4.7605
  1439.7500    173.7886      0.0000    635.7376      4.4037
  1440.0000    180.8457      0.0000    620.9675      4.0888
  1440.2500    186.3788      0.0000    610.1833      3.8482
  1440.5000    188.5242      0.0000    606.2698      3.6502
  1440.7500    186.3242      0.0000    608.5135      3.4726
  1441.0000    180.3169      0.0000    614.1810      3.3086
  1441.2500    172.5592      0.0000    620.6385      3.1453
  1441.5000    165.3033      0.0000    625.9785      2.9840
  1441.7500    159.3672      0.0000    628.1571      2.8511
  1442.0000    153.8872      0.0000    626.0320      2.7693
  1442.2500    147.2296      0.0000    621.1125      2.7420
  1442.5000    137.8084      0.0000    616.2708      2.7584
  1442.7500    124.6854      0.0000    614.2570      2.8027
  1443.0000    108.1727      0.0000    616.5794      2.8575
  1443.2500     90.0207      0.0000    622.1339      2.9102
  1443.5000     72.9258      0.0000    627.5314      2.9564
  1443.7500     59.5428      0.0000    629.1564      2.9946
  1444.0000     51.2654      0.0000    627.1826      3.0208
  1444.2500     47.6555      0.0000    624.7172      3.0337
  1444.5000     47.2875      0.0000    619.9151      3.0403
  1444.7500     49.0088      0.0000    606.2413      3.0504
  1445.0000     51.9843      0.0000    585.5966      3.0590
  1445.2500     54.9530      0.0000    573.9977      3.0495
  1445.5000     56.4677      0.0000    581.4921      3.0059
  1445.7500     56.3168      0.0000    596.2875      2.9059
  1446.0000     56.3816      0.0000    604.7011      2.7389
  1446.2500     59.7434      0.0000    609.2899      2.5484
  1446.5000     68.8318      0.0000    617.8401      2.3988
  1446.7500     84.0466      0.0000    629.7937      2.3015
  1447.0000    103.4395      0.0000    638.4707      2.2290
  1447.2500    123.4706      0.0000    640.8096      2.1695
  1447.5000    140.4991      0.0000    640.4326      2.1257
  1447.7500    152.0100      0.0000    641.5212      2.1002
  1448.0000    156.8630      0.0000    643.9900      2.1065
  1448.2500    155.1624      0.0000    645.9751      2.1679
  1448.5000    148.4007      0.0000    647.1033      2.2995
  1448.7500    139.2737      0.0000    647.7825      2.4971
  1449.0000    130.6588      0.0000    647.4799      2.7425
  1449.2500    124.5952      0.0000    644.9272      3.0128
  1449.5000    122.0416      0.0000    640.7147      3.2790
  1449.7500    122.9349      0.0000    638.6469      3.5098
  1450.0000    126.1148      0.0000    641.1994      3.6865
  1450.2500    129.6488      0.0000    645.2689      3.8019
  1450.5000    131.8377      0.0000    645.9202      3.8461
  1450.7500    132.1560      0.0000    641.5792      3.8105
  1451.0000    131.2982      0.0000    634.3680      3.7232
  1451.2500    130.3521      0.0000    627.3299      3.6723
  1451.5000    129.8174      0.0000    622.3789      3.7527
  1451.7500    129.3164      0.0000    620.9854      3.9550
  1452.0000    128.1936      0.0000    623.1852      4.1144
  1452.2500    126.1896      0.0000    626.0630      4.0362
  1452.5000    123.4358      0.0000    628.7120      3.7259
  1452.7500    120.0662      0.0000    634.0947      3.3894
  1453.0000    116.1959      0.0000    640.4105      3.1662
  1453.2500    112.4176      0.0000    641.7256      3.0408
  1453.5000    110.0473      0.0000    640.3782      2.9623
  1453.7500    110.2060      2.0000    643.1801      2.9001
  1454.0000    112.4478      0.0000    646.6181      2.8415
  1454.2500    114.7966      0.0000    641.9736      2.8045
  1454.5000    115.3425      0.0000    630.3143      2.8393
  1454.7500    113.2963      0.0000    619.0233      2.9322
  1455.0000    108.5626      0.0000    610.6959      2.9323
  1455.2500    101.2257      0.0000    604.0948      2.7639
  1455.5000     91.8546      0.0000    599.2748      2.5893
  1455.7500     81.8271      0.0000    597.1862      2.5669
  1456.0000     72.8947      0.0000    597.9489      2.6632
  1456.2500     66.2552      0.0000    600.7498      2.7757
  1456.5000     61.9426      0.0000    604.2628      2.8609
  1456.7500     59.1243      0.0000    607.8936      2.9308
  1457.0000     57.0256      0.0000    611.8918      3.0180
  1457.2500     55.4764      0.0000    615.6681      3.1588
  1457.5000     54.5690      0.0000    618.2031      3.3683
  1457.7500     54.1246      0.0000    619.8074      3.6271
  1458.0000     53.7971      0.0000    622.3378      3.9051
