~Version Information
VERS.                      2.0: CWLS Log ASCII Standard - VERSION 2.0
WRAP.                       NO: One line per depth step
~Well Information Block
STRT.FT               450.0000: 
STOP.FT              2756.0000: 
STEP.FT                 0.2500: 
NULL.                -999.2500: 
COMP.          Pioneer Natural Resources: COMPANY
WELL.             Squeal 11-26: WELL
FLD.           Purgatoire River: FIELD
LOC.           1186' FNL & 152' FWL: LOCATION
PROV.                 Colorado: PROVINCE
CNTY.               Las Animas: COUNTRY
SRVC.                Patterson: SERVICE COMPANY
DATE.          Wed Jun 15 02:22:08 2005: LOG DATE
UWI.           05 071 08404 00: UNIQUE WELL ID
~Curve Information Block
DEPT.FT            0 000 00 00: Depth
SN.Ohm-m                      : IEL Short Normal
SP.mV                         : IEL Spontaneous Potential
DIR.Ohm-m                     : IEL Induction Resistivity
GR.GAPI                       : Gamma Ray
~Parameter Information Block
~A  Depth        SN          SP         DIR          GR     
# ...
  1656.0000      9.9680    -81.0474     10.6485    120.6570
  1656.2500      9.5426    -80.9847     10.4952    119.0929
  1656.5000      9.1689    -81.0525     10.2967    115.9224
  1656.7500      8.9321    -81.3289     10.0701    113.3419
  1657.0000      8.8727    -81.8221      9.8317    108.6284
  1657.2500      8.9245    -82.4504      9.5975    104.8862
  1657.5000      8.9557    -83.0784      9.3834     99.2702
  1657.7500      8.9021    -83.5883      9.2032     96.5922
  1658.0000      8.8335    -83.9357      9.0664     95.4926
  1658.2500      8.8615    -84.1505      8.9787     96.5201
  1658.5000      9.0136    -84.2940      8.9420     99.2327
  1658.7500      9.1829    -84.4154      8.9538    101.0849
  1659.0000      9.2179    -84.5384      9.0060    103.5933
  1659.2500      9.1087    -84.6726      9.0862    105.2151
  1659.5000      9.0180    -84.8238      9.1829    107.7431
  1659.7500      9.1056    -84.9962      9.2911    109.5286
  1660.0000      9.3598    -85.1915      9.4155    112.6924
  1660.2500      9.5528    -85.4072      9.5670    115.5348
  1660.5000      9.4289    -85.6366      9.7570    121.4021
  1660.7500      9.0233    -85.8760      9.9921    126.1808
  1661.0000      8.6669    -86.1354     10.2725    133.2959
  1661.2500      8.7041    -86.4396     10.5951    136.9123
  1661.5000      9.3069    -86.8136     10.9591    139.2897
  1661.7500     10.4074    -87.2681     11.3693    138.8194
  1662.0000     11.6943    -87.7964     11.8332    136.0935
  1662.2500     12.8372    -88.3825     12.3532    133.5590
  1662.5000     13.8412    -89.0086     12.9196    128.9762
  1662.7500     15.0582    -89.6550     13.5127    125.2252
  1663.0000     16.7829    -90.3009     14.1181    118.2512
  1663.2500     18.9196    -90.9282     14.7412    112.7474
  1663.5000     21.0437    -91.5264     15.4073    103.9090
  1663.7500     22.7780    -92.0913     16.1444     98.3170
  1664.0000     24.0831    -92.6184     16.9610     91.3527
  1664.2500     25.1300    -93.0973     17.8377     87.7545
  1664.5000     26.0356    -93.5100     18.7336     83.4169
  1664.7500     26.8239    -93.8374     19.6042     80.9625
  1665.0000     27.5101    -94.0682     20.4176     78.1389
  1665.2500     28.1124    -94.2061     21.1627     77.2979
  1665.5000     28.6214    -94.2682     21.8466     78.4069
  1665.7500     29.0722    -94.2774     22.4869     80.8892
  1666.0000     29.5589    -94.2503     23.1045     86.7461
  1666.2500     30.0573    -94.1891     23.7170     91.3436
  1666.5000     30.4211    -94.0859     24.3300     97.4920
  1666.7500     30.6294    -93.9343     24.9300    100.1020
  1667.0000     30.8313    -93.7401     25.4848    100.9353
  1667.2500     31.1378    -93.5204     25.9594     99.5006
  1667.5000     31.4987    -93.2934     26.3386     94.9584
  1667.7500     31.8225    -93.0644     26.6375     90.8462
  1668.0000     32.1703    -92.8218     26.8934     84.3855
  1668.2500     32.6710    -92.5463     27.1508     80.7998
  1668.5000     33.2918    -92.2278     27.4501     77.2749
  1668.7500     33.8815    -91.8751     27.8188     75.7567
  1669.0000     34.3586    -91.5114     28.2618     73.3558
  1669.2500     34.8053    -91.1622     28.7569     71.3352
  1669.5000     35.3530    -90.8468     29.2629     68.4202
  1669.7500     35.9890    -90.5794     29.7359     67.2191
  1670.0000     36.6452    -90.3720     30.1428     66.8936
  1670.2500     37.3171    -90.2292     30.4666     67.3898
  1670.5000     37.9531    -90.1373     30.7067     68.7455
  1670.7500     38.4740    -90.0632     30.8768     70.0704
  1671.0000     38.8534    -89.9685     30.9994     72.7887
  1671.2500     39.0573    -89.8300     31.0965     74.8742
  1671.5000     39.0610    -89.6537     31.1822     77.7281
  1671.7500     38.8827    -89.4739     31.2589     79.2113
  1672.0000     38.5596    -89.3345     31.3197     80.9040
  1672.2500     38.1986    -89.2607     31.3539     81.8644
  1672.5000     37.9465    -89.2421     31.3502     83.2364
  1672.7500     37.8521    -89.2389     31.2926     84.0325
  1673.0000     37.8708    -89.2052     31.1596     84.6266
  1673.2500     37.9385    -89.1122     30.9368     84.4145
  1673.5000     37.9469    -88.9587     30.6370     83.3548
  1673.7500     37.7376    -88.7696     30.3086     82.4737
  1674.0000     37.2343    -88.5832     30.0214     81.0859
  1674.2500     36.5656    -88.4349     29.8375     79.9186
  1674.5000     35.9764    -88.3456     29.7866     77.6925
  1674.7500     35.6550    -88.3217     29.8533     76.2613
  1675.0000     35.6676    -88.3656     29.9839     75.0200
  1675.2500     35.9279    -88.4825     30.1099     74.9367
  1675.5000     36.2239    -88.6732     30.1799     75.5391
  1675.7500     36.3802    -88.9182     30.1788     76.0768
  1676.0000     36.3627    -89.1757     30.1244     76.5090
  1676.2500     36.2534    -89.4010     30.0492     76.3200
  1676.5000     36.1613    -89.5709     29.9822     75.5073
  1676.7500     36.1141    -89.6889     29.9372     75.0727
  1677.0000     36.0705    -89.7681     29.9125     75.3589
  1677.2500     36.0287    -89.8102     29.8939     76.2966
  1677.5000     35.9737    -89.7969     29.8577     78.5401
  1677.7500     35.7837    -89.7006     29.7747     80.3701
  1678.0000     35.4482    -89.5093     29.6318     83.3223
  1678.2500     35.2455    -89.2479     29.4657     85.2963
  1678.5000     35.4302    -88.9731     29.3671     88.1842
  1678.7500     35.9320    -88.7389     29.4315     90.1102
  1679.0000     36.5472    -88.5628     29.6925     93.0378
  1679.2500     37.2016    -88.4246     30.0930     94.9016
  1679.5000     37.9004    -88.2941     30.5172     97.2356
  1679.7500     38.6046    -88.1524     30.8507     98.3258
  1680.0000     39.2365    -87.9960     31.0159     99.0773
  1680.2500     39.7652    -87.8306     30.9647     98.8599
  1680.5000     40.2482    -87.6648     30.6602     97.1589
  1680.7500     40.7342    -87.5078     30.0766     95.0129
  1681.0000     41.1342    -87.3684     29.2110     90.6387
  1681.2500     41.2331    -87.2533     28.0851     87.5643
  1681.5000     40.8015    -87.1608     26.7367     84.1413
  1681.7500     39.6737    -87.0830     25.2159     83.3845
  1682.0000     37.8104    -87.0195     23.5909     85.2738
  1682.2500     35.3244    -86.9857     21.9490     88.7583
  1682.5000     32.4316    -87.0052     20.3830     97.4399
  1682.7500     29.3441    -87.0946     18.9679    105.3275
  1683.0000     26.1614    -87.2596     17.7458    119.2078
  1683.2500     22.9435    -87.5010     16.7258    128.8219
  1683.5000     19.9014    -87.8171     15.8971    141.8403
  1683.7500     17.3398    -88.1977     15.2436    148.5993
  1684.0000     15.4429    -88.6190     14.7535    154.9210
  1684.2500     14.2786    -89.0474     14.4186    156.5298
  1684.5000     13.8621    -89.4436     14.2294    155.2921
  1684.7500     14.0709    -89.7438     14.1688    152.1600
  1685.0000     14.6167    -89.8163     14.2117    144.1784
  1685.2500     15.1962    -89.4397     14.3310    136.9111
  1685.5000     15.6579    -88.3831     14.5074    124.0636
  1685.7500     16.0526    -86.5947     14.7389    115.1666
  1686.0000     16.6168    -84.3470     15.0435    103.3937
  1686.2500     17.7663    -82.1500     15.4532     97.6845
  1686.5000     19.9806    -80.4567     16.0036     93.1844
  1686.7500     23.4696    -79.4253     16.7229     92.5444
  1687.0000     27.8661    -78.9342     17.6234     93.5220
  1687.2500     32.3125    -78.7671     18.6906     94.4996
  1687.5000     35.9564    -78.7581     19.8699     95.4962
  1687.7500     38.3897    -78.8178     21.0575     95.7792
  1688.0000     39.6138    -78.8961     22.1102     96.2183
  1688.2500     39.7718    -78.9550     22.8849     97.0891
  1688.5000     39.0274    -78.9684     23.2943    100.1614
  1688.7500     37.5247    -78.9313     23.3369    103.6566
  1689.0000     35.3576    -78.8588     23.0812    110.7840
  1689.2500     32.6703    -78.7752     22.6195    116.1221
