~Version Information
VERS.                      2.0: CWLS Log ASCII Standard - VERSION 2.0
WRAP.                       NO: One line per depth step
~Well Information Block
STRT.FT               395.0000: 
STOP.FT              1998.0000: 
STEP.FT                 0.2500: 
NULL.                -999.2500: 
COMP.          Pioneer Natural Resources: COMPANY
WELL.          Easton 12-30 Tr: WELL
FLD.           Purgatoire River: FIELD
LOC.           549' FWL & 2416' FNL--: LOCATION
PROV.                 Colorado: PROVINCE
CNTY.               Las Animas: COUNTRY
SRVC.                Patterson: SERVICE COMPANY
DATE.          Wed Jun 01 17:36:02 2005: LOG DATE
UWI.           05 071 08379 00: UNIQUE WELL ID
~Curve Information Block
DEPT.FT            0 000 00 00: Depth
SN.Ohm-m                      : IEL Short Normal
SP.mV                         : IEL Spontaneous Potential
DIR.Ohm-m                     : IEL Induction Resistivity
GR.GAPI                       : Gamma Ray
~Parameter Information Block
~A  Depth        SN          SP         DIR          GR     
# ...
  1433.5000   2000.0000   -999.2500     12.3239    137.4378
  1433.7500   2000.0000   -999.2500     12.1530    137.7598
  1434.0000   2000.0000   -999.2500     11.9267    137.4307
  1434.2500   2000.0000   -999.2500     11.6472    136.1664
  1434.5000   2000.0000   -999.2500     11.3354    132.7542
  1434.7500   2000.0000   -999.2500     11.0331    130.0186
  1435.0000   2000.0000   -999.2500     10.8003    126.4072
  1435.2500   2000.0000   -999.2500     10.7087    124.8198
  1435.5000   2000.0000   -999.2500     10.8460    124.0513
  1435.7500   2000.0000   -999.2500     11.3500    124.6271
  1436.0000   2000.0000   -999.2500     12.5130    126.5939
  1436.2500   2000.0000   -999.2500     15.1216    127.9183
  1436.5000   2000.0000   -999.2500     22.1280    128.5510
  1436.7500   2000.0000   -999.2500     61.2584    127.7645
  1437.0000   2000.0000   -999.2500 100000.0000    125.5206
  1437.2500   2000.0000   -999.2500 100000.0000    124.0383
  1437.5000   2000.0000   -999.2500 100000.0000    122.2855
  1437.7500   2000.0000   -999.2500 100000.0000    121.0867
  1438.0000   2000.0000   -999.2500 100000.0000    118.5795
  1438.2500   2000.0000   -999.2500 100000.0000    116.5210
  1438.5000   2000.0000   -999.2500 100000.0000    113.8158
  1438.7500   2000.0000   -999.2500 100000.0000    112.9438
  1439.0000   2000.0000   -999.2500 100000.0000    113.7894
  1439.2500   2000.0000   -999.2500 100000.0000    115.8081
  1439.5000   2000.0000   -999.2500 100000.0000    120.1583
  1439.7500   2000.0000   -999.2500 100000.0000    123.0005
  1440.0000   2000.0000   -999.2500 100000.0000    125.6643
  1440.2500   2000.0000   -999.2500 100000.0000    126.1551
  1440.5000   2000.0000   -999.2500 100000.0000    125.9897
  1440.7500   2000.0000   -999.2500     17.0704    126.1339
  1441.0000   2000.0000   -999.2500      7.6282    127.3899
  1441.2500   2000.0000   -999.2500      5.3330    128.6481
  1441.5000   2000.0000   -999.2500      4.4919    130.2083
  1441.7500   2000.0000   -999.2500      4.1332    130.6964
  1442.0000   2000.0000   -999.2500      3.8391    130.8730
  1442.2500   2000.0000   -999.2500      3.3033    131.0223
  1442.5000   2000.0000   -999.2500      2.4508    131.5973
  1442.7500   2000.0000   -999.2500      1.5579    132.1010
  1443.0000   2000.0000   -999.2500      0.8971    132.6566
  1443.2500   2000.0000   -999.2500      0.4906    132.5290
  1443.5000   2000.0000   -999.2500      0.2531    130.7080
  1443.7500   2000.0000   -999.2500      0.1213    128.1866
  1444.0000   2000.0000   -999.2500      0.0576    123.3443
  1444.2500   2000.0000   -999.2500      0.0301    120.3738
  1444.5000   2000.0000   -999.2500      0.0184    117.2963
  1444.7500   2000.0000   -999.2500      0.0132    115.9678
  1445.0000   2000.0000   -999.2500      0.0108    113.7702
  1445.2500   2000.0000   -999.2500      0.0098    111.2550
  1445.5000   2000.0000   -999.2500      0.0093    104.7180
  1445.7500   2000.0000   -999.2500      0.0093     98.3779
  1446.0000   2000.0000   -999.2500      0.0098     86.9154
  1446.2500   2000.0000   -999.2500      0.0112     79.0608
  1446.5000   2000.0000   -999.2500      0.0147     68.7375
  1446.7500   2000.0000   -999.2500      0.0234     63.4063
  1447.0000   2000.0000   -999.2500      0.0460     57.7481
  1447.2500   2000.0000   -999.2500      0.1045     55.1443
  1447.5000   2000.0000   -999.2500      0.2346     52.1710
  1447.7500   2000.0000   -999.2500      0.4522     50.4432
  1448.0000   2000.0000   -999.2500      0.6760     47.9166
  1448.2500   2000.0000   -999.2500      0.6614     46.3080
  1448.5000   2000.0000   -999.2500      0.4163     44.4095
  1448.7500   2000.0000   -999.2500      0.1918     43.7490
  1449.0000   2000.0000   -999.2500      0.0700     43.7942
  1449.2500   2000.0000   -999.2500      0.0247     44.3588
  1449.5000   2000.0000   -999.2500      0.0105     45.5388
  1449.7500   2000.0000   -999.2500      0.0059     46.3579
  1450.0000   2000.0000   -999.2500      0.0043     47.8809
  1450.2500   2000.0000   -999.2500      0.0039     49.6599
  1450.5000   2000.0000   -999.2500      0.0039     54.7740
  1450.7500   2000.0000   -999.2500      0.0043     60.3502
  1451.0000   2000.0000   -999.2500      0.0048     71.9437
  1451.2500   2000.0000   -999.2500      0.0054     81.2063
  1451.5000   2000.0000   -999.2500      0.0061     95.5215
  1451.7500   2000.0000   -999.2500      0.0071    104.0521
  1452.0000   2000.0000   -999.2500      0.0090    113.5131
  1452.2500   2000.0000   -999.2500      0.0127    117.0570
  1452.5000   2000.0000   -999.2500      0.0215    118.2237
  1452.7500   2000.0000   -999.2500      0.0441    116.7339
  1453.0000   2000.0000   -999.2500      0.1060    112.7047
  1453.2500   2000.0000   -999.2500      0.2621    109.9089
  1453.5000   2000.0000   -999.2500      0.6231    106.9334
  1453.7500   2000.0000   -999.2500      1.6703    106.1792
  1454.0000   2000.0000   -999.2500      9.3773    107.3036
  1454.2500   2000.0000   -999.2500 100000.0000    109.6996
  1454.5000   2000.0000   -999.2500 100000.0000    115.4324
  1454.7500   2000.0000   -999.2500 100000.0000    120.0037
  1455.0000   2000.0000   -999.2500 100000.0000    126.5382
  1455.2500   2000.0000   -999.2500 100000.0000    130.1496
  1455.5000   2000.0000   -999.2500 100000.0000    134.3854
  1455.7500   2000.0000   -999.2500 100000.0000    136.5502
  1456.0000   2000.0000   -999.2500 100000.0000    138.2195
  1456.2500   2000.0000   -999.2500 100000.0000    137.1988
  1456.5000   2000.0000   -999.2500 100000.0000    130.5358
  1456.7500   2000.0000   -999.2500 100000.0000    122.6089
  1457.0000   2000.0000   -999.2500 100000.0000    107.7565
  1457.2500   2000.0000   -999.2500 100000.0000     97.7677
  1457.5000   2000.0000   -999.2500 100000.0000     85.1651
  1457.7500   2000.0000   -999.2500 100000.0000     79.0902
  1458.0000   2000.0000   -999.2500 100000.0000     73.5716
  1458.2500   2000.0000   -999.2500 100000.0000     71.7803
  1458.5000   2000.0000   -999.2500 100000.0000     70.6261
  1458.7500   2000.0000   -999.2500 100000.0000     70.3032
  1459.0000   2000.0000   -999.2500 100000.0000     70.1713
  1459.2500   2000.0000   -999.2500      8.7756     70.4437
  1459.5000   2000.0000   -999.2500      1.6239     72.0077
  1459.7500   2000.0000   -999.2500      0.7098     74.3248
  1460.0000   2000.0000   -999.2500      0.3910     80.2577
  1460.2500   2000.0000   -999.2500      0.2458     85.6691
  1460.5000   2000.0000   -999.2500      0.1769     94.9152
  1460.7500   2000.0000   -999.2500      0.1485    101.1182
  1461.0000   2000.0000   -999.2500      0.1452    109.5321
  1461.2500   2000.0000   -999.2500      0.1615    114.2115
  1461.5000   2000.0000   -999.2500      0.1959    119.5449
  1461.7500   2000.0000   -999.2500      0.2468    121.8771
  1462.0000   2000.0000   -999.2500      0.3086    123.5366
  1462.2500   2000.0000   -999.2500      0.3732    123.6705
  1462.5000   2000.0000   -999.2500      0.4368    123.2271
  1462.7500   2000.0000   -999.2500      0.5068    122.8366
  1463.0000   2000.0000   -999.2500      0.6017    122.0288
  1463.2500   2000.0000   -999.2500      0.7487    121.1666
  1463.5000   2000.0000   -999.2500      0.9872    119.4981
  1463.7500   2000.0000   -999.2500      1.3816    118.3837
  1464.0000   2000.0000   -999.2500      2.0436    116.9176
  1464.2500   2000.0000   -999.2500      3.1649    116.0360
  1464.5000   2000.0000   -999.2500      5.0485    114.9557
  1464.7500   2000.0000   -999.2500      8.0290    114.6578
  1465.0000   2000.0000   -999.2500     11.9427    115.2483
  1465.2500   2000.0000   -999.2500     15.3173    116.3763
  1465.5000   2000.0000   -999.2500     16.7399    119.1309
  1465.7500   2000.0000   -999.2500     17.2174    121.6985
  1466.0000   2000.0000   -999.2500     18.9124    126.4726
  1466.2500   2000.0000   -999.2500     24.7327    129.8059
  1466.5000   2000.0000   -999.2500     45.7179    133.6368
  1466.7500   2000.0000   -999.2500    579.4089    134.5999
