~Version Information
VERS.                      2.0: CWLS Log ASCII Standard - VERSION 2.0
WRAP.                       NO: One line per depth step
~Well Information Block
STRT.FT               946.8000: 
STOP.FT              2134.5000: 
STEP.FT                 0.1000: 
NULL.                -999.2500: 
COMP.          Petrogulf Corporation: COMPANY
WELL.             Valejo 8-12R: WELL
FLD.           Purgatorie River: FIELD
LOC.           1351'' FNL & 1562' FWL: LOCATION
CNTY.               Las Animas: COUNTY
SRVC.                         : SERVICE COMPANY
DATE.          Wed Apr 28 13:22:45 2004: LOG DATE
UWI.           05 071 08038 00: UNIQUE WELL ID
STAT.                 Colorado: STATE
~Curve Information Block
DEPT.FT            0 000 00 00: Depth
DCAL.in                       : CDL Caliper
RHOB.g/cc                     : CDL Bulk Density
RHOC.g/cc                     : CDL Density Correction
DPOR.pu                       : CDL Density Porosity
NPOR.pu                       : Neutron Porosity
GR.GAPI                       : Gamma Ray
~Parameter Information Block
~A  Depth       DCAL        RHOB        RHOC        DPOR        NPOR         GR     
# ...
  1714.8000      7.9160      2.6016      0.0574      2.9345     22.5560    121.8413
  1714.9000      7.9160      2.5873      0.0634      3.8010     22.4299    123.8849
  1715.0000      7.9368      2.5760      0.0284      4.4870     22.1657    128.1769
  1715.1000      7.9368      2.5739      0.0424      4.6143     22.0786    134.0814
  1715.2000      7.9368      2.5809      0.0528      4.1886     22.3557    139.1957
  1715.3000      7.9131      2.5919      0.0605      3.5204     22.8824    143.6664
  1715.4000      7.9131      2.6024      0.0416      2.8843     23.0405    145.1128
  1715.5000      7.9098      2.6165      0.0567      2.0330     22.7613    139.9642
  1715.6000      7.9098      2.6362      0.1208      0.8351     22.5460    129.1274
  1715.7000      7.9098      2.6517      0.1137     -0.1023     22.6188    118.5721
  1715.8000      7.9111      2.6550      0.1132     -0.3010     23.0027    116.3421
  1715.9000      7.9111      2.6513      0.0790     -0.0811     23.4237    123.7179
  1716.0000      7.9075      2.6447      0.1219      0.3221     23.4295    133.1996
  1716.1000      7.9075      2.6316      0.0541      1.1165     22.8605    138.0358
  1716.2000      7.9075      2.6149      0.0383      2.1282     22.1603    137.3352
  1716.3000      7.9119      2.5980      0.0514      3.1533     21.9084    132.7278
  1716.4000      7.9119      2.5863      0.0076      3.8626     22.0776    129.0078
  1716.5000      7.9110      2.5948      0.0455      3.3477     22.2391    130.1804
  1716.6000      7.9110      2.6209      0.0772      1.7655     22.0782    132.7141
  1716.7000      7.9110      2.6402      0.0965      0.5931     21.7859    130.4197
  1716.8000      7.9089      2.6415      0.0659      0.5178     21.5782    123.1882
  1716.9000      7.9089      2.6364      0.0750      0.8254     21.0687    115.2649
  1717.0000      7.9090      2.6398      0.0639      0.6208     20.2070    109.5991
  1717.1000      7.9090      2.6543      0.0875     -0.2626     19.6245    109.4096
  1717.2000      7.9090      2.6666      0.0800     -1.0041     19.5239    114.0412
  1717.3000      7.9114      2.6670      0.0747     -1.0308     19.7448    115.0826
  1717.4000      7.9114      2.6634      0.0739     -0.8093     20.4538    109.4759
  1717.5000      7.9116      2.6586      0.0733     -0.5219     21.3701    103.6126
  1717.6000      7.9116      2.6448      0.0945      0.3142     21.7721    101.2663
  1717.7000      7.9116      2.6279      0.0391      1.3382     21.4577    101.4595
  1717.8000      7.9196      2.6174      0.0269      1.9729     20.9366    100.5075
  1717.9000      7.9196      2.6054      0.0308      2.7055     20.9283     99.4059
  1718.0000      7.9190      2.5905      0.0219      3.6079     21.3955    104.3268
  1718.1000      7.9190      2.5817      0.0504      4.1380     21.7964    112.8035
  1718.2000      7.9190      2.5761      0.0534      4.4802     21.7660    117.1450
  1718.3000      7.9152      2.5740      0.0248      4.6064     21.0932    119.2504
  1718.4000      7.9152      2.5877      0.0521      3.7754     20.3565    120.8323
  1718.5000      7.9121      2.6182      0.0860      1.9260     20.2477    120.2909
  1718.6000      7.9121      2.6495      0.1244      0.0293     20.4787    122.4598
  1718.7000      7.9121      2.6645      0.1469     -0.8760     20.6637    127.9242
  1718.8000      7.9168      2.6641      0.1157     -0.8554     20.8667    129.5056
  1718.9000      7.9168      2.6743      0.0969     -1.4730     20.9056    124.0497
  1719.0000      7.9285      2.7085      0.1288     -3.5465     20.2863    114.9899
  1719.1000      7.9285      2.7415      0.1723     -5.5472     19.3841    108.3225
  1719.2000      7.9285      2.7424      0.1566     -5.6019     19.0838    106.2651
  1719.3000      7.9413      2.7140      0.1060     -3.8765     19.4570    104.8185
  1719.4000      7.9413      2.6768      0.0874     -1.6213     19.9438    102.7045
  1719.5000      7.9432      2.6372      0.0534      0.7741     20.3205    102.2771
  1719.6000      7.9432      2.5904      0.0311      3.6143     20.9189    104.7479
  1719.7000      7.9432      2.5450      0.0048      6.3658     21.6734    110.2299
  1719.8000      7.9453      2.5272     -0.0734      7.4417     22.2332    115.2976
  1719.9000      7.9453      2.5430      0.0257      6.4824     22.7276    118.8893
  1720.0000      7.9468      2.5626      0.0390      5.2946     23.4797    123.3417
  1720.1000      7.9468      2.5648      0.0497      5.1655     24.4257    127.8039
  1720.2000      7.9468      2.5559      0.0568      5.7017     25.2982    133.3505
  1720.3000      7.9469      2.5461      0.0565      6.2974     25.8841    140.0252
  1720.4000      7.9469      2.5315      0.0483      7.1800     26.2665    143.7915
  1720.5000      7.9457      2.5102     -0.0200      8.4755     26.9341    144.2191
  1720.6000      7.9457      2.4911      0.0374      9.6327     27.8243    144.0684
  1720.7000      7.9457      2.4755      0.0067     10.5771     28.3704    146.3580
  1720.8000      7.9423      2.4628      0.0078     11.3471     28.6538    151.7300
  1720.9000      7.9423      2.4548      0.0328     11.8282     29.0720    157.5466
  1721.0000      7.9460      2.4522      0.0297     11.9878     29.6801    159.6419
  1721.1000      7.9460      2.4509      0.0673     12.0680     30.3111    160.3157
  1721.2000      7.9460      2.4426      0.0518     12.5672     30.8002    164.9466
  1721.3000      7.9482      2.4273      0.0962     13.4958     31.1415    168.1844
  1721.4000      7.9482      2.4059      0.0955     14.7960     31.4966    163.3368
  1721.5000      7.9425      2.3733      0.1426     16.7695     31.9395    157.8054
  1721.6000      7.9425      2.3293      0.1049     19.4343     32.3872    159.6466
  1721.7000      7.9425      2.2777      0.1049     22.5653     32.7111    161.8108
  1721.8000      7.9444      2.2109      0.1351     26.6135     32.8077    157.7297
  1721.9000      7.9444      2.1293      0.0546     31.5595     32.6735    150.2905
  1722.0000      7.9455      2.0641     -0.0138     35.5105     32.3569    141.0396
  1722.1000      7.9455      2.0413      0.0176     36.8929     31.9711    132.1965
  1722.2000      7.9455      2.0498      0.0664     36.3751     31.5893    129.8112
  1722.3000      7.9426      2.0682      0.0805     35.2585     31.0354    133.3282
  1722.4000      7.9426      2.0935      0.0593     33.7296     30.0961    134.9534
  1722.5000      7.9421      2.1315      0.1187     31.4238     29.2103    135.0380
  1722.6000      7.9421      2.1816      0.1652     28.3897     28.9836    138.5916
  1722.7000      7.9421      2.2388      0.1944     24.9212     29.2851    142.0339
  1722.8000      7.9373      2.2982      0.1814     21.3186     29.4065    143.2625
  1722.9000      7.9373      2.3543      0.1743     17.9202     28.9592    146.1203
  1723.0000      7.9373      2.4023      0.1364     15.0135     28.2899    151.6140
  1723.1000      7.9373      2.4388      0.1073     12.7996     27.9628    154.7131
  1723.2000      7.9373      2.4681      0.0705     11.0241     28.1058    152.8062
  1723.3000      7.9287      2.5012      0.0781      9.0199     28.3071    150.9068
  1723.4000      7.9287      2.5388      0.1281      6.7391     28.2471    153.7927
  1723.5000      7.9255      2.5694      0.1618      4.8829     27.8936    157.8558
  1723.6000      7.9255      2.5820      0.1919      4.1203     27.0353    155.3378
  1723.7000      7.9255      2.5783      0.1533      4.3461     25.6758    148.1478
  1723.8000      7.9068      2.5758      0.1216      4.4953     24.4680    142.3876
  1723.9000      7.9068      2.5885      0.1709      3.7279     23.8544    140.1109
  1724.0000      7.9074      2.6070      0.1865      2.6084     23.3952    138.6633
  1724.1000      7.9074      2.6129      0.1670      2.2509     22.9320    132.8777
  1724.2000      7.9074      2.6109      0.0715      2.3687     22.8240    125.0031
  1724.3000      7.9073      2.6231      0.0894      1.6325     23.0235    121.4470
