~Version Information
VERS.                      2.0: CWLS Log ASCII Standard - VERSION 2.0
WRAP.                       NO: One line per depth step
~Well Information Block
STRT.FT                -2.2500: 
STOP.FT              1676.7500: 
STEP.FT                 0.2500: 
NULL.                -999.2500: 
COMP.          Pioneer Natural Resources: COMPANY
WELL.              Patten 22-2: WELL
FLD.           Purgatoire River: FIELD
LOC.           2157' FNL & 1528' FWL: LOCATION
PROV.                 Colorado: PROVINCE
CNTY.               Las Animas: COUNTRY
SRVC.                Patterson: SERVICE COMPANY
DATE.          Tue Dec 14 11:45:47 2004: LOG DATE
UWI.           05 071 08168 00: UNIQUE WELL ID
~Curve Information Block
DEPT.FT            0 000 00 00: Depth
GR.GAPI                       : Gamma Ray
CCL.                          : Casing Collar Locator
TT3.usec                      : CBL 3' Travel Time
AMP3.mV                       : CBL 3' Amplitude
~Parameter Information Block
~A  Depth        GR         CCL         TT3         AMP3    
# ...
   667.7500    107.2914      0.0000    722.3922      8.0380
   668.0000    107.9854      0.0000    731.6590      7.9918
   668.2500    108.1051      0.0000    748.7625      7.8953
   668.5000    106.1152      0.0000    765.8940      7.7459
   668.7500    101.2109      0.0000    777.9688      7.6080
   669.0000     93.7156      0.0000    784.0351      7.5244
   669.2500     84.7757     -2.0000    784.5212      7.4805
   669.5000     75.8490      0.0000    779.5867      7.4483
   669.7500     68.2614      0.0000    770.2032      7.4402
   670.0000     62.8222      0.0000    759.0100      7.5127
   670.2500     59.7592      0.0000    749.3062      7.7106
   670.5000     59.2885      0.0000    743.5202      7.9979
   670.7500     62.1026      0.0000    742.1078      8.2669
   671.0000     68.7156      0.0000    743.0396      8.4472
   671.2500     78.2687      0.0000    742.9884      8.5821
   671.5000     88.5903      0.0000    740.2570      8.7609
   671.7500     97.7668      0.0000    736.2994      9.0093
   672.0000    105.3364      0.0000    733.7355      9.2834
   672.2500    111.8079      0.0000    733.5507      9.5441
   672.5000    117.4629      0.0000    734.8306      9.7969
   672.7500    122.1461      0.0000    736.3359     10.0587
   673.0000    125.9763      0.0000    737.4474     10.3113
   673.2500    129.3972      0.0000    738.0145     10.4980
   673.5000    132.2919      0.0000    738.0493     10.5605
   673.7500    133.7592      0.0000    737.6588     10.4736
   674.0000    133.0924      0.0000    736.9526     10.2579
   674.2500    130.3382      0.0000    735.8663      9.9747
   674.5000    125.7601      0.0000    734.1440      9.7057
   674.7500    119.7133      0.0000    731.6677      9.5150
   675.0000    113.4298      0.0000    728.8174      9.4188
   675.2500    108.9684      0.0000    726.2946      9.3848
   675.5000    107.6335      0.0000    724.4958      9.3607
   675.7500    108.7823      0.0000    723.2206      9.3049
   676.0000    110.5428      0.0000    721.9519      9.2035
   676.2500    111.4823      0.0000    720.2365      9.0695
   676.5000    111.3728      0.0000    718.0872      8.9286
   676.7500    110.5970      0.0000    716.2687      8.8039
   677.0000    109.1988      0.0000    715.7247      8.7119
   677.2500    106.6931      0.0000    716.4799      8.6623
   677.5000    102.7365      0.0000    717.5447      8.6523
   677.7500     97.8992      0.0000    717.8828      8.6602
   678.0000     93.7206      0.0000    717.1072      8.6571
   678.2500     91.9144      0.0000    715.6551      8.6232
   678.5000     93.5863      0.0000    714.9061      8.5550
   678.7500     99.1111      0.0000    716.7169      8.4593
   679.0000    108.1975      0.0000    722.0546      8.3445
   679.2500    119.5104      0.0000    729.8770      8.2195
   679.5000    130.4686      0.0000    737.5031      8.0997
   679.7500    138.1685      0.0000    742.5231      8.0092
   680.0000    141.0674      0.0000    744.7250      7.9674
   680.2500    139.8507      0.0000    746.0167      7.9723
   680.5000    136.5581      0.0000    748.3813      8.0005
   680.7500    132.9078      0.0000    752.2416      8.0246
   681.0000    129.4776      0.0000    756.6458      8.0302
   681.2500    126.1110      0.0000    760.3058      8.0204
   681.5000    122.6902      0.0000    762.4260      8.0073
   681.7500    119.6987      0.0000    763.2108      7.9995
   682.0000    118.2441      0.0000    763.7328      7.9936
   682.2500    119.1142      0.0000    764.9333      7.9794
   682.5000    121.6241      0.0000    766.7909      7.9508
   682.7500    123.9112      0.0000    768.6202      7.9074
   683.0000    124.7019      0.0000    769.8905      7.8500
   683.2500    124.3540      0.0000    770.5056      7.7836
   683.5000    123.9642      0.0000    770.5222      7.7235
   683.7500    123.9333      0.0000    769.8100      7.6879
   684.0000    123.9121      0.0000    767.9098      7.6814
   684.2500    123.7910      0.0000    764.3147      7.6898
   684.5000    124.0201      0.0000    759.2538      7.6928
   684.7500    124.7840      0.0000    754.2767      7.6799
   685.0000    125.3693      0.0000    751.5455      7.6518
   685.2500    124.7501      0.0000    752.1282      7.6128
   685.5000    122.7624      0.0000    755.1847      7.5645
   685.7500    120.5188      0.0000    759.0643      7.5076
   686.0000    119.6113      0.0000    762.8281      7.4468
   686.2500    120.9117      0.0000    766.3587      7.3910
   686.5000    124.0786      0.0000    769.5191      7.3477
   686.7500    128.0034      0.0000    771.9096      7.3178
   687.0000    131.6473      0.0000    773.3265      7.2973
   687.2500    134.4949      0.0000    773.9730      7.2827
   687.5000    136.3144      0.0000    774.1674      7.2734
   687.7500    136.7317      0.0000    773.9857      7.2710
   688.0000    135.3775      0.0000    773.1129      7.2757
   688.2500    132.3572      0.0000    770.9048      7.2871
   688.5000    128.2336      0.0000    766.7544      7.3069
   688.7500    123.6024      0.0000    760.7327      7.3353
   689.0000    119.0058      0.0000    753.9727      7.3664
   689.2500    115.0707      0.0000    748.2315      7.3921
   689.5000    112.2846      0.0000    744.9561      7.4143
   689.7500    110.5471      0.0000    744.7189      7.4461
   690.0000    109.1758      0.0000    747.1583      7.4999
   690.2500    107.5897      0.0000    751.0040      7.5780
   690.5000    106.0711      0.0000    754.4774      7.6733
   690.7500    105.6664      0.0000    756.5127      7.7724
   691.0000    107.1508      0.0000    757.7611      7.8587
   691.2500    110.2021      0.0000    759.8138      7.9185
   691.5000    113.7395      0.0000    763.3165      7.9475
   691.7500    116.7970      0.0000    767.3286      7.9503
   692.0000    118.8788      0.0000    770.4904      7.9355
   692.2500    119.9134      0.0000    772.2540      7.9138
   692.5000    120.4008      0.0000    772.9379      7.8945
   692.7500    121.4019      0.0000    773.0437      7.8781
   693.0000    123.7054      0.0000    772.6966      7.8550
   693.2500    126.8890      0.0000    771.4814      7.8146
   693.5000    129.6826      0.0000    768.7736      7.7557
   693.7500    131.3056      0.0000    764.6198      7.6863
   694.0000    131.9987      0.0000    760.5156      7.6150
   694.2500    132.2491      0.0000    758.7890      7.5463
   694.5000    132.0410      0.0000    760.6072      7.4815
   694.7500    131.0485      0.0000    764.8179      7.4238
   695.0000    129.3330      0.0000    769.1266      7.3822
   695.2500    127.7171      0.0000    772.0539      7.3688
   695.5000    127.3061      0.0000    773.5060      7.3901
   695.7500    128.3250      0.0000    774.0460      7.4382
   696.0000    129.5441      0.0000    774.1417      7.4957
   696.2500    129.2658      0.0000    773.9003      7.5495
   696.5000    126.8070      0.0000    773.0621      7.5979
   696.7500    122.7330      0.0000    771.1407      7.6441
   697.0000    117.9629      0.0000    767.9068      7.6860
   697.2500    113.1235      0.0000    764.0714      7.7173
   697.5000    108.6202      0.0000    761.3497      7.7350
   697.7500    104.8718      0.0000    761.2746      7.7424
   698.0000    102.3272      0.0000    763.7657      7.7470
   698.2500    101.3037      0.0000    767.1876      7.7581
   698.5000    101.9498      0.0000    769.8570      7.7819
   698.7500    104.3171      0.0000    771.2012      7.8163
   699.0000    108.0177      0.0000    771.5889      7.8547
   699.2500    111.7039      0.0000    771.5828      7.8941
   699.5000    113.6811      0.0000    771.5450      7.9363
   699.7500    113.5217      0.0000    771.6428      7.9842
   700.0000    112.5710      0.0000    771.9063      8.0397
   700.2500    112.5543      0.0000    772.2328      8.1026
   700.5000    113.9900      0.0000    772.4346      8.1651
   700.7500    116.0468      0.0000    772.3608      8.2104
   701.0000    117.6490      0.0000    772.0106      8.2225
