~Version Information
VERS.                      2.0: CWLS Log ASCII Standard - VERSION 2.0
WRAP.                       NO: One line per depth step
~Well Information Block
STRT.FT               375.0000: 
STOP.FT              2637.2500: 
STEP.FT                 0.2500: 
NULL.                -999.2500: 
COMP.          Pioneer Natural Resources: COMPANY
WELL.            Cortina 23-25: WELL
FLD.           Purgatoire River: FIELD
LOC.           2344' FWL & 2526' FSL----: LOCATION
PROV.                 Colorado: PROVINCE
CNTY.               Las Animas: COUNTRY
SRVC.                Patterson: SERVICE COMPANY
DATE.          Wed Mar 23 19:09:49 2005: LOG DATE
UWI.           05 071 08340 00: UNIQUE WELL ID
~Curve Information Block
DEPT.FT            0 000 00 00: Depth
DIR.Ohm-m                     : IEL Induction Resistivity
SN.Ohm-m                      : IEL Short Normal
SP.mV                         : IEL Spontaneous Potential
GR.GAPI                       : Gamma Ray
~Parameter Information Block
~A  Depth       DIR          SN          SP          GR     
# ...
  1413.5000      9.4579     10.2801    -13.9176    135.1118
  1413.7500      9.9362     11.0363    -14.0784    130.9753
  1414.0000     10.5325     12.2021    -14.2663    122.5345
  1414.2500     11.2674     13.9640    -14.4641    115.6139
  1414.5000     12.1586     16.3735    -14.6446    103.6119
  1414.7500     13.2150     19.3005    -14.7741     94.9049
  1415.0000     14.4334     22.5461    -14.8180     81.9712
  1415.2500     15.7984     26.0384    -14.7457     74.3876
  1415.5000     17.2890     29.8988    -14.5335     66.2840
  1415.7500     18.8836     34.2626    -14.1672     63.8239
  1416.0000     20.5581     38.9878    -13.6423     64.9859
  1416.2500     22.2733     43.5360    -12.9644     68.5632
  1416.5000     23.9662     47.1790    -12.1485     76.0533
  1416.7500     25.5520     49.3792    -11.2190     80.7299
  1417.0000     26.9429     50.0497    -10.2076     84.8373
  1417.2500     28.0743     49.5450     -9.1511     85.3188
  1417.5000     28.9280     48.4511     -8.0878     83.9235
  1417.7500     29.5441     47.3168     -7.0535     82.5168
  1418.0000     30.0070     46.4572     -6.0773     80.2672
  1418.2500     30.4098     45.9181     -5.1790     78.3843
  1418.5000     30.8136     45.5892     -4.3680     74.3085
  1418.7500     31.2275     45.3467     -3.6444     70.7701
  1419.0000     31.6146     45.1140     -3.0007     65.2999
  1419.2500     31.9151     44.8418     -2.4244     62.4265
  1419.5000     32.0725     44.4831     -1.9010     59.9436
  1419.7500     32.0550     44.0068     -1.4149     59.0582
  1420.0000     31.8638     43.4289     -0.9516     57.5099
  1420.2500     31.5278     42.8125     -0.4980     55.9479
  1420.5000     31.0911     42.2305     -0.0438     53.3333
  1420.7500     30.6052     41.7191      0.4172     52.0018
  1421.0000     30.1260     41.2548      0.8857     51.2758
  1421.2500     29.7057     40.7712      1.3564     51.6902
  1421.5000     29.3792     40.2026      1.8180     53.4622
  1421.7500     29.1531     39.5196      2.2546     55.3134
  1422.0000     29.0087     38.7385      2.6481     58.9419
  1422.2500     28.9137     37.9121      2.9807     61.6269
  1422.5000     28.8312     37.1113      3.2385     64.9582
  1422.7500     28.7283     36.4085      3.4131     66.0545
  1423.0000     28.5851     35.8679      3.5026     65.7943
  1423.2500     28.4021     35.5331      3.5113     64.8790
  1423.5000     28.1996     35.4065      3.4479     63.5963
  1423.7500     28.0069     35.4394      3.3230     63.1020
  1424.0000     27.8502     35.5542      3.1471     62.4340
  1424.2500     27.7454     35.6854      2.9286     61.5773
  1424.5000     27.6996     35.8083      2.6729     59.5443
  1424.7500     27.7171     35.9383      2.3833     58.1114
  1425.0000     27.8028     36.1076      2.0605     56.6456
  1425.2500     27.9572     36.3334      1.7033     56.2177
  1425.5000     28.1707     36.5967      1.3076     55.9912
  1425.7500     28.4226     36.8487      0.8649     55.8979
  1426.0000     28.6906     37.0416      0.3608     55.9224
  1426.2500     28.9583     37.1618     -0.2242     56.3070
  1426.5000     29.2135     37.2473     -0.9112     57.8573
  1426.7500     29.4422     37.3776     -1.7155     59.5397
  1427.0000     29.6275     37.6311     -2.6357     62.4229
  1427.2500     29.7586     38.0266     -3.6413     64.0736
  1427.5000     29.8416     38.4886     -4.6656     65.8274
  1427.7500     29.8966     38.8722     -5.6057     66.8776
  1428.0000     29.9372     39.0281     -6.3353     69.1579
  1428.2500     29.9423     38.8591     -6.7288     71.2580
  1428.5000     29.8491     38.3358     -6.6914     74.8061
  1428.7500     29.5818     37.4854     -6.1864     77.3337
  1429.0000     29.1037     36.3759     -5.2501     82.0046
  1429.2500     28.4459     35.0966     -3.9869     86.2144
  1429.5000     27.6863     33.7260     -2.5461     94.5157
  1429.7500     26.8968     32.3035     -1.0865    101.1936
  1430.0000     26.1055     30.8360      0.2587    112.1257
  1430.2500     25.3004     29.3308      1.4064    119.3163
  1430.5000     24.4612     27.8151      2.3303    128.5993
  1430.7500     23.5888     26.3251      3.0519    133.2773
  1431.0000     22.7065     24.8927      3.6210    138.3117
  1431.2500     21.8406     23.5486      4.0942    141.0816
  1431.5000     21.0029     22.3248      4.5198    145.4918
  1431.7500     20.1915     21.2449      4.9299    148.7123
  1432.0000     19.4050     20.3185      5.3399    153.2487
  1432.2500     18.6541     19.5458      5.7532    155.4108
  1432.5000     17.9618     18.9215      6.1655    156.4593
  1432.7500     17.3531     18.4334      6.5697    155.7776
  1433.0000     16.8442     18.0593      6.9574    154.0496
  1433.2500     16.4374     17.7639      7.3211    153.2654
  1433.5000     16.1229     17.5031      7.6539    152.8623
  1433.7500     15.8851     17.2419      7.9506    152.6978
  1434.0000     15.7086     16.9743      8.2082    152.1895
  1434.2500     15.5815     16.7291      8.4264    151.7951
  1434.5000     15.4957     16.5534      8.6079    151.4315
  1434.7500     15.4459     16.4848      8.7588    151.4426
  1435.0000     15.4273     16.5304      8.8879    151.9463
  1435.2500     15.4344     16.6633      9.0057    152.4869
  1435.5000     15.4594     16.8326      9.1230    152.7808
  1435.7500     15.4941     16.9834      9.2497    152.0017
  1436.0000     15.5323     17.0757      9.3934    149.0257
  1436.2500     15.5707     17.0956      9.5585    146.3879
  1436.5000     15.6083     17.0522      9.7462    143.1223
  1436.7500     15.6436     16.9653      9.9539    142.0485
  1437.0000     15.6735     16.8576     10.1758    141.8638
  1437.2500     15.6942     16.7565     10.4026    142.1297
  1437.5000     15.7047     16.6949     10.6227    142.5653
  1437.7500     15.7092     16.7063     10.8215    143.0035
  1438.0000     15.7178     16.8149     10.9825    144.2260
  1438.2500     15.7438     17.0284     11.0875    145.3021
  1438.5000     15.7996     17.3393     11.1167    146.6215
  1438.7500     15.8951     17.7343     11.0500    146.9322
  1439.0000     16.0391     18.2014     10.8675    146.2597
  1439.2500     16.2424     18.7273     10.5509    145.0832
  1439.5000     16.5193     19.2988     10.0848    142.7441
  1439.7500     16.8858     19.9183      9.4581    141.5008
  1440.0000     17.3563     20.6173      8.6656    141.5113
  1440.2500     17.9414     21.4469      7.7099    143.0099
  1440.5000     18.6491     22.4553      6.6027    146.0870
  1440.7500     19.4867     23.6800      5.3661    147.2050
  1441.0000     20.4610     25.1674      4.0332    145.2905
  1441.2500     21.5763     26.9903      2.6476    141.0761
  1441.5000     22.8337     29.2235      1.2609    130.9199
  1441.7500     24.2296     31.8774     -0.0710    122.6228
  1442.0000     25.7507     34.8421     -1.2929    109.9091
  1442.2500     27.3630     37.8964     -2.3554    102.0459
  1442.5000     29.0003     40.7829     -3.2205     91.6901
  1442.7500     30.5666     43.2985     -3.8646     85.8903
  1443.0000     31.9632     45.3482     -4.2810     79.4033
  1443.2500     33.1302     46.9438     -4.4802     76.9832
  1443.5000     34.0705     48.1575     -4.4881     76.2438
  1443.7500     34.8360     49.0596     -4.3437     76.9375
  1444.0000     35.4889     49.6804     -4.0945     77.7662
  1444.2500     36.0695     50.0171     -3.7913     77.3821
  1444.5000     36.5850     50.0669     -3.4819     75.4695
  1444.7500     37.0162     49.8505     -3.2044     73.8277
  1445.0000     37.3354     49.4194     -2.9826     71.3060
  1445.2500     37.5263     48.8547     -2.8235     69.4240
  1445.5000     37.5990     48.2576     -2.7187     65.9834
  1445.7500     37.5876     47.7293     -2.6489     63.4569
  1446.0000     37.5362     47.3411     -2.5893     60.1197
  1446.2500     37.4854     47.1102     -2.5163     58.6550
  1446.5000     37.4653     46.9985     -2.4116     58.0695
  1446.7500     37.4921     46.9345     -2.2640     58.7680
