~Version Information
VERS.                      2.0: CWLS Log ASCII Standard - VERSION 2.0
WRAP.                       NO: One line per depth step
~Well Information Block
STRT.FT                -8.5000: 
STOP.FT              1968.0000: 
STEP.FT                 0.2500: 
NULL.                -999.2500: 
COMP.          Pioneer Natural Resources: COMPANY
WELL.           Firehawk 34-26: WELL
FLD.           Purgatorie River: FIELD
LOC.           1196' FSL & 1595' FEL--: LOCATION
STAT.                       CO: State
CNTY.               Las Animas: COUNTY
CTRY. USA : Country
SECT. 26 : Section
TOWN. 32S : Township
RANG. 66W : Range 
SRVC.          Patterson Wireline: SERVICE COMPANY
DATE.          Tue Oct 25 14:45:07 2005: LOG DATE
API.           05 071 08389 00: UNIQUE WELL ID
~Curve Information Block
DEPT.FT            0 000 00 00: Depth
CCL.                          : Casing Collar Locator
TT3.usec                      : CBL 3' Travel Time
AMP3.mV                       : CBL 3' Amplitude
GR.GAPI                       : Gamma Ray
~Parameter Information Block
~A  Depth       CCL         TT3         AMP3         GR     
# ...
   494.0000      0.0000    692.8945      1.0384     81.1446
   494.2500      0.0000    693.6306      0.9512     78.2981
   494.5000      0.0000    693.8600      0.8936     79.5372
   494.7500      0.0000    693.2958      0.9322     84.0713
   495.0000      0.0000    692.7086      1.0972     88.9376
   495.2500      0.0000    693.0991      1.3647     91.1823
   495.5000      0.0000    694.6973      1.6748     90.3648
   495.7500      0.0000    696.5977      1.9751     88.5784
   496.0000      0.0000    697.3479      2.2513     88.2128
   496.2500      0.0000    696.2042      2.5142     90.2106
   496.5000      0.0000    693.8129      2.7659     93.9872
   496.7500      0.0000    691.5386      2.9951     97.9905
   497.0000      0.0000    690.2371      3.2027    100.3665
   497.2500      0.0000    689.8369      3.4149     99.9297
   497.5000      0.0000    689.8205      3.6668     97.0377
   497.7500      0.0000    689.8437      3.9758     93.5366
   498.0000      0.0000    689.9674      4.3260     91.4818
   498.2500      0.0000    690.5514      4.6720     91.6484
   498.5000      0.0000    691.8258      4.9640     93.2732
   498.7500      0.0000    693.1337      5.1781     95.2169
   499.0000      0.0000    692.3082      5.3260     96.9993
   499.2500      0.0000    686.5475      5.4386     98.4846
   499.5000      0.0000    675.2714      5.5434     99.1964
   499.7500      0.0000    662.3777      5.6515     98.7740
   500.0000      0.0000    654.0449      5.7570     97.8870
   500.2500      0.0000    653.0621      5.8456     97.9563
   500.5000      0.0000    656.1114      5.9046     99.9172
   500.7500      0.0000    656.7474      5.9299    103.4538
   501.0000      0.0000    649.1107      5.9294    107.0906
   501.2500      0.0000    629.0694      5.9208    108.6397
   501.5000      0.0000    596.0054      5.9230    106.1398
   501.7500      0.0000    555.6115      5.9442     99.4918
   502.0000      0.0000    518.1226      5.9790     91.3338
   502.2500      0.0000    491.5221      6.0183     85.4378
   502.5000      0.0000    477.0739      6.0605     83.7739
   502.7500      0.0000    471.3484      6.1096     85.5027
   503.0000      0.0000    470.8488      6.1636     88.8210
   503.2500      0.0000    474.6741      6.2093     92.9637
   503.5000      0.0000    484.0164      6.2324     97.7580
   503.7500      0.0000    499.6022      6.2258    101.9324
   504.0000      0.0000    519.5300      6.1862    103.2827
   504.2500      0.0000    541.2175      6.1099    100.9363
   504.5000      0.0000    566.3040      5.9968     96.7486
   504.7500      0.0000    600.5407      5.8525     93.8376
   505.0000      0.0000    645.6291      5.6786     93.7348
   505.2500      0.0000    694.0756      5.4670     95.0716
   505.5000      0.0000    736.0126      5.2169     95.1822
   505.7500      0.0000    768.6144      4.9540     93.0862
   506.0000      0.0000    795.0248      4.7256     90.4276
   506.2500      0.0000    816.7808      4.5749     89.1958
   506.5000      0.0000    831.3311      4.5220     89.3093
   506.7500      0.0000    835.8479      4.5636     89.1838
   507.0000      0.0000    831.6116      4.6750     88.0633
   507.2500      0.0000    825.5174      4.8123     86.9983
   507.5000      0.0000    827.2206      4.9267     87.7541
   507.7500      0.0000    843.0878      4.9862     91.2287
   508.0000      0.0000    872.3527      4.9834     96.6043
   508.2500      0.0000    909.5368      4.9280    101.5284
   508.5000      0.0000    948.8812      4.8421    103.4041
   508.7500      0.0000    985.0522      4.7533    101.3031
   509.0000      0.0000   1012.1696      4.6818     96.8932
   509.2500      0.0000   1025.6116      4.6312     93.0589
   509.5000      0.0000   1024.5021      4.5955     91.4743
   509.7500      0.0000   1011.0243      4.5725     91.8456
   510.0000      0.0000    987.5905      4.5684     93.1810
   510.2500      0.0000    956.2423      4.5914     95.0718
   510.5000      0.0000    921.5190      4.6424     97.7052
   510.7500      0.0000    892.1190      4.7140    101.1735
   511.0000      0.0000    876.3240      4.7974    105.0010
   511.2500      0.0000    874.7149      4.8854    108.3337
   511.5000      0.0000    879.2552      4.9647    110.5190
   511.7500      0.0000    880.1825      5.0153    111.5135
   512.0000      0.0000    873.1631      5.0237    111.7346
   512.2500      0.0000    862.0788      4.9926    111.5976
   512.5000      0.0000    857.4583      4.9327    111.2210
   512.7500      0.0000    869.4615      4.8549    110.5168
   513.0000      0.0000    897.6309      4.7707    109.5254
   513.2500      0.0000    928.1033      4.6942    108.5388
   513.5000      0.0000    944.6968      4.6391    107.6044
   513.7500      0.0000    942.8029      4.6140    105.9824
   514.0000      0.0000    930.2168      4.6167    102.6972
   514.2500      0.0000    915.9717      4.6336     97.9303
   514.5000      0.0000    901.8775      4.6462     93.3518
   514.7500      0.0000    884.6827      4.6427     90.5228
   515.0000      0.0000    863.4244      4.6224     89.0491
   515.2500      0.0000    842.3415      4.5899     86.7636
   515.5000      0.0000    826.0795      4.5506     81.9255
   515.7500      0.0000    813.0905      4.5137     74.9768
   516.0000      0.0000    796.0643      4.4911     67.8273
   516.2500      0.0000    770.2813      4.4866     61.8623
   516.5000      0.0000    739.9446      4.4890     57.3030
   516.7500      0.0000    714.9722      4.4797     54.1595
   517.0000      0.0000    703.1039      4.4414     52.7650
   517.2500      0.0000    706.0338      4.3598     53.0942
   517.5000      0.0000    721.3891      4.2258     54.1557
   517.7500      0.0000    746.6710      4.0442     54.5471
   518.0000      0.0000    780.0194      3.8368     53.6959
   518.2500      0.0000    816.4074      3.6335     52.5539
   518.5000      0.0000    845.4542      3.4611     53.1635
   518.7500      0.0000    857.4097      3.3373     57.3769
   519.0000      0.0000    851.6835      3.2726     65.5163
   519.2500      0.0000    835.6293      3.2795     75.7809
   519.5000      0.0000    815.3446      3.3851     85.0919
   519.7500      0.0000    792.0187      3.6272     91.0307
   520.0000      0.0000    766.7380      4.0200     93.0728
   520.2500      0.0000    743.8890      4.5199     92.1807
   520.5000      0.0000    728.6817      5.0312     89.9665
   520.7500      0.0000    723.5237      5.4517     88.3125
   521.0000      0.0000    726.7296      5.7174     88.9743
   521.2500      0.0000    733.2363      5.8118     92.9050
   521.5000      0.0000    737.1293      5.7504     99.7313
   521.7500      0.0000    735.2193      5.5662    107.5628
   522.0000      0.0000    728.8536      5.3058    113.4523
   522.2500      0.0000    722.4127      5.0198    114.8999
   522.5000      0.0000    720.2698      4.7491    111.4396
   522.7500      0.0000    724.4145      4.5162    104.7449
   523.0000      0.0000    733.4421      4.3244     97.4856
   523.2500      0.0000    743.0377      4.1582     92.2101
   523.5000      0.0000    747.7148      3.9874     90.6029
   523.7500      0.0000    742.8644      3.7835     92.7469
   524.0000      0.0000    726.9256      3.5393     96.7108
   524.2500      0.0000    703.7444      3.2699     99.4793
   524.5000      0.0000    682.4649      2.9976     99.1745
   524.7500      0.0000    672.0222      2.7454     96.4595
   525.0000      0.0000    673.9544      2.5447     93.3261
   525.2500      0.0000    681.5913      2.4279     90.5993
   525.5000      0.0000    686.7999      2.4047     87.2872
   525.7500      0.0000    686.6476      2.4548     82.2751
   526.0000      0.0000    684.4996      2.5513     75.9776
   526.2500      0.0000    687.1318      2.6848     70.1345
   526.5000      0.0000    701.2070      2.8566     66.3420
   526.7500      0.0000    729.5038      3.0521     64.9249
   527.0000      0.0000    767.2870      3.2396     64.9476
   527.2500      0.0000    802.8995      3.3965     65.0774
