~Version Information
VERS.                      2.0: CWLS Log ASCII Standard - VERSION 2.0
WRAP.                       NO: One line per depth step
~Well Information Block
STRT.FT               748.2500: 
STOP.FT              2498.5000: 
STEP.FT                 0.2500: 
NULL.                -999.2500: 
COMP.          Petrogulf Corporation: COMPANY
WELL.           Montoya 13-41V: WELL
FLD.           Purgatorie River: FIELD
LOC.           449' FNL & 891' FEL: LOCATION
CNTY.               Las Animas: COUNTY
SRVC.                         : SERVICE COMPANY
DATE.          Tue Aug 17 13:22:31 2004: LOG DATE
UWI.           05 071 08021 00: UNIQUE WELL ID
STAT.                 Colorado: STATE
~Curve Information Block
DEPT.FT            0 000 00 00: Depth
SP.mV                         : DIL Spontaneous Potential
RILD.Ohm-m                    : DIL Deep Resistivity
RILM.Ohm-m                    : DIL Medium Resistivity
RLL3.Ohm-m                    : DIL Shallow Resistivity
GR.GAPI                       : Gamma Ray
~Parameter Information Block
~A  Depth        SP         RILD        RILM        RLL3         GR     
# ...
  1672.2500     55.6341     27.9429     60.4549     65.3845     52.0931
  1672.5000     55.5311     28.1898     60.7431     63.6790     52.7187
  1672.7500     55.4423     28.4215     60.8572     62.6977     53.3498
  1673.0000     55.3663     28.6654     60.8561     62.3467     53.7109
  1673.2500     55.3023     28.9427     60.7919     62.4574     52.9802
  1673.5000     55.2511     29.2590     60.7143     62.8962     50.2079
  1673.7500     55.2157     29.6017     60.6718     63.6149     47.5688
  1674.0000     55.2025     29.9479     60.7125     64.6183     43.0405
  1674.2500     55.2215     30.2786     60.8790     65.8860     39.9222
  1674.5000     55.2847     30.5860     61.2032     67.3211     35.8160
  1674.7500     55.4046     30.8703     61.6969     68.7668     33.9761
  1675.0000     55.5919     31.1279     62.3439     70.0695     32.8875
  1675.2500     55.8540     31.3460     63.0962     71.1303     32.9380
  1675.5000     56.1938     31.5108     63.8711     71.9154     33.1667
  1675.7500     56.6096     31.6240     64.5557     72.4358     33.0037
  1676.0000     57.0957     31.7118     65.0181     72.7276     32.1824
  1676.2500     57.6432     31.8153     65.1242     72.8411     31.4261
  1676.5000     58.2408     31.9713     64.7614     72.8238     30.4328
  1676.7500     58.8747     32.1944     63.8595     72.6852     30.2332
  1677.0000     59.5293     32.4687     62.4062     72.3591     31.4872
  1677.2500     60.1870     32.7464     60.4480     71.6853     33.8851
  1677.5000     60.8290     32.9492     58.0761     70.4203     40.4148
  1677.7500     61.4369     32.9773     55.4018     68.2852     46.7250
  1678.0000     61.9947     32.7355     52.5327     65.0727     58.5556
  1678.2500     62.4917     32.1698     49.5545     60.8106     67.5094
  1678.5000     62.9234     31.2948     46.5243     55.8986     81.3909
  1678.7500     63.2929     30.1895     43.4762     51.0785     89.9594
  1679.0000     63.6089     28.9629     40.4338     47.1721     99.8708
  1679.2500     63.8832     27.7149     37.4239     44.6854    103.9459
  1679.5000     64.1281     26.5117     34.4851     43.5110    107.0821
  1679.7500     64.3532     25.3814     31.6669     42.9303    108.3221
  1680.0000     64.5636     24.3208     29.0224     41.9430    110.4453
  1680.2500     64.7604     23.3096     26.5970     39.7540    112.3378
  1680.5000     64.9410     22.3236     24.4198     36.1497    115.9719
  1680.7500     65.1010     21.3458     22.4999     31.5585    119.1511
  1681.0000     65.2357     20.3702     20.8281     26.7848    125.7628
  1681.2500     65.3412     19.3999     19.3821     22.6080    131.6055
  1681.5000     65.4159     18.4440     18.1326     19.4914    141.7267
  1681.7500     65.4605     17.5153     17.0484     17.5158    148.1871
  1682.0000     65.4783     16.6309     16.1005     16.4779    155.1689
  1682.2500     65.4754     15.8102     15.2652     16.0321    157.4041
  1682.5000     65.4602     15.0722     14.5242     15.8135    158.0959
  1682.7500     65.4420     14.4302     13.8645     15.5400    158.0797
  1683.0000     65.4298     13.8878     13.2771     15.0822    159.0718
  1683.2500     65.4312     13.4382     12.7557     14.4692    160.4973
  1683.5000     65.4512     13.0670     12.2954     13.8194    162.7524
  1683.7500     65.4917     12.7572     11.8918     13.2472    163.9254
  1684.0000     65.5515     12.4934     11.5409     12.8049    165.7760
  1684.2500     65.6264     12.2649     11.2392     12.4843    167.6510
  1684.5000     65.7099     12.0655     10.9837     12.2501    171.4245
  1684.7500     65.7937     11.8923     10.7716     12.0710    174.0237
  1685.0000     65.8687     11.7435     10.6008     11.9320    177.2759
  1685.2500     65.9252     11.6174     10.4691     11.8300    178.9819
  1685.5000     65.9551     11.5121     10.3741     11.7677    181.0975
  1685.7500     65.9516     11.4260     10.3131     11.7519    182.2268
  1686.0000     65.9108     11.3579     10.2830     11.7956    183.2202
  1686.2500     65.8313     11.3070     10.2806     11.9160    183.2855
  1686.5000     65.7145     11.2722     10.3031     12.1223    182.5224
  1686.7500     65.5641     11.2517     10.3481     12.3963    181.5168
  1687.0000     65.3854     11.2428     10.4146     12.6822    179.1742
  1687.2500     65.1846     11.2423     10.5022     12.9060    176.8999
  1687.5000     64.9685     11.2477     10.6113     13.0215    172.6665
  1687.7500     64.7436     11.2583     10.7422     13.0501    170.0536
  1688.0000     64.5164     11.2747     10.8946     13.0784    168.0336
  1688.2500     64.2931     11.2989     11.0669     13.2079    168.1895
  1688.5000     64.0798     11.3324     11.2562     13.4936    169.4910
  1688.7500     63.8822     11.3748     11.4580     13.9175    170.0610
  1689.0000     63.7052     11.4239     11.6676     14.4065    169.2721
  1689.2500     63.5520     11.4762     11.8799     14.8765    167.4602
  1689.5000     63.4234     11.5295     12.0910     15.2679    163.6542
  1689.7500     63.3179     11.5835     12.2982     15.5577    161.4715
  1690.0000     63.2312     11.6394     12.5008     15.7516    160.1445
  1690.2500     63.1576     11.6976     12.7001     15.8687    160.2111
  1690.5000     63.0909     11.7561     12.8986     15.9293    159.5330
  1690.7500     63.0262     11.8111     13.0999     15.9496    157.6227
  1691.0000     62.9608     11.8606     13.3079     15.9425    153.1972
  1691.2500     62.8952     11.9073     13.5259     15.9237    150.4107
  1691.5000     62.8329     11.9598     13.7563     15.9196    147.9506
  1691.7500     62.7789     12.0301     14.0006     15.9694    147.5719
  1692.0000     62.7388     12.1298     14.2595     16.1174    148.5544
  1692.2500     62.7165     12.2672     14.5346     16.3916    150.0255
  1692.5000     62.7130     12.4460     14.8292     16.7791    152.9272
  1692.7500     62.7259     12.6660     15.1498     17.2123    155.0336
  1693.0000     62.7493     12.9238     15.5070     17.5876    158.5056
  1693.2500     62.7746     13.2144     15.9153     17.8225    161.1904
  1693.5000     62.7922     13.5324     16.3919     17.9255    165.1504
  1693.7500     62.7920     13.8726     16.9557     18.0342    166.6567
  1694.0000     62.7654     14.2310     17.6248     18.3802    165.1994
  1694.2500     62.7060     14.6056     18.4149     19.1949    161.3513
  1694.5000     62.6103     14.9957     19.3374     20.6071    152.5157
  1694.7500     62.4779     15.4028     20.3976     22.5931    146.0738
  1695.0000     62.3119     15.8307     21.5938     25.0051    138.0610
  1695.2500     62.1179     16.2871     22.9164     27.6470    134.5919
  1695.5000     61.9034     16.7843     24.3489     30.3411    132.1521
  1695.7500     61.6769     17.3377     25.8693     32.9395    131.8405
  1696.0000     61.4461     17.9634     27.4537     35.2974    132.2509
  1696.2500     61.2167     18.6740     29.0797     37.2661    132.5560
  1696.5000     60.9915     19.4732     30.7303     38.7349    132.2691
  1696.7500     60.7692     20.3497     32.3965     39.6836    131.1496
  1697.0000     60.5444     21.2743     34.0775     40.1927    127.6504
  1697.2500     60.3080     22.2030     35.7799     40.4123    124.4756
  1697.5000     60.0491     23.0880     37.5142     40.5347    120.4199
  1697.7500     59.7562     23.8955     39.2907     40.7945    119.3619
  1698.0000     59.4200     24.6166     41.1157     41.4592    120.1846
  1698.2500     59.0353     25.2654     42.9885     42.7746    120.8158
  1698.5000     58.6024     25.8651     44.9006     44.8746    118.5603
  1698.7500     58.1277     26.4340     46.8358     47.7129    113.8656
  1699.0000     57.6230     26.9821     48.7735     51.0654    102.7367
  1699.2500     57.1039     27.5193     50.6898     54.6034     93.9437
  1699.5000     56.5879     28.0663     52.5616     57.9941     80.7272
  1699.7500     56.0919     28.6583     54.3674     60.9774     72.3224
  1700.0000     55.6311     29.3377     56.0919     63.3930     60.2778
