~Version Information
VERS.                      2.0: CWLS Log ASCII Standard - VERSION 2.0
WRAP.                       NO: One line per depth step
~Well Information Block
STRT.FT               390.0000: 
STOP.FT              2770.2500: 
STEP.FT                 0.2500: 
NULL.                -999.2500: 
COMP.          Pioneer Natural Resources: COMPANY
WELL.              Lynch 43-30: WELL
FLD.           Purgatoire River: FIELD
LOC.           1438' FSL & 429' FEL: LOCATION
PROV.                 Colorado: PROVINCE
CNTY.               Las Animas: COUNTRY
SRVC.                Patterson: SERVICE COMPANY
DATE.          Wed Oct 27 08:06:51 2004: LOG DATE
UWI.           05 071 08170 00: UNIQUE WELL ID
~Curve Information Block
DEPT.FT            0 000 00 00: Depth
DIR.Ohm-m                     : IEL Induction Resistivity
SN.Ohm-m                      : IEL Short Normal
SP.mV                         : IEL Spontaneous Potential
GR.GAPI                       : Gamma Ray
~Parameter Information Block
~A  Depth       DIR          SN          SP          GR     
# ...
  2098.5000      0.0000      0.0000      0.0000     89.7900
  2098.7500      0.0000      0.0000      0.0000     88.7667
  2099.0000      0.0000      0.0000      0.0000     88.1497
  2099.2500      0.0000      0.0000      0.0000     88.3817
  2099.5000      0.0000      0.0000      0.0000     89.0070
  2099.7500      0.0000      0.0000      0.0000     89.0419
  2100.0000      0.0000      0.0000      0.0000     87.9758
  2100.2500      0.0000      0.0000      0.0000     86.8330
  2100.5000      0.0000      0.0000      0.0000     85.8308
  2100.7500      0.0000      0.0000      0.0000     86.1450
  2101.0000      0.0000      0.0000      0.0000     87.2941
  2101.2500      0.0000      0.0000      0.0000     87.3035
  2101.5000      0.0000      0.0000      0.0000     84.7253
  2101.7500      0.0000      0.0000      0.0000     81.6417
  2102.0000      0.0000      0.0000      0.0000     77.0599
  2102.2500      0.0000      0.0000      0.0000     74.9747
  2102.5000      0.0000      0.0000      0.0000     73.5556
  2102.7500      0.0000      0.0000      0.0000     73.6806
  2103.0000      0.0000      0.0000      0.0000     75.4763
  2103.2500      0.0000      0.0000      0.0000     77.1663
  2103.5000      0.0000      0.0000      0.0000     77.9782
  2103.7500      0.0000      0.0000      0.0000     76.3263
  2104.0000      0.0000      0.0000      0.0000     72.0904
  2104.2500      0.0000      0.0000      0.0000     70.2820
  2104.5000      0.0000      0.0000      0.0000     70.7595
  2104.7500      0.0000      0.0000      0.0000     71.7897
  2105.0000      0.0000      0.0000      0.0000     70.4697
  2105.2500      0.0000      0.0000      0.0000     66.6288
  2105.5000      0.0000      0.0000      0.0000     58.0732
  2105.7500      0.0000      0.0000      0.0000     52.6132
  2106.0000      0.0000      0.0000      0.0000     47.8279
  2106.2500      0.0000      0.0000      0.0000     35.6563
  2106.5000      0.0000      0.0000      0.0000     38.3021
  2106.7500      0.0000      0.0000      0.0000     41.6934
  2107.0000      0.0000      0.0000      0.0000     48.4041
  2107.2500      0.0000      0.0000      0.0000     53.1608
  2107.5000      0.0000      0.0000      0.0000     59.2509
  2107.7500      0.0000      0.0000      0.0000     62.2126
  2108.0000      0.0000      0.0000      0.0000     65.3803
  2108.2500      0.0000      0.0000      0.0000     67.2232
  2108.5000      0.0000      0.0000      0.0000     70.6172
  2108.7500      0.0000      0.0000      0.0000     73.6404
  2109.0000      0.0000      0.0000      0.0000     78.8396
  2109.2500      0.0000      0.0000      0.0000     81.7275
  2109.5000      0.0000      0.0000      0.0000     83.1644
  2109.7500      0.0000      0.0000      0.0000     81.9649
  2110.0000      0.2006     -5.5845      0.0000     79.2187
  2110.2500      0.2255     -5.5865      0.0000     78.6550
  2110.5000      0.2541     -5.5779      0.0000     80.7683
  2110.7500      0.2834     -5.5638      0.0000     82.9866
  2111.0000      0.3105     -5.5493      0.0000     84.7260
  2111.2500      0.3335     -5.5398      0.0000     84.1317
  2111.5000      0.3517     -5.5411      0.0000     81.4035
  2111.7500      0.3662     -5.5564      0.0000     79.3115
  2112.0000      0.3794     -5.5814      0.0000     77.1637
  2112.2500      0.3950     -5.6051      0.0000     76.8195
  2112.5000      0.4169     -5.6164      0.0000     77.7973
  2112.7500      0.4486     -5.6117      0.0000     78.9291
  2113.0000      0.4916     -5.5959      0.0000     80.3514
  2113.2500      0.5451     -5.5787      0.0000     80.8245
  2113.5000      0.6059     -5.5684      0.0000     80.8122
  2113.7500      0.6696     -5.5681      0.0000     80.3173
  2114.0000      0.7319     -5.5760      0.0000     78.5150
  2114.2500      0.7903     -5.5878      0.0000     76.5231
  2114.5000      0.8448     -5.5989      0.0000     73.1385
  2114.7500      0.8962     -5.6055      0.0000     71.4708
  2115.0000      0.9455     -5.6050      0.0000     70.8871
  2115.2500      0.9941     -5.5968      0.0000     71.8630
  2115.5000      1.0454     -5.5835      0.0000     74.8815
  2115.7500      1.1057     -5.5709      0.0000     77.3199
  2116.0000      1.1830     -5.5645      0.0000     80.1051
  2116.2500      1.2852     -5.5667      0.0000     80.6515
  2116.5000      1.4196     -5.5736      0.0000     79.4330
  2116.7500      1.5946     -5.5766      0.0000     77.8607
  2117.0000      1.8227     -5.5675      0.0000     75.6025
  2117.2500      2.1185     -5.5461      0.0000     74.6752
  2117.5000      2.4843     -5.5246      0.0000     74.7639
  2117.7500      2.8777     -5.5198      0.0000     76.1397
  2118.0000      3.1859     -5.5368      0.0000     80.4463
  2118.2500      3.2842     -5.5631      0.0000     84.3850
  2118.5000      3.1645     -5.5816      0.0000     89.8327
  2118.7500      2.9350     -5.5864      0.0000     91.7505
  2119.0000      2.6944     -5.5835      0.0000     91.2464
  2119.2500      2.4700     -5.5807      0.0000     89.5285
  2119.5000      2.2427     -5.5812    -88.7395     87.0994
  2119.7500      1.9907     -5.5829    -83.7128     86.1330
  2120.0000      1.7165     -5.5802    -78.6859     85.2107
  2120.2500      1.4457     -5.5672    -73.8837     84.6747
  2120.5000      1.2070     -5.5423    -69.4209     84.1068
  2120.7500      1.0171     -5.5119    -65.3735     83.8394
  2121.0000      0.8794     -5.4875    -61.8150     82.8960
  2121.2500      0.7895     -5.4770    -58.8231     81.5473
  2121.5000      0.7403     -5.4793    -56.4739     78.7421
  2121.7500      0.7235     -5.4867    -54.8415     77.1087
  2122.0000      0.7296     -5.4923    -54.0128     76.6549
  2122.2500      0.7454     -5.4944    -54.0895     78.1943
  2122.5000      0.7531     -5.4950    -55.1846     82.1846
  2122.7500      0.7332     -5.4965    -57.3851     84.2418
  2123.0000      0.6754     -5.5000    -60.7134     83.6513
  2123.2500      0.5876     -5.5059    -65.1088     80.6275
  2123.5000      0.4911     -5.5144    -70.4488     74.4935
  2123.7500      0.4064     -5.5234    -76.6068     70.9996
  2124.0000      0.3451     -5.5282    -83.5100     67.8882
  2124.2500      0.3110     -5.5241    -91.1563     67.0445
  2124.5000      0.3042     -5.5118    -99.5631     66.9215
  2124.7500      0.3242     -5.4971   -108.6647     67.3468
  2125.0000      0.3708     -5.4866   -118.2147     68.7379
  2125.2500      0.4427     -5.4849   -127.7567     70.3841
  2125.5000      0.5352     -5.4975   -136.7004     74.0002
  2125.7500      0.6390     -5.5304   -144.4755     76.5411
  2126.0000      0.7448     -5.5842   -150.6948     78.5673
  2126.2500      0.8570     -5.6466   -155.2438     77.9571
  2126.5000      1.0091     -5.6960   -158.2704     74.6202
  2126.7500      1.2830     -5.7140   -160.0796     71.8149
  2127.0000      1.8818     -5.6958   -161.0011     68.1263
  2127.2500      3.5188     -5.6507   -161.2697     66.1287
  2127.5000     10.9808     -5.5981   -160.9429     63.3598
  2127.7500 100000.0000     -5.5598   -159.8510     61.5328
  2128.0000 100000.0000     -5.5494   -157.5722     59.0656
  2128.2500     28.2087     -5.5648   -153.4341     57.6826
  2128.5000      6.7471     -5.5925   -146.5446     55.6114
  2128.7500      3.6758     -5.6217   -135.8458     53.8841
  2129.0000      2.7280     -5.6489   -120.1803     50.3352
  2129.2500      2.4385     -5.6732    -98.3758     47.1089
  2129.5000      2.4961     -5.6931    -69.3824     40.8251
  2129.7500      2.8890     -5.7060    -32.5097     36.0712
  2130.0000      3.8914     -5.7048     12.2230     29.6684
  2130.2500      6.8697     -5.6814     63.6931     26.7615
  2130.5000     34.4163     -5.6352    119.4001     24.9056
  2130.7500 100000.0000     -5.5754    175.5146     25.0587
  2131.0000 100000.0000     -5.5101    227.3913     26.6242
  2131.2500 100000.0000     -5.4276    270.5069     28.1292
  2131.5000 100000.0000     -5.2615    301.5473     30.3766
  2131.7500 100000.0000     -4.8210    319.2204     31.6165
