~Version Information
VERS.                      2.0: CWLS Log ASCII Standard - VERSION 2.0
WRAP.                       NO: One line per depth step
~Well Information Block
STRT.FT               500.0000: 
STOP.FT              2732.5000: 
STEP.FT                 0.2500: 
NULL.                -999.2500: 
COMP.          Pioneer Natural Resources: COMPANY
WELL.          Dude Canyon 22-32: WELL
FLD.           Purgatoire River: FIELD
LOC.           1662' FNL & 2446' FWL----: LOCATION
PROV.                 Colorado: PROVINCE
CNTY.               Las Animas: COUNTRY
SRVC.                Patterson: SERVICE COMPANY
DATE.          Thu Mar 10 07:15:42 2005: LOG DATE
UWI.           05 071 08257 00: UNIQUE WELL ID
~Curve Information Block
DEPT.FT            0 000 00 00: Depth
DIR.Ohm-m                     : IEL Induction Resistivity
GR.GAPI                       : Gamma Ray
SN.Ohm-m                      : IEL Short Normal
SP.mV                         : IEL Spontaneous Potential
~Parameter Information Block
~A  Depth       DIR          GR          SN          SP     
# ...
  2409.5000     11.6413    119.9253     11.8568    -16.5975
  2409.7500     11.5841    122.1438     11.8628    -16.8487
  2410.0000     11.5531    125.5924     11.8860    -17.0757
  2410.2500     11.5438    127.6566     11.9152    -17.2938
  2410.5000     11.5474    130.1575     11.9400    -17.5260
  2410.7500     11.5538    131.1548     11.9545    -17.8002
  2411.0000     11.5565    131.3352     11.9600    -18.1425
  2411.2500     11.5534    130.6978     11.9662    -18.5707
  2411.5000     11.5466    129.4115     11.9864    -19.0911
  2411.7500     11.5406    128.9633     12.0293    -19.6989
  2412.0000     11.5410    129.1788     12.0938    -20.3804
  2412.2500     11.5543    129.1598     12.1726    -21.1140
  2412.5000     11.5865    127.2079     12.2593    -21.8706
  2412.7500     11.6408    124.6955     12.3493    -22.6156
  2413.0000     11.7160    121.5110     12.4387    -23.3136
  2413.2500     11.8077    121.2244     12.5255    -23.9369
  2413.5000     11.9105    123.5576     12.6148    -24.4743
  2413.7500     12.0230    125.5974     12.7205    -24.9335
  2414.0000     12.1492    127.1049     12.8599    -25.3386
  2414.2500     12.2976    126.6369     13.0445    -25.7219
  2414.5000     12.4772    124.0303     13.2748    -26.1164
  2414.7500     12.6921    121.3755     13.5433    -26.5510
  2415.0000     12.9385    116.7861     13.8404    -27.0489
  2415.2500     13.2058    113.5823     14.1602    -27.6269
  2415.5000     13.4826    108.0595     14.5016    -28.2926
  2415.7500     13.7660    103.6699     14.8669    -29.0406
  2416.0000     14.0654     97.5495     15.2615    -29.8510
  2416.2500     14.3991     95.5059     15.6963    -30.6913
  2416.5000     14.7848     97.1032     16.1895    -31.5217
  2416.7500     15.2328    100.5770     16.7585    -32.3004
  2417.0000     15.7429    106.7001     17.4067    -32.9875
  2417.2500     16.3061    110.1153     18.1199    -33.5461
  2417.5000     16.9080    113.0005     18.8850    -33.9428
  2417.7500     17.5324    112.7146     19.7139    -34.1489
  2418.0000     18.1648    107.7406     20.6387    -34.1441
  2418.2500     18.7936    101.6516     21.6754    -33.9193
  2418.5000     19.4074     91.7944     22.7832    -33.4780
  2418.7500     19.9890     87.6798     23.8575    -32.8334
  2419.0000     20.5138     88.3959     24.7669    -32.0037
  2419.2500     20.9536     92.9373     25.4071    -31.0046
  2419.5000     21.2848    101.6785     25.7329    -29.8450
  2419.7500     21.4938    106.4081     25.7503    -28.5274
  2420.0000     21.5750    110.9119     25.4855    -27.0519
  2420.2500     21.5255    113.1756     24.9629    -25.4234
  2420.5000     21.3420    116.9175     24.2086    -23.6561
  2420.7500     21.0281    119.5455     23.2723    -21.7753
  2421.0000     20.6072    122.6629     22.2453    -19.8148
  2421.2500     20.1301    123.6027     21.2527    -17.8140
  2421.5000     19.6640    123.0157     20.4208    -15.8166
  2421.7500     19.2697    122.0852     19.8404    -13.8711
  2422.0000     18.9818    122.3560     19.5442    -12.0313
  2422.2500     18.8027    124.3913     19.5023    -10.3521
  2422.5000     18.7107    128.9710     19.6326     -8.8808
  2422.7500     18.6737    131.6577     19.8249     -7.6469
  2423.0000     18.6627    133.3804     19.9804     -6.6548
  2423.2500     18.6606    132.3426     20.0558     -5.8855
  2423.5000     18.6651    127.1258     20.0879     -5.3050
  2423.7500     18.6852    122.0091     20.1728     -4.8761
  2424.0000     18.7328    114.9898     20.4043     -4.5674
  2424.2500     18.8126    112.3168     20.8129     -4.3556
  2424.5000     18.9150    111.2661     21.3475     -4.2244
  2424.7500     19.0151    111.1028     21.9040     -4.1620
  2425.0000     19.0802    109.3855     22.3730     -4.1604
  2425.2500     19.0812    107.1200     22.6782     -4.2157
  2425.5000     19.0030    103.6909     22.7912     -4.3280
  2425.7500     18.8463    102.6159     22.7251     -4.4985
  2426.0000     18.6235    103.8394     22.5149     -4.7246
  2426.2500     18.3509    106.0830     22.2011     -4.9967
  2426.5000     18.0432    109.7374     21.8223     -5.2978
  2426.7500     17.7101    111.6045     21.4134     -5.6056
  2427.0000     17.3590    113.7817     21.0042     -5.8964
  2427.2500     17.0006    115.6502     20.6179     -6.1462
  2427.5000     16.6503    120.4105     20.2659     -6.3312
  2427.7500     16.3250    124.8337     19.9445     -6.4274
  2428.0000     16.0363    131.4212     19.6370     -6.4130
  2428.2500     15.7864    134.3774     19.3242     -6.2736
  2428.5000     15.5711    135.5604     18.9957     -6.0089
  2428.7500     15.3856    134.3680     18.6548     -5.6382
  2429.0000     15.2304    130.5118     18.3173     -5.1998
  2429.2500     15.1140    127.4713     18.0056     -4.7461
  2429.5000     15.0489    124.6957     17.7470     -4.3353
  2429.7500     15.0444    125.2739     17.5721     -4.0226
  2430.0000     15.1000    129.6497     17.5062     -3.8543
  2430.2500     15.2045    133.6320     17.5513     -3.8636
  2430.5000     15.3415    138.7024     17.6740     -4.0672
  2430.7500     15.4963    140.1576     17.8186     -4.4628
  2431.0000     15.6625    137.3446     17.9445     -5.0288
  2431.2500     15.8447    131.7598     18.0640     -5.7286
  2431.5000     16.0568    120.5410     18.2467     -6.5200
  2431.7500     16.3181    114.2216     18.5836     -7.3659
  2432.0000     16.6467    110.3482     19.1405     -8.2431
  2432.2500     17.0553    111.4452     19.9366     -9.1454
  2432.5000     17.5476    115.5737     20.9493    -10.0804
  2432.7500     18.1188    118.1509     22.1280    -11.0628
  2433.0000     18.7587    119.8528     23.4110    -12.1065
  2433.2500     19.4572    118.8236     24.7517    -13.2194
  2433.5000     20.2094    113.1554     26.1444    -14.4003
  2433.7500     21.0181    106.8411     27.6283    -15.6403
  2434.0000     21.8903     95.7637     29.2631    -16.9234
  2434.2500     22.8296     89.1786     31.0942    -18.2278
  2434.5000     23.8243     83.1440     33.1274    -19.5244
  2434.7500     24.8391     82.2730     35.3126    -20.7771
  2435.0000     25.8141     84.5424     37.5353    -21.9434
  2435.2500     26.6739     86.6591     39.6328    -22.9773
  2435.5000     27.3423     87.4014     41.4429    -23.8315
  2435.7500     27.7589     85.4241     42.8550    -24.4551
  2436.0000     27.8912     80.0772     43.8228    -24.7892
  2436.2500     27.7351     76.5774     44.3227    -24.7605
  2436.5000     27.3033     73.5420     44.2869    -24.2812
  2436.7500     26.6055     73.2154     43.5701    -23.2587
  2437.0000     25.6367     74.4683     41.9883    -21.6130
  2437.2500     24.3852     75.8926     39.4274    -19.2993
  2437.5000     22.8569     78.1279     35.9595    -16.3244
  2437.7500     21.1024     79.3066     31.8802    -12.7546
  2438.0000     19.2201     80.5255     27.6228     -8.7119
  2438.2500     17.3308     81.5688     23.5955     -4.3623
  2438.5000     15.5421     85.3573     20.0530      0.0996
  2438.7500     13.9242     90.4827     17.0807      4.4692
  2439.0000     12.5075    102.6645     14.6674      8.5529
  2439.2500     11.2923    112.6180     12.7803     12.1905
  2439.5000     10.2622    125.9667     11.3853     15.2756
  2439.7500      9.3944    131.5646     10.4243     17.7689
  2440.0000      8.6669    135.0664      9.8009     19.6969
  2440.2500      8.0625    136.3833      9.3997     21.1381
  2440.5000      7.5681    140.4222      9.1230     22.1989
  2440.7500      7.1732    144.2790      8.9133     22.9882
  2441.0000      6.8681    147.9574      8.7465     23.5986
  2441.2500      6.6427    147.1038      8.6126     24.0975
  2441.5000      6.4871    141.5905      8.5055     24.5264
  2441.7500      6.3924    137.2342      8.4216     24.9048
  2442.0000      6.3513    132.6864      8.3602     25.2347
  2442.2500      6.3586    131.3524      8.3204     25.5048
  2442.5000      6.4109    130.9796      8.3043     25.6953
  2442.7500      6.5055    131.0387      8.3212     25.7841
