~Version Information
VERS.                      2.0: CWLS Log ASCII Standard - VERSION 2.0
WRAP.                       NO: One line per depth step
~Well Information Block
STRT.FT                15.0000: 
STOP.FT              1869.0000: 
STEP.FT                 0.2500: 
NULL.                -999.2500: 
COMP.          Pioneer Natural Resources: COMPANY
WELL.          Victory 12-14 Tr: WELL
FLD.           Purgatoire River: FIELD
LOC.           2522' FNL & 276' FWL: LOCATION
PROV.                 Colorado: PROVINCE
CNTY.               Las Animas: COUNTRY
SRVC.                Patterson: SERVICE COMPANY
DATE.          Fri Jul 22 14:39:41 2005: LOG DATE
UWI.           05 071 08433 00: UNIQUE WELL ID
~Curve Information Block
DEPT.FT            0 000 00 00: Depth
GR.GAPI                       : Gamma Ray
CCL.                          : Casing Collar Locator
TT3.usec                      : CBL 3' Travel Time
AMP3.mV                       : CBL 3' Amplitude
~Parameter Information Block
~A  Depth        GR         CCL         TT3         AMP3    
# ...
   852.5000     78.0165      0.0000    718.4608     11.0854
   852.7500     73.0827      0.0000    714.5391     11.0444
   853.0000     69.0242      0.0000    703.0675     10.9957
   853.2500     66.2020      0.0000    687.8648     10.9433
   853.5000     64.4996      0.0000    675.1268     10.8904
   853.7500     63.6729      0.0000    670.1720     10.8284
   854.0000     63.7638      0.0000    675.1681     10.7394
   854.2500     64.9795      0.0000    688.5102     10.6139
   854.5000     67.1265      0.0000    705.6053     10.4646
   854.7500     69.3791      0.0000    721.1598     10.3196
   855.0000     70.8168      0.0000    731.8991     10.2027
   855.2500     71.1862      0.0000    737.6080     10.1196
   855.5000     70.9652      0.0000    739.9323     10.0635
   855.7500     70.6872      0.0000    740.6156     10.0303
   856.0000     70.4449      0.0000    740.6815     10.0246
   856.2500     70.1238      0.0000    740.5295     10.0541
   856.5000     69.8802      0.0000    740.2850     10.1247
   856.7500     70.1048      0.0000    740.0083     10.2380
   857.0000     70.8809      0.0000    739.7560     10.3873
   857.2500     71.6653      0.0000    739.5729     10.5577
   857.5000     71.7429      0.0000    739.4822     10.7275
   857.7500     71.0358      0.0000    739.4814     10.8680
   858.0000     70.2799      0.0000    739.5486     10.9494
   858.2500     70.3420      0.0000    739.6561     10.9588
   858.5000     71.6379      0.0000    739.7806     10.9116
   858.7500     74.3758      0.0000    739.9071     10.8387
   859.0000     78.9666      0.0000    740.0322     10.7639
   859.2500     85.6949      0.0000    740.1619     10.6980
   859.5000     93.9174      0.0000    740.2929     10.6497
   859.7500    101.9167      0.0000    740.3926     10.6322
   860.0000    107.9014      0.0000    740.4151     10.6566
   860.2500    111.2113      0.0000    740.3450     10.7198
   860.5000    112.4140      0.0000    740.2109     10.7958
   860.7500    112.3177      0.0000    740.0458     10.8455
   861.0000    111.2179      0.0000    739.7808     10.8453
   861.2500    109.1373      0.0000    739.1170     10.8050
   861.5000    106.4296      0.0000    737.4425     10.7560
   861.7500    103.8294      0.0000    734.0808     10.7244
   862.0000    101.8452      0.0000    729.1329     10.7145
   862.2500    100.2584      0.0000    724.3015     10.7100
   862.5000     98.3773      0.0000    722.2272     10.6888
   862.7500     95.7203      0.0000    724.2224     10.6460
   863.0000     92.2806      0.0000    728.8631     10.6008
   863.2500     88.2934      0.0000    733.2554     10.5795
   863.5000     84.1211      0.0000    735.3112     10.5930
   863.7500     80.3515      0.0000    734.5359     10.6351
   864.0000     77.5702      0.0000    731.1465     10.6966
   864.2500     75.8152      0.0000    724.8864     10.7711
   864.5000     74.5281      0.0000    714.8292     10.8501
   864.7500     73.2270      0.0000    700.7076     10.9227
   865.0000     71.9985      0.0000    684.5313     10.9796
   865.2500     71.2959      0.0000    670.3063     11.0135
   865.5000     71.5698      0.0000    661.8583     11.0192
   865.7500     72.9674      0.0000    661.1021     10.9987
   866.0000     74.9250      0.0000    667.6320     10.9607
   866.2500     76.3094      0.0000    678.7644     10.9126
   866.5000     76.5447      0.0000    690.4352     10.8554
   866.7500     76.4547      0.0000    699.7623     10.7878
   867.0000     77.6155      0.0000    707.0673     10.7128
   867.2500     81.0344      0.0000    714.4411     10.6373
   867.5000     86.4854      0.0000    722.5770     10.5642
   867.7500     92.6363      0.0000    730.0410     10.4867
   868.0000     97.6853      0.0000    735.2328     10.3939
   868.2500    100.3029      0.0000    737.9237     10.2872
   868.5000    100.2896      0.0000    738.9521     10.1831
   868.7500     98.4859      0.0000    739.2477     10.1008
   869.0000     96.1650      0.0000    739.3437     10.0499
   869.2500     94.2642      0.0000    739.4061     10.0305
   869.5000     92.6334      0.0000    739.4261     10.0343
   869.7500     89.9706      0.0000    739.3914     10.0438
   870.0000     85.0985      0.0000    739.3661     10.0403
   870.2500     78.6082      0.0000    739.4589     10.0185
   870.5000     72.8408      0.0000    739.7090      9.9939
   870.7500     70.0122      0.0000    740.0293      9.9900
   871.0000     70.6079      0.0000    740.2870     10.0165
   871.2500     73.5822      0.0000    740.4214     10.0591
   871.5000     77.6719      0.0000    740.4567     10.0949
   871.7500     82.2611      0.0000    740.4326     10.1134
   872.0000     87.2153      0.0000    740.3668     10.1202
   872.2500     92.2676      0.0000    740.2750     10.1273
   872.5000     96.7140      0.0000    740.1812     10.1463
   872.7500     99.7377      0.0000    740.0974     10.1848
   873.0000    101.1803      0.0000    740.0139     10.2398
   873.2500    101.9096      0.0000    739.9168     10.2972
   873.5000    103.0177      0.0000    739.8038     10.3367
   873.7500    104.6545      0.0000    739.6815     10.3377
   874.0000    106.0496      0.0000    739.5568     10.2906
   874.2500    106.6389      0.0000    739.4361     10.2097
   874.5000    106.6054      0.0000    739.3286     10.1296
   874.7500    106.2424      0.0000    739.2557     10.0802
   875.0000    105.4014      0.0000    739.2547     10.0683
   875.2500    103.9225      0.0000    739.3572     10.0830
   875.5000    102.1599      0.0000    739.5530     10.1120
   875.7500    100.6455      0.0000    739.7826     10.1492
   876.0000     99.5471      0.0000    739.9781     10.1904
   876.2500     98.7270      0.0000    740.1083     10.2244
   876.5000     97.9390      0.0000    740.1827     10.2315
   876.7500     96.7263      0.0000    740.2242     10.1953
   877.0000     94.5576      0.0000    740.2520     10.1187
   877.2500     91.4426      0.0000    740.2892     10.0222
   877.5000     88.3309      0.0000    740.3747      9.9319
   877.7500     86.6201      0.0000    740.5466      9.8708
   878.0000     87.0770      0.0000    740.8090      9.8539
   878.2500     89.2524      0.0000    741.1183      9.8835
   878.5000     91.9139      0.0000    741.4070      9.9460
   878.7500     93.8271      0.0000    741.6215     10.0180
   879.0000     94.0502      0.0000    741.7437     10.0795
   879.2500     91.9422      0.0000    741.7776     10.1246
   879.5000     87.4811      0.0000    741.7325     10.1637
   879.7500     81.6960      0.0000    741.6415     10.2166
   880.0000     76.4384      0.0000    741.5834     10.3055
   880.2500     73.4391      0.0000    741.6430     10.4455
   880.5000     73.5745      0.0000    741.8412     10.6353
   880.7500     76.8721      0.0000    742.1212     10.8607
   881.0000     82.7682      0.0000    742.4034     11.1103
   881.2500     90.2159      0.0000    742.6356     11.3872
   881.5000     97.8770      0.0000    742.7886     11.6958
   881.7500    104.4853      0.0000    742.8693     12.0175
   882.0000    109.1586      0.0000    742.9986     12.3046
   882.2500    111.6745      0.0000    743.5145     12.5077
   882.5000    112.5400      0.0000    744.9359     12.6141
   882.7500    112.3823      0.0000    747.6112     12.6538
   883.0000    111.1958      0.0000    751.2167     12.6682
   883.2500    108.7201      0.0000    754.5519     12.6753
   883.5000    105.6259      0.0000    756.0167     12.6673
   883.7500    103.5981      0.0000    754.6052     12.6304
   884.0000    103.8236      0.0000    750.6447     12.5595
   884.2500    105.7640      0.0000    745.0305     12.4571
   884.5000    107.7423      0.0000    736.8890     12.3294
   884.7500    108.5306      0.0000    721.9368     12.1903
   885.0000    108.0798      0.0000    693.9138     12.0645
   885.2500    106.8704      0.0000    648.9717     11.9803
   885.5000    105.1032      0.0000    590.7230     11.9551
   885.7500    102.8970      0.0000    532.2521     11.9895
