~Version Information
VERS.                      2.0: CWLS Log ASCII Standard - VERSION 2.0
WRAP.                       NO: One line per depth step
~Well Information Block
STRT.FT               866.0000: 
STOP.FT              2029.0000: 
STEP.FT                 0.2500: 
NULL.                -999.2500: 
COMP.          Petrogulf Corporation: COMPANY
WELL.             State 16-21R: WELL
FLD.           Purgatorie River: FIELD
LOC.           203' FNL & 1560' FWL: LOCATION
PROV.                 Colorado: PROVINCE
CNTY.               Las Animas: COUNTRY
SRVC.                Patterson: SERVICE COMPANY
DATE.          Tue Aug 16 12:55:36 2005: LOG DATE
UWI.                071 08313 : UNIQUE WELL ID
~Curve Information Block
DEPT.FT            0 000 00 00: Depth
SP.mV                         : DIL Spontaneous Potential
RILD.Ohm-m                    : DIL Deep Resistivity
RILM.Ohm-m                    : DIL Medium Resistivity
RLL3.Ohm-m                    : DIL Shallow Resistivity
GR.GAPI                       : Gamma Ray
~Parameter Information Block
~A  Depth        SP         RILD        RILM        RLL3         GR     
# ...
  1174.0000     62.7119     12.8649     14.2864     19.9324    103.5287
  1174.2500     60.1286     12.6944     14.2590     20.3359    108.2056
  1174.5000     57.8096     12.5701     14.0938     20.1065    113.6579
  1174.7500     56.1707     12.5152     13.9321     20.1121    113.2141
  1175.0000     54.9832     12.4430     13.6469     20.2679    104.6626
  1175.2500     53.5735     12.2477     13.7101     19.0721    106.8350
  1175.5000     51.9038     12.1667     13.7929     18.3229    104.1148
  1175.7500     50.0024     12.3271     13.7964     23.1783     96.6146
  1176.0000     47.9909     12.4026     13.6901     30.2484     94.6268
  1176.2500     46.5273     12.5854     13.5038     30.9373     98.4167
  1176.5000     45.2718     12.6521     13.3092     22.8683    100.8300
  1176.7500     45.3474     12.6118     13.2569     18.1028    106.3793
  1177.0000     45.7602     12.4909     13.0558     17.3782    115.7190
  1177.2500     46.1029     12.5930     13.0729     18.5806    114.1403
  1177.5000     45.9076     12.7283     13.2375     18.9723    116.9488
  1177.7500     45.1846     12.9511     13.2262     17.8923    114.2443
  1178.0000     44.4496     13.1812     13.4626     15.8666    114.0119
  1178.2500     43.6994     13.0522     13.5898     16.0324    117.7179
  1178.5000     42.6787     13.2076     13.8696     17.4776    112.9417
  1178.7500     42.4145     13.4624     14.1013     18.7672    113.4206
  1179.0000     42.7858     13.4978     14.6512     18.6399    109.3706
  1179.2500     43.4950     13.6339     15.1508     19.6401    107.7036
  1179.5000     44.2217     13.5929     15.6679     24.4745    114.0134
  1179.7500     44.7061     13.8164     15.9996     26.6374    112.3192
  1180.0000     44.9102     13.8488     16.1990     25.0087    111.6831
  1180.2500     45.0436     13.7485     16.2501     23.1144    104.5484
  1180.5000     45.5724     13.7532     16.4453     23.2535    111.4083
  1180.7500     46.5347     13.7895     16.5600     25.5724    107.5974
  1181.0000     47.5862     13.5604     16.5847     27.5520    110.1507
  1181.2500     48.8953     13.3973     16.2645     27.4885    110.7473
  1181.5000     50.6426     13.3053     15.5789     26.7961    120.9192
  1181.7500     52.4162     13.0210     15.2857     26.1171    115.3057
  1182.0000     53.5382     12.5459     14.5598     24.3575    109.3226
  1182.2500     54.3903     12.2225     13.9371     20.5929    106.3614
  1182.5000     55.3323     11.9407     13.3572     20.0829    122.8224
  1182.7500     56.7444     11.7403     12.8644     18.1947    111.9786
  1183.0000     58.5550     11.4947     12.3092     16.2331    113.4912
  1183.2500     61.1356     11.2336     11.6582     13.4786    114.3534
  1183.5000     62.6054     11.1397     11.3697     12.9867    125.4780
  1183.7500     62.6134     10.8934     11.0482     13.1424    131.5626
  1184.0000     62.1914     10.9481     10.9478     15.2082    127.1988
  1184.2500     61.6409     10.9160     10.8785     14.4366    121.8752
  1184.5000     61.3099     11.0505     10.8367     15.1446    128.7367
  1184.7500     61.7292     11.1519     11.0018     14.3598    124.8519
  1185.0000     62.7545     11.3395     11.3140     14.2159    117.6953
  1185.2500     64.3739     11.5776     11.8865     14.9544    115.5006
  1185.5000     65.5450     11.8096     12.4015     17.2201    110.9423
  1185.7500     66.8753     12.1209     13.2959     19.1762    102.6844
  1186.0000     67.0094     12.5130     14.1168     23.0104     95.7028
  1186.2500     66.7678     12.8478     15.1338     27.6070     94.3144
  1186.5000     66.7168     13.1357     15.9826     31.5154     94.2508
  1186.7500     67.3225     13.6786     16.7993     34.6201     94.4967
  1187.0000     68.5262     14.1522     17.3364     34.0483     86.9593
  1187.2500     70.1996     14.6188     17.5454     30.1691     92.6756
  1187.5000     71.0713     15.3416     17.7069     24.5456    100.4642
  1187.7500     70.7719     15.9723     18.1830     21.0391    101.5530
  1188.0000     69.5896     16.5665     18.6494     19.6843    100.9092
  1188.2500     68.3383     17.0419     19.0309     23.8766     98.8655
  1188.5000     67.4254     17.3430     19.9810     24.2120     91.4803
  1188.7500     66.2775     17.4865     20.1253     24.8591     96.5554
  1189.0000     65.3000     17.4108     20.7886     28.2054     93.5650
  1189.2500     64.3257     17.1363     20.7994     29.5119     93.1528
  1189.5000     63.5391     16.9472     20.6742     27.3382     98.7840
  1189.7500     62.5400     16.3196     20.3566     25.7988     97.7166
  1190.0000     61.6081     15.5185     20.0155     28.3059    103.1955
  1190.2500     60.6065     15.5281     19.6339     29.7477    109.8647
  1190.5000     59.8142     15.1414     19.1427     28.4190    109.8197
  1190.7500     60.0533     15.0253     18.3011     27.6385    111.0562
  1191.0000     60.1599     14.8069     17.3232     24.7174    110.8912
  1191.2500     61.2958     14.6216     16.9432     20.4737    115.1694
  1191.5000     63.5056     14.6312     16.1723     19.0760    107.8302
  1191.7500     63.9820     14.6894     15.7894     21.2926    110.6802
  1192.0000     63.8120     14.6026     15.3681     21.3817    117.7571
  1192.2500     63.0646     14.4391     15.0668     19.1647    118.6724
  1192.5000     62.5626     14.2071     14.8869     17.5050    114.1940
  1192.7500     61.8605     13.7924     15.1585     17.6258    112.8181
  1193.0000     62.4941     13.4919     15.4593     17.8821    107.2167
  1193.2500     63.3146     13.1680     15.6899     19.1499     99.1245
  1193.5000     64.4054     12.8839     15.9070     22.0813     96.6033
  1193.7500     65.1062     12.5734     15.6992     26.6826     95.7626
  1194.0000     65.6719     12.2526     15.0919     28.3135    106.6675
  1194.2500     65.3217     12.2198     14.4056     25.7623    111.8770
  1194.5000     64.9132     11.9587     13.7441     23.9020    117.3162
  1194.7500     65.6840     11.8393     13.1937     20.6512    113.3946
  1195.0000     67.7950     11.7091     12.6920     18.2104    125.5309
  1195.2500     70.9368     11.5349     12.2597     16.1868    124.5547
  1195.5000     73.0498     11.4185     12.1109     16.0140    127.3759
  1195.7500     75.3620     11.0892     11.8753     16.6766    128.1482
  1196.0000     76.2798     10.9612     11.4901     15.7168    131.3994
  1196.2500     76.9193     10.6556     11.3239     15.9362    127.7803
  1196.5000     77.0307     10.3574     11.0710     15.7947    138.5595
  1196.7500     77.0366     10.3005     10.8317     15.3491    128.7021
  1197.0000     77.2617     10.1668     10.5980     15.7582    122.9014
  1197.2500     78.1304     10.0735     10.4647     16.4454    124.7912
  1197.5000     79.7339     10.0800     10.3481     14.2552    121.0107
  1197.7500     78.1141     10.0810     10.2797     13.8292    133.9906
  1198.0000     75.6813     10.1182     10.5239     14.6447    133.2351
  1198.2500     72.4418     10.2249     10.7233     15.5187    134.4415
  1198.5000     69.7905     10.4372     10.9993     15.4839    136.4953
  1198.7500     69.3584     10.5221     11.2409     17.1757    139.7672
  1199.0000     68.5548     10.7134     11.6284     19.4499    131.3186
  1199.2500     68.1108     10.9015     11.8548     20.4554    129.5775
  1199.5000     67.6892     11.0663     12.0945     21.3036    138.4694
  1199.7500     66.6035     11.2941     12.4163     22.4462    134.8815
  1200.0000     65.5488     11.6019     12.6717     24.2154    134.6708
  1200.2500     63.3982     11.9697     12.8446     23.8136    128.1196
  1200.5000     61.5504     12.4798     13.1988     22.6573    132.8950
  1200.7500     60.2233     13.2598     13.4869     20.7870    128.4673
  1201.0000     59.5856     13.8127     13.6566     19.6674    131.7719
  1201.2500     58.8395     14.8299     14.4462     18.9244    133.5858
  1201.5000     58.2666     15.6955     15.4377     18.5244    130.7649
  1201.7500     56.4338     16.9102     16.6479     20.6307    125.6363
