~Version Information
VERS.                      2.0: CWLS Log ASCII Standard - VERSION 2.0
WRAP.                       NO: One line per depth step
~Well Information Block
STRT.FT               259.0000: 
STOP.FT              2379.0000: 
STEP.FT                 0.2500: 
NULL.                -999.2500: 
COMP.          Pioneer Natural Resources: COMPANY
WELL.          Foothills 12-36: WELL
FLD.           Purgatoire River: FIELD
LOC.           2450' FNL & 201' FWL: LOCATION
PROV.                 Colorado: PROVINCE
CNTY.               Las Animas: COUNTRY
SRVC.                Patterson: SERVICE COMPANY
DATE.          Thu Apr 21 09:19:57 2005: LOG DATE
UWI.           05 071 08339 00: UNIQUE WELL ID
~Curve Information Block
DEPT.FT            0 000 00 00: Depth
DCAL.in                       : CDL Caliper
RHOB.g/cc                     : CDL Bulk Density
RHOC.g/cc                     : CDL Density Correction
DPOR.pu                       : CDL Density Porosity
GR.GAPI                       : Gamma Ray
NPOR.pu                       : Neutron Porosity
~Parameter Information Block
~A  Depth       DCAL        RHOB        RHOC        DPOR         GR         NPOR    
# ...
  1939.0000      7.7795      2.4139     -0.0390     14.3071    112.2566     28.1151
  1939.2500      7.7822      2.4838      0.1278     10.0709    115.7263     27.1531
  1939.5000      7.7908      2.5495      0.1188      6.0935    119.9878     30.0644
  1939.7500      7.8055      2.5247      0.1141      7.5950    117.4131     28.2228
  1940.0000      7.8206      2.4617      0.0281     11.4116    122.5034     27.4085
  1940.2500      7.8347      2.4384      0.0344     12.8225    102.4259     27.4543
  1940.5000      7.8455      2.3889     -0.0428     15.8268    116.0439     28.1626
  1940.7500      7.8377      2.3988      0.0264     15.2232    109.7609     28.4173
  1941.0000      7.8086      2.4105      0.0173     14.5154     94.9657     28.4738
  1941.2500      7.7807      2.4284      0.0707     13.4324     99.2460     27.7228
  1941.5000      7.7659      2.4840      0.1040     10.0628    100.5144     27.5435
  1941.7500      7.7574      2.5093      0.0853      8.5290     92.0634     27.3080
  1942.0000      7.7613      2.4938     -0.0383      9.4686    103.3390     29.3732
  1942.2500      7.7847      2.5068      0.0085      8.6814    100.9750     27.9372
  1942.5000      7.8077      2.4843      0.0486     10.0448    102.0940     26.3835
  1942.7500      7.8193      2.4606     -0.0215     11.4773     90.9086     28.2070
  1943.0000      7.8250      2.4546      0.0147     11.8410     96.5238     27.6691
  1943.2500      7.8350      2.4223     -0.0390     13.8030     94.4337     26.5614
  1943.5000      7.8388      2.4266     -0.0479     13.5414     79.2065     27.8518
  1943.7500      7.8153      2.4591      0.0501     11.5699     76.8103     27.7578
  1944.0000      7.7808      2.4178     -0.0058     14.0754     69.5369     26.2309
  1944.2500      7.7480      2.4829      0.0627     10.1282     63.5538     23.4732
  1944.5000      7.7167      2.5571      0.1123      5.6290     65.0789     23.6488
  1944.7500      7.7020      2.6000      0.1779      3.0314     61.9172     23.3095
  1945.0000      7.7083      2.5606      0.0462      5.4212     70.2010     25.0889
  1945.2500      7.7223      2.5747      0.1568      4.5609     69.9611     24.5518
  1945.5000      7.7335      2.5351      0.0702      6.9656     69.8330     21.0029
  1945.7500      7.7406      2.5308      0.0778      7.2245     74.8927     22.8701
  1946.0000      7.7431      2.4684     -0.0590     11.0039     82.0947     26.1192
  1946.2500      7.7355      2.5060      0.0884      8.7248     92.3564     25.2112
  1946.5000      7.7297      2.5001      0.0820      9.0823     85.9271     24.5890
  1946.7500      7.7379      2.4726      0.0316     10.7532    101.6937     25.4413
  1947.0000      7.7466      2.4538      0.0804     11.8919     97.6976     24.8046
  1947.2500      7.7445      2.4162      0.0109     14.1667     80.8760     23.5716
  1947.5000      7.7418      2.4233      0.0424     13.7424     84.8055     24.5597
  1947.7500      7.7388      2.4274     -0.0111     13.4896     83.3126     23.6242
  1948.0000      7.7276      2.5162      0.1077      8.1084     91.2973     24.1485
  1948.2500      7.7160      2.5269      0.1583      7.4614    100.5483     23.6237
  1948.5000      7.7179      2.4987      0.1239      9.1719     89.5954     24.5296
  1948.7500      7.7359      2.5023      0.0839      8.9494     88.5739     23.9405
  1949.0000      7.7488      2.4993      0.0701      9.1338     68.9426     22.5474
  1949.2500      7.7456      2.5457      0.1121      6.3197     53.9191     21.4710
  1949.5000      7.7501      2.4913      0.0588      9.6177     36.1983     21.6685
  1949.7500      7.7592      2.4533     -0.0221     11.9227     28.9948     21.6986
  1950.0000      7.7614      2.5194      0.0830      7.9150     21.3892     20.9580
  1950.2500      7.7622      2.4863      0.0795      9.9203     23.9408     19.7207
  1950.5000      7.7649      2.4990      0.0964      9.1529     25.9446     18.0455
  1950.7500      7.7693      2.4689      0.0237     10.9764     24.4450     17.8288
  1951.0000      7.7725      2.4243      0.0113     13.6774     26.0131     18.2508
  1951.2500      7.7722      2.4263     -0.0045     13.5578     24.1639     16.0300
  1951.5000      7.7712      2.4917      0.0417      9.5961     24.6357     17.0241
  1951.7500      7.7701      2.5076      0.0537      8.6289     27.1969     18.6218
  1952.0000      7.7678      2.4442      0.0128     12.4703     24.4782     21.1237
  1952.2500      7.7665      2.4188      0.0066     14.0110     22.6056     20.4996
  1952.5000      7.7668      2.4330     -0.0002     13.1515     29.2091     18.1056
  1952.7500      7.7650      2.4370      0.0189     12.9077     24.7265     16.8812
  1953.0000      7.7605      2.4453      0.0188     12.4033     23.2192     15.5233
  1953.2500      7.7574      2.4710      0.0264     10.8500     24.3509     16.8879
  1953.5000      7.7563      2.5395      0.1183      6.6952     28.9224     18.9389
  1953.7500      7.7588      2.5417      0.0615      6.5657     39.0595     18.3338
  1954.0000      7.7654      2.5052      0.0310      8.7765     49.5076     20.9209
  1954.2500      7.7710      2.4493      0.0200     12.1609     59.7932     25.0364
  1954.5000      7.7752      2.4013     -0.0526     15.0747     78.4125     26.4317
  1954.7500      7.7894      2.4570      0.0025     11.6980     93.9823     26.3223
  1955.0000      7.8145      2.5192      0.1268      7.9254    103.2015     28.4091
  1955.2500      7.8265      2.4662      0.0945     11.1407    100.1767     26.7497
  1955.5000      7.8289      2.4329      0.0909     13.1560    103.1438     28.1411
  1955.7500      7.8369      2.3955      0.0363     15.4236    104.7269     28.2900
  1956.0000      7.8457      2.4289      0.0625     13.4005     99.4584     28.2905
  1956.2500      7.8539      2.4187      0.0970     14.0199     82.5457     28.9438
  1956.5000      7.8520      2.3985      0.1640     15.2413     83.8815     32.1292
  1956.7500      7.8578      2.3008      0.1253     21.1621     68.6549     31.4180
  1957.0000      7.9156      2.0015     -0.0394     39.3036     52.6039     32.6680
  1957.2500      7.9898      1.7593     -0.0817     53.9805     58.9634     31.9157
  1957.5000      8.0160      1.3601     -0.1803     78.1730     55.9939     31.9596
  1957.7500      8.0322      1.4073     -0.0821     75.3130     63.4556     32.0207
  1958.0000      8.0324      1.7573      0.1822     54.1054     75.2369     32.8688
  1958.2500      7.9730      1.9003      0.2025     45.4345     80.2025     33.5886
  1958.5000      7.9054      2.2067      0.2482     26.8664     82.6473     31.8911
  1958.7500      7.8796      2.2251      0.1137     25.7485     87.8765     31.1093
  1959.0000      7.9003      2.2424      0.0429     24.7028     88.7957     30.4585
  1959.2500      7.9483      2.3651      0.2534     17.2690     95.7224     31.7510
  1959.5000      8.0244      2.3863      0.3304     15.9796     99.7659     30.6677
  1959.7500      8.1327      2.3478      0.1703     18.3153    101.0617     30.7154
  1960.0000      8.1740      2.3375      0.0589     18.9423     86.6877     31.5227
  1960.2500      8.1262      2.3618      0.0678     17.4647     91.0763     29.8692
  1960.5000      8.0515      2.4866      0.2541      9.9047    101.9297     29.6554
  1960.7500      7.9743      2.5462      0.2538      6.2884     98.3401     30.2026
  1961.0000      7.9296      2.5875      0.2515      3.7876     99.0156     30.0245
  1961.2500      7.9037      2.5937      0.2626      3.4132    106.9305     29.5361
  1961.5000      7.8765      2.5061      0.1224      8.7236    108.0980     28.9633
  1961.7500      7.8631      2.4924      0.0749      9.5502    101.8430     28.6009
  1962.0000      7.8657      2.4264      0.0442     13.5490    104.6739     30.9718
  1962.2500      7.8761      2.4273      0.1110     13.4940    100.3047     32.1279
  1962.5000      7.9174      2.4099      0.1240     14.5507     93.1329     31.4250
  1962.7500      8.0442      2.3428      0.0825     18.6165     92.1255     31.3186
