~Version Information
VERS.                      2.0: CWLS Log ASCII Standard - VERSION 2.0
WRAP.                       NO: One line per depth step
~Well Information Block
STRT.FT                 3.7500: 
STOP.FT               979.7500: 
STEP.FT                 0.2500: 
NULL.                -999.2500: 
COMP.          Pioneer Natural Resources: COMPANY
WELL.          Rising Star 22-11: WELL
FLD.           Purgatoire River: FIELD
LOC.           2152' FNL & 2105' FWL: LOCATION
PROV.                 Colorado: PROVINCE
CNTY.               Las Animas: COUNTRY
SRVC.                Patterson: SERVICE COMPANY
DATE.          Sat Apr 16 09:17:01 2005: LOG DATE
UWI.           05 071 08354 00: UNIQUE WELL ID
~Curve Information Block
DEPT.FT            0 000 00 00: Depth
GR.GAPI                       : Gamma Ray
CCL.                          : Casing Collar Locator
TT3.usec                      : CBL 3' Travel Time
AMP3.mV                       : CBL 3' Amplitude
~Parameter Information Block
~A  Depth        GR         CCL         TT3         AMP3    
# ...
   640.2500    106.3546      0.0000    878.9368      9.0865
   640.5000    105.7735      0.0000    905.7778      9.2542
   640.7500    105.0053      0.0000    947.0980      9.4030
   641.0000    104.8225      0.0000    992.5159      9.5223
   641.2500    104.3222      0.0000   1034.0571      9.6126
   641.5000    101.6844      0.0000   1066.4149      9.6837
   641.7500     96.0500      0.0000   1087.1802      9.7415
   642.0000     88.5176      0.0000   1097.6355      9.7850
   642.2500     81.5306      0.0000   1101.5137      9.8092
   642.5000     77.3175      0.0000   1102.4016      9.8081
   642.7500     76.3995      0.0000   1102.3254      9.7759
   643.0000     77.3090      0.0000   1102.0348      9.7062
   643.2500     77.9671      0.0000   1101.7623      9.5909
   643.5000     77.3818      0.0000   1101.5729      9.4227
   643.7500     75.9963      0.0000   1101.4315      9.2079
   644.0000     74.8055      0.0000   1100.9434      8.9771
   644.2500     74.5592      0.0000   1098.9977      8.7728
   644.5000     75.5616      0.0000   1093.4678      8.6227
   644.7500     77.6659      0.0000   1082.0371      8.5294
   645.0000     80.3346      0.0000   1065.0865      8.4820
   645.2500     82.8022      0.0000   1048.4781      8.4668
   645.5000     84.2410      0.0000   1041.1984      8.4665
   645.7500     84.0351      0.0000   1047.4534      8.4621
   646.0000     82.2818      0.0000   1061.6842      8.4419
   646.2500     80.0192      0.0000   1072.5242      8.4074
   646.5000     78.6228      0.0000   1070.8459      8.3674
   646.7500     78.8278      0.0000   1054.3617      8.3310
   647.0000     80.2977      0.0000   1027.5447      8.3033
   647.2500     81.8559      0.0000    997.7028      8.2833
   647.5000     82.1182      0.0000    968.6185      8.2672
   647.7500     80.4584      0.0000    937.4420      8.2602
   648.0000     77.7351      0.0000    899.5053      8.2809
   648.2500     75.8363      0.0000    856.1848      8.3471
   648.5000     76.3315      0.0000    816.0552      8.4566
   648.7500     79.6276      0.0000    788.3936      8.5857
   649.0000     85.0339      0.0000    777.3054      8.7055
   649.2500     90.9465      0.0000    782.2086      8.8000
   649.5000     95.1834      0.0000    801.2285      8.8696
   649.7500     96.0738      0.0000    832.1964      8.9196
   650.0000     93.5665      0.0000    871.1028      8.9475
   650.2500     89.0763      0.0000    911.0593      8.9497
   650.5000     84.3957      0.0000    943.6625      8.9405
   650.7500     80.8637      0.0000    962.8152      8.9440
   651.0000     79.0875      0.0000    970.2285      8.9397
   651.2500     78.8846      0.0000    977.8995      8.8192
   651.5000     79.4328      0.0000   1001.5261      8.4360
   651.7500     79.7425      0.0000   1047.9634      7.7480
   652.0000     79.1544      0.0000   1108.9910      6.9226
   652.2500     77.4145      0.0000   1167.2756      6.2618
   652.5000     74.5272      0.0000   1208.8568      5.9817
   652.7500     70.7872      0.0000   1231.8485      6.0647
   653.0000     66.8938     -3.0000   1244.2596      6.3286
   653.2500     63.8532     -2.4731   1253.3732      6.5969
   653.5000     62.6802      0.0000   1257.5371      6.7893
   653.7500     63.9710      0.0000   1248.8561      6.9091
   654.0000     67.4364      0.0000   1222.8956      6.9942
   654.2500     71.7086      0.0000   1183.8959      7.0746
   654.5000     74.9411      0.0000   1141.9760      7.1680
   654.7500     76.0925      0.0000   1109.8478      7.3251
   655.0000     75.7923      0.0000   1100.4781      7.6397
   655.2500     75.7529      0.0000   1118.9861      8.1557
   655.5000     77.2894      0.0000   1153.1655      8.7732
   655.7500     80.5734      0.0000   1176.7596      9.2927
   656.0000     84.9767      0.0000   1166.6315      9.5547
   656.2500     89.4175      0.0000   1118.4814      9.5330
   656.5000     92.3637      0.0000   1049.1014      9.3140
   656.7500     92.3040      0.0000    986.2443      9.0197
   657.0000     88.8668      0.0000    953.6232      8.7534
   657.2500     83.3923      0.0000    958.2960      8.5829
   657.5000     78.2366      0.0000    988.1974      8.5373
   657.7500     75.6225      0.0000   1022.8716      8.6046
   658.0000     76.8649      0.0000   1048.4768      8.7408
   658.2500     81.7937      0.0000   1063.5778      8.8889
   658.5000     88.5139      0.0000   1073.3293      9.0000
   658.7500     94.1761      0.0000   1081.6025      9.0486
   659.0000     96.6350      0.0000   1088.7589      9.0368
   659.2500     95.6717      0.0000   1093.8811      8.9870
   659.5000     92.5827      0.0000   1096.8297      8.9279
   659.7500     88.5424      0.0000   1098.2578      8.8836
   660.0000     83.6557      0.0000   1098.8333      8.8688
   660.2500     77.7719      0.0000   1098.9052      8.8830
   660.5000     71.6607      0.0000   1098.6660      8.9054
   660.7500     66.8293      0.0000   1098.3088      8.9009
   661.0000     64.4441      0.0000   1098.0071      8.8402
   661.2500     64.8474      0.0000   1097.8386      8.7204
   661.5000     67.7820      0.0000   1097.7671      8.5665
   661.7500     72.5076      0.0000   1097.7129      8.4145
   662.0000     77.6669      0.0000   1097.6266      8.2924
   662.2500     81.5467      0.0000   1097.4811      8.2152
   662.5000     83.0560      0.0000   1097.0587      8.1911
   662.7500     82.5695      0.0000   1095.4033      8.2214
   663.0000     81.5234      0.0000   1089.9100      8.2911
   663.2500     81.1436      0.0000   1075.8812      8.3635
   663.5000     81.6988      0.0000   1048.3066      8.3962
   663.7500     82.6115      0.0000   1006.2695      8.3675
   664.0000     82.8007      0.0000    956.2173      8.2887
   664.2500     81.1514      0.0000    909.7339      8.1911
   664.5000     77.2385      0.0000    877.7080      8.1055
   664.7500     71.7994      0.0000    867.5927      8.0531
   665.0000     66.5319      0.0000    884.5702      8.0491
   665.2500     63.5584      0.0000    929.5311      8.1033
   665.5000     64.7269      0.0000    992.0535      8.2100
   665.7500     70.4107      0.0000   1050.6190      8.3393
   666.0000     78.4126      0.0000   1089.3057      8.4516
   666.2500     84.6175      0.0000   1114.7212      8.5260
   666.5000     85.5375      0.0000   1148.0874      8.5710
   666.7500     80.5941      0.0000   1199.4512      8.6095
   667.0000     72.1794      0.0000   1256.8712      8.6570
   667.2500     63.8399      0.0000   1300.4242      8.7165
   667.5000     58.1766      0.0000   1318.1112      8.7874
   667.7500     55.6342      0.0000   1307.2618      8.8747
   668.0000     54.8351      0.0000   1270.0708      8.9882
   668.2500     54.2717      0.0000   1214.0747      9.1335
   668.5000     53.7433      0.0000   1152.9681      9.3045
   668.7500     54.0869      0.0000   1101.5087      9.4818
   669.0000     55.9743      0.0000   1070.7773      9.6339
   669.2500     59.5233      0.0000   1068.9604      9.7271
   669.5000     64.7269      0.0000   1098.3473      9.7422
   669.7500     71.2964      0.0000   1146.3638      9.6887
   670.0000     77.8846      0.0000   1188.3298      9.5976
   670.2500     82.3069      0.0000   1207.7325      9.4993
   670.5000     83.2169      0.0000   1209.6675      9.4072
   670.7500     81.3454      0.0000   1209.3044      9.3242
   671.0000     78.7067      0.0000   1211.7124      9.2556
   671.2500     76.7892      0.0000   1208.2819      9.2097
   671.5000     75.6956      0.0000   1189.0702      9.1874
   671.7500     74.5273      0.0000   1153.1189      9.1751
   672.0000     72.2762      0.0000   1109.0189      9.1527
   672.2500     68.7857      0.0000   1069.7793      9.1116
   672.5000     65.2106      0.0000   1045.5204      9.0621
   672.7500     63.3746      0.0000   1037.0529      9.0205
   673.0000     64.5180      0.0000   1036.4613      8.9905
   673.2500     68.4431      0.0000   1036.7677      8.9616
   673.5000     73.5518      0.0000   1040.8325      8.9208
