~Version Information
VERS.                      2.0: CWLS Log ASCII Standard - VERSION 2.0
WRAP.                       NO: One line per depth step
~Well Information Block
STRT.FT               -16.5000: 
STOP.FT              1695.5000: 
STEP.FT                 0.2500: 
NULL.                -999.2500: 
COMP.          Pioneer Natural Resources: COMPANY
WELL.          Rancher 12-35 Tr: WELL
FLD.           Purgatorie River: FIELD
LOC.           2242' FNL & 308' FWL SWNW 35 32S 67W: LOCATION
PROV.                       CO: PROVINCE
CNTY.               Las Animas: COUNTRY
SRVC.                         : SERVICE COMPANY
DATE.         Fri Jul 08 09:39:00 2005: LOG DATE
UWI.                071 08430 : UNIQUE WELL ID
~Curve Information Block
DEPT.FT            0 000 00 00: Depth
CCL.                          : Casing Collar Locator
TT3.usec                      : CBL 3' Travel Time
AMP3.mV                       : CBL 3' Amplitude
GR.GAPI                       : Gamma Ray
~Parameter Information Block
~A  Depth       CCL         TT3         AMP3         GR     
# ...
   653.5000      0.0000    749.9908      7.4028    122.3781
   653.7500      0.0000    752.8834      7.5267    111.6829
   654.0000      0.0000    758.3212      7.6115    105.5791
   654.2500      0.0000    764.4088      7.6464    105.5244
   654.5000      0.0000    768.5315      7.6237    110.0310
   654.7500      0.0000    768.6693      7.5477    115.7908
   655.0000      0.0000    764.6926      7.4419    119.8931
   655.2500      0.0000    758.5547      7.3492    121.1859
   655.5000      0.0000    753.1774      7.3149    120.2813
   655.7500      0.0000    750.9105      7.3592    118.4225
   656.0000      0.0000    752.6251      7.4662    116.0957
   656.2500      0.0000    757.6176      7.6059    112.8943
   656.5000      0.0000    764.0910      7.7656    108.7620
   656.7500      0.0000    770.1044      7.9519    104.5670
   657.0000      0.0000    774.7253      8.1569    100.9448
   657.2500      0.0000    778.4212      8.3336     97.2971
   657.5000      0.0000    782.0673      8.4230     92.5332
   657.7500      0.0000    785.2888      8.4121     86.4201
   658.0000      0.0000    786.1203      8.3503     79.9520
   658.2500      0.0000    782.9695      8.2953     74.9013
   658.5000      0.0000    776.7953      8.2546     73.1765
   658.7500      0.0000    770.6110      8.1919     76.0560
   659.0000      0.0000    766.8132      8.0804     83.4546
   659.2500      0.0000    765.4860      7.9294     93.7252
   659.5000      0.0000    765.0441      7.7631    104.3160
   659.7500      0.0000    763.7469      7.5936    113.3224
   660.0000      0.0000    760.7588      7.4257    120.9097
   660.2500      0.0000    756.6651      7.2775    128.7483
   660.5000      0.0000    753.1300      7.1775    137.5896
   660.7500      0.0000    751.4760      7.1323    145.8765
   661.0000      0.0000    751.4380      7.1106    151.0958
   661.2500      0.0000    751.4919      7.0686    152.1046
   661.5000      0.0000    750.4655      6.9924    150.0360
   661.7500      0.0000    748.5830      6.9080    147.2933
   662.0000      0.0000    747.0577      6.8465    145.7126
   662.2500      0.0000    747.2470      6.8072    145.5010
   662.5000      0.0000    750.4696      6.7590    145.8201
   662.7500      0.0000    757.9792      6.6755    146.0656
   663.0000      0.0000    770.0662      6.5595    146.1257
   663.2500      0.0000    784.7291      6.4346    145.6733
   663.5000      0.0000    797.7331      6.3270    144.0651
   663.7500      0.0000    804.8856      6.2603    141.3288
   664.0000      0.0000    804.8177      6.2520    138.7593
   664.2500      0.0000    799.6725      6.3049    137.9590
   664.5000      0.0000    793.1163      6.4038    139.3485
   664.7500      0.0000    787.7613      6.5225    142.0184
   665.0000      0.0000    784.2691      6.6330    144.7954
   665.2500      0.0000    782.1539      6.7120    146.7616
   665.5000      0.0000    780.7390      6.7457    147.0800
   665.7500      0.0000    779.4171      6.7313    145.3903
   666.0000      0.0000    777.6777      6.6744    142.4400
   666.2500      0.0000    775.4490      6.5894    139.4963
   666.5000      0.0000    773.4943      6.4980    137.1235
   666.7500      0.0000    773.1619      6.4243    135.0729
   667.0000      0.0000    775.4809      6.3877    133.1401
   667.2500      0.0000    780.5363      6.3936    131.6383
   667.5000      0.0000    787.5311      6.4283    131.1324
   667.7500      0.0000    794.8915      6.4659    131.8251
   668.0000      0.0000    800.2511      6.4841    133.0128
   668.2500      0.0000    801.1713      6.4710    133.3213
   668.5000      0.0000    796.7223      6.4235    131.8712
   668.7500      0.0000    788.8912      6.3520    129.0405
   669.0000      0.0000    782.6774      6.2885    125.7366
   669.2500      0.0000    784.0082      6.2712    122.2160
   669.5000      0.0000    795.9139      6.3134    118.2867
   669.7500      0.0000    815.8518      6.3912    114.6673
   670.0000      0.0000    837.1021      6.4585    113.4632
   670.2500      0.0000    853.0977      6.4722    116.6563
   670.5000      0.0000    860.6323      6.4095    123.9186
   670.7500      0.0000    859.9869      6.2790    132.0072
   671.0000      0.0000    853.7202      6.1197    136.5443
   671.2500      0.0000    845.9075      5.9817    134.6710
   671.5000      0.0000    841.1710      5.9021    126.3934
   671.7500      0.0000    842.5338      5.8958    113.9096
   672.0000      0.0000    849.4564      5.9583     99.9828
   672.2500      0.0000    858.4321      6.0706     86.8845
   672.5000      0.0000    865.8596      6.1983     76.3840
   672.7500      0.0000    870.2542      6.2951     69.9437
   673.0000      0.0000    871.9843      6.3169     68.3508
   673.2500      0.0000    871.5967      6.2383     71.1310
   673.5000      0.0000    868.5397      6.0522     76.6450
   673.7500      0.0000    861.2431      5.7577     83.0252
   674.0000      0.0000    848.9917      5.3639     89.1960
   674.2500      0.0000    834.6259      4.9092     95.1592
   674.5000      0.0000    824.7687      4.4545    101.4024
   674.7500      0.0000    825.3317      4.0395    107.8345
   675.0000      0.0000    836.1434      3.6707    113.0124
   675.2500      0.0000    851.0907      3.3709    114.5522
   675.5000      0.0000    863.6144      3.2000    110.8987
   675.7500      0.0000    871.0742      3.1936    103.0171
   676.0000     -2.2787    874.4081      3.3035     94.0460
   676.2500      3.0000    875.5485      3.4281     87.0153
   676.5000      3.0000    875.8132      3.4890     82.9522
   676.7500      0.0000    875.7634      3.4759     81.0177
   677.0000      0.0000    875.5833      3.4378     79.9760
   677.2500      0.0000    875.3704      3.4411     79.3695
   677.5000      0.0000    875.2079      3.5180     79.5910
   677.7500      0.0000    875.1037      3.6521     81.2773
   678.0000      0.0000    874.9709      3.8235     85.0524
   678.2500      0.0000    874.7068      4.0486     91.7691
   678.5000      0.0000    874.2870      4.3461    102.1842
   678.7500      0.0000    873.7639      4.6833    115.7324
   679.0000      0.0000    873.1938      4.9894    129.9622
   679.2500      0.0000    872.5641      5.2201    141.7976
   679.5000      0.0000    871.6821      5.3883    149.4626
   679.7500      0.0000    870.0054      5.5319    153.1995
   680.0000      0.0000    866.6226      5.6624    154.4393
   680.2500      0.0000    860.8461      5.7570    154.5456
   680.5000      0.0000    853.4047      5.7913    154.1612
   680.7500      0.0000    846.9174      5.7635    153.2555
   681.0000      0.0000    844.2547      5.6881    151.4599
   681.2500      0.0000    846.0175      5.5831    148.3856
   681.5000      0.0000    850.1606      5.4663    143.7781
   681.7500      0.0000    854.1567      5.3508    137.5502
   682.0000      0.0000    856.9138      5.2388    129.8340
   682.2500      0.0000    858.8494      5.1266    120.9550
   682.5000      0.0000    860.9651      5.0185    111.3745
   682.7500      0.0000    863.8480      4.9272    101.9208
   683.0000      0.0000    867.1494      4.8599     93.9409
   683.2500      0.0000    869.9919      4.8089     88.6396
   683.5000      0.0000    871.8070      4.7601     86.2978
   683.7500      0.0000    872.6441      4.7062     86.5551
   684.0000      0.0000    872.8268      4.6489     89.0721
   684.2500      0.0000    872.5043      4.5926     93.2002
   684.5000      0.0000    871.4109      4.5341     97.2590
   684.7500      0.0000    868.9516      4.4609     98.9501
   685.0000      0.0000    864.8056      4.3639     96.7097
   685.2500      0.0000    859.8219      4.2552     90.6323
   685.5000      0.0000    856.1356      4.1735     82.3154
   685.7500      0.0000    855.7419      4.1660     73.9946
   686.0000      0.0000    858.6965      4.2617     67.7067
   686.2500      0.0000    863.0178      4.4579     64.9490
   686.5000      0.0000    866.2647      4.7278     66.6463
   686.7500      0.0000    866.6496      5.0380     72.8273
