~Version Information
VERS.                      2.0: CWLS Log ASCII Standard - VERSION 2.0
WRAP.                       NO: One line per depth step
~Well Information Block
STRT.FT               554.0000: 
STOP.FT              1002.0000: 
STEP.FT                 0.1000: 
NULL.                -999.2500: 
COMP.          Pioneer Natural Resources: COMPANY
WELL.          Rising Star 22-11: WELL
FLD.           Purgatoire River: FIELD
LOC.           2152' FNL & 2105' FWL: LOCATION
PROV.                 Colorado: PROVINCE
CNTY.               Las Animas: COUNTRY
SRVC.                Patterson: SERVICE COMPANY
DATE.          Mon Apr 11 16:46:53 2005: LOG DATE
UWI.           05 071 08354 00: UNIQUE WELL ID
~Curve Information Block
DEPT.FT            0 000 00 00: Depth
DCAL.in                       : CDL Caliper
RHOB.g/cc                     : CDL Bulk Density
RHOC.g/cc                     : CDL Density Correction
DPOR.pu                       : CDL Density Porosity
GR.GAPI                       : Gamma Ray
NPOR.pu                       : Neutron Porosity
~Parameter Information Block
~A  Depth       DCAL        RHOB        RHOC        DPOR         GR         NPOR    
# ...
   870.8000      7.9644      2.3450     -0.0033     18.4828     97.4171     27.2873
   870.9000      7.9644      2.3424      0.0972     18.6453     92.9850     26.5406
   871.0000      7.9430      2.3401      0.0322     18.7799     90.9739     25.2614
   871.1000      7.9430      2.3335      0.0690     19.1805     93.8637     24.4766
   871.2000      7.9430      2.3297      0.0306     19.4129     97.2933     24.2617
   871.3000      7.8941      2.3436     -0.0162     18.5698     96.7574     23.6838
   871.4000      7.8941      2.3861      0.0200     15.9913     94.1833     23.0143
   871.5000      7.8855      2.4472      0.0816     12.2937     94.0240     23.7035
   871.6000      7.8855      2.5055      0.1764      8.7599     95.0428     25.4247
   871.7000      7.8855      2.5408      0.2087      6.6188     93.5450     26.3371
   871.8000      7.8915      2.5489      0.1726      6.1278     90.0573     26.1503
   871.9000      7.8915      2.5484      0.0958      6.1600     87.1631     26.2724
   872.0000      7.8820      2.5466      0.1071      6.2667     87.0119     27.0512
   872.1000      7.8820      2.5299      0.0687      7.2761     87.3131     27.5118
   872.2000      7.8820      2.4973      0.0512      9.2549     83.6001     27.0752
   872.3000      7.8655      2.4590      0.0056     11.5739     77.4973     26.0996
   872.4000      7.8655      2.4243      0.0284     13.6762     73.8803     25.3565
   872.5000      7.8883      2.3981      0.0012     15.2676     73.7620     25.3709
   872.6000      7.8883      2.3805      0.0282     16.3352     76.7186     26.0136
   872.7000      7.8883      2.3677      0.0027     17.1105     81.4737     26.6248
   872.8000      7.9022      2.3582     -0.0353     17.6871     83.7839     27.1138
   872.9000      7.9022      2.3545     -0.0031     17.9101     82.3696     27.8114
   873.0000      7.9530      2.3564     -0.0215     17.7914     79.4271     28.2828
   873.1000      7.9530      2.3577      0.0717     17.7121     77.2650     28.2718
   873.2000      7.9530      2.3542      0.0264     17.9248     77.4928     28.0621
   873.3000      7.9597      2.3586      0.0221     17.6593     79.9512     27.6207
   873.4000      7.9597      2.3722      0.0542     16.8345     84.2509     27.4938
   873.5000      7.9538      2.3787      0.0404     16.4422     87.4345     28.4607
   873.6000      7.9538      2.3765      0.0167     16.5733     85.3634     29.8232
   873.7000      7.9538      2.3735      0.0075     16.7579     81.7085     30.2843
   873.8000      7.9442      2.3703      0.0061     16.9542     83.2562     29.9049
   873.9000      7.9442      2.3691     -0.0355     17.0248     87.2973     29.2356
   874.0000      7.9424      2.3686      0.0534     17.0567     87.2194     28.8215
   874.1000      7.9424      2.3654      0.0253     17.2482     84.1908     29.0655
   874.2000      7.9424      2.3662      0.0877     17.1992     83.4917     29.4520
   874.3000      7.9432      2.3709      0.0708     16.9135     89.0176     29.0972
   874.4000      7.9432      2.3760      0.0565     16.6043    100.6738     28.1763
   874.5000      7.9281      2.3800      0.0647     16.3610    110.8957     27.9693
   874.6000      7.9281      2.3780      0.0489     16.4866    112.3209     29.1681
   874.7000      7.9281      2.3707      0.0591     16.9296    108.2834     30.7623
   874.8000      7.9119      2.3627      0.0569     17.4143    107.2704     31.5043
   874.9000      7.9119      2.3579      0.0524     17.7045    109.7558     31.1042
   875.0000      7.9088      2.3600      0.0456     17.5745    111.6176     29.7809
   875.1000      7.9088      2.3609      0.0863     17.5208    112.5397     28.4609
   875.2000      7.9088      2.3536      0.0170     17.9654    112.3691     28.3160
   875.3000      7.9194      2.3513      0.0046     18.1009    111.6676     29.2135
   875.4000      7.9194      2.3579      0.0495     17.7037    114.0773     29.6255
   875.5000      7.9355      2.3531      0.0019     17.9939    116.9336     29.0059
   875.6000      7.9355      2.3354     -0.0121     19.0644    114.7778     28.3336
   875.7000      7.9355      2.3307      0.0044     19.3495    111.2537     27.7305
   875.8000      7.9410      2.3549     -0.0174     17.8857    111.4522     26.9089
   875.9000      7.9410      2.3864      0.0976     15.9743    113.0150     26.2532
   876.0000      7.9462      2.3930      0.0492     15.5752    110.6775     25.9852
   876.1000      7.9462      2.3886     -0.0039     15.8395    103.2851     25.8752
   876.2000      7.9462      2.4027      0.0729     14.9896     95.8575     25.7223
   876.3000      7.9442      2.4191      0.1042     13.9921     94.7725     25.6008
   876.4000      7.9442      2.4152      0.0474     14.2273     99.3021     25.8856
   876.5000      7.9435      2.4108     -0.0170     14.4971    103.8480     26.6635
   876.6000      7.9435      2.4295      0.0415     13.3617    106.2426     27.4014
   876.7000      7.9435      2.4588      0.0851     11.5886    107.1117     27.6017
   876.8000      7.9340      2.4759      0.0820     10.5514    105.6107     27.4544
   876.9000      7.9340      2.4807      0.0688     10.2617    101.1580     27.1974
   877.0000      7.9285      2.4829      0.0862     10.1287     98.6334     26.7486
   877.1000      7.9285      2.4804      0.0809     10.2762    104.2374     26.4761
   877.2000      7.9285      2.4693      0.0283     10.9516    113.6721     26.6920
   877.3000      7.9379      2.4513      0.0309     12.0417    116.5684     26.9980
   877.4000      7.9379      2.4290      0.0247     13.3938    111.7729     27.1520
   877.5000      7.9424      2.4120      0.0274     14.4264    107.4078     27.6999
   877.6000      7.9424      2.4117      0.0261     14.4433    106.2014     28.5364
   877.7000      7.9424      2.4270     -0.0002     13.5170    103.1049     28.8221
   877.8000      7.9461      2.4440      0.0442     12.4839     97.3106     28.3441
   877.9000      7.9461      2.4480      0.0341     12.2411     94.3525     27.5514
   878.0000      7.9576      2.4345      0.0468     13.0581     95.2127     26.8698
   878.1000      7.9576      2.4162      0.0126     14.1693     95.7392     26.3587
   878.2000      7.9576      2.4128     -0.0286     14.3769     95.7422     26.2039
   878.3000      7.9631      2.4279      0.0371     13.4578     96.8889     26.2408
   878.4000      7.9631      2.4448      0.0561     12.4388     96.8316     26.1071
   878.5000      7.9640      2.4448      0.0477     12.4377     92.3692     26.2549
   878.6000      7.9640      2.4282      0.0417     13.4442     86.1709     27.0591
   878.7000      7.9640      2.4150     -0.0290     14.2424     84.7619     27.8814
   878.8000      7.9564      2.4170      0.0469     14.1242     90.1293     28.0229
   878.9000      7.9564      2.4235      0.0303     13.7246     95.7900     27.6191
   879.0000      7.9762      2.4280      0.0220     13.4552     95.5535     26.9138
   879.1000      7.9762      2.4316      0.0261     13.2381     91.8621     26.2992
   879.2000      7.9762      2.4337      0.0163     13.1083     88.5843     26.2830
   879.3000      7.9499      2.4342     -0.0322     13.0798     86.1580     26.4703
   879.4000      7.9499      2.4327      0.0198     13.1677     86.2632     26.6035
   879.5000      7.9456      2.4258     -0.0099     13.5869     87.9041     26.7723
   879.6000      7.9456      2.4194      0.0017     13.9766     88.4609     26.5796
   879.7000      7.9456      2.4213      0.0412     13.8585     90.6267     25.8362
   879.8000      7.9497      2.4284      0.0514     13.4307     97.5581     25.1029
   879.9000      7.9497      2.4423      0.0174     12.5875    104.8916     25.2322
   880.0000      7.9476      2.4732      0.0180     10.7170    106.0611     26.4017
   880.1000      7.9476      2.5155      0.0747      8.1501    103.6864     27.9251
   880.2000      7.9476      2.5504      0.1085      6.0355    104.4353     28.9090
   880.3000      7.9217      2.5718      0.1018      4.7367    108.0479     28.8157
