~Version Information
VERS.                      2.0: CWLS Log ASCII Standard - VERSION 2.0
WRAP.                       NO: One line per depth step
~Well Information Block
STRT.FT               583.0000: 
STOP.FT              1701.5000: 
STEP.FT                 0.2500: 
NULL.                -999.2500: 
COMP.          Pioneer Natural Resources: COMPANY
WELL.          Scott Canyon 11-18 Tr: WELL
FLD.           Purgatoire River: FIELD
LOC.           411' FNL & 580' FWL: LOCATION
PROV.                 Colorado: PROVINCE
CNTY.               Las Animas: COUNTRY
SRVC.                Patterson: SERVICE COMPANY
DATE.          Thu Feb 17 02:07:21 2005: LOG DATE
UWI.           05 071 08286 00: UNIQUE WELL ID
~Curve Information Block
DEPT.FT            0 000 00 00: Depth
SN.Ohm-m                      : IEL Short Normal
SP.mV                         : IEL Spontaneous Potential
DIR.Ohm-m                     : IEL Induction Resistivity
GR.GAPI                       : Gamma Ray
~Parameter Information Block
~A  Depth        SN          SP         DIR          GR     
# ...
  1152.5000      6.6891    -38.9028      6.4922    128.3001
  1152.7500      6.6040    -38.8506      6.4779    128.8823
  1153.0000      6.5141    -38.8293      6.4713    129.4986
  1153.2500      6.4413    -38.8282      6.4729    129.8808
  1153.5000      6.4051    -38.8222      6.4827    130.5402
  1153.7500      6.4050    -38.7805      6.4994    131.0626
  1154.0000      6.4300    -38.6764      6.5190    131.8725
  1154.2500      6.4662    -38.4997      6.5351    132.2523
  1154.5000      6.4995    -38.2669      6.5397    132.2623
  1154.7500      6.5243    -38.0210      6.5267    131.8401
  1155.0000      6.5464    -37.8131      6.4954    130.5490
  1155.2500      6.5703    -37.6768      6.4520    129.1246
  1155.5000      6.5825    -37.6135      6.4073    125.9784
  1155.7500      6.5607    -37.5991      6.3725    123.4386
  1156.0000      6.5068    -37.6031      6.3560    119.8264
  1156.2500      6.4530    -37.6049      6.3598    117.9751
  1156.5000      6.4288    -37.5987      6.3799    116.4166
  1156.7500      6.4297    -37.5884      6.4071    116.3724
  1157.0000      6.4228    -37.5806      6.4307    117.9664
  1157.2500      6.3788    -37.5783      6.4420    119.8665
  1157.5000      6.2917    -37.5801      6.4376    123.0464
  1157.7500      6.1812    -37.5833      6.4193    125.1660
  1158.0000      6.0902    -37.5909      6.3916    128.9876
  1158.2500      6.0587    -37.6159      6.3593    132.2818
  1158.5000      6.0899    -37.6753      6.3262    137.3647
  1158.7500      6.1513    -37.7790      6.2946    139.5180
  1159.0000      6.2032    -37.9199      6.2657    139.0153
  1159.2500      6.2173    -38.0748      6.2409    136.1508
  1159.5000      6.1690    -38.2182      6.2214    130.0188
  1159.7500      6.0346    -38.3353      6.2083    126.4313
  1160.0000      5.8167    -38.4243      6.2014    123.8822
  1160.2500      5.5598    -38.4899      6.1992    124.0248
  1160.5000      5.3333    -38.5439      6.1984    125.1003
  1160.7500      5.2040    -38.6100      6.1951    125.2033
  1161.0000      5.2052    -38.7211      6.1862    123.7299
  1161.2500      5.3181    -38.9052      6.1701    121.9322
  1161.5000      5.4863    -39.1674      6.1463    118.6809
  1161.7500      5.6457    -39.4813      6.1146    116.4966
  1162.0000      5.7500    -39.7970      6.0740    114.0327
  1162.2500      5.7879    -40.0616      6.0234    113.4368
  1162.5000      5.7824    -40.2437      5.9628    114.2555
  1162.7500      5.7652    -40.3462      5.8956    115.4870
  1163.0000      5.7443    -40.4014      5.8277    117.3407
  1163.2500      5.7109    -40.4530      5.7666    118.3220
  1163.5000      5.6623    -40.5367      5.7175    119.7168
  1163.7500      5.5963    -40.6658      5.6820    120.8427
  1164.0000      5.5035    -40.8268      5.6588    122.7806
  1164.2500      5.3870    -40.9881      5.6456    124.0964
  1164.5000      5.2699    -41.1177      5.6402    126.2817
  1164.7500      5.1751    -41.1982      5.6411    128.1500
  1165.0000      5.1113    -41.2313      5.6465    131.4598
  1165.2500      5.0765    -41.2317      5.6548    133.4254
  1165.5000      5.0694    -41.2170      5.6649    134.9708
  1165.7500      5.0924    -41.2002      5.6768    135.0227
  1166.0000      5.1502    -41.1862      5.6910    134.5744
  1166.2500      5.2424    -41.1760      5.7085    134.5213
  1166.5000      5.3473    -41.1772      5.7312    134.8857
  1166.7500      5.4322    -41.2096      5.7630    134.8337
  1167.0000      5.4926    -41.2966      5.8103    133.0893
  1167.2500      5.5608    -41.4467      5.8810    130.6251
  1167.5000      5.6642    -41.6460      5.9816    125.9555
  1167.7500      5.7973    -41.8651      6.1143    123.1096
  1168.0000      5.9498    -42.0702      6.2770    120.1626
  1168.2500      6.1317    -42.2303      6.4640    118.9258
  1168.5000      6.3437    -42.3249      6.6688    117.2558
  1168.7500      6.5599    -42.3528      6.8858    115.8937
  1169.0000      6.7684    -42.3351      7.1107    113.5556
  1169.2500      6.9899    -42.3035      7.3390    112.1286
  1169.5000      7.2453    -42.2811      7.5650    110.6849
  1169.7500      7.5336    -42.2699      7.7839    110.1777
  1170.0000      7.8417    -42.2512      7.9945    109.5404
  1170.2500      8.1505    -42.1992      8.2014    108.8117
  1170.5000      8.4274    -42.0960      8.4123    107.0383
  1170.7500      8.6438    -41.9423      8.6325    105.6256
  1171.0000      8.8117    -41.7559      8.8600    103.9899
  1171.2500      8.9721    -41.5639      9.0857    103.7278
  1171.5000      9.1592    -41.3931      9.2983    104.8527
  1171.7500      9.3874    -41.2652      9.4929    106.2818
  1172.0000      9.6409    -41.1928      9.6743    108.4853
  1172.2500      9.8764    -41.1742      9.8529    109.5538
  1172.5000     10.0515    -41.1918     10.0334    110.1573
  1172.7500     10.1493    -41.2210     10.2092    109.8360
  1173.0000     10.1981    -41.2454     10.3670    108.6406
  1173.2500     10.2681    -41.2609     10.5007    107.8830
  1173.5000     10.4241    -41.2668     10.6199    107.5573
  1173.7500     10.6954    -41.2597     10.7486    107.8603
  1174.0000     11.0706    -41.2379     10.9148    108.4659
  1174.2500     11.4824    -41.2101     11.1402    108.7152
  1174.5000     11.8531    -41.1947     11.4334    108.8819
  1174.7500     12.1672    -41.2121     11.7887    108.8319
  1175.0000     12.4741    -41.2740     12.1877    108.0491
  1175.2500     12.8400    -41.3777     12.6034    106.7385
  1175.5000     13.3116    -41.5103     13.0063    103.4408
  1175.7500     13.9144    -41.6581     13.3735    100.4438
  1176.0000     14.6665    -41.8129     13.7000     94.9306
  1176.2500     15.5923    -41.9624     14.0083     90.7439
  1176.5000     16.7301    -42.0793     14.3504     84.2949
  1176.7500     18.1225    -42.1309     14.8004     80.2683
  1177.0000     19.7686    -42.1077     15.4357     74.9548
  1177.2500     21.5646    -42.0401     16.3124     71.9076
  1177.5000     23.3265    -41.9777     17.4356     68.2311
  1177.7500     24.8946    -41.9567     18.7336     66.6126
  1178.0000     26.1980    -41.9846     20.0564     65.7484
  1178.2500     27.2528    -42.0453     21.2242     66.1324
  1178.5000     28.1177    -42.1087     22.1176     67.5735
  1178.7500     28.8444    -42.1400     22.7424     68.7242
  1179.0000     29.4818    -42.1115     23.2076     70.1808
  1179.2500     30.1088    -42.0167     23.6387     70.6161
  1179.5000     30.8241    -41.8764     24.1015     69.7070
  1179.7500     31.6690    -41.7348     24.5787     67.7170
  1180.0000     32.5481    -41.6401     25.0012     62.6891
  1180.2500     33.2912    -41.6191     25.3029     58.4699
  1180.5000     33.8083    -41.6605     25.4640     52.4258
  1180.7500     34.1464    -41.7241     25.5124     49.7033
  1181.0000     34.4419    -41.7683     25.4894     48.9918
  1181.2500     34.8099    -41.7715     25.4198     50.9131
  1181.5000     35.1861    -41.7337     25.3101     56.4570
  1181.7500     35.3054    -41.6641     25.1730     61.0597
  1182.0000     34.9315    -41.5723     25.0415     68.1035
  1182.2500     34.1007    -41.4671     24.9575     72.4593
  1182.5000     33.0956    -41.3595     24.9397     77.6685
  1182.7500     32.1918    -41.2632     24.9644     79.5439
  1183.0000     31.4790    -41.1924     24.9682     79.1069
  1183.2500     30.9013    -41.1596     24.8747     77.0259
  1183.5000     30.3981    -41.1728     24.6301     73.3561
  1183.7500     29.9951    -41.2312     24.2320     71.8560
  1184.0000     29.7666    -41.3237     23.7312     71.8535
  1184.2500     29.7313    -41.4312     23.2046     72.8290
  1184.5000     29.7926    -41.5305     22.7182     74.1825
  1184.7500     29.7563    -41.6009     22.3063     74.5139
  1185.0000     29.4393    -41.6321     21.9753     74.6667
  1185.2500     28.8148    -41.6319     21.7189     75.2563
  1185.5000     28.0074    -41.6229     21.5312     77.7374
  1185.7500     27.1640    -41.6271     21.4100     80.5223
