~Version Information
VERS.                      2.0: CWLS Log ASCII Standard - VERSION 2.0
WRAP.                       NO: One line per depth step
~Well Information Block
STRT.FT                -7.2500: 
STOP.FT               862.2500: 
STEP.FT                 0.2500: 
NULL.                -999.2500: 
COMP.          Pioneer Natural Resources: COMPANY
WELL.          Santisteven 13-22: WELL
FLD.           Purgatorie River: FIELD
LOC.           1861' FSL & 992' FWL--: LOCATION
PROV.                       CO: PROVINCE
CNTY.               Las Animas: COUNTRY
SRVC.          Patterson Wireline: SERVICE COMPANY
DATE.          Thu Apr 07 09:08:11 2005: LOG DATE
UWI.           05 071 08337 00: UNIQUE WELL ID
~Curve Information Block
DEPT.FT            0 000 00 00: Depth
CCL.                          : Casing Collar Locator
TT3.usec                      : CBL 3' Travel Time
AMP3.mV                       : CBL 3' Amplitude
GR.GAPI                       : Gamma Ray
~Parameter Information Block
~A  Depth       CCL         TT3         AMP3         GR     
# ...
   260.7500      0.0000    839.0768      7.3114     64.1478
   261.0000      0.0000    836.9122      7.3568     64.9759
   261.2500      0.0000    837.7100      7.4047     65.5880
   261.5000      0.0000    840.3142      7.4130     65.7254
   261.7500      0.0000    841.8990      7.3658     65.2991
   262.0000      0.0000    839.1902      7.2964     64.3599
   262.2500      0.0000    830.1263      7.2647     63.1953
   262.5000      0.0000    815.4742      7.3093     62.4830
   262.7500      0.0000    799.1808      7.4168     62.8957
   263.0000      0.0000    786.6342      7.5327     64.3106
   263.2500      0.0000    782.0154      7.6045     65.7825
   263.5000      0.0000    786.6575      7.6250     66.5210
   263.7500      0.0000    798.7432      7.6334     66.5448
   264.0000      0.0000    813.9317      7.6683     66.1965
   264.2500      0.0000    827.3292      7.7183     65.4521
   264.5000      0.0000    836.1735      7.7295     64.1013
   264.7500      0.0000    840.7345      7.6635     62.3850
   265.0000      0.0000    842.5423      7.5399     61.1394
   265.2500      0.0000    842.4704      7.4163     61.4554
   265.5000      0.0000    840.8029      7.3318     64.2447
   265.7500      0.0000    838.1263      7.2765     69.6546
   266.0000      0.0000    835.1720      7.2137     76.5738
   266.2500      0.0000    831.8481      7.1255     83.0386
   266.5000      0.0000    826.9283      7.0313     87.6183
   266.7500      0.0000    819.0764      6.9621     90.3691
   267.0000      0.0000    808.6452      6.9241     92.1087
   267.2500      0.0000    798.5071      6.8946     92.8816
   267.5000      0.0000    792.2951      6.8522     91.7924
   267.7500      0.0000    791.0971      6.8020     88.6023
   268.0000      0.0000    792.1683      6.7668     84.7421
   268.2500      0.0000    791.5048      6.7593     81.9584
   268.5000      0.0000    787.6759      6.7705     80.3774
   268.7500      0.0000    783.0423      6.7837     78.8415
   269.0000      0.0000    781.5366      6.7932     77.0544
   269.2500      0.0000    785.4172      6.8036     76.5419
   269.5000      0.0000    793.8001      6.8175     79.4023
   269.7500      0.0000    803.8412      6.8256     86.7312
   270.0000      0.0000    813.0146      6.8124     98.2636
   270.2500      0.0000    820.2278      6.7785    112.6317
   270.5000      0.0000    825.3815      6.7504    127.4380
   270.7500      0.0000    828.6818      6.7567    139.5992
   271.0000      0.0000    830.4936      6.7937    146.5208
   271.2500      0.0000    831.3501      6.8292    147.6039
   271.5000      0.0000    831.7836      6.8450    144.8416
   271.7500      0.0000    832.1110      6.8594    141.6529
   272.0000      0.0000    832.3802      6.8978    140.7293
   272.2500      0.0000    832.4954      6.9529    142.8938
   272.5000      0.0000    832.3968      6.9858    147.7038
   272.7500      0.0000    832.1490      6.9681    154.3243
   273.0000      0.0000    831.8809      6.9151    161.5516
   273.2500      0.0000    831.6891      6.8703    167.7862
   273.5000      0.0000    831.6031      6.8606    171.6025
   273.7500      0.0000    831.6104      6.8764    172.0595
   274.0000      0.0000    831.6559      6.8999    168.5431
   274.2500      0.0000    831.5598      6.9372    161.0936
   274.5000      0.0000    830.8737      7.0038    151.1545
   274.7500      0.0000    828.8430      7.0836    141.3920
   275.0000      0.0000    824.7057      7.1220    134.4254
   275.2500      0.0000    818.2975      7.0742    131.9561
   275.5000      0.0000    810.4028      6.9504    134.8484
   275.7500      0.0000    802.3830      6.8033    142.9467
   276.0000      0.0000    795.5413      6.6762    154.3710
   276.2500      0.0000    790.9569      6.5748    165.9212
   276.5000      0.0000    789.5845      6.4860    174.9832
   276.7500      0.0000    791.9879      6.4101    180.7969
   277.0000      0.0000    797.8907      6.3692    183.6837
   277.2500      0.0000    806.0754      6.3869    183.6290
   277.5000      0.0000    814.6961      6.4610    180.0013
   277.7500      0.0000    821.9237      6.5599    172.2741
   278.0000      0.0000    826.7222      6.6532    160.7577
   278.2500      0.0000    829.1829      6.7453    146.8132
   278.5000      0.0000    830.1082      6.8677    132.4966
   278.7500      0.0000    830.3246      7.0382    119.8928
   279.0000      0.0000    830.3114      7.2376    110.5205
   279.2500      0.0000    830.2404      7.4263    105.0063
   279.5000      0.0000    830.1661      7.5699    103.0072
   279.7500      0.0000    830.1467      7.6493    103.2921
   280.0000      0.0000    830.2364      7.6616    104.0178
   280.2500      0.0000    830.4264      7.6187    103.4046
   280.5000      0.0000    830.6321      7.5433    100.7136
   280.7500      0.0000    830.7419      7.4591     96.7203
   281.0000      0.0000    830.5684      7.3808     92.9851
   281.2500      0.0000    829.5590      7.3076     90.4837
   281.5000      0.0000    826.3708      7.2246     89.0477
   281.7500      0.0000    818.9093      7.1102     88.1583
   282.0000      0.0000    805.5645      6.9436     87.8617
   282.2500      0.0000    787.1772      6.7125     88.5885
   282.5000      0.0000    767.8065      6.4233     90.4001
   282.7500      0.0000    753.0147      6.1156     92.7891
   283.0000      0.0000    747.3664      5.8579     95.1394
   283.2500      0.0000    753.0668      5.7072     97.2570
   283.5000      0.0000    769.1567      5.6591     99.3640
   283.7500      0.0000    791.1909      5.6471    101.5997
   284.0000     -2.0000    813.5114      5.5993    103.7815
   284.2500      0.0000    833.2736      5.5022    105.7475
   284.5000      0.0000    850.9327      5.4239    107.7424
   284.7500      0.0000    866.0798      5.4917    110.6070
   285.0000      0.0000    875.0169      5.8177    115.7430
   285.2500      0.0000    874.1542      6.3884    124.2693
   285.5000      0.0000    864.6473      7.0217    135.5600
   285.7500      0.0000    852.2362      7.4848    146.9216
   286.0000      0.0000    842.9089      7.6718    155.3191
   286.2500      0.0000    839.5573      7.6460    159.5077
   286.5000      0.0000    842.0499      7.5305    160.5143
   286.7500      0.0000    848.6586      7.4018    160.3450
   287.0000      0.0000    856.9504      7.2757    160.4375
   287.2500      0.0000    864.4617      7.1425    161.2202
   287.5000      0.0000    869.6583      6.9946    162.7268
   287.7500      0.0000    872.4193      6.8343    165.0040
   288.0000      0.0000    873.5337      6.6742    167.5681
   288.2500      0.0000    873.8705      6.5381    168.7961
   288.5000      0.0000    873.9399      6.4587    166.7847
   288.7500      0.0000    873.9266      6.4644    161.2699
   289.0000      0.0000    873.8718      6.5558    154.0991
   289.2500      0.0000    873.7872      6.6951    147.4410
   289.5000      0.0000    873.6820      6.8256    142.2359
   289.7500      0.0000    873.5574      6.9102    138.7223
   290.0000      0.0000    873.3983      6.9500    137.5824
   290.2500      0.0000    873.1694      6.9698    139.6320
   290.5000      0.0000    872.8485      6.9874    144.4387
   290.7500      0.0000    872.4844      6.9969    149.9576
   291.0000      0.0000    872.1951      6.9780    153.9859
   291.2500      0.0000    872.0491      6.9209    155.8496
   291.5000      0.0000    871.9161      6.8397    156.5606
   291.7500      0.0000    871.4121      6.7606    157.5945
   292.0000      0.0000    870.0488      6.7006    159.7797
   292.2500      0.0000    867.6035      6.6625    163.0272
   292.5000      0.0000    864.3723      6.6445    166.6301
   292.7500      0.0000    860.8224      6.6474    169.7355
   293.0000      0.0000    856.9837      6.6711    171.6694
   293.2500      0.0000    852.7173      6.7117    171.8941
   293.5000      0.0000    848.7510      6.7627    170.0439
   293.7500      0.0000    846.5945      6.8183    166.4739
   294.0000      0.0000    846.7578      6.8746    162.7804
