~Version Information
 VERS.                                  2.0 : CWLS LAS VERSION
 WRAP.                                   NO : WRAPING MODE
 SWARE .                 MController 2.5.0J : SOFTWARE VERSION
~Well Information
 WELL.                      Robinson 15-12V : WELL
 COMP.                Petrogulf Corporation : COMPANY
 FLD.                      Purgatoire River : FIELD
 LOC.                SW/NW Sec 15 T33S R67W : LOCATION
 DATE.                             09/10/05 : DATE(S) LOGGED
 SRVC.       BLANCO Geological Services LLC : SERVICE COMPANY
 STAT.                                   CO : STATE
 CNTY.                           Las Animas : COUNTY
 CTRY.                                  USA : COUNTRY
 API.                       05-071-08308-00 : API NUMBER
 STRT.FT                              52.00 : START DEPTH
 STOP.FT                            2041.00 : STOP DEPTH
 STEP.FT                               1.00 : DEPTH INCREMENT
 NULL.                                -9999 : NULL VALUE
~Curve information
 DEPTH.FT                                   :
 ROP.MIN/FT                                 :
 GAS.UNITS                                  :
~ASCII Log data
# ...
       252.0         0.15          2.7 
       253.0         0.17          3.1 
       254.0         0.13          3.2 
       255.0         0.23          5.5 
       256.0         0.23          7.5 
       257.0         0.20          7.6 
       258.0         0.30          8.0 
       259.0         0.30          7.6 
       260.0         0.27          7.6 
       261.0         0.17          6.8 
       262.0         0.23          6.8 
       263.0         0.30          6.2 
       264.0         0.30          6.7 
       265.0         0.20          6.6 
       266.0         1.22         12.8 
       267.0         0.27         15.3 
       268.0         0.27         15.0 
       269.0         0.23         11.8 
       270.0         0.23          8.8 
       271.0         0.20          7.6 
       272.0         0.23          6.2 
       273.0         0.23          6.2 
       274.0         0.13          8.7 
       275.0         0.13         14.8 
       276.0         0.13         22.5 
       277.0         0.13         30.8 
       278.0         0.17         46.1 
       279.0         0.18         64.0 
       280.0         0.23         85.1 
       281.0         0.23         92.3 
       282.0         0.27        113.4 
       283.0         0.30        209.7 
       284.0         0.23        276.2 
       285.0         0.20        322.5 
       286.0         0.20        365.4 
       287.0         0.20        403.8 
       288.0         0.23        438.1 
       289.0         0.20        463.7 
       290.0         0.30       1036.7 
       291.0         0.27       1078.3 
       292.0         0.20       1081.2 
       293.0         0.22       1084.0 
       294.0         0.27       1095.1 
       295.0         0.30       1093.9 
       296.0         2.67       4104.2 
       297.0         0.35        925.3 
       298.0         0.37        858.7 
       299.0         0.33        633.3 
       300.0         0.43        481.6 
       301.0         0.43         90.8 
       302.0         0.30         68.5 
       303.0         0.13         57.2 
       304.0         0.13         51.2 
       305.0         0.17         46.1 
       306.0         0.20         42.3 
       307.0         0.30         39.0 
       308.0         0.32         35.5 
       309.0         0.33         32.8 
       310.0         0.30         34.3 
       311.0         0.40         51.6 
       312.0         0.27         70.8 
       313.0         0.23         88.9 
       314.0         0.23        104.2 
       315.0         0.27        112.2 
       316.0         0.23        115.0 
       317.0         0.23        115.4 
       318.0         0.27        115.4 
       319.0         0.23        126.9 
       320.0         0.23        131.9 
       321.0         0.22        131.1 
       322.0         0.17        124.5 
       323.0         0.17        114.0 
       324.0         0.33        122.8 
       325.0         0.33        126.1 
       326.0         1.63       3452.3 
       327.0         0.33       2852.5 
       328.0         0.42       1573.1 
       329.0         0.47        714.3 
       330.0         0.37        440.0 
       331.0         0.30         54.2 
       332.0         0.33         40.1 
       333.0         0.30         35.2 
       334.0         0.30         33.7 
       335.0         0.33         33.4 
       336.0         0.27         33.2 
       337.0         0.23         33.1 
       338.0         0.22         33.4 
       339.0         0.17         33.5 
       340.0         0.20         34.3 
       341.0         0.13         37.1 
       342.0         0.17         50.8 
       343.0         0.13         71.5 
       344.0         0.10         89.3 
       345.0         0.17        119.0 
       346.0         0.37        174.7 
       347.0         0.30        199.6 
       348.0         0.33        208.3 
       349.0         0.37        209.7 
       350.0         0.33        216.9 
       351.0         0.33        231.4 
       352.0         0.38        244.5 
       353.0         0.30        254.4 
       354.0         0.17        255.5 
       355.0         0.17        253.6 
       356.0         1.97       3611.0 
       357.0         0.27       2993.7 
       358.0         0.62       2022.2 
       359.0         0.57        859.3 
       360.0         0.53        594.0 
       361.0         0.27        538.8 
       362.0         0.20        520.7 
       363.0         0.17        512.1 
       364.0         0.20        505.1 
       365.0         0.23        507.0 
       366.0         0.23        511.1 
       367.0         0.27        510.8 
       368.0         0.38        512.1 
       369.0         0.37        511.8 
       370.0         0.23        503.2 
       371.0         0.23        492.4 
       372.0         0.20        488.3 
       373.0         0.23        490.5 
       374.0         0.23        499.7 
       375.0         0.40        533.4 
       376.0         0.30        533.4 
       377.0         0.47        521.0 
       378.0         0.48        534.3 
       379.0         0.40        570.5 
       380.0         0.53        655.5 
       381.0         0.57        705.1 
       382.0         0.20        704.7 
       383.0         0.23        682.2 
       384.0         0.20        659.0 
       385.0         0.20        666.7 
       386.0         1.42       3730.0 
       387.0         0.23       3754.8 
       388.0         0.27       3090.5 
       389.0         0.27       2129.5 
       390.0         0.27       1502.3 
       391.0         0.20       1173.8 
       392.0         0.33       1023.1 
       393.0         0.40        866.6 
       394.0         0.33        797.7 
       395.0         0.33        769.8 
       396.0         0.42        755.2 
       397.0         0.33        747.3 
       398.0         0.33        747.0 
       399.0         0.37        750.1 
       400.0         0.37        752.7 
       401.0         0.33        751.4 
       402.0         0.33        748.5 
       403.0         0.33        753.0 
       404.0         0.37        764.7 
       405.0         0.37        764.7 
       406.0         0.42        760.9 
       407.0         0.33        768.5 
       408.0         0.37        791.4 
       409.0         0.20        797.4 
       410.0         0.27        807.9 
       411.0         0.20        817.7 
       412.0         0.13        819.3 
       413.0         0.17        817.4 
       414.0         0.17        831.7 
       415.0         0.30        836.8 
       416.0         2.35       4102.3 
       417.0         0.37       1578.2 
       418.0         0.40       1089.4 
       419.0         0.43        859.0 
       420.0         0.37        777.1 
       421.0         0.42        751.4 
       422.0         0.40        741.6 
       423.0         0.40        734.6 
       424.0         0.40        729.2 
       425.0         0.37        735.8 
       426.0         0.37        742.8 
       427.0         0.37        748.9 
       428.0         0.37        753.3 
       429.0         0.37        754.9 
       430.0         0.42        746.0 
       431.0         0.33        734.3 
       432.0         0.33        730.5 
       433.0         0.33        728.2 
       434.0         0.30        731.4 
       435.0         0.33        761.6 
       436.0         0.33        798.1 
       437.0         0.37        855.2 
       438.0         0.33        858.7 
       439.0         0.37        880.9 
       440.0         0.35        882.2 
       441.0         0.37        868.2 
       442.0         0.40        878.0 
       443.0         0.23        862.5 
       444.0         0.23        838.0 
       445.0         0.33        811.7 
       446.0         1.98       3761.5 
       447.0         0.27       2710.9 
       448.0         0.40       1923.2 
       449.0         0.33       1271.3 
       450.0         0.33       1012.0 
       451.0         0.30        886.6 
