~Version Information
VERS.                      2.0: CWLS Log ASCII Standard - VERSION 2.0
WRAP.                       NO: One line per depth step
~Well Information Block
STRT.FT               533.0000: 
STOP.FT              1578.0000: 
STEP.FT                 0.2500: 
NULL.                -999.2500: 
COMP.          Pioneer Natural Resources: COMPANY
WELL.           Telna 24-22 Tr: WELL
FLD.           Purgatoire River: FIELD
LOC.           748' FSL & 1931' FWL: LOCATION
PROV.                 Colorado: PROVINCE
CNTY.               Las Animas: COUNTRY
SRVC.                Patterson: SERVICE COMPANY
DATE.          Sun May 01 14:14:42 2005: LOG DATE
UWI.           05 071 08304 00: UNIQUE WELL ID
~Curve Information Block
DEPT.FT            0 000 00 00: Depth
SN.Ohm-m                      : IEL Short Normal
SP.mV                         : IEL Spontaneous Potential
DIR.Ohm-m                     : IEL Induction Resistivity
GR.GAPI                       : Gamma Ray
~Parameter Information Block
~A  Depth        SN          SP         DIR          GR     
# ...
   667.0000   2000.0000   2000.0000     10.8019    141.2993
   667.2500   2000.0000   2000.0000     10.4054    141.1805
   667.5000   2000.0000   2000.0000     10.0221    140.9842
   667.7500   2000.0000   2000.0000      9.6567    141.6218
   668.0000   2000.0000   2000.0000      9.3208    143.5031
   668.2500   2000.0000   2000.0000      9.0316    144.9384
   668.5000   2000.0000   2000.0000      8.8128    147.3215
   668.7500   2000.0000   2000.0000      8.6930    149.3207
   669.0000   2000.0000   2000.0000      8.7028    152.7108
   669.2500   2000.0000   2000.0000      8.8686    154.3880
   669.5000   2000.0000   2000.0000      9.2065    153.9563
   669.7500   2000.0000   2000.0000      9.7194    150.9076
   670.0000   2000.0000   2000.0000     10.3977    142.5523
   670.2500   2000.0000   2000.0000     11.2246    135.3576
   670.5000   2000.0000   2000.0000     12.1848    123.3291
   670.7500   2000.0000   2000.0000     13.2718    114.6513
   671.0000   2000.0000   2000.0000     14.4909    100.7066
   671.2500   2000.0000   2000.0000     15.8589     91.0872
   671.5000   2000.0000   2000.0000     17.4055     77.2415
   671.7500   2000.0000   2000.0000     19.1762     69.2826
   672.0000   2000.0000   2000.0000     21.2360     60.8851
   672.2500   2000.0000   2000.0000     23.6597     58.3511
   672.5000   2000.0000   2000.0000     26.5049     59.4313
   672.7500   2000.0000   2000.0000     29.7585     62.9444
   673.0000   2000.0000   2000.0000     33.2617     70.7610
   673.2500   2000.0000   2000.0000     36.6593     76.5724
   673.5000   2000.0000   2000.0000     39.4710     84.8837
   673.7500   2000.0000   2000.0000     41.3252     89.8870
   674.0000   2000.0000   2000.0000     42.1939     96.5154
   674.2500   2000.0000   2000.0000     42.3982    100.1245
   674.5000   2000.0000   2000.0000     42.4091    103.4466
   674.7500   2000.0000   2000.0000     42.6475    103.8827
   675.0000   2000.0000   2000.0000     43.3880    102.2741
   675.2500   2000.0000   2000.0000     44.7240    100.5073
   675.5000   2000.0000   2000.0000     46.5484     98.3146
   675.7500   2000.0000   2000.0000     48.5619     97.7228
   676.0000   2000.0000   2000.0000     50.3602     98.5889
   676.2500   2000.0000   2000.0000     51.6095    100.4322
   676.5000   2000.0000   2000.0000     52.1519    104.8489
   676.7500   2000.0000   2000.0000     51.9289    108.2939
   677.0000   2000.0000   2000.0000     50.7756    112.4414
   677.2500   2000.0000   2000.0000     48.3093    113.5357
   677.5000   2000.0000   2000.0000     44.1494    112.0690
   677.7500   2000.0000   2000.0000     38.4404    109.4169
   678.0000   2000.0000   2000.0000     32.0861    104.2995
   678.2500   2000.0000   2000.0000     26.2070    101.0188
   678.5000   2000.0000   2000.0000     21.4715     97.6792
   678.7500   2000.0000   2000.0000     17.9978     96.9457
   679.0000   2000.0000   2000.0000     15.6176     97.5454
   679.2500   2000.0000   2000.0000     14.1042     98.1268
   679.5000   2000.0000   2000.0000     13.2668     97.9518
   679.7500   2000.0000   2000.0000     12.9616     97.2183
   680.0000   2000.0000   2000.0000     13.0711     96.5232
   680.2500   2000.0000   2000.0000     13.4709     97.0798
   680.5000   2000.0000   2000.0000     13.9929     99.6734
   680.7500   2000.0000   2000.0000     14.4009    102.0262
   681.0000   2000.0000   2000.0000     14.4233    104.8779
   681.2500   2000.0000   2000.0000     13.8878    105.4844
   681.5000   2000.0000   2000.0000     12.8706    104.1848
   681.7500   2000.0000   2000.0000     11.6638    102.5496
   682.0000   2000.0000   2000.0000     10.5704    100.7774
   682.2500   2000.0000   2000.0000      9.7595    100.7576
   682.5000   2000.0000   2000.0000      9.2669    102.4851
   682.7500   2000.0000   2000.0000      9.0543    104.4082
   683.0000   2000.0000   2000.0000      9.0578    107.9007
   683.2500   2000.0000   2000.0000      9.2167    110.5696
   683.5000   2000.0000   2000.0000      9.4904    115.1787
   683.7500   2000.0000   2000.0000      9.8654    118.6478
   684.0000   2000.0000   2000.0000     10.3491    124.0948
   684.2500   2000.0000   2000.0000     10.9505    127.4404
   684.5000   2000.0000   2000.0000     11.6586    131.1597
   684.7500   2000.0000   2000.0000     12.4279    132.5469
   685.0000   2000.0000   2000.0000     13.1863    133.5016
   685.2500   2000.0000   2000.0000     13.8657    134.1178
   685.5000   2000.0000   2000.0000     14.4354    136.3698
   685.7500   2000.0000   2000.0000     14.9070    139.1357
   686.0000   2000.0000   2000.0000     15.3074    144.3254
   686.2500   2000.0000   2000.0000     15.6578    147.2593
   686.5000   2000.0000   2000.0000     15.9842    149.1238
   686.7500   2000.0000   2000.0000     16.3482    148.6072
   687.0000   2000.0000   2000.0000     16.8515    146.3965
   687.2500   2000.0000   2000.0000     17.6009    144.5960
   687.5000   2000.0000   2000.0000     18.6623    141.3124
   687.7500   2000.0000   2000.0000     20.0331    138.1646
   688.0000   2000.0000   2000.0000     21.6392    131.3004
   688.2500   2000.0000   2000.0000     23.3423    125.5531
   688.5000   2000.0000   2000.0000     24.9591    116.6608
   688.7500   2000.0000   2000.0000     26.3072    111.5214
   689.0000   2000.0000   2000.0000     27.2856    106.1190
   689.2500   2000.0000   2000.0000     27.9280    104.4409
   689.5000   2000.0000   2000.0000     28.3531    105.4767
   689.7500   2000.0000   2000.0000     28.6347    108.9415
   690.0000   2000.0000   2000.0000     28.6963    118.4226
   690.2500   2000.0000   2000.0000     28.3172    126.9789
   690.5000   2000.0000   2000.0000     27.2938    140.9118
   690.7500   2000.0000   2000.0000     25.6518    149.3065
   691.0000   2000.0000   2000.0000     23.6865    158.2081
   691.2500   2000.0000   2000.0000     21.7751    160.9749
   691.5000   2000.0000   2000.0000     20.1871    160.2689
   691.7500   2000.0000   2000.0000     19.0375    156.7018
   692.0000   2000.0000   2000.0000     18.3309    146.7240
   692.2500   2000.0000   2000.0000     18.0075    137.1709
   692.5000   2000.0000   2000.0000     17.9645    120.0821
   692.7500   2000.0000   2000.0000     18.0662    108.5801
   693.0000   2000.0000   2000.0000     18.1621     94.3928
   693.2500   2000.0000   2000.0000     18.1217     88.3368
   693.5000   2000.0000   2000.0000     17.8735     85.2871
   693.7500   2000.0000   2000.0000     17.4217     87.0395
   694.0000   2000.0000   2000.0000     16.8278     93.9342
   694.2500   2000.0000   2000.0000     16.1675    100.3614
   694.5000   2000.0000   2000.0000     15.4930    111.5367
   694.7500   2000.0000   2000.0000     14.8241    119.6728
   695.0000   2000.0000   2000.0000     14.1641    132.3045
   695.2500   2000.0000   2000.0000     13.5193    140.2953
   695.5000   2000.0000   2000.0000     12.9032    149.6919
   695.7500   2000.0000   2000.0000     12.3242    153.0685
   696.0000   2000.0000   2000.0000     11.7757    152.9396
   696.2500   2000.0000   2000.0000     11.2405    149.8466
   696.5000   2000.0000   2000.0000     10.7071    142.4905
   696.7500   2000.0000   2000.0000     10.1794    136.8591
   697.0000   2000.0000   2000.0000      9.6713    128.7375
   697.2500   2000.0000   2000.0000      9.1940    124.1432
   697.5000   2000.0000   2000.0000      8.7539    119.5411
   697.7500   2000.0000   2000.0000      8.3624    118.8039
   698.0000   2000.0000   2000.0000      8.0435    122.1947
   698.2500   2000.0000   2000.0000      7.8257    127.0521
   698.5000   2000.0000   2000.0000      7.7240    135.4409
   698.7500   2000.0000   2000.0000      7.7236    139.7608
   699.0000   2000.0000   2000.0000      7.7770    142.4551
   699.2500   2000.0000   2000.0000      7.8167    141.9771
   699.5000   2000.0000   2000.0000      7.7838    139.4298
   699.7500   2000.0000   2000.0000      7.6547    137.1759
   700.0000   2000.0000   2000.0000      7.4494    133.2051
   700.2500   2000.0000   2000.0000      7.2163    130.2688
