~Version Information
VERS.                      2.0: CWLS Log ASCII Standard - VERSION 2.0
WRAP.                       NO: One line per depth step
~Well Information Block
STRT.FT               671.6000: 
STOP.FT              1890.7000: 
STEP.FT                 0.1000: 
NULL.                -999.2500: 
COMP.          Petrogulf Corporation: COMPANY
WELL.             State 16-14R: WELL
FLD.           Purgatorie River: FIELD
LOC.           598' FSL & 682' FWL: LOCATION
CNTY.               Las Animas: COUNTY
SRVC.                         : SERVICE COMPANY
DATE.          Fri Nov 05 07:21:30 2004: LOG DATE
UWI.           05 071 08034 00: UNIQUE WELL ID
STAT.                 Colorado: STATE
~Curve Information Block
DEPT.FT            0 000 00 00: Depth
DCAL.in                       : CDL Caliper
RHOB.g/cc                     : CDL Bulk Density
RHOC.g/cc                     : CDL Density Correction
DPOR.pu                       : CDL Density Porosity
GR.GAPI                       : Gamma Ray
NPOR.pu                       : Neutron Porosity
~Parameter Information Block
~A  Depth       DCAL        RHOB        RHOC        DPOR         GR         NPOR    
# ...
  1084.4000      8.0373      2.5612      0.1981      5.3842    131.9508     24.9112
  1084.5000      8.0305      2.5685      0.1984      4.9385    134.1703     25.8642
  1084.6000      8.0305      2.5737      0.2261      4.6254    133.1452     26.7499
  1084.7000      8.0305      2.5783      0.1951      4.3468    131.9034     27.7413
  1084.8000      8.0718      2.5862      0.2462      3.8682    135.7862     28.4860
  1084.9000      8.0718      2.5890      0.2421      3.6997    141.9260     28.7241
  1085.0000      8.0135      2.5746      0.1740      4.5711    144.4689     28.8864
  1085.1000      8.0135      2.5428      0.1239      6.4999    140.8353     29.2379
  1085.2000      8.0135      2.5057      0.0867      8.7436    135.4673     29.2722
  1085.3000      8.0075      2.4876      0.0506      9.8430    136.1208     28.3865
  1085.4000      8.0075      2.5028      0.1227      8.9234    139.7575     26.9040
  1085.5000      7.9569      2.5345      0.1709      6.9981    137.2831     25.7398
  1085.6000      7.9569      2.5489      0.2371      6.1253    130.6871     25.1092
  1085.7000      7.9569      2.5247      0.1869      7.5933    128.5324     24.5917
  1085.8000      7.9449      2.4761      0.1803     10.5382    133.0377     23.8763
  1085.9000      7.9449      2.4366      0.0607     12.9309    139.7029     23.0781
  1086.0000      7.9262      2.4168      0.1053     14.1357    144.2574     22.5393
  1086.1000      7.9262      2.3949      0.0992     15.4586    143.2803     22.3112
  1086.2000      7.9262      2.3535      0.0888     17.9708    134.8583     22.3079
  1086.3000      7.9766      2.3037      0.0421     20.9903    125.3422     22.4933
  1086.4000      7.9766      2.2679      0.0919     23.1549    122.7403     22.7727
  1086.5000      7.9509      2.2450      0.0732     24.5481    127.4706     23.0124
  1086.6000      7.9509      2.2157      0.1092     26.3222    136.5508     23.1938
  1086.7000      7.9509      2.1812      0.0751     28.4132    147.5486     23.5149
  1086.8000      7.9542      2.1704      0.1047     29.0682    155.0055     24.0633
  1086.9000      7.9542      2.2027      0.1101     27.1111    153.5493     24.5192
  1087.0000      8.0106      2.2715      0.1100     22.9385    147.3798     24.7746
  1087.1000      8.0106      2.3556      0.1542     17.8417    142.8536     25.3640
  1087.2000      8.0106      2.4392      0.1810     12.7787    138.1032     26.6778
  1087.3000      8.0015      2.5180      0.2250      8.0026    135.0128     28.2898
  1087.4000      8.0015      2.5820      0.2985      4.1206    138.4977     29.2677
  1087.5000      7.9393      2.6257      0.3105      1.4743    141.9081     29.1877
  1087.6000      7.9393      2.6540      0.4433     -0.2401    139.5951     28.4211
  1087.7000      7.9393      2.6615      0.3487     -0.6987    138.3234     27.6057
  1087.8000      7.9307      2.6383      0.3002      0.7070    142.9804     27.3557
  1087.9000      7.9307      2.5902      0.1970      3.6246    147.4465     27.7308
  1088.0000      7.9372      2.5506      0.0925      6.0250    143.4644     28.3169
  1088.1000      7.9372      2.5518      0.0845      5.9518    133.9922     28.8020
  1088.2000      7.9372      2.5847      0.1131      3.9600    129.5262     29.2361
  1088.3000      7.9473      2.6133      0.1206      2.2250    130.9382     29.6049
  1088.4000      7.9473      2.6129      0.1816      2.2501    130.6213     29.8331
  1088.5000      7.9180      2.5885      0.1361      3.7264    126.6987     29.8877
  1088.6000      7.9180      2.5668      0.0968      5.0443    124.7660     29.2971
  1088.7000      7.9180      2.5561      0.1264      5.6899    127.8809     28.0651
  1088.8000      7.9357      2.5390      0.1044      6.7251    130.5237     27.0193
  1088.9000      7.9357      2.5140      0.0364      8.2418    126.9116     26.6095
  1089.0000      7.9599      2.5034      0.0026      8.8866    120.5831     26.7235
  1089.1000      7.9599      2.5083      0.1126      8.5852    120.0751     27.2265
  1089.2000      7.9599      2.5143      0.0735      8.2214    127.2963     27.8501
  1089.3000      7.9100      2.5286      0.0877      7.3571    134.8215     28.0120
  1089.4000      7.9100      2.5564      0.1249      5.6755    137.2284     27.4651
  1089.5000      7.9119      2.5838      0.1408      4.0141    136.1244     26.8787
  1089.6000      7.9119      2.6001      0.1355      3.0225    132.4828     26.8038
  1089.7000      7.9119      2.6120      0.1261      2.3005    127.2671     26.8255
  1089.8000      7.9153      2.6264      0.1425      1.4324    125.5345     26.7868
  1089.9000      7.9153      2.6335      0.1312      0.9982    128.4884     27.3296
  1090.0000      7.9444      2.6239      0.0919      1.5841    131.7481     28.3243
  1090.1000      7.9444      2.6021      0.0567      2.9009    133.1614     28.9090
  1090.2000      7.9444      2.5845      0.0092      3.9674    132.0625     29.1306
  1090.3000      7.9428      2.5782      0.0885      4.3491    129.1847     29.6469
  1090.4000      7.9428      2.5757      0.0745      4.5030    127.9593     30.5461
  1090.5000      7.9201      2.5844      0.0285      3.9729    130.6222     31.3024
  1090.6000      7.9201      2.6161      0.1085      2.0559    134.0791     31.8022
  1090.7000      7.9201      2.6585      0.1500     -0.5162    134.3916     32.3000
  1090.8000      7.9263      2.6938      0.1624     -2.6551    133.7400     32.5535
  1090.9000      7.9263      2.7147      0.1742     -3.9214    134.3718     32.3551
  1091.0000      7.9104      2.7251      0.1305     -4.5544    132.5316     31.7131
  1091.1000      7.9104      2.7304      0.1493     -4.8704    126.0048     31.0189
  1091.2000      7.9104      2.7247      0.1167     -4.5296    118.6696     30.8685
  1091.3000      7.8936      2.7022      0.0664     -3.1647    113.5763     31.0711
  1091.4000      7.8936      2.6733     -0.0554     -1.4112    110.9419     31.0911
  1091.5000      7.8994      2.6464     -0.0145      0.2193    108.7985     30.7595
  1091.6000      7.8994      2.6164     -0.0480      2.0373    104.7773     29.9411
  1091.7000      7.8994      2.5998     -0.0276      3.0415    101.3778     28.7522
  1091.8000      7.9483      2.6067      0.0003      2.6255    102.6610     27.8305
  1091.9000      7.9483      2.6099      0.0349      2.4304    108.4510     27.6581
  1092.0000      7.9158      2.6033     -0.0421      2.8317    114.5078     28.0768
  1092.1000      7.9158      2.6099     -0.0287      2.4281    117.2366     28.6067
  1092.2000      7.9158      2.6277      0.0847      1.3541    116.9191     29.0579
  1092.3000      7.9113      2.6403      0.0901      0.5873    116.4996     29.2774
  1092.4000      7.9113      2.6471      0.1391      0.1746    119.6482     29.1299
  1092.5000      7.9118      2.6457      0.1052      0.2612    126.7485     28.6818
  1092.6000      7.9118      2.6338      0.0925      0.9796    133.4770     27.9051
  1092.7000      7.9118      2.6178      0.0985      1.9534    136.3541     26.6802
  1092.8000      7.8939      2.6033      0.0695      2.8274    134.5065     25.2949
  1092.9000      7.8939      2.5898      0.1004      3.6486    127.0287     24.3763
  1093.0000      7.8898      2.5706      0.0347      4.8114    117.0205     23.9807
  1093.1000      7.8898      2.5474     -0.0183      6.2162    111.6078     23.6372
  1093.2000      7.8898      2.5285      0.0132      7.3624    112.3129     23.1607
  1093.3000      7.8814      2.5139      0.0269      8.2461    113.8022     22.7120
  1093.4000      7.8814      2.5024      0.0394      8.9467    114.4503     22.7503
  1093.5000      7.8781      2.4980      0.0277      9.2140    116.9398     23.5354
  1093.6000      7.8781      2.5005      0.0800      9.0623    119.2091     24.5088
  1093.7000      7.8781      2.5048      0.0470      8.8006    119.9387     25.0190
  1093.8000      7.8782      2.5099      0.0376      8.4881    122.8510     25.2821
  1093.9000      7.8782      2.5183      0.0825      7.9826    130.8727     26.0239
