~Version Information
VERS.                      2.0: CWLS Log ASCII Standard - VERSION 2.0
WRAP.                       NO: One line per depth step
~Well Information Block
STRT.FT               392.5000: 
STOP.FT              2252.6000: 
STEP.FT                 0.1000: 
NULL.                -999.2500: 
COMP.          Petrogulf Corporation: COMPANY
WELL.          Alexander 9-43V: WELL
FLD.           Purgatorie River: FIELD
LOC.           1651' FSL & 1081' FEL: LOCATION
CNTY.               Las Animas: COUNTY
SRVC.                         : SERVICE COMPANY
DATE.          Mon Mar 17 08:48:25 2003: LOG DATE
UWI.           05 071 07727 00: UNIQUE WELL ID
STAT.                 Colorado: STATE
~Curve Information Block
DEPT.FT            0 000 00 00: Depth
DCAL.in                       : CDL Caliper
RHOB.g/cc                     : CDL Bulk Density
RHOC.g/cc                     : CDL Density Correction
DPOR.pu                       : CDL Density Porosity
GR.GAPI                       : Gamma Ray
NPOR.pu                       : Neutron Porosity
~Parameter Information Block
~A  Depth       DCAL        RHOB        RHOC        DPOR         GR         NPOR    
# ...
   546.1000      8.4568      2.3826      0.0753     16.2087    152.8362     27.2143
   546.2000      8.4568      2.3753      0.0749     16.6477    152.8362     26.9223
   546.3000      8.4697      2.3667      0.0740     17.1691    150.9757     26.5693
   546.4000      8.4697      2.3566      0.0727     17.7827    150.9757     26.1537
   546.5000      8.5011      2.3448      0.0708     18.4971    148.6882     25.6798
   546.6000      8.5011      2.3312      0.0683     19.3188    148.6882     25.1588
   546.7000      8.5011      2.3159      0.0651     20.2514    148.6882     24.6094
   546.8000      8.5437      2.2987      0.0611     21.2937    146.0581     24.0579
   546.9000      8.5437      2.2798      0.0564     22.4387    146.0581     23.5353
   547.0000      8.5872      2.2594      0.0511     23.6722    143.6823     23.0752
   547.1000      8.5872      2.2379      0.0455     24.9729    143.6823     22.7101
   547.2000      8.5872      2.2159      0.0400     26.3121    143.6823     22.4680
   547.3000      8.6333      2.1937      0.0350     27.6543    142.2106     22.3693
   547.4000      8.6333      2.1722      0.0312     28.9591    142.2106     22.4255
   547.5000      8.6681      2.1520      0.0292     30.1829    141.8576     22.6377
   547.6000      8.6681      2.1339      0.0296     31.2813    141.8576     22.9971
   547.7000      8.6681      2.1185      0.0326     32.2118    141.8576     23.4856
   547.8000      8.6516      2.1066      0.0383     32.9362    142.2698     24.0775
   547.9000      8.6516      2.0985      0.0465     33.4233    142.2698     24.7418
   548.0000      8.5903      2.0948      0.0566     33.6508    142.7269     25.4442
   548.1000      8.5903      2.0955      0.0680     33.6063    142.7269     26.1506
   548.2000      8.5903      2.1007      0.0799     33.2886    142.7269     26.8296
   548.3000      8.5214      2.1103      0.0913     32.7070    142.5896     27.4546
   548.4000      8.5214      2.1240      0.1017     31.8817    142.5896     28.0052
   548.5000      8.4573      2.1411      0.1105     30.8418    141.7563     28.4684
   548.6000      8.4573      2.1612      0.1172     29.6245    141.7563     28.8384
   548.7000      8.4573      2.1835      0.1218     28.2723    141.7563     29.1155
   548.8000      8.4149      2.2073      0.1244     26.8319    140.7405     29.3050
   548.9000      8.4149      2.2317      0.1252     25.3508    140.7405     29.4157
   549.0000      8.3827      2.2561      0.1244     23.8757    140.2544     29.4574
   549.1000      8.3827      2.2796      0.1223     22.4497    140.2544     29.4404
   549.2000      8.3827      2.3017      0.1193     21.1104    140.2544     29.3743
   549.3000      8.3474      2.3218      0.1156     19.8883    140.6284     29.2682
   549.4000      8.3474      2.3397      0.1114     18.8052    140.6284     29.1309
   549.5000      8.3289      2.3551      0.1069     17.8736    141.5916     28.9723
   549.6000      8.3289      2.3679      0.1023     17.0967    141.5916     28.8035
   549.7000      8.3289      2.3783      0.0979     16.4686    141.5916     28.6379
   549.8000      8.3265      2.3864      0.0937     15.9756    142.6730     28.4901
   549.9000      8.3265      2.3926      0.0901     15.5977    142.6730     28.3755
   550.0000      8.3266      2.3974      0.0874     15.3104    143.7865     28.3084
   550.1000      8.3266      2.4011      0.0857     15.0873    143.7865     28.3003
   550.2000      8.3266      2.4041      0.0852     14.9014    143.7865     28.3582
   550.3000      8.3242      2.4070      0.0859     14.7277    145.1894     28.4835
   550.4000      8.3242      2.4100      0.0877     14.5443    145.1894     28.6711
   550.5000      8.3222      2.4135      0.0904     14.3341    146.7862     28.9105
   550.6000      8.3222      2.4176      0.0939     14.0849    146.7862     29.1868
   550.7000      8.3222      2.4225      0.0976     13.7901    146.7862     29.4823
   550.8000      8.3210      2.4281      0.1012     13.4480    147.7680     29.7788
   550.9000      8.3210      2.4345      0.1044     13.0615    147.7680     30.0600
   551.0000      8.3141      2.4415      0.1069     12.6374    147.2404     30.3132
   551.1000      8.3141      2.4490      0.1084     12.1846    147.2404     30.5306
   551.2000      8.3141      2.4567      0.1090     11.7138    147.2404     30.7096
   551.3000      8.2998      2.4646      0.1086     11.2359    145.1159     30.8526
   551.4000      8.2998      2.4724      0.1073     10.7614    145.1159     30.9660
   551.5000      8.2880      2.4801      0.1056     10.2993    142.1422     31.0584
   551.6000      8.2880      2.4874      0.1035      9.8571    142.1422     31.1387
   551.7000      8.2880      2.4942      0.1013      9.4400    142.1422     31.2151
   551.8000      8.2794      2.5007      0.0993      9.0510    139.1029     31.2927
   551.9000      8.2794      2.5066      0.0976      8.6915    139.1029     31.3734
   552.0000      8.2688      2.5120      0.0962      8.3609    136.2218     31.4554
   552.1000      8.2688      2.5171      0.0952      8.0575    136.2218     31.5331
   552.2000      8.2688      2.5216      0.0946      7.7789    136.2218     31.5987
   552.3000      8.2559      2.5259      0.0941      7.5223    133.3084     31.6423
   552.4000      8.2559      2.5298      0.0938      7.2849    133.3084     31.6542
   552.5000      8.2406      2.5334      0.0935      7.0647    130.0819     31.6258
   552.6000      8.2406      2.5368      0.0932      6.8599    130.0819     31.5510
   552.7000      8.2406      2.5399      0.0928      6.6700    130.0819     31.4272
   552.8000      8.2265      2.5428      0.0924      6.4949    126.1983     31.2554
   552.9000      8.2265      2.5455      0.0919      6.3356    126.1983     31.0402
   553.0000      8.2145      2.5478      0.0913      6.1930    121.3379     30.7891
   553.1000      8.2145      2.5499      0.0907      6.0685    121.3379     30.5114
   553.2000      8.2145      2.5516      0.0901      5.9633    121.3379     30.2168
   553.3000      8.2048      2.5530      0.0896      5.8777    115.6859     29.9147
   553.4000      8.2048      2.5541      0.0892      5.8114    115.6859     29.6134
   553.5000      8.1956      2.5549      0.0889      5.7631    110.2925     29.3194
   553.6000      8.1956      2.5555      0.0889      5.7301    110.2925     29.0383
   553.7000      8.1956      2.5558      0.0891      5.7087    110.2925     28.7748
   553.8000      8.1869      2.5560      0.0896      5.6945    106.6435     28.5331
   553.9000      8.1869      2.5562      0.0903      5.6823    106.6435     28.3176
   554.0000      8.1809      2.5565      0.0914      5.6666    105.6524     28.1325
   554.1000      8.1809      2.5569      0.0926      5.6421    105.6524     27.9822
   554.2000      8.1809      2.5575      0.0941      5.6040    105.6524     27.8707
   554.3000      8.1777      2.5585      0.0957      5.5483    106.9590     27.8005
   554.4000      8.1777      2.5597      0.0973      5.4720    106.9590     27.7726
   554.5000      8.1754      2.5613      0.0987      5.3731    109.0690     27.7856
   554.6000      8.1754      2.5634      0.1000      5.2511    109.0690     27.8354
   554.7000      8.1754      2.5657      0.1009      5.1064    109.0690     27.9152
   554.8000      8.1771      2.5685      0.1015      4.9406    110.1432     28.0163
   554.9000      8.1771      2.5715      0.1017      4.7557    110.1432     28.1285
   555.0000      8.1845      2.5748      0.1015      4.5549    108.9585     28.2413
   555.1000      8.1845      2.5784      0.1010      4.3413    108.9585     28.3449
   555.2000      8.1845      2.5820      0.1002      4.1186    108.9585     28.4311
   555.3000      8.1912      2.5858      0.0992      3.8903    105.4497     28.4942
   555.4000      8.1912      2.5896      0.0981      3.6596    105.4497     28.5313
   555.5000      8.1934      2.5934      0.0970      3.4293    100.4514     28.5422
   555.6000      8.1934      2.5972      0.0958      3.2018    100.4514     28.5294
