~Version Information
VERS.                      2.0: CWLS Log ASCII Standard - VERSION 2.0
WRAP.                       NO: One line per depth step
~Well Information Block
STRT.FT              1684.7500: 
STOP.FT              2367.7500: 
STEP.FT                 0.2500: 
NULL.                -999.2500: 
COMP.          Petrogulf Corporation: COMPANY
WELL.             Norton 9-14V: WELL
FLD.           Purgatorie River: FIELD
LOC.           250' FSL & 225' FWL--: LOCATION
CNTY.               Las Animas: COUNTY
SRVC.                         : SERVICE COMPANY
DATE.          Mon Jan 10 10:00:10 2005: LOG DATE
UWI.                          : UNIQUE WELL ID
STAT.                       CO: STATE
~Curve Information Block
DEPT.FT            0 000 00 00: Depth
CCL.                          : Casing Collar Locator
TT3.usec                      : CBL 3' Travel Time
AMP3.mV                       : CBL 3' Amplitude
GR.GAPI                       : Gamma Ray
~Parameter Information Block
~A  Depth       CCL         TT3         AMP3         GR     
# ...
  2053.2500      0.0000    675.9318      3.9316     93.6101
  2053.5000      0.0000    677.8277      3.8054     93.0849
  2053.7500      0.0000    678.0672      3.7533     92.5993
  2054.0000      0.0000    677.4336      3.7720     92.2369
  2054.2500      0.0000    677.5323      3.8225     91.8840
  2054.5000      0.0000    678.8902      3.8761     91.9677
  2054.7500      0.0000    680.7360      3.9188     93.5212
  2055.0000      0.0000    682.4468      3.9400     97.0403
  2055.2500      0.0000    684.3979      3.9473    101.3032
  2055.5000      0.0000    686.9096      3.9795    103.9288
  2055.7500      0.0000    689.3018      4.0719    103.3073
  2056.0000      0.0000    690.5817      4.2104     99.7329
  2056.2500      0.0000    690.4023      4.3419     94.9017
  2056.5000      0.0000    689.0918      4.4300     90.7610
  2056.7500      0.0000    687.3635      4.4795     88.5513
  2057.0000      0.0000    685.9263      4.5191     88.3160
  2057.2500      0.0000    684.6958      4.5804     89.2444
  2057.5000      0.0000    682.5522      4.6868     90.7420
  2057.7500      0.0000    678.3467      4.8410     93.0166
  2058.0000      0.0000    671.9088      5.0113     96.3573
  2058.2500      0.0000    663.9714      5.1430    100.0657
  2058.5000      0.0000    655.9062      5.1969    102.5049
  2058.7500      0.0000    649.7938      5.1868    102.2524
  2059.0000      0.0000    647.8528      5.1751     99.2338
  2059.2500      0.0000    650.8535      5.2240     94.9252
  2059.5000      0.0000    656.9024      5.3486     91.4720
  2059.7500      0.0000    661.6124      5.5125     90.2953
  2060.0000      0.0000    658.8433      5.6685     91.3832
  2060.2500      0.0000    641.7576      5.8051     93.9973
  2060.5000      0.0000    605.8837      5.9521     97.6699
  2060.7500      0.0000    553.8707      6.1307    101.7276
  2061.0000      0.0000    496.7270      6.3064    104.1025
  2061.2500      0.0000    447.8575      6.4086    102.1015
  2061.5000      0.0000    414.8326      6.3990     95.2240
  2061.7500      0.0000    396.8283      6.2991     86.6473
  2062.0000      0.0000    388.4977      6.1510     81.1489
  2062.2500      0.0000    384.7420      5.9684     81.3795
  2062.5000      0.0000    382.6312      5.7323     86.1375
  2062.7500      0.0000    381.0149      5.4240     91.9301
  2063.0000      0.0000    379.6170      5.0584     95.8476
  2063.2500      0.0000    378.4364      4.6993     97.0795
  2063.5000      0.0000    377.4962      4.4350     96.4634
  2063.7500      0.0000    376.7954      4.3160     95.1920
  2064.0000      0.0000    376.3489      4.3096     93.8803
  2064.2500      0.0000    376.2589      4.3278     92.4796
  2064.5000      0.0000    376.9597      4.3013     90.8502
  2064.7500      0.0000    379.8531      4.2233     89.2937
  2065.0000      0.0000    388.3857      4.1323     88.6482
  2065.2500      0.0000    408.4401      4.0624     90.0241
  2065.5000      0.0000    445.8891      4.0093     93.9883
  2065.7500      0.0000    501.0849      3.9494     99.4143
  2066.0000      0.0000    565.0976      3.8920    103.4512
  2066.2500      0.0000    623.4116      3.8908    103.4277
  2066.5000      0.0000    665.0744      3.9884     99.0592
  2066.7500      0.0000    688.4871      4.1680     92.7366
  2067.0000      0.0000    699.2477      4.3726     87.8347
  2067.2500      0.0000    704.2065      4.5562     86.5894
  2067.5000      0.0000    707.6268      4.7032     88.8251
  2067.7500      0.0000    710.6047      4.8055     92.3216
  2068.0000      0.0000    711.6215      4.8404     94.8960
  2068.2500      0.0000    706.6382      4.7896     96.4580
  2068.5000      0.0000    689.6127      4.6761     98.7658
  2068.7500      0.0000    655.8369      4.5550    102.8949
  2069.0000      0.0000    608.4882      4.4545    107.2851
  2069.2500      0.0000    562.5460      4.3460    108.7856
  2069.5000      0.0000    538.4262      4.1831    105.6856
  2069.7500      0.0000    547.4471      3.9553     99.5184
  2070.0000      0.0000    582.9413      3.6947     93.9260
  2070.2500      0.0000    626.6181      3.4462     91.8857
  2070.5000      0.0000    662.8612      3.2463     93.7307
  2070.7500      0.0000    686.1942      3.1171     97.2949
  2071.0000      0.0000    697.9098      3.0555     99.8170
  2071.2500      0.0000    700.1697      3.0237     99.9512
  2071.5000      0.0000    694.5853      2.9693     98.2242
  2071.7500      0.0000    683.6105      2.8656     95.9407
  2072.0000      0.0000    670.5621      2.7286     93.9129
  2072.2500      0.0000    658.1154      2.5951     91.9355
  2072.5000      0.0000    647.6979      2.4969     88.9635
  2072.7500      0.0000    640.1443      2.4561     83.7555
  2073.0000      0.0000    636.1443      2.4893     75.7772
  2073.2500      0.0000    635.9196      2.6042     65.7917
  2073.5000      0.0000    638.8266      2.7930     55.6541
  2073.7500      0.0000    643.4015      3.0310     47.6427
  2074.0000      0.0000    647.8191      3.2893     43.7564
  2074.2500      0.0000    650.4943      3.5674     44.8568
  2074.5000      0.0000    650.5768      3.9128     49.9476
  2074.7500      0.0000    648.2343      4.3906     56.6199
  2075.0000      0.0000    644.6895      5.0250     62.6580
  2075.2500      0.0000    641.7440      5.7702     67.2359
  2075.5000      0.0000    640.3409      6.5351     70.7954
  2075.7500      0.0000    638.6157      7.2405     74.2692
  2076.0000      0.0000    631.1990      7.8612     78.3974
  2076.2500      0.0000    611.6294      8.4111     83.3724
  2076.5000      0.0000    578.1226      8.8810     88.9503
  2076.7500      0.0000    539.2435      9.2006     94.7588
  2077.0000      0.0000    512.5640      9.2705    100.3263
  2077.2500      0.0000    513.1401      9.0417    104.8382
  2077.5000      0.0000    540.9877      8.5721    107.1290
  2077.7500      0.0000    581.3722      8.0033    106.3453
  2078.0000      0.0000    617.3154      7.4670    102.9933
  2078.2500      0.0000    640.1193      7.0099     99.1212
  2078.5000      0.0000    650.0371      6.6068     96.8276
  2078.7500      0.0000    651.5723      6.2265     96.5331
  2079.0000      0.0000    649.0689      5.8642     97.0827
  2079.2500      0.0000    644.0384      5.5304     97.1570
  2079.5000      0.0000    634.2156      5.2355     95.9756
  2079.7500      0.0000    614.5527      4.9792     93.1332
  2080.0000      0.0000    580.2953      4.7400     88.7916
  2080.2500      0.0000    531.7845      4.4868     84.0886
  2080.5000      0.0000    477.5518      4.2114     80.7260
  2080.7500      0.0000    431.0932      3.9386     79.8255
  2081.0000      0.0000    403.2024      3.7084     81.1193
  2081.2500      0.0000    397.7530      3.5539     83.1897
  2081.5000      0.0000    413.6789      3.4874     84.6210
  2081.7500      0.0000    447.7661      3.4896     85.0061
  2082.0000      0.0000    494.1781      3.5178     84.7975
  2082.2500      0.0000    543.6149      3.5362     84.3940
  2082.5000      0.0000    586.2327      3.5405     83.6766
  2082.7500      0.0000    616.6030      3.5585     82.3558
  2083.0000      0.0000    635.5186      3.6279     80.5156
  2083.2500      0.0000    647.2102      3.7598     78.8206
  2083.5000      0.0000    655.1889      3.9114     78.3158
  2083.7500      0.0000    660.1997      3.9965     79.7536
  2084.0000      0.0000    661.1539      3.9331     82.5830
  2084.2500      0.0000    657.5120      3.6914     84.5799
  2084.5000      0.0000    650.6696      3.3192     83.2251
  2084.7500      0.0000    643.2097      2.9319     77.8932
  2085.0000      0.0000    637.1391      2.6561     70.4436
  2085.2500      0.0000    633.0468      2.5587     63.6540
  2085.5000      0.0000    630.6184      2.6233     59.5024
  2085.7500      0.0000    629.5310      2.7928     58.7987
  2086.0000      0.0000    629.8894      3.0250     61.5000
  2086.2500      0.0000    632.0008      3.3127     66.7974
  2086.5000      0.0000    635.6062      3.6719     73.4685
