~Version Information
VERS.                      2.0: CWLS Log ASCII Standard - VERSION 2.0
WRAP.                       NO: One line per depth step
~Well Information Block
STRT.FT               318.1000: 
STOP.FT              2688.0000: 
STEP.FT                 0.1000: 
NULL.                -999.2500: 
COMP.          Petrogulf Corporation: COMPANY
WELL.            Montoya 1-24V: WELL
FLD.           Purgatorie River: FIELD
LOC.           605' FSL & 2557' FWL: LOCATION
CNTY.               Las Animas: COUNTY
SRVC.                         : SERVICE COMPANY
DATE.          Wed Oct 20 14:56:37 2004: LOG DATE
UWI.           05 071 08194 00: UNIQUE WELL ID
STAT.                 Colorado: STATE
~Curve Information Block
DEPT.FT            0 000 00 00: Depth
DCAL.in                       : CDL Caliper
RHOB.g/cc                     : CDL Bulk Density
RHOC.g/cc                     : CDL Density Correction
DPOR.pu                       : CDL Density Porosity
GR.GAPI                       : Gamma Ray
NPOR.pu                       : Neutron Porosity
~Parameter Information Block
~A  Depth       DCAL        RHOB        RHOC        DPOR         GR         NPOR    
# ...
  1124.5000      8.1061      1.7651     -0.0989     53.6321    132.4951     21.7329
  1124.6000      8.1061      1.5930     -0.1407     64.0581    140.7055     17.4018
  1124.7000      8.1061      1.4201     -0.0666     74.5380    143.5558     12.9231
  1124.8000      8.0901      1.1674     -0.1656     89.8573    139.6799      9.1811
  1124.9000      8.0901      0.8645     -0.3108    108.2148    136.8924      6.7777
  1125.0000      8.0995      0.6319     -0.2229    122.3090    139.0743      5.2585
  1125.1000      8.0995      0.5310     -0.1705    128.4268    142.9420      4.2234
  1125.2000      8.0995      0.5768     -0.2537    125.6469    144.1691      3.6768
  1125.3000      8.1856      0.8087     -0.2184    111.5968    142.4882      3.6650
  1125.4000      8.1856      1.1966      0.0491     88.0846    138.1798      4.3395
  1125.5000      8.5923      1.5977      0.2604     63.7773    133.1275      5.9610
  1125.6000      8.5923      1.8955      0.3444     45.7279    130.1495      8.5870
  1125.7000      8.5923      2.0834      0.3779     34.3398    130.4514     12.1002
  1125.8000      9.5941      2.2164      0.4237     26.2790    134.3853     16.4033
  1125.9000      9.5941      2.3433      0.5133     18.5903    135.6294     21.0575
  1126.0000     10.9649      2.4613      0.4839     11.4390    129.1106     25.6434
  1126.1000     10.9649      2.5300      0.4337      7.2721    120.5998     30.0226
  1126.2000     10.9649      2.5420      0.2238      6.5446    115.2873     33.7465
  1126.3000     11.2387      2.5420      0.1179      6.5463    112.7439     36.0695
  1126.4000     11.2387      2.5665      0.0886      5.0628    112.8032     36.9600
  1126.5000      8.4154      2.6081      0.1132      2.5406    114.4960     36.9802
  1126.6000      8.4154      2.6369      0.0834      0.7947    116.6957     36.3078
  1126.7000      8.4154      2.6409      0.0435      0.5524    116.5444     35.0451
  1126.8000      8.0090      2.6343      0.0777      0.9491    113.0457     33.9092
  1126.9000      8.0090      2.6269      0.0845      1.4016    112.0076     33.2162
  1127.0000      7.9766      2.6220      0.0057      1.6988    112.4803     32.1712
  1127.1000      7.9766      2.6224      0.0730      1.6713    110.7091     30.4188
  1127.2000      7.9766      2.6217      0.0419      1.7159    110.9134     28.8055
  1127.3000      7.9675      2.6184      0.0832      1.9175    114.8253     28.0815
  1127.4000      7.9675      2.6125      0.0360      2.2733    118.2974     28.0241
  1127.5000      7.9640      2.5982      0.0315      3.1366    117.3118     27.7930
  1127.6000      7.9640      2.5802     -0.0054      4.2300    114.8819     27.2081
  1127.7000      7.9640      2.5737      0.0035      4.6261    116.5771     26.6621
  1127.8000      7.9895      2.5794     -0.0138      4.2792    118.6413     26.2826
  1127.9000      7.9895      2.5859     -0.0030      3.8871    114.2458     25.9539
  1128.0000      8.0031      2.5868     -0.0027      3.8303    107.5717     25.4718
  1128.1000      8.0031      2.5888      0.0045      3.7098    106.2346     24.8717
  1128.2000      8.0031      2.6000      0.0091      3.0281    107.6993     24.2944
  1128.3000      8.0021      2.6102      0.0639      2.4138    106.9929     24.0001
  1128.4000      8.0021      2.6047      0.0093      2.7475    105.8122     24.3639
  1128.5000      7.9728      2.5874      0.0446      3.7935    108.6969     25.0364
  1128.6000      7.9728      2.5741      0.0117      4.6024    113.9849     25.2075
  1128.7000      7.9728      2.5739      0.0128      4.6138    115.2319     24.8605
  1128.8000      7.9642      2.5755      0.1037      4.5171    112.9785     24.5979
  1128.9000      7.9642      2.5669      0.0772      5.0386    114.4391     24.5521
  1129.0000      7.9672      2.5589      0.0396      5.5208    121.5809     24.5363
  1129.1000      7.9672      2.5642      0.0144      5.2006    127.1592     24.6891
  1129.2000      7.9672      2.5779      0.0728      4.3689    123.9748     25.0584
  1129.3000      7.9844      2.5883      0.0618      3.7401    116.2022     25.3036
  1129.4000      7.9844      2.5928      0.0641      3.4671    112.1709     25.2489
  1129.5000      7.9417      2.5932      0.0746      3.4418    115.1324     25.1953
  1129.6000      7.9417      2.5947      0.0288      3.3511    121.7587     25.5981
  1129.7000      7.9417      2.6013      0.0617      2.9487    122.6561     26.3821
  1129.8000      7.9445      2.6038      0.0689      2.7979    115.3419     26.7823
  1129.9000      7.9445      2.5945      0.0783      3.3663    106.6324     26.5330
  1130.0000      7.9532      2.5772      0.0470      4.4126    101.4771     26.3331
  1130.1000      7.9532      2.5614      0.0199      5.3727    103.0759     26.6663
  1130.2000      7.9532      2.5559      0.0166      5.7056    109.0889     27.3146
  1130.3000      7.9551      2.5603      0.0638      5.4392    112.7949     27.8097
  1130.4000      7.9551      2.5701      0.0090      4.8450    111.8620     27.7601
  1130.5000      7.9660      2.5830      0.0418      4.0623    106.6953     27.0506
  1130.6000      7.9660      2.5854      0.0360      3.9145    100.9616     26.1015
  1130.7000      7.9660      2.5712      0.0425      4.7756     99.2360     25.2706
  1130.8000      7.9761      2.5510      0.0229      5.9983    102.4333     24.5492
  1130.9000      7.9761      2.5405     -0.0312      6.6387    108.3897     23.9914
  1131.0000      7.9689      2.5474     -0.0004      6.2194    112.8611     23.5511
  1131.1000      7.9689      2.5551      0.0420      5.7544    115.2307     22.7999
  1131.2000      7.9689      2.5444      0.0375      6.4030    118.6106     21.6168
  1131.3000      8.0026      2.5226     -0.0212      7.7203    119.9301     20.3958
  1131.4000      8.0026      2.4988     -0.0268      9.1666    115.5965     19.0091
  1131.5000      8.0041      2.4509      0.0436     12.0664    111.4705     17.0220
  1131.6000      8.0041      2.3498     -0.0040     18.1942    110.3002     14.9527
  1131.7000      8.0041      2.2020     -0.0479     27.1502    107.4901     13.6213
  1131.8000      8.0033      2.0447     -0.0903     36.6870    103.4285     12.7153
  1131.9000      8.0033      1.9071     -0.1416     45.0221    104.0050     11.7762
  1132.0000      7.9779      1.7927     -0.1228     51.9568    111.7508     11.2428
  1132.1000      7.9779      1.6967     -0.1158     57.7757    122.0619     11.5133
  1132.2000      7.9779      1.6442     -0.1149     60.9588    127.7406     12.4482
  1132.3000      8.0143      1.6814     -0.0321     58.7060    126.9438     13.5357
  1132.4000      8.0143      1.8098      0.2665     50.9218    121.1986     14.3489
  1132.5000      8.0561      1.9673      0.4634     41.3729    114.4032     15.0501
  1132.6000      8.0561      2.1054      0.4542     33.0058    113.1616     16.1094
  1132.7000      8.0561      2.2324      0.4870     25.3083    117.7956     17.7780
  1132.8000      8.0926      2.3533      0.4826     17.9817    121.7458     19.8875
  1132.9000      8.0926      2.4444      0.4247     12.4585    120.8761     22.1274
  1133.0000      8.2963      2.4988      0.3613      9.1643    115.7236     24.3303
  1133.1000      8.2963      2.5370      0.2412      6.8475    110.9238     25.9882
  1133.2000      8.2963      2.5751      0.1766      4.5420    111.7561     26.9381
  1133.3000      8.0792      2.6048      0.2240      2.7392    118.0802     27.9821
  1133.4000      8.0792      2.6164      0.1815      2.0383    124.8091     29.2485
  1133.5000      8.0511      2.6120      0.2191      2.3049    128.0548     30.2545
  1133.6000      8.0511      2.5959      0.1543      3.2807    128.5469     30.8809
  1133.7000      8.0511      2.5798      0.0708      4.2559    130.0571     30.6225
  1133.8000      8.0409      2.5672      0.1202      5.0186    133.1186     29.2446
  1133.9000      8.0409      2.5504      0.0709      6.0365    131.5952     27.6721
  1134.0000      7.9672      2.5439      0.0418      6.4328    124.5010     26.5622
