~Version Information
VERS.                      2.0: CWLS Log ASCII Standard - VERSION 2.0
WRAP.                       NO: One line per depth step
~Well Information Block
STRT.FT                -7.0000: 
STOP.FT              2389.2500: 
STEP.FT                 0.2500: 
NULL.                -999.2500: 
COMP.          Pioneer Natural Resources: COMPANY
WELL.            Victory 12-14: WELL
FLD.           Purgatorie River: FIELD
LOC.           2434' FNL & 188' FWL------: LOCATION
PROV.                       CO: PROVINCE
CNTY.               Las Animas: COUNTRY
SRVC.          Patterson Wireline: SERVICE COMPANY
DATE.          Fri Apr 22 14:29:17 2005: LOG DATE
UWI.           05 071 08332 00: UNIQUE WELL ID
~Curve Information Block
DEPT.FT            0 000 00 00: Depth
CCL.                          : Casing Collar Locator
TT3.usec                      : CBL 3' Travel Time
AMP3.mV                       : CBL 3' Amplitude
GR.GAPI                       : Gamma Ray
~Parameter Information Block
~A  Depth       CCL         TT3         AMP3         GR     
# ...
  1567.5000      0.0000    822.4390      6.7788    117.0936
  1567.7500      0.0000    827.6417      6.7221    119.8836
  1568.0000      0.0000    832.4865      6.5789    123.2574
  1568.2500      0.0000    835.6756      6.4436    125.8164
  1568.5000      0.0000    836.1216      6.3571    127.4919
  1568.7500      0.0000    834.5403      6.3047    128.7506
  1569.0000      0.0000    832.8119      6.2994    129.3803
  1569.2500      0.0000    831.6045      6.4157    128.3517
  1569.5000      0.0000    829.0178      6.7100    124.8255
  1569.7500      0.0000    822.0847      7.1319    119.2081
  1570.0000      0.0000    809.8481      7.5377    113.1260
  1570.2500      0.0000    794.9816      7.7895    108.3833
  1570.5000      0.0000    782.4047      7.8489    106.0882
  1570.7500      0.0000    776.3107      7.7937    106.5575
  1571.0000      0.0000    777.9827      7.7512    109.3529
  1571.2500      0.0000    785.3326      7.7977    113.1813
  1571.5000      0.0000    793.9773      7.9014    116.3000
  1571.7500      0.0000    799.7073      7.9564    117.3489
  1572.0000      0.0000    801.1744      7.8826    115.6198
  1572.2500      0.0000    800.5656      7.7056    110.8004
  1572.5000      0.0000    801.3887      7.5512    103.2811
  1572.7500      0.0000    805.3699      7.5615     94.9855
  1573.0000      0.0000    811.1257      7.7997     89.1691
  1573.2500      0.0000    815.0203      8.2096     88.3432
  1573.5000      0.0000    812.2600      8.6408     92.0070
  1573.7500      0.0000    798.3237      8.9000     96.7976
  1574.0000      0.0000    772.9942      8.8105     99.2313
  1574.2500      0.0000    744.9409      8.3015     98.2812
  1574.5000      0.0000    728.8872      7.4969     95.4283
  1574.7500      0.0000    733.7266      6.6976     92.8632
  1575.0000      0.0000    754.3122      6.2063     91.9411
  1575.2500      0.0000    777.4449      6.1201     92.8529
  1575.5000      0.0000    793.9229      6.2847     95.0986
  1575.7500      0.0000    802.9346      6.4530     98.1700
  1576.0000     -2.0000    807.8702      6.4913    101.9426
  1576.2500     -2.0000    811.1128      6.4567    106.4299
  1576.5000      0.0000    812.2554      6.5023    111.1098
  1576.7500      0.0000    809.6933      6.7107    114.6481
  1577.0000      0.0000    803.5347      7.0038    115.7429
  1577.2500      0.0000    796.6774      7.2063    114.5827
  1577.5000      0.0000    792.4879      7.2025    113.2790
  1577.7500      0.0000    792.1530      7.0238    114.3559
  1578.0000      0.0000    794.7460      6.7812    118.5001
  1578.2500      0.0000    798.7714      6.5634    124.0517
  1578.5000      0.0000    802.8717      6.4253    128.8898
  1578.7500      0.0000    805.9911      6.4163    132.4042
  1579.0000      0.0000    807.7309      6.5599    135.2976
  1579.2500      0.0000    808.4041      6.8297    137.9066
  1579.5000      0.0000    808.5717      7.1790    139.2829
  1579.7500      0.0000    808.6281      7.5704    138.2026
  1580.0000      0.0000    808.7611      7.9534    134.9291
  1580.2500      0.0000    809.0482      8.2407    131.5477
  1580.5000      0.0000    809.4988      8.3369    130.2544
  1580.7500      0.0000    810.0513      8.2059    131.4959
  1581.0000      0.0000    810.5800      7.9190    133.7703
  1581.2500      0.0000    810.9349      7.6248    134.7981
  1581.5000      0.0000    811.0189      7.4330    132.9151
  1581.7500      0.0000    810.8932      7.3132    127.9540
  1582.0000      0.0000    810.7788      7.1269    120.9628
  1582.2500      0.0000    810.8828      6.7716    113.0423
  1582.5000      0.0000    811.2461      6.2917    104.8092
  1582.7500      0.0000    811.8205      5.8564     97.0382
  1583.0000      0.0000    812.6856      5.6341     91.0889
  1583.2500      0.0000    814.0883      5.6698     88.2655
  1583.5000      0.0000    816.0930      5.8667     88.9500
  1583.7500      0.0000    818.1313      6.0814     92.3976
  1584.0000      0.0000    819.1736      6.2394     97.3740
  1584.2500      0.0000    818.6757      6.3597    103.3297
  1584.5000      0.0000    817.1218      6.4897    110.8533
  1584.7500      0.0000    815.1652      6.6345    120.5508
  1585.0000      0.0000    811.9744      6.7384    131.4957
  1585.2500      0.0000    804.3447      6.7198    141.0376
  1585.5000      0.0000    787.8790      6.5382    146.2234
  1585.7500      0.0000    760.3793      6.2490    145.7322
  1586.0000      0.0000    724.8975      5.9756    140.7657
  1586.2500      0.0000    688.7495      5.8078    134.1033
  1586.5000      0.0000    659.0139      5.7410    128.3114
  1586.7500      0.0000    639.7111      5.7274    124.7520
  1587.0000      0.0000    633.0674      5.7540    123.7417
  1587.2500      0.0000    641.1332      5.8394    124.9582
  1587.5000      0.0000    664.2545      5.9790    127.3889
  1587.7500      0.0000    698.3846      6.1333    129.1482
  1588.0000      0.0000    735.4218      6.2667    128.2449
  1588.2500      0.0000    767.1019      6.3757    124.3081
  1588.5000      0.0000    788.9539      6.4775    119.2829
  1588.7500      0.0000    801.2593      6.5751    115.8136
  1589.0000      0.0000    807.1824      6.6283    115.1391
  1589.2500      0.0000    810.3375      6.5713    116.7834
  1589.5000      0.0000    813.4005      6.3824    119.6250
  1589.7500      0.0000    817.6146      6.1345    122.6886
  1590.0000      0.0000    822.4999      5.9514    125.3859
  1590.2500      0.0000    826.1168      5.9054    127.7095
  1590.5000      0.0000    826.4572      5.9612    130.1862
  1590.7500      0.0000    822.9606      6.0156    133.2047
  1591.0000      0.0000    816.2578      5.9864    136.2552
  1591.2500      0.0000    806.4548      5.8720    138.0885
  1591.5000      0.0000    792.6168      5.7353    137.7020
  1591.7500      0.0000    774.7689      5.6355    134.9588
  1592.0000      0.0000    756.1470      5.5812    130.3111
  1592.2500      0.0000    742.5920      5.5453    124.4483
  1592.5000      0.0000    739.1875      5.4996    118.5242
  1592.7500      0.0000    747.1483      5.4240    114.3276
  1593.0000      0.0000    763.2460      5.3162    113.5738
  1593.2500      0.0000    781.8531      5.2254    116.5776
  1593.5000      0.0000    798.0699      5.2418    121.5542
  1593.7500      0.0000    809.6262      5.4030    125.6678
  1594.0000      0.0000    816.4147      5.6270    127.4002
  1594.2500      0.0000    819.0926      5.7804    127.7248
  1594.5000      0.0000    818.6047      5.8118    128.4724
  1594.7500      0.0000    816.3361      5.7843    129.7924
  1595.0000      0.0000    813.7370      5.7775    129.8693
  1595.2500      0.0000    811.6725      5.7948    127.1563
  1595.5000      0.0000    810.3265      5.7904    122.3383
  1595.7500      0.0000    809.5615      5.7544    117.6841
  1596.0000      0.0000    809.1747      5.7306    114.6587
  1596.2500      0.0000    808.9178      5.7552    112.7605
  1596.5000      0.0000    808.4264      5.8143    110.8699
  1596.7500      0.0000    807.1479      5.8743    109.1985
  1597.0000      0.0000    804.3752      5.9181    109.3509
  1597.2500      0.0000    799.6755      5.9367    112.4627
  1597.5000      0.0000    793.6276      5.9217    117.7056
  1597.7500      0.0000    788.0057      5.8900    123.0354
  1598.0000      0.0000    784.8749      5.8809    127.2148
  1598.2500      0.0000    785.5151      5.9028    130.4791
  1598.5000      0.0000    790.0817      5.9142    133.2148
  1598.7500      0.0000    797.2507      5.8888    134.9068
  1599.0000      0.0000    803.3615      5.8686    135.0715
  1599.2500      0.0000    802.7971      5.9120    134.4972
  1599.5000      0.0000    790.9609      6.0030    134.3232
  1599.7500      0.0000    767.9783      6.0577    134.0587
  1600.0000      0.0000    739.4695      6.0229    131.7258
  1600.2500      0.0000    712.9378      5.9316    126.1749
  1600.5000      0.0000    692.8897      5.8489    118.5953
  1600.7500      0.0000    679.2651      5.7986    111.7577
