~Version Information
VERS.                      2.0: CWLS Log ASCII Standard - VERSION 2.0
WRAP.                       NO: One line per depth step
~Well Information Block
STRT.FT                -6.7500: 
STOP.FT               983.2500: 
STEP.FT                 0.2500: 
NULL.                -999.2500: 
COMP.          Pioneer Natural Resources: COMPANY
WELL.          Run-Away-Train 43-26: WELL
FLD.           Purgatorie River: FIELD
LOC.           1693' FSL & 1195' FWL------------: LOCATION
PROV.                       CO: PROVINCE
CNTY.               Las Animas: COUNTRY
SRVC.          Patterson Wireline: SERVICE COMPANY
DATE.          Thu Apr 14 12:30:00 2005: LOG DATE
UWI.           05 071 08188 00: UNIQUE WELL ID
~Curve Information Block
DEPT.FT            0 000 00 00: Depth
CCL.                          : Casing Collar Locator
TT3.usec                      : CBL 3' Travel Time
AMP3.mV                       : CBL 3' Amplitude
GR.GAPI                       : Gamma Ray
~Parameter Information Block
~A  Depth       CCL         TT3         AMP3         GR     
# ...
   194.2500      0.0000    904.8349      5.7217     65.3161
   194.5000      0.0000    910.1171      5.7922     61.7307
   194.7500      0.0000    913.5337      5.8032     57.0209
   195.0000      0.0000    916.3669      5.7601     52.3604
   195.2500      0.0000    921.6006      5.6848     49.0050
   195.5000      0.0000    929.3716      5.6114     47.5866
   195.7500      0.0000    934.5420      5.5835     47.8660
   196.0000      0.0000    930.4741      5.6312     49.1822
   196.2500      0.0000    915.4571      5.7429     51.1439
   196.5000      0.0000    894.1802      5.8716     53.7059
   196.7500      0.0000    873.2844      5.9729     56.6186
   197.0000      0.0000    857.0410      6.0308     59.3068
   197.2500      0.0000    846.7603      6.0499     61.3153
   197.5000      0.0000    842.0011      6.0364     62.3562
   197.7500      0.0000    841.2350      5.9990     61.9080
   198.0000      0.0000    842.0508      5.9603     59.4486
   198.2500      0.0000    841.8261      5.9486     55.3298
   198.5000      0.0000    838.9724      5.9728     50.9845
   198.7500      0.0000    833.7957      6.0134     48.0027
   199.0000      0.0000    828.0641      6.0472     47.2074
   199.2500      0.0000    823.4833      6.0691     48.6092
   199.5000      0.0000    820.3276      6.0844     51.7346
   199.7500      0.0000    817.6000      6.0922     55.6998
   200.0000      0.0000    814.7421      6.0916     59.3033
   200.2500      0.0000    812.8477      6.0977     61.3418
   200.5000      0.0000    813.5832      6.1361     60.8578
   200.7500      0.0000    817.0724      6.2086     57.4176
   201.0000      0.0000    821.3704      6.2618     51.7497
   201.2500      0.0000    823.7930      6.1953     45.9343
   201.5000      0.0000    822.0598      5.9311     42.1796
   201.7500      0.0000    814.5256      5.5028     41.0772
   202.0000      0.0000    800.9533      5.0613     41.3487
   202.2500      0.0000    784.4271      4.7645     41.4346
   202.5000      0.0000    771.8618      4.6575     41.0810
   202.7500      2.0000    770.1795      4.6648     41.2125
   203.0000      2.0000    780.4604      4.6806     42.7410
   203.2500      0.0000    796.5762      4.6558     45.9846
   203.5000      0.0000    810.3535      4.6146     50.8373
   203.7500      0.0000    817.4226      4.6117     56.7470
   204.0000      0.0000    818.2223      4.6800     62.7288
   204.2500      0.0000    815.5394      4.8138     68.0620
   204.5000      0.0000    812.4084      4.9884     72.9561
   204.7500      0.0000    811.4041      5.1760     78.1942
   205.0000      0.0000    814.5093      5.3403     84.2033
   205.2500      0.0000    822.6071      5.4428     90.5349
   205.5000      0.0000    834.3645      5.4703     96.1758
   205.7500      0.0000    846.0854      5.4500    100.4721
   206.0000      0.0000    853.9447      5.4344    103.6908
   206.2500      0.0000    857.0071      5.4679    106.2606
   206.5000      0.0000    857.8081      5.5621    107.4772
   206.7500      0.0000    859.7084      5.6979    105.6872
   207.0000      0.0000    863.7646      5.8476    100.2238
   207.2500      0.0000    868.1329      5.9961     92.7085
   207.5000      0.0000    870.0346      6.1402     85.8788
   207.7500      0.0000    867.9958      6.2769     81.2866
   208.0000      0.0000    862.6632      6.4045     78.6876
   208.2500      0.0000    855.9631      6.5328     77.4771
   208.5000      0.0000    849.3983      6.6782     77.7056
   208.7500      0.0000    843.2134      6.8363     79.2635
   209.0000      0.0000    837.4005      6.9668     81.0477
   209.2500      0.0000    832.8485      7.0141     81.8960
   209.5000      0.0000    830.6774      6.9479     81.8871
   209.7500      0.0000    830.8432      6.7850     81.8030
   210.0000      0.0000    832.2798      6.5764     81.5385
   210.2500      0.0000    834.2457      6.3721     79.9923
   210.5000      0.0000    837.1001      6.1947     76.6724
   210.7500      0.0000    841.4910      6.0447     72.7362
   211.0000      0.0000    846.5024      5.9273     70.0994
   211.2500      0.0000    848.9368      5.8641     69.7012
   211.5000      0.0000    845.8846      5.8715     70.7129
   211.7500      0.0000    838.4636      5.9351     71.2755
   212.0000      0.0000    831.3928      6.0139     70.0399
   212.2500      0.0000    828.3335      6.0715     67.2712
   212.5000      0.0000    829.1815      6.0987     64.6876
   212.7500      0.0000    831.9772      6.1063     64.2414
   213.0000      0.0000    835.5013      6.1061     66.7661
   213.2500      0.0000    839.3786      6.0987     71.4409
   213.5000      0.0000    842.9391      6.0765     76.4797
   213.7500      0.0000    845.2143      6.0315     80.4071
   214.0000      0.0000    846.1337      5.9606     82.7015
   214.2500      0.0000    846.9852      5.8664     83.6350
   214.5000      0.0000    849.2721      5.7554     84.0472
   214.7500      0.0000    853.3333      5.6368     85.0589
   215.0000      0.0000    858.2172      5.5222     87.2829
   215.2500      0.0000    862.4105      5.4213     90.2506
   215.5000      0.0000    864.7137      5.3338     92.9290
   215.7500      0.0000    864.9725      5.2513     94.6550
   216.0000      0.0000    864.0519      5.1735     95.3373
   216.2500      0.0000    862.8796      5.1174     94.9375
   216.5000      0.0000    861.7769      5.1032     92.9387
   216.7500      0.0000    860.8312      5.1352     88.5175
   217.0000      0.0000    860.2302      5.1993     81.5196
   217.2500      0.0000    859.7926      5.2738     73.2816
   217.5000      0.0000    858.6632      5.3394     66.2274
   217.7500      0.0000    856.2352      5.3820     62.3895
   218.0000      0.0000    853.3425      5.3913     62.1228
   218.2500      0.0000    851.7183      5.3638     64.2188
   218.5000      0.0000    851.5573      5.3081     67.2753
   218.7500      0.0000    849.9514      5.2489     70.6526
   219.0000      0.0000    842.7241      5.2173     73.8869
   219.2500      0.0000    828.3419      5.2300     75.8837
   219.5000      0.0000    809.6279      5.2806     75.6244
   219.7500      0.0000    791.3635      5.3506     73.3958
   220.0000      0.0000    776.8505      5.4233     70.4395
   220.2500      0.0000    766.9283      5.4884     67.5565
   220.5000      0.0000    760.9504      5.5416     64.7575
   220.7500      0.0000    757.7716      5.5821     62.0966
   221.0000      0.0000    756.4841      5.6091     60.1632
   221.2500      0.0000    756.8073      5.6203     59.7298
   221.5000      0.0000    758.6264      5.6163     61.2293
   221.7500      0.0000    761.4825      5.6066     64.4345
   222.0000      0.0000    764.9163      5.6072     68.4205
   222.2500      0.0000    768.9004      5.6293     71.9785
   222.5000      0.0000    773.6570      5.6748     74.3047
   222.7500      0.0000    779.5748      5.7382     75.3702
   223.0000      0.0000    787.1371      5.8087     75.7029
   223.2500      0.0000    795.9842      5.8716     75.8333
   223.5000      0.0000    804.2652      5.9120     76.0243
   223.7500      0.0000    810.0822      5.9200     76.6692
   224.0000      0.0000    813.4762      5.8920     78.6673
   224.2500      0.0000    815.9378      5.8328     82.7306
   224.5000      0.0000    818.1330      5.7570     88.2355
   224.7500      0.0000    819.4108      5.6844     93.3549
   225.0000      0.0000    819.8724      5.6282     96.5177
   225.2500      0.0000    821.8257      5.5895     97.4865
   225.5000      0.0000    828.1546      5.5605     97.1174
   225.7500      0.0000    839.2879      5.5307     96.4259
   226.0000      0.0000    852.3776      5.4901     95.9143
   226.2500      0.0000    863.6105      5.4316     95.4815
   226.5000      0.0000    870.9464      5.3505     94.6663
   226.7500      0.0000    874.6838      5.2466     93.0159
   227.0000      0.0000    876.1982      5.1263     90.5477
   227.2500      0.0000    876.7416      5.0062     87.9343
   227.5000      0.0000    877.1556      4.9094     86.0812
