~Version Information
VERS.                      2.0: CWLS Log ASCII Standard - VERSION 2.0
WRAP.                       NO: One line per depth step
~Well Information Block
STRT.FT               -16.0000: 
STOP.FT              2454.2500: 
STEP.FT                 0.2500: 
NULL.                -999.2500: 
COMP.                         : COMPANY
WELL.                         : WELL
FLD.                          : FIELD
LOC.                          : LOCATION
CNTY.                         : COUNTY
SRVC.                         : SERVICE COMPANY
DATE.          Tue Aug 31 08:09:44 2004: LOG DATE
UWI.                          : UNIQUE WELL ID
STAT.                         : STATE
~Curve Information Block
DEPT.FT            0 000 00 00: Depth
GR.GAPI                       : Gamma Ray
CCL.                          : Casing Collar Locator
TT3.usec                      : CBL 3' Travel Time
AMP3.mV                       : CBL 3' Amplitude
~Parameter Information Block
~A  Depth        GR         CCL         TT3         AMP3    
# ...
  1625.5000    108.1286      0.0000    416.5036     11.3633
  1625.7500    104.6303      0.0000    412.8488     11.5896
  1626.0000    103.1367      0.0000    411.9670     11.7917
  1626.2500    102.5863      0.0000    411.7291     11.9720
  1626.5000    101.7633      0.0000    411.6364     12.1462
  1626.7500    100.4434      0.0000    411.5114     12.3107
  1627.0000     99.2932      0.0000    411.3192     12.4353
  1627.2500     99.2136      0.0000    411.1211     12.5125
  1627.5000    100.7772      0.0000    411.0902     12.5776
  1627.7500    103.9082      0.0000    411.2768     12.6559
  1628.0000    107.9316      0.0000    411.3659     12.7389
  1628.2500    111.8756      0.0000    411.0494     12.8105
  1628.5000    114.5997      0.0000    410.7936     12.8592
  1628.7500    114.9423      0.0000    413.2422     12.8694
  1629.0000    112.3034      0.0000    426.9001     12.8062
  1629.2500    107.2947      0.0000    467.0421     12.6256
  1629.5000    101.5675      0.0000    536.9769     12.3214
  1629.7500     96.6478      0.0000    601.5493     11.9606
  1630.0000     92.7953      0.0000    616.2351     11.6274
  1630.2500     89.1570      0.0000    598.2882     11.3323
  1630.5000     85.1218      0.0000    612.1813     11.0304
  1630.7500     81.2111      0.0000    675.5134     10.7062
  1631.0000     78.4551      0.0000    744.1744     10.3994
  1631.2500     77.2811      0.0000    783.3875     10.1687
  1631.5000     77.2949      0.0000    796.7094     10.0596
  1631.7500     77.7908      0.0000    799.0500     10.0990
  1632.0000     78.1469      0.0000    796.2900     10.2868
  1632.2500     78.1553      0.0000    781.8655     10.5945
  1632.5000     78.3787      0.0000    737.6738     11.0244
  1632.7500     79.9120      0.0000    649.8365     11.6573
  1633.0000     83.3648      0.0000    536.3821     12.5565
  1633.2500     88.1430      0.0000    440.5784     13.6121
  1633.5000     92.9697      0.0000    387.0735     14.5656
  1633.7500     96.9495      0.0000    366.9153     15.2221
  1634.0000     99.8589      0.0000    361.7165     15.5754
  1634.2500    101.7906      0.0000    360.9908     15.7321
  1634.5000    103.2111      0.0000    361.2274     15.7737
  1634.7500    105.1259      0.0000    361.6017     15.6955
  1635.0000    108.1801      0.0000    362.4133     15.4740
  1635.2500    111.3784      0.0000    366.1633     15.1214
  1635.5000    112.5284      0.0000    382.0214     14.6374
  1635.7500    110.3681      0.0000    427.4142     14.0053
  1636.0000    105.7395      0.0000    508.5334     13.2458
  1636.2500    100.3771      0.0000    593.6854     12.4543
  1636.5000     95.0524      0.0000    643.8677     11.7035
  1636.7500     89.3209      0.0000    671.8956     10.9096
  1637.0000     82.8473      0.0000    709.7391     10.1156
  1637.2500     76.5338      0.0000    743.4677      9.6548
  1637.5000     72.1510      0.0000    744.7974      9.6471
  1637.7500     70.8719      0.0000    716.6594      9.8316
  1638.0000     72.2847     -5.0000    674.3923      9.9675
  1638.2500     74.7813      0.0000    629.3138     10.0007
  1638.5000     76.7361      0.0000    597.0320      9.9455
  1638.7500     77.3401      0.0000    586.4389      9.7941
  1639.0000     76.6745      0.0000    580.0238      9.5251
  1639.2500     75.3086      0.0000    561.5699      9.2077
  1639.5000     73.7917      0.0000    555.3165      9.0616
  1639.7500     72.3023      0.0000    595.7036      9.2274
  1640.0000     70.5976      0.0000    672.6859      9.5434
  1640.2500     68.2131      0.0000    740.7772      9.7521
  1640.5000     64.8728      0.0000    767.9136      9.7781
  1640.7500     60.9743      0.0000    746.6379      9.7020
  1641.0000     57.6550      0.0000    679.0318      9.6163
  1641.2500     56.0672      0.0000    583.4841      9.5723
  1641.5000     56.3343      0.0000    496.3286      9.5935
  1641.7500     57.2770      0.0000    443.1093      9.6640
  1642.0000     57.4608      0.0000    423.0193      9.7174
  1642.2500     56.5719      0.0000    427.7465      9.6870
  1642.5000     55.4993      0.0000    458.9940      9.5696
  1642.7500     55.1187      0.0000    517.1359      9.4186
  1643.0000     55.3622      0.0000    582.8739      9.2883
  1643.2500     55.4648      0.0000    635.1377      9.2022
  1643.5000     54.8032      0.0000    677.1522      9.1595
  1643.7500     53.5161      0.0000    717.0914      9.1413
  1644.0000     52.5967      0.0000    749.0363      9.1161
  1644.2500     53.4298      0.0000    769.0800      9.0597
  1644.5000     56.9820      0.0000    781.7427      8.9600
  1644.7500     63.1050      0.0000    789.7841      8.8189
  1645.0000     70.5741      0.0000    791.6317      8.6855
  1645.2500     78.0544      0.0000    780.6147      8.6500
  1645.5000     85.1102      0.0000    741.7328      8.7774
  1645.7500     92.0254      0.0000    663.4246      9.0641
  1646.0000     98.6699      0.0000    562.1306      9.4290
  1646.2500    103.9332      0.0000    476.8906      9.7500
  1646.5000    106.4287      0.0000    431.0599      9.9506
  1646.7500    105.6990      0.0000    420.6265     10.0423
  1647.0000    102.7051      0.0000    437.3052     10.0641
  1647.2500     99.0238      0.0000    478.7959     10.0145
  1647.5000     95.6144      0.0000    537.7571      9.8735
  1647.7500     92.7596      0.0000    600.2729      9.6722
  1648.0000     91.0819      0.0000    653.8474      9.4963
  1648.2500     91.5968      0.0000    684.6492      9.4220
  1648.5000     94.2089      0.0000    679.6187      9.4712
  1648.7500     97.0103      0.0000    640.1688      9.6080
  1649.0000     97.9683      0.0000    584.9502      9.7557
  1649.2500     96.8975      0.0000    536.1791      9.8320
  1649.5000     95.1416      0.0000    504.2379      9.7928
  1649.7500     93.7748      0.0000    488.5726      9.6458
  1650.0000     92.8203      0.0000    484.5867      9.4299
  1650.2500     91.9745      0.0000    482.5044      9.2039
  1650.5000     91.3586      0.0000    474.0342      9.0226
  1650.7500     91.4903      0.0000    462.2538      8.8968
  1651.0000     92.9366      0.0000    454.4247      8.8123
  1651.2500     95.9220      0.0000    451.9076      8.7778
  1651.5000     99.8259      0.0000    452.0107      8.8136
  1651.7500    103.1888      0.0000    452.7472      8.9078
  1652.0000    104.7269      0.0000    453.6980      9.0123
  1652.2500    104.3483      0.0000    454.7851      9.0819
  1652.5000    102.9509      0.0000    455.5807      9.0958
  1652.7500    101.3685      0.0000    455.6835      9.0481
  1653.0000     99.7447      0.0000    454.9850      8.9536
  1653.2500     97.7789      0.0000    453.5681      8.8478
  1653.5000     95.3546      0.0000    451.9887      8.7560
  1653.7500     92.8822      0.0000    452.6162      8.6701
  1654.0000     90.9234      0.0000    462.4948      8.5584
  1654.2500     89.4907      0.0000    493.0551      8.4181
  1654.5000     88.1094      0.0000    545.7419      8.3322
  1654.7500     86.7055      0.0000    597.9559      8.4159
  1655.0000     85.8992      0.0000    626.2227      8.6703
  1655.2500     86.0749      0.0000    634.5272      8.9659
  1655.5000     86.6002      0.0000    630.7156      9.1953
  1655.7500     86.4754      0.0000    608.1646      9.3464
  1656.0000     85.5702      0.0000    581.9946      9.4311
  1656.2500     84.8024      0.0000    589.5148      9.4280
  1656.5000     85.2566      0.0000    624.4721      9.2977
  1656.7500     87.4385      0.0000    638.5107      9.0311
  1657.0000     91.1131      0.0000    623.2814      8.7053
  1657.2500     95.3094      0.0000    613.9479      8.4780
  1657.5000     98.5682      0.0000    613.1116      8.4780
  1657.7500     99.7546      0.0000    588.5023      8.7009
  1658.0000     98.9581      0.0000    535.5460      9.0305
  1658.2500     97.5335      0.0000    481.5465      9.3464
  1658.5000     97.1648      0.0000    444.5130      9.5958
  1658.7500     98.5892      0.0000    424.0792      9.7611
