~Version Information
VERS.                      2.0: CWLS Log ASCII Standard - VERSION 2.0
WRAP.                       NO: One line per depth step
~Well Information Block
STRT.FT                -2.7500: 
STOP.FT              2141.2500: 
STEP.FT                 0.2500: 
NULL.                -999.2500: 
COMP.          Pioneer Nautural Resources: COMPANY
WELL.             Enzo 43-8 Tr: WELL
FLD.           Purgatorie River: FIELD
LOC.           2303' FSL & 604' FEL--: LOCATION
PROV.                       CO: PROVINCE
CNTY.               Las Animas: COUNTRY
SRVC.                         : SERVICE COMPANY
DATE.          Thu Nov 04 09:01:55 2004: LOG DATE
UWI.            05-071-08213  : UNIQUE WELL ID
~Curve Information Block
DEPT.FT            0 000 00 00: Depth
GR.GAPI                       : Gamma Ray
CCL.                          : Casing Collar Locator
TT3.usec                      : CBL 3' Travel Time
AMP3.mV                       : CBL 3' Amplitude
~Parameter Information Block
~A  Depth        GR         CCL         TT3         AMP3    
# ...
   700.7500    143.0248      0.0000    819.3932      5.3702
   701.0000    140.8390      0.0000    815.3813      5.3362
   701.2500    140.1099      0.0000    813.6179      5.3075
   701.5000    141.5694      0.0000    813.1100      5.2974
   701.7500    144.3981      0.0000    812.9754      5.3121
   702.0000    146.8493      0.0000    812.8262      5.3556
   702.2500    147.5896      0.0000    812.6257      5.4286
   702.5000    146.3616      0.0000    812.4501      5.5243
   702.7500    143.7294      0.0000    812.3466      5.6271
   703.0000    140.4782      0.0000    812.3161      5.7176
   703.2500    137.1005      0.0000    812.3297      5.7811
   703.5000    133.7370      0.0000    812.3590      5.8134
   703.7500    130.6977      0.0000    812.4039      5.8180
   704.0000    128.7923      0.0000    812.4870      5.7987
   704.2500    128.8707      0.0000    812.6129      5.7558
   704.5000    131.1105      0.0000    812.7417      5.6926
   704.7500    134.9363      0.0000    812.8120      5.6212
   705.0000    139.5846      0.0000    812.8015      5.5564
   705.2500    144.5461      0.0000    812.7702      5.5048
   705.5000    149.3014      0.0000    812.9216      5.4630
   705.7500    152.9050      0.0000    813.6989      5.4246
   706.0000    154.3272      0.0000    815.8674      5.3849
   706.2500    153.3272      0.0000    820.2072      5.3406
   706.5000    150.7902      0.0000    826.4856      5.2898
   706.7500    148.1672      0.0000    832.4935      5.2353
   707.0000    146.5269      0.0000    834.9296      5.1863
   707.2500    145.8936      0.0000    832.1694      5.1510
   707.5000    145.3610      0.0000    825.8795      5.1270
   707.7500    143.9129      0.0000    819.3784      5.1010
   708.0000    141.3381      0.0000    814.8776      5.0627
   708.2500    138.6294      0.0000    812.6111      5.0177
   708.5000    137.4145      0.0000    811.7869      4.9827
   708.7500    138.4705      0.0000    811.6061      4.9685
   709.0000    140.7548      0.0000    811.5977      4.9681
   709.2500    142.4102      0.0000    811.5593      4.9614
   709.5000    142.5630      0.0000    811.4379      4.9343
   709.7500    141.6098      0.0000    811.2275      4.8933
   710.0000    140.1654      0.0000    810.9363      4.8616
   710.2500    138.4953      0.0000    810.6074      4.8576
   710.5000    136.7587      0.0000    810.3562      4.8791
   710.7500    134.9820      0.0000    810.4211      4.9101
   711.0000    132.6314      0.0000    811.2388      4.9398
   711.2500    128.8696      0.0000    813.5775      4.9699
   711.5000    123.6598      0.0000    818.3377      5.0060
   711.7500    118.1817      0.0000    825.6235      5.0497
   712.0000    113.7464      0.0000    833.7661      5.0988
   712.2500    110.6081      0.0000    840.1032      5.1414
   712.5000    108.1081      0.0000    843.6754      5.1451
   712.7500    105.6352      0.0000    846.4111      5.0700
   713.0000    103.2254      0.0000    850.3687      4.9160
   713.2500    101.4051      0.0000    854.3949      4.7455
   713.5000    100.7349      0.0000    855.2479      4.6361
   713.7500    101.6204      0.0000    852.0990      4.6146
   714.0000    104.2960      2.0000    848.6801      4.6470
   714.2500    108.4231      0.0000    850.6049      4.6793
   714.5000    112.5802      0.0000    860.4526      4.6862
   714.7500    114.6488      0.0000    874.6581      4.6949
   715.0000    113.2108      0.0000    885.1669      4.7529
   715.2500    108.6043      0.0000    885.1754      4.8587
   715.5000    102.5901      0.0000    874.4606      4.9528
   715.7500     97.1316      0.0000    860.2056      5.0037
   716.0000     93.5650      0.0000    852.3917      5.0566
   716.2500     92.5015      0.0000    856.5513      5.1632
   716.5000     93.7750      0.0000    869.3016      5.3096
   716.7500     96.3486      0.0000    880.6514      5.4406
   717.0000     98.7813      0.0000    881.2234      5.5135
   717.2500    100.1226      0.0000    868.3301      5.5103
   717.5000    100.4630      0.0000    846.9402      5.4312
   717.7500    100.7740      0.0000    826.1650      5.2971
   718.0000    102.0337      0.0000    814.0394      5.1499
   718.2500    104.1932      0.0000    813.1965      5.0349
   718.5000    106.0367      0.0000    819.6403      4.9783
   718.7500    106.0520      0.0000    825.9603      4.9785
   719.0000    103.3777      0.0000    827.0648      5.0172
   719.2500     98.3966      0.0000    823.2170      5.0738
   719.5000     92.7332      0.0000    817.8771      5.1296
   719.7500     88.2111      0.0000    813.7831      5.1665
   720.0000     85.6473      0.0000    811.4803      5.1750
   720.2500     84.9781      0.0000    810.3098      5.1637
   720.5000     86.1506      0.0000    809.6041      5.1544
   720.7500     89.2175      0.0000    809.0635      5.1625
   721.0000     93.7235      0.0000    808.6240      5.1818
   721.2500     98.5003      0.0000    808.2759      5.1906
   721.5000    102.1359      0.0000    807.9833      5.1731
   721.7500    103.7248      0.0000    807.7244      5.1327
   722.0000    103.4806      0.0000    807.5432      5.0835
   722.2500    102.6614      0.0000    807.6240      5.0326
   722.5000    102.6267      0.0000    808.3945      4.9748
   722.7500    103.9758      0.0000    810.6377      4.9053
   723.0000    106.6637      0.0000    815.2093      4.8319
   723.2500    110.4605      0.0000    821.9596      4.7716
   723.5000    114.7672      0.0000    828.6407      4.7363
   723.7500    118.3957      0.0000    831.7437      4.7229
   724.0000    120.3677      0.0000    829.4202      4.7186
   724.2500    120.8728      0.0000    823.2906      4.7136
   724.5000    120.7311      0.0000    816.7872      4.7081
   724.7500    120.1751      0.0000    812.2238      4.7084
   725.0000    118.9996      0.0000    809.8546      4.7185
   725.2500    117.7414      0.0000    808.9916      4.7364
   725.5000    117.7698      0.0000    809.2699      4.7574
   725.7500    120.0866      0.0000    811.1164      4.7800
   726.0000    124.5636      0.0000    815.3232      4.8029
   726.2500    130.2653      0.0000    821.7596      4.8214
   726.5000    135.9757      0.0000    828.1643      4.8294
   726.7500    140.4215      0.0000    831.0180      4.8288
   727.0000    142.3884      0.0000    828.5313      4.8305
   727.2500    140.8765      0.0000    822.4344      4.8418
   727.5000    135.4047      0.0000    816.1857      4.8559
   727.7500    126.4182      0.0000    811.8477      4.8600
   728.0000    115.4377      0.0000    808.9638      4.8471
   728.2500    104.5793      0.0000    805.6270      4.8193
   728.5000     95.6238      0.0000    800.1143      4.7850
   728.7500     89.4767      0.0000    792.1174      4.7588
   729.0000     86.5896      0.0000    783.0552      4.7609
   729.2500     87.5342      0.0000    775.1276      4.8070
   729.5000     92.4351      0.0000    769.7935      4.8951
   729.7500     99.8887      0.0000    767.0918      5.0051
   730.0000    107.1663      0.0000    766.1613      5.1108
   730.2500    111.7594      0.0000    766.0870      5.1914
   730.5000    112.6166      0.0000    766.2863      5.2331
   730.7500    110.1909      0.0000    766.4793      5.2303
   731.0000    105.6445      0.0000    766.6155      5.1875
   731.2500     99.9797      0.0000    766.9229      5.1187
   731.5000     93.8574      0.0000    768.0165      5.0435
   731.7500     88.1527      0.0000    770.8450      4.9814
   732.0000     84.4133      0.0000    776.2081      4.9471
   732.2500     84.5959      0.0000    783.9631      4.9455
   732.5000     90.2412      0.0000    792.6762      4.9742
   732.7500    101.3562      0.0000    800.3726      5.0305
   733.0000    115.5172      0.0000    805.9105      5.1124
   733.2500    128.4176      0.0000    809.7909      5.2134
   733.5000    136.2821      0.0000    813.9510      5.3203
   733.7500    138.3153      0.0000    820.8093      5.4163
   734.0000    136.6812      0.0000    831.5241      5.4863
