~Version Information
VERS.                      2.0: CWLS Log ASCII Standard - VERSION 2.0
WRAP.                       NO: One line per depth step
~Well Information Block
STRT.FT               647.0000: 
STOP.FT              1166.0000: 
STEP.FT                 0.1000: 
NULL.                -999.2500: 
COMP.          Pioneer Natural Resources: COMPANY
WELL.             Linda T 32-3: WELL
FLD.           Purgatoire River: FIELD
LOC.           1350' FNL & 2290' FEL: LOCATION
PROV.                 Colorado: PROVINCE
CNTY.               Las Animas: COUNTRY
SRVC.                Patterson: SERVICE COMPANY
DATE.          Sat Feb 05 08:06:50 2005: LOG DATE
UWI.           05 071 08215 00: UNIQUE WELL ID
~Curve Information Block
DEPT.FT            0 000 00 00: Depth
DCAL.in                       : CDL Caliper
RHOB.g/cc                     : CDL Bulk Density
RHOC.g/cc                     : CDL Density Correction
DPOR.pu                       : CDL Density Porosity
GR.GAPI                       : Gamma Ray
NPOR.pu                       : Neutron Porosity
~Parameter Information Block
~A  Depth       DCAL        RHOB        RHOC        DPOR         GR         NPOR    
# ...
   752.6000      8.0925      2.5223      0.0515      7.7384     70.4591     23.9723
   752.7000      8.0925      2.5229      0.0756      7.7043     62.8418     24.0948
   752.8000      8.1261      2.5215      0.0661      7.7870     57.6902     24.0108
   752.9000      8.1261      2.5151      0.0637      8.1758     56.0161     23.7742
   753.0000      8.1484      2.5112      0.0514      8.4102     56.0194     23.6792
   753.1000      8.1484      2.5130      0.0424      8.3034     56.6312     23.8661
   753.2000      8.1484      2.5146      0.0610      8.2076     57.1854     24.1332
   753.3000      8.1490      2.5115      0.0745      8.3969     57.0628     24.1914
   753.4000      8.1490      2.5025      0.0726      8.9376     55.5106     24.0270
   753.5000      8.1398      2.4917      0.0481      9.5948     53.7039     23.9753
   753.6000      8.1398      2.4917      0.0257      9.5943     53.2125     24.0115
   753.7000      8.1398      2.5101      0.0508      8.4779     53.4771     24.0902
   753.8000      8.1372      2.5351      0.0795      6.9615     54.4527     24.3793
   753.9000      8.1372      2.5462      0.0722      6.2898     56.3766     24.3200
   754.0000      8.1395      2.5381      0.0491      6.7807     57.6182     23.6036
   754.1000      8.1395      2.5279      0.0495      7.3982     56.2574     23.0979
   754.2000      8.1395      2.5283      0.0603      7.3757     53.3621     23.3556
   754.3000      8.1605      2.5355      0.0502      6.9385     51.7169     23.9100
   754.4000      8.1605      2.5462      0.0558      6.2901     50.8836     24.1416
   754.5000      8.1487      2.5544      0.0832      5.7910     49.5820     23.8488
   754.6000      8.1487      2.5481      0.1060      6.1747     48.4391     23.2522
   754.7000      8.1487      2.5274      0.0450      7.4310     46.7874     22.8386
   754.8000      8.1404      2.5079      0.0741      8.6117     44.6735     23.0728
   754.9000      8.1404      2.5031      0.0383      8.9020     43.9697     23.6525
   755.0000      8.1179      2.5100      0.0699      8.4844     44.8922     23.9343
   755.1000      8.1179      2.5086      0.1091      8.5725     46.3605     24.0411
   755.2000      8.1179      2.4967      0.0135      9.2884     46.8541     24.5100
   755.3000      8.1198      2.5013      0.0414      9.0140     44.2086     25.1247
   755.4000      8.1198      2.5314      0.0814      7.1862     39.9560     25.0083
   755.5000      8.1353      2.5645      0.1265      5.1814     38.9754     24.1147
   755.6000      8.1353      2.5788      0.0852      4.3143     40.4085     23.3966
   755.7000      8.1353      2.5779      0.0675      4.3680     41.6227     23.2584
   755.8000      8.1350      2.5818      0.0691      4.1349     43.4128     23.4768
   755.9000      8.1350      2.5938      0.1387      3.4087     43.5651     23.7335
   756.0000      8.1044      2.5952      0.1118      3.3190     41.9068     23.7047
   756.1000      8.1044      2.5780      0.0976      4.3615     43.1593     23.6940
   756.2000      8.1044      2.5576      0.0274      5.5985     46.9288     24.0294
   756.3000      8.0909      2.5549      0.0137      5.7654     48.2547     24.0395
   756.4000      8.0909      2.5671      0.0785      5.0269     46.6145     23.3814
   756.5000      8.1203      2.5800      0.0371      4.2424     45.1317     22.6249
   756.6000      8.1203      2.5889      0.0710      3.7046     44.6570     21.9596
   756.7000      8.1203      2.5808      0.0846      4.1939     44.8699     21.4383
   756.8000      8.1574      2.5519      0.0439      5.9452     46.0971     21.3101
   756.9000      8.1574      2.5240      0.0325      7.6336     49.0672     21.2196
   757.0000      8.1633      2.5184      0.0179      7.9755     52.7431     20.8500
   757.1000      8.1633      2.5344      0.0631      7.0090     54.1474     20.3420
   757.2000      8.1633      2.5576      0.0239      5.5979     51.1147     19.6955
   757.3000      8.1686      2.5751      0.0706      4.5370     46.4937     19.1005
   757.4000      8.1686      2.5762      0.0533      4.4757     45.2949     18.8682
   757.5000      8.1651      2.5623      0.0579      5.3158     48.4103     18.9315
   757.6000      8.1651      2.5468      0.0593      6.2533     51.4016     18.8773
   757.7000      8.1651      2.5459      0.0162      6.3093     50.0551     18.5667
   757.8000      8.1503      2.5616      0.0777      5.3604     44.4382     18.5718
   757.9000      8.1503      2.5792      0.0530      4.2890     39.3510     19.2306
   758.0000      8.1146      2.5961      0.0470      3.2652     39.6791     20.2244
   758.1000      8.1146      2.6138      0.0713      2.1965     42.1207     21.0116
   758.2000      8.1146      2.6231      0.0700      1.6308     40.9740     21.4303
   758.3000      8.1210      2.6179      0.0815      1.9430     38.0912     21.5760
   758.4000      8.1210      2.6014      0.0658      2.9475     37.6338     21.3961
   758.5000      8.1176      2.5888      0.0464      3.7076     38.8133     21.4068
   758.6000      8.1176      2.5980      0.0586      3.1528     38.7184     22.0420
   758.7000      8.1176      2.6263      0.0743      1.4391     37.5953     22.6978
   758.8000      8.1094      2.6512      0.1100     -0.0725     39.3470     22.8661
   758.9000      8.1094      2.6512      0.1124     -0.0740     46.4545     22.8168
   759.0000      8.0913      2.6305      0.0493      1.1815     55.5053     22.7910
   759.1000      8.0913      2.6132      0.0667      2.2328     59.2900     22.7535
   759.2000      8.0913      2.6017      0.0876      2.9303     54.2929     22.8164
   759.3000      8.0694      2.5732      0.0713      4.6543     45.7532     23.1251
   759.4000      8.0694      2.5140      0.0329      8.2408     40.8238     23.7790
   759.5000      8.0751      2.4290      0.0286     13.3949     41.5130     24.7715
   759.6000      8.0751      2.3284     -0.0139     19.4932     44.5430     25.7824
   759.7000      8.0751      2.2251     -0.0237     25.7527     46.2327     26.3810
   759.8000      8.0976      2.1345     -0.0820     31.2425     48.6577     26.2789
   759.9000      8.0976      2.0654     -0.0638     35.4332     52.7738     26.1161
   760.0000      8.1379      2.0216     -0.0815     38.0840     55.2245     27.1924
   760.1000      8.1379      2.0111     -0.0277     38.7238     56.9308     29.3684
   760.2000      8.1379      2.0353      0.0304     37.2571     60.6879     30.8283
   760.3000      8.1512      2.0793      0.1336     34.5899     65.1471     30.6396
   760.4000      8.1512      2.1170      0.1868     32.3059     66.8255     29.8345
   760.5000      8.2063      2.1370      0.1407     31.0931     65.6506     29.5891
   760.6000      8.2063      2.1578      0.1287     29.8322     64.1482     29.7691
   760.7000      8.2063      2.1929      0.1252     27.7057     61.9313     29.7393
   760.8000      8.2042      2.2315      0.1376     25.3628     57.3152     29.3702
   760.9000      8.2042      2.2671      0.0991     23.2085     52.0888     28.9805
   761.0000      8.1748      2.3071      0.1317     20.7823     49.4616     28.6880
   761.1000      8.1748      2.3528      0.1449     18.0130     49.6587     28.5179
   761.2000      8.1748      2.3930      0.1677     15.5779     50.5923     28.7812
   761.3000      8.1613      2.4188      0.1643     14.0114     53.0166     29.0179
   761.4000      8.1613      2.4336      0.1591     13.1128     56.3913     28.4823
   761.5000      8.1568      2.4369      0.1874     12.9128     55.9331     27.7488
   761.6000      8.1568      2.4153      0.1517     14.2270     50.9477     27.1622
   761.7000      8.1568      2.3640      0.1180     17.3362     45.7962     26.3805
   761.8000      8.1637      2.2953      0.0122     21.4978     43.0237     25.7026
   761.9000      8.1637      2.2187      0.0037     26.1421     42.2380     25.3862
   762.0000      8.1566      2.1383     -0.0700     31.0122     41.7810     25.4576
   762.1000      8.1566      2.0755     -0.0857     34.8176     40.6510     25.7397
