~Version Information
VERS.                      2.0: CWLS Log ASCII Standard - VERSION 2.0
WRAP.                       NO: One line per depth step
~Well Information Block
STRT.FT                -8.2500: 
STOP.FT              1175.7500: 
STEP.FT                 0.2500: 
NULL.                -999.2500: 
COMP.          Evergreen Operating Corporation: COMPANY
WELL.             Justin 32-10: WELL
FLD.           Purgatorie River: FIELD
LOC.           2994' FNL & 1449' FEL: LOCATION
PROV.                 Colorado: PROVINCE
CNTY.               Las Animas: COUNTRY
SRVC.                         : SERVICE COMPANY
DATE.          Wed Sep 29 10:00:10 2004: LOG DATE
UWI.           05 071 08053 00: UNIQUE WELL ID
~Curve Information Block
DEPT.FT            0 000 00 00: Depth
GR.GAPI                       : Gamma Ray
CCL.                          : Casing Collar Locator
TT3.usec                      : CBL 3' Travel Time
AMP3.mV                       : CBL 3' Amplitude
~Parameter Information Block
~A  Depth        GR         CCL         TT3         AMP3    
# ...
   829.2500    108.9815      0.0000   1030.1696      4.9511
   829.5000    112.5598      0.0000    999.0842      5.2843
   829.7500    117.0268      0.0000    926.6592      5.8659
   830.0000    121.2965      0.0000    828.4324      6.6733
   830.2500    124.7239      0.0000    723.5422      7.5204
   830.5000    127.2352      0.0000    624.7996      8.1552
   830.7500    128.7733      0.0000    536.5760      8.4729
   831.0000    128.7759      0.0000    459.8378      8.5798
   831.2500    126.5973      0.0000    397.7924      8.6315
   831.5000    122.5889      0.0000    354.8984      8.6753
   831.7500    118.3778      0.0000    331.7000      8.6658
   832.0000    115.6361      0.0000    323.9584      8.5661
   832.2500    114.7257      0.0000    326.5172      8.3881
   832.5000    114.8952      0.0000    336.3148      8.1588
   832.7500    115.4120      0.0000    352.0091      7.8846
   833.0000    115.9553      0.0000    372.6894      7.5590
   833.2500    116.2382      0.0000    397.5009      7.1822
   833.5000    115.9646      0.0000    425.4214      6.7628
   833.7500    115.2544      0.0000    454.0598      6.3193
   834.0000    114.7917      0.0000    478.7930      5.8962
   834.2500    115.3744      0.0000    494.7945      5.5606
   834.5000    117.2866      0.0000    500.4963      5.3611
   834.7500    119.9672      0.0000    498.5223      5.2936
   835.0000    122.0886      0.0000    493.2951      5.3173
   835.2500    122.1483      0.0000    488.1713      5.3943
   835.5000    119.4964      0.0000    484.5091      5.5049
   835.7500    115.0091      0.0000    482.6158      5.6343
   836.0000    110.5695      0.0000    483.1884      5.7588
   836.2500    107.7683      0.0000    488.3131      5.8455
   836.5000    107.0056      0.0000    501.0688      5.8662
   836.7500    107.4928      0.0000    522.9430      5.8149
   837.0000    107.8359      0.0000    550.0022      5.7150
   837.2500    106.9596      0.0000    571.8660      5.6010
   837.5000    105.0574      0.0000    576.9377      5.4895
   837.7500    103.6990      0.0000    560.9925      5.3654
   838.0000    104.6185      0.0000    531.0015      5.2001
   838.2500    108.2299      0.0000    499.9767      4.9831
   838.5000    113.2774      0.0000    477.9926      4.7379
   838.7500    117.8191      0.0000    467.7906      4.5045
   839.0000    120.5340      0.0000    467.2075      4.3130
   839.2500    121.2417      0.0000    474.2742      4.1720
   839.5000    120.4244      0.0000    489.9296      4.0733
   839.7500    118.5091      0.0000    515.8305      4.0013
   840.0000    115.6298      0.0000    549.4680      3.9403
   840.2500    111.8617      0.0000    582.6201      3.8782
   840.5000    107.6349      0.0000    605.6287      3.8116
   840.7500    104.0502      0.0000    612.6241      3.7488
   841.0000    102.5203      0.0000    603.2255      3.7050
   841.2500    103.7256      0.0000    582.0986      3.6926
   841.5000    106.9733      0.0000    557.4528      3.7164
   841.7500    110.7561      0.0000    537.2939      3.7730
   842.0000    113.7388      0.0000    525.7039      3.8501
   842.2500    115.1838      0.0000    523.0406      3.9281
   842.5000    114.9986      0.0000    529.1611      3.9872
   842.7500    113.8819      0.0000    544.7262      4.0148
   843.0000    113.0371      0.0000    568.0019      4.0068
   843.2500    113.1535      0.0000    591.1319      3.9642
   843.5000    113.6631      0.0000    602.9737      3.8927
   843.7500    113.3075      0.0000    598.3129      3.8013
   844.0000    111.4428      0.0000    582.9460      3.6995
   844.2500    108.6234      0.0000    567.9185      3.5951
   844.5000    106.0272      0.0000    560.7151      3.4985
   844.7500    104.5719      0.0000    563.0303      3.4254
   845.0000    104.3379      0.0000    573.5485      3.3914
   845.2500    104.3615      0.0000    590.0644      3.3996
   845.5000    103.0029      0.0000    610.2772      3.4382
   845.7500     99.0439      0.0000    632.6801      3.4904
   846.0000     92.7321      0.0000    657.0923      3.5469
   846.2500     85.6353      0.0000    684.6832      3.6076
   846.5000     79.4453      0.0000    717.2578      3.6735
   846.7500     75.0687      0.0000    754.1911      3.7428
   847.0000     72.7112      0.0000    790.0688      3.8145
   847.2500     72.3537      0.0000    817.8377      3.8904
   847.5000     73.8607      0.0000    834.3316      3.9695
   847.7500     76.7993      0.0000    840.6874      4.0388
   848.0000     80.4096      0.0000    838.4348      4.0751
   848.2500     83.8684      0.0000    828.2371      4.0637
   848.5000     86.6496      0.0000    813.0919      4.0165
   848.7500     88.6842      0.0000    799.4753      3.9695
   849.0000     90.1099      0.0000    792.0302      3.9667
   849.2500     90.8688      0.0000    788.6114      4.0455
   849.5000     90.6174      0.0000    784.2399      4.2284
   849.7500     89.0487      0.0000    778.0004      4.5171
   850.0000     86.2081      0.0000    769.7059      4.8916
   850.2500     82.3802      0.0000    750.4044      5.3172
   850.5000     77.7881      0.0000    704.4258      5.7525
   850.7500     72.5420      0.0000    625.9478      6.1548
   851.0000     66.8055      0.0000    531.4354      6.4853
   851.2500     60.9410      0.0000    452.6355      6.7150
   851.5000     55.5874      0.0000    417.6338      6.8319
   851.7500     51.6608      0.0000    437.1643      6.8437
   852.0000     50.1501      0.0000    502.0927      6.7684
   852.2500     51.7351      0.0000    588.4559      6.6180
   852.5000     56.5203      0.0000    668.3763      6.3935
   852.7500     64.0334      0.0000    722.7324      6.0953
   853.0000     73.1711      0.0000    746.5080      5.7328
   853.2500     82.1576      0.0000    744.1833      5.3257
   853.5000     89.1187      0.0000    723.1057      4.9051
   853.7500     93.1121      0.0000    691.4376      4.5157
   854.0000     94.5299      0.0000    658.8499      4.2049
   854.2500     94.4925      0.0000    635.3038      3.9931
   854.5000     94.0992      0.0000    626.6791      3.8538
   854.7500     94.0894      0.0000    631.1756      3.7352
   855.0000     94.5238      0.0000    641.9617      3.6088
   855.2500     94.5094      0.0000    654.9387      3.4879
   855.5000     92.7851      0.0000    672.3865      3.4001
   855.7500     89.1068      0.0000    697.7670      3.3531
   856.0000     84.9532      0.0000    729.1492      3.3353
   856.2500     82.5971      0.0000    759.7797      3.3357
   856.5000     83.4770      0.0000    783.8378      3.3524
   856.7500     87.4386      0.0000    799.9650      3.3869
   857.0000     93.2291      0.0000    810.1044      3.4368
   857.2500     99.5209      0.0000    816.8538      3.4961
   857.5000    105.4906      0.0000    822.9219      3.5651
   857.7500    110.4704      0.0000    832.8807      3.6585
   858.0000    113.3546      0.0000    853.9159      3.8058
   858.2500    112.9415      0.0000    891.9147      4.0405
   858.5000    109.2359      0.0000    944.3316      4.3796
   858.7500    104.2860      0.0000    997.3208      4.8028
   859.0000    101.2088      0.0000   1033.1168      5.2526
   859.2500    101.8758      0.0000   1043.0737      5.6713
   859.5000    105.2553      0.0000   1034.2041      6.0388
   859.7500    108.1701      0.0000   1022.4727      6.3683
   860.0000    108.0288      0.0000   1018.6208      6.6696
   860.2500    104.8901      0.0000   1019.4193      6.9242
   860.5000    100.8337      0.0000   1012.5204      7.0915
   860.7500     97.8031      0.0000    989.2222      7.1365
   861.0000     96.5441      0.0000    951.6437      7.0574
   861.2500     97.0008      0.0000    908.6056      6.8887
   861.5000     98.5799      0.0000    867.5763      6.6688
   861.7500    100.0488     -0.9128    832.2303      6.4094
   862.0000    100.1871      0.0000    805.8635      6.1042
   862.2500     98.9001      0.0000    792.7493      5.7667
   862.5000     97.2364      0.0000    793.8727      5.4421
