~Version Information
VERS.                      2.0: CWLS Log ASCII Standard - VERSION 2.0
WRAP.                       NO: One line per depth step
~Well Information Block
STRT.FT               811.0000: 
STOP.FT              2507.0000: 
STEP.FT                 0.1000: 
NULL.                -999.2500: 
COMP.          Petrogulf Corporation: COMPANY
WELL.               YWAM 7-32V: WELL
FLD.           Purgatoire River: FIELD
LOC.           2423' FNL & 2412' FEL: LOCATION
PROV.                 Colorado: PROVINCE
CNTY.               Las Animas: COUNTRY
SRVC.                Patterson: SERVICE COMPANY
DATE.          Mon Dec 15 07:18:47 2003: LOG DATE
UWI.                          : UNIQUE WELL ID
~Curve Information Block
DEPT.FT            0 000 00 00: Depth
DCAL.in                       : CDL Caliper
RHOB.g/cc                     : CDL Bulk Density
RHOC.g/cc                     : CDL Density Correction
DPOR.pu                       : CDL Density Porosity
NPOR.pu                       : Neutron Porosity
GR.GAPI                       : Gamma Ray
~Parameter Information Block
~A  Depth       DCAL        RHOB        RHOC        DPOR        NPOR         GR     
# ...
  2270.2000      8.2040      2.4934      0.0629      9.4929     21.6676    126.9933
  2270.3000      8.2019      2.4747      0.0380     10.6265     20.8841    124.4825
  2270.4000      8.2019      2.4531      0.0155     11.9314     20.3417    123.7811
  2270.5000      8.2036      2.4481     -0.0005     12.2392     20.1577    129.8868
  2270.6000      8.2036      2.4558      0.0497     11.7704     20.0130    133.9008
  2270.7000      8.2036      2.4653     -0.0066     11.1924     19.9596    133.5849
  2270.8000      8.2022      2.4813      0.0039     10.2246     19.5930    133.0262
  2270.9000      8.2022      2.5026      0.0593      8.9350     18.6840    132.7464
  2271.0000      8.1969      2.5185      0.0409      7.9726     17.8186    133.1280
  2271.1000      8.1969      2.5271      0.0624      7.4464     17.4684    131.8490
  2271.2000      8.1969      2.5300      0.0581      7.2709     17.5832    126.7108
  2271.3000      8.2090      2.5278      0.0509      7.4078     17.8825    122.0808
  2271.4000      8.2090      2.5253      0.0374      7.5593     18.0165    120.5174
  2271.5000      8.2080      2.5326      0.0394      7.1135     18.0355    117.6668
  2271.6000      8.2080      2.5551      0.0333      5.7507     18.2201    113.1934
  2271.7000      8.2080      2.5782      0.0601      4.3488     18.3697    109.1805
  2271.8000      8.2073      2.5809      0.0579      4.1871     18.0743    108.3572
  2271.9000      8.2073      2.5620      0.0433      5.3331     17.5354    110.7965
  2272.0000      8.2055      2.5374      0.0243      6.8261     17.5812    106.7090
  2272.1000      8.2055      2.5194      0.0152      7.9121     18.3026     96.1108
  2272.2000      8.2055      2.5161     -0.0203      8.1149     18.7214     90.6447
  2272.3000      8.2031      2.5347     -0.0047      6.9897     18.3100     88.2319
  2272.4000      8.2031      2.5662      0.0223      5.0795     17.3989     79.7129
  2272.5000      8.1713      2.5840      0.0337      4.0027     16.5425     72.7523
  2272.6000      8.1713      2.5701      0.0062      4.8440     16.1305     77.9832
  2272.7000      8.1713      2.5368     -0.0022      6.8598     16.1523     89.2112
  2272.8000      8.1991      2.5138     -0.0107      8.2516     16.1921     97.0193
  2272.9000      8.1991      2.5152      0.0203      8.1723     15.6488    101.1145
  2273.0000      8.2007      2.5291      0.0324      7.3254     14.6460    102.4976
  2273.1000      8.2007      2.5387      0.0359      6.7459     13.9853     99.9121
  2273.2000      8.2007      2.5360      0.0704      6.9096     13.8102     98.5993
  2273.3000      8.1999      2.5237      0.0497      7.6533     13.7545    102.7775
  2273.4000      8.1999      2.5149      0.0067      8.1905     13.8955    108.0745
  2273.5000      8.2024      2.5139      0.0367      8.2463     14.2905    109.2787
  2273.6000      8.2024      2.5139      0.0081      8.2478     14.4591    106.8985
  2273.7000      8.2024      2.5182      0.0116      7.9877     14.4514    106.2171
  2273.8000      8.2077      2.5286      0.0608      7.3570     14.8252    107.5822
  2273.9000      8.2077      2.5305      0.0543      7.2401     15.5234    106.9089
  2274.0000      8.2184      2.5207      0.0247      7.8382     16.2161    105.8110
  2274.1000      8.2184      2.5134     -0.0044      8.2797     16.6839    104.9714
  2274.2000      8.2184      2.5148      0.0381      8.1967     17.0688    102.1554
  2274.3000      8.2116      2.5228     -0.0117      7.7120     17.5983    100.2480
  2274.4000      8.2116      2.5356      0.0448      6.9351     18.1465     99.4525
  2274.5000      8.2107      2.5419      0.0564      6.5517     18.3777     96.7927
  2274.6000      8.2107      2.5331      0.0129      7.0851     17.8561     94.6345
  2274.7000      8.2107      2.5186      0.0013      7.9658     16.9755     98.0801
  2274.8000      8.2045      2.5130     -0.0133      8.3045     16.3656    105.4261
  2274.9000      8.2045      2.5141      0.0434      8.2360     16.0839    110.0347
  2275.0000      8.2172      2.5126      0.0225      8.3277     16.0606    108.3211
  2275.1000      8.2172      2.5114      0.0512      8.4001     16.1437    101.8486
  2275.2000      8.2172      2.5140      0.0186      8.2427     16.1337     94.1765
  2275.3000      8.2062      2.5218      0.0280      7.7670     16.0021     87.9764
  2275.4000      8.2062      2.5377      0.0384      6.8047     15.6505     84.7359
  2275.5000      8.2010      2.5563      0.0520      5.6812     15.0518     84.6072
  2275.6000      8.2010      2.5630      0.0742      5.2714     14.6895     85.4187
  2275.7000      8.2010      2.5563      0.0460      5.6793     14.6776     84.7316
  2275.8000      8.1970      2.5552      0.0365      5.7452     14.4799     83.0068
  2275.9000      8.1970      2.5662      0.0378      5.0814     13.8429     81.1465
  2276.0000      8.2062      2.5681      0.0905      4.9644     13.1345     80.0516
  2276.1000      8.2062      2.5503      0.0275      6.0451     12.7185     80.0504
  2276.2000      8.2062      2.5312      0.0250      7.1992     12.4242     79.0312
  2276.3000      8.2071      2.5251      0.0254      7.5712     11.9395     75.3333
  2276.4000      8.2071      2.5289      0.0238      7.3397     11.3439     71.7025
  2276.5000      8.2039      2.5303      0.0313      7.2543     11.1422     71.4389
  2276.6000      8.2039      2.5212      0.0203      7.8043     11.4066     73.2564
  2276.7000      8.2039      2.5078      0.0039      8.6180     11.5609     71.6196
  2276.8000      8.2062      2.4934      0.0155      9.4893     11.5766     64.7024
  2276.9000      8.2062      2.4799      0.0046     10.3075     11.9462     59.1201
  2277.0000      8.2104      2.4798     -0.0226     10.3137     12.5584     58.3988
  2277.1000      8.2104      2.4956      0.0346      9.3551     12.6851     60.1151
  2277.2000      8.2104      2.5118      0.0231      8.3742     12.2933     64.5013
  2277.3000      8.2041      2.5235      0.0228      7.6640     12.0136     69.4171
  2277.4000      8.2041      2.5382      0.0380      6.7768     11.8617     69.9983
  2277.5000      8.2037      2.5556      0.0694      5.7216     11.7673     67.0778
  2277.6000      8.2037      2.5686      0.1112      4.9342     12.0668     64.7043
  2277.7000      8.2037      2.5721      0.1065      4.7193     12.4674     65.2307
  2277.8000      8.1980      2.5680      0.1022      4.9716     12.4843     67.0072
  2277.9000      8.1980      2.5609      0.0915      5.4012     12.2631     67.1199
  2278.0000      8.1728      2.5573      0.0463      5.6152     12.0037     67.6019
  2278.1000      8.1728      2.5608      0.0605      5.4066     11.9504     70.0473
  2278.2000      8.1728      2.5670      0.0732      5.0288     12.3095     70.5002
  2278.3000      8.2251      2.5706      0.0671      4.8120     12.6382     67.3251
  2278.4000      8.2251      2.5691      0.0684      4.9009     12.3455     64.4917
  2278.5000      8.2445      2.5611      0.0550      5.3890     11.7170     64.7319
  2278.6000      8.2445      2.5474      0.0202      6.2184     11.5842     65.6430
  2278.7000      8.2445      2.5345      0.0190      7.0005     12.2491     65.3728
  2278.8000      8.2463      2.5247      0.0487      7.5926     13.1769     65.4358
  2278.9000      8.2463      2.5164      0.0224      8.0971     13.8267     67.1870
  2279.0000      8.2483      2.5165     -0.0019      8.0895     14.2391     68.3628
  2279.1000      8.2483      2.5270      0.0394      7.4532     14.4767     68.4212
  2279.2000      8.2483      2.5314      0.0500      7.1901     14.4313     73.3333
  2279.3000      8.2537      2.5233      0.0222      7.6814     14.3101     84.1572
  2279.4000      8.2537      2.5140      0.0462      8.2402     14.4738     92.5106
  2279.5000      8.2598      2.5074      0.0346      8.6410     14.8850     92.6572
  2279.6000      8.2598      2.5013      0.0265      9.0141     15.1372     86.6088
  2279.7000      8.2598      2.4975      0.0409      9.2446     15.0836     80.2453
