~Version Information
VERS.                      2.0: CWLS Log ASCII Standard - VERSION 2.0
WRAP.                       NO: One line per depth step
~Well Information Block
STRT.FT               425.0000: 
STOP.FT              2461.0000: 
STEP.FT                 0.2500: 
NULL.                -999.2500: 
COMP.          Evergreen Operating Corporation: COMPANY
WELL.              Nomad 32-10: WELL
FLD.           Purgatorie River: FIELD
LOC.           2281' FNL & 1585' FEL: LOCATION
PROV.                 Colorado: PROVINCE
CNTY.               Las Animas: COUNTRY
SRVC.                Patterson: SERVICE COMPANY
DATE.          Thu Aug 12 02:01:07 2004: LOG DATE
UWI.           05 071 08127 00: UNIQUE WELL ID
~Curve Information Block
DEPT.FT            0 000 00 00: Depth
SN.Ohm-m                      : IEL Short Normal
SP.mV                         : IEL Spontaneous Potential
DIR.Ohm-m                     : IEL Induction Resistivity
GR.GAPI                       : Gamma Ray
~Parameter Information Block
~A  Depth        SN          SP         DIR          GR     
# ...
   827.0000   2000.0000   2000.0000     11.7157    156.6135
   827.2500   2000.0000   2000.0000     11.9266    157.2237
   827.5000   2000.0000   2000.0000     12.1554    157.4998
   827.7500   2000.0000   2000.0000     12.3760    157.0446
   828.0000   2000.0000   2000.0000     12.5556    154.4638
   828.2500   2000.0000   2000.0000     12.6677    150.6882
   828.5000   2000.0000   2000.0000     12.7042    140.7491
   828.7500   2000.0000   2000.0000     12.6799    131.1264
   829.0000   2000.0000   2000.0000     12.6219    113.8037
   829.2500   2000.0000   2000.0000     12.5550    102.4432
   829.5000   2000.0000   2000.0000     12.4897     90.0978
   829.7500   2000.0000   2000.0000     12.4223     86.9193
   830.0000   2000.0000   2000.0000     12.3436     90.5082
   830.2500   2000.0000   2000.0000     12.2515     97.4821
   830.5000   2000.0000   2000.0000     12.1562    111.6882
   830.7500   2000.0000   2000.0000     12.0722    121.6527
   831.0000   2000.0000   2000.0000     12.0044    134.5242
   831.2500   2000.0000   2000.0000     11.9429    140.8016
   831.5000   2000.0000   2000.0000     11.8720    146.7494
   831.7500   2000.0000   2000.0000     11.7869    149.0722
   832.0000   2000.0000   2000.0000     11.7016    151.1541
   832.2500   2000.0000   2000.0000     11.6448    151.5617
   832.5000   2000.0000   2000.0000     11.6466    149.5005
   832.7500   2000.0000   2000.0000     11.7277    145.6360
   833.0000   2000.0000   2000.0000     11.8912    136.1796
   833.2500   2000.0000   2000.0000     12.1202    128.3748
   833.5000   2000.0000   2000.0000     12.3843    116.6977
   833.7500   2000.0000   2000.0000     12.6547    110.1641
   834.0000   2000.0000   2000.0000     12.9223    103.9511
   834.2500   2000.0000   2000.0000     13.2016    102.9251
   834.5000   2000.0000   2000.0000     13.5174    106.2833
   834.7500   2000.0000   2000.0000     13.8858    111.0604
   835.0000   2000.0000   2000.0000     14.3054    119.7725
   835.2500   2000.0000   2000.0000     14.7653    125.3877
   835.5000   2000.0000   2000.0000     15.2581    132.4130
   835.7500   2000.0000   2000.0000     15.7843    135.9514
   836.0000   2000.0000   2000.0000     16.3435    139.4688
   836.2500   2000.0000   2000.0000     16.9241    140.8194
   836.5000   2000.0000   2000.0000     17.5021    142.0663
   836.7500   2000.0000   2000.0000     18.0529    142.5715
   837.0000   2000.0000   2000.0000     18.5680    142.2545
   837.2500   2000.0000   2000.0000     19.0687    140.8129
   837.5000   2000.0000   2000.0000     19.6064    136.6500
   837.7500   2000.0000   2000.0000     20.2494    132.9668
   838.0000   2000.0000   2000.0000     21.0638    127.0527
   838.2500   2000.0000   2000.0000     22.0945    123.2095
   838.5000   2000.0000   2000.0000     23.3495    117.7916
   838.7500   2000.0000   2000.0000     24.7871    114.4893
   839.0000   2000.0000   2000.0000     26.3149    110.3211
   839.2500   2000.0000   2000.0000     27.8116    108.2294
   839.5000   2000.0000   2000.0000     29.1655    105.8891
   839.7500   2000.0000   2000.0000     30.3015    104.3937
   840.0000   2000.0000   2000.0000     31.1826    101.4661
   840.2500   2000.0000   2000.0000     31.7964     98.9958
   840.5000   2000.0000   2000.0000     32.1398     95.0755
   840.7500   2000.0000   2000.0000     32.2079     92.6386
   841.0000   2000.0000   2000.0000     31.9918     89.2169
   841.2500   2000.0000   2000.0000     31.4902     86.9462
   841.5000   2000.0000   2000.0000     30.7267     83.9437
   841.7500   2000.0000   2000.0000     29.7553     82.9310
   842.0000   2000.0000   2000.0000     28.6506     84.2057
   842.2500   2000.0000   2000.0000     27.4891     87.1805
   842.5000   2000.0000   2000.0000     26.3346     94.1129
   842.7500   2000.0000   2000.0000     25.2302     99.6499
   843.0000   2000.0000   2000.0000     24.1962    108.5059
   843.2500   2000.0000   2000.0000     23.2301    114.6418
   843.5000   2000.0000   2000.0000     22.3093    123.7346
   843.7500   2000.0000   2000.0000     21.4012    128.9906
   844.0000   2000.0000   2000.0000     20.4828    134.2469
   844.2500   2000.0000   2000.0000     19.5559    135.7430
   844.5000   2000.0000   2000.0000     18.6473    135.8565
   844.7500   2000.0000   2000.0000     17.7933    135.3030
   845.0000   2000.0000   2000.0000     17.0203    134.4008
   845.2500   2000.0000   2000.0000     16.3347    133.9709
   845.5000   2000.0000   2000.0000     15.7240    133.8389
   845.7500   2000.0000   2000.0000     15.1668    134.1289
   846.0000   2000.0000   2000.0000     14.6457    134.9748
   846.2500   2000.0000   2000.0000     14.1556    135.8694
   846.5000   2000.0000   2000.0000     13.7016    138.1706
   846.7500   2000.0000   2000.0000     13.2900    140.4351
   847.0000   2000.0000   2000.0000     12.9208    144.4207
   847.2500   2000.0000   2000.0000     12.5881    147.1058
   847.5000   2000.0000   2000.0000     12.2844    150.7942
   847.7500   2000.0000   2000.0000     12.0044    152.7541
   848.0000   2000.0000   2000.0000     11.7456    154.3644
   848.2500   2000.0000   2000.0000     11.5095    154.4906
   848.5000   2000.0000   2000.0000     11.3011    153.8311
   848.7500   2000.0000   2000.0000     11.1279    153.2225
   849.0000   2000.0000   2000.0000     10.9969    152.4299
   849.2500   2000.0000   2000.0000     10.9118    152.1405
   849.5000   2000.0000   2000.0000     10.8738    152.2819
   849.7500   2000.0000   2000.0000     10.8831    152.6087
   850.0000   2000.0000   2000.0000     10.9384    152.6894
   850.2500   2000.0000   2000.0000     11.0356    152.2277
   850.5000   2000.0000   2000.0000     11.1652    151.4546
   850.7500   2000.0000   2000.0000     11.3148    151.6039
   851.0000   2000.0000   2000.0000     11.4727    153.1671
   851.2500   2000.0000   2000.0000     11.6317    154.5415
   851.5000   2000.0000   2000.0000     11.7898    155.8114
   851.7500   2000.0000   2000.0000     11.9476    155.7981
   852.0000   2000.0000   2000.0000     12.1052    155.0209
   852.2500   2000.0000   2000.0000     12.2599    154.7426
   852.5000   2000.0000   2000.0000     12.4090    155.6787
   852.7500   2000.0000   2000.0000     12.5533    157.0323
   853.0000   2000.0000   2000.0000     12.6984    158.6084
   853.2500   2000.0000   2000.0000     12.8519    158.3818
   853.5000   2000.0000   2000.0000     13.0202    155.4506
   853.7500   2000.0000   2000.0000     13.2064    152.0980
   854.0000   2000.0000   2000.0000     13.4120    146.5483
   854.2500   2000.0000   2000.0000     13.6396    143.7563
   854.5000   2000.0000   2000.0000     13.8945    142.6997
   854.7500   2000.0000   2000.0000     14.1832    144.2523
   855.0000   2000.0000   2000.0000     14.5085    148.3784
   855.2500   2000.0000   2000.0000     14.8646    150.8751
   855.5000   2000.0000   2000.0000     15.2353    152.4436
   855.7500   2000.0000   2000.0000     15.5976    151.7796
   856.0000   2000.0000   2000.0000     15.9291    148.8206
   856.2500   2000.0000   2000.0000     16.2173    146.2512
   856.5000   2000.0000   2000.0000     16.4648    142.7518
   856.7500   2000.0000   2000.0000     16.6889    140.9537
   857.0000   2000.0000   2000.0000     16.9133    138.5889
   857.2500   2000.0000   2000.0000     17.1562    136.8473
   857.5000   2000.0000   2000.0000     17.4202    133.9620
   857.7500   2000.0000   2000.0000     17.6873    132.0523
   858.0000   2000.0000   2000.0000     17.9223    129.0900
   858.2500   2000.0000   2000.0000     18.0842    126.7149
   858.5000   2000.0000   2000.0000     18.1441    122.3759
   858.7500   2000.0000   2000.0000     18.0992    119.4041
   859.0000   2000.0000   2000.0000     17.9737    116.2395
   859.2500   2000.0000   2000.0000     17.8034    115.7851
   859.5000   2000.0000   2000.0000     17.6186    118.1285
   859.7500   2000.0000   2000.0000     17.4334    121.3627
   860.0000   2000.0000   2000.0000     17.2436    127.4615
   860.2500   2000.0000   2000.0000     17.0323    131.6853
