~Version Information
VERS.                      2.0: CWLS Log ASCII Standard - VERSION 2.0
WRAP.                       NO: One line per depth step
~Well Information Block
STRT.FT               245.0000: 
STOP.FT              1919.7000: 
STEP.FT                 0.1000: 
NULL.                -999.2500: 
COMP.          Pioneer Natural Resources: COMPANY
WELL.          Oink Oink 14-36 Tr: WELL
FLD.           Purgatoire River: FIELD
LOC.           236' FSL & 164' FWL--: LOCATION
PROV.                 Colorado: PROVINCE
CNTY.               Las Animas: COUNTRY
SRVC.                Patterson: SERVICE COMPANY
DATE.          Fri Jun 10 08:23:18 2005: LOG DATE
UWI.           05 071 08393 00: UNIQUE WELL ID
~Curve Information Block
DEPT.FT            0 000 00 00: Depth
DCAL.in                       : CDL Caliper
RHOB.g/cc                     : CDL Bulk Density
RHOC.g/cc                     : CDL Density Correction
DPOR.pu                       : CDL Density Porosity
NPOR.pu                       : Neutron Porosity
GR.GAPI                       : Gamma Ray
~Parameter Information Block
~A  Depth       DCAL        RHOB        RHOC        DPOR        NPOR         GR     
   245.0000      8.1609      2.5792     -0.2790      4.2908     45.6355     76.2742
   245.1000      8.1609      2.5971     -0.2866      3.2077     45.8423     78.1863
   245.2000      8.1609      2.6049     -0.1745      2.7315     46.0405     77.9410
   245.3000      8.1612      2.5967     -0.2611      3.2283     45.9319     75.8329
   245.4000      8.1612      2.5940     -0.2698      3.3942     45.7588     75.7441
   245.5000      8.1619      2.6076     -0.2733      2.5671     45.6515     78.5678
   245.6000      8.1619      2.6370     -0.2661      0.7879     45.3945     82.9288
   245.7000      8.1619      2.6762     -0.2264     -1.5863     45.1756     84.4183
   245.8000      8.1622      2.6985     -0.1731     -2.9400     45.5155     82.0676
   245.9000      8.1622      2.6829     -0.1661     -1.9948     46.2025     81.2660
   246.0000      8.1630      2.6437     -0.1936      0.3813     46.6106     83.8882
   246.1000      8.1630      2.6104     -0.2154      2.4008     46.6286     86.7718
   246.2000      8.1630      2.5933     -0.2432      3.4333     46.4354     88.0845
   246.3000      8.1634      2.5856     -0.2703      3.9018     46.1564     88.9293
   246.4000      8.1634      2.5811     -0.2390      4.1741     45.9839     89.1581
   246.5000      8.1630      2.5783     -0.2660      4.3477     46.0570     87.5646
   246.6000      8.1630      2.5804     -0.2756      4.2162     46.2511     85.7255
   246.7000      8.1630      2.5862     -0.2635      3.8693     46.1921     85.3242
   246.8000      8.1623      2.5853     -0.2312      3.9216     45.8687     84.0963
   246.9000      8.1623      2.5815     -0.2844      4.1488     45.7413     81.0026
   247.0000      8.1612      2.5900     -0.2713      3.6391     45.6447     77.4078
   247.1000      8.1612      2.6064     -0.2714      2.6408     45.1384     72.9997
   247.2000      8.1612      2.6214     -0.2828      1.7344     44.7340     69.6179
   247.3000      8.1608      2.6349     -0.2430      0.9178     45.0165     70.9008
   247.4000      8.1608      2.6366     -0.2148      0.8098     45.5700     73.8071
   247.5000      8.1622      2.6264     -0.2773      1.4296     45.8334     73.7639
   247.6000      8.1622      2.6308     -0.2520      1.1652     45.7204     72.8836
   247.7000      8.1622      2.6496     -0.2059      0.0249     45.2322     73.0464
   247.8000      8.1635      2.6498     -0.2240      0.0096     44.5859     72.9584
   247.9000      8.1635      2.6314     -0.2861      1.1266     44.1907     73.2712
   248.0000      8.1636      2.6271     -0.2772      1.3893     44.1526     74.2972
   248.1000      8.1636      2.6358     -0.2023      0.8609     44.2208     74.4803
   248.2000      8.1636      2.6301     -0.2773      1.2053     44.2961     72.5563
   248.3000      8.1630      2.6060     -0.2592      2.6679     44.3508     69.6101
   248.4000      8.1630      2.5778     -0.3007      4.3758     44.2625     68.5799
   248.5000      8.1617      2.5668     -0.3024      5.0447     44.1756     69.8854
   248.6000      8.1617      2.5827     -0.2686      4.0761     44.3175     73.2268
   248.7000      8.1617      2.6115     -0.2354      2.3305     44.6698     78.4481
   248.8000      8.1612      2.6315     -0.1748      1.1188     45.1100     82.0088
   248.9000      8.1612      2.6332     -0.2196      1.0154     45.4662     83.8075
   249.0000      8.1628      2.6180     -0.2203      1.9421     45.5963     88.5564
   249.1000      8.1628      2.5916     -0.2944      3.5386     45.6045     92.9983
   249.2000      8.1628      2.5711     -0.2709      4.7846     45.5815     89.8841
   249.3000      8.1628      2.5687     -0.2347      4.9253     45.4983     82.9337
   249.4000      8.1628      2.5811     -0.2305      4.1733     45.4125     79.3314
   249.5000      8.1622      2.5965     -0.2144      3.2430     45.5044     79.4018
   249.6000      8.1622      2.6021     -0.2468      2.9034     45.9064     81.1380
   249.7000      8.1622      2.5987     -0.2257      3.1073     46.3920     83.6676
   249.8000      8.1631      2.5988     -0.2434      3.1024     46.4404     85.8415
   249.9000      8.1631      2.6145     -0.2137      2.1509     46.1283     85.7539
   250.0000      8.1634      2.6449     -0.2425      0.3097     45.9889     82.5129
   250.1000      8.1634      2.6691     -0.2267     -1.1577     46.1026     80.1841
   250.2000      8.1634      2.6654     -0.2161     -0.9356     46.2305     84.4705
   250.3000      8.1630      2.6416     -0.2490      0.5076     46.3221     93.1200
   250.4000      8.1630      2.6129     -0.1816      2.2486     46.4616     99.7853
   250.5000      8.1633      2.5871     -0.2497      3.8097     46.5189    102.8749
   250.6000      8.1633      2.5842     -0.2782      3.9860     46.2960    103.3906
   250.7000      8.1633      2.6015     -0.1891      2.9405     45.9401    101.9980
   250.8000      8.1631      2.6063     -0.2151      2.6484     45.6371     99.0630
   250.9000      8.1631      2.5965     -0.2144      3.2411     45.4195     98.3487
   251.0000      8.1616      2.5902     -0.2628      3.6234     45.4362    103.7550
   251.1000      8.1616      2.5789     -0.2302      4.3089     45.4774    114.0534
   251.2000      8.1616      2.5374     -0.2789      6.8230     44.8720    121.8112
   251.3000      8.1606      2.4602     -0.3339     11.5058     43.7307    121.0212
   251.4000      8.1606      2.3661     -0.3111     17.2031     42.7048    114.7153
   251.5000      8.1609      2.2850     -0.3571     22.1202     41.7842    108.2464
   251.6000      8.1609      2.2376     -0.4109     24.9914     40.6833    103.9867
   251.7000      8.1609      2.2153     -0.3231     26.3426     39.4440    102.3317
   251.8000      8.1596      2.2096     -0.4215     26.6884     38.1371    102.7838
   251.9000      8.1596      2.2320     -0.3548     25.3326     36.5715    105.3263
   252.0000      8.1625      2.2668     -0.2396     23.2254     34.4550    108.1315
   252.1000      8.1625      2.2848     -0.1988     22.1324     32.0133    105.7271
   252.2000      8.1625      2.2972     -0.1453     21.3819     29.9903     98.9255
   252.3000      8.1896      2.3354     -0.1159     19.0694     28.5490     94.9484
   252.4000      8.1896      2.4071      0.0645     14.7215     27.1534     96.7792
   252.5000      8.2596      2.4914      0.1188      9.6094     25.8030    101.9454
   252.6000      8.2596      2.5615      0.2209      5.3621     24.7655    105.5775
   252.7000      8.2596      2.5963      0.2098      3.2521     23.9693    104.9306
   252.8000      8.3468      2.5879      0.2363      3.7616     23.3778    103.1428
   252.9000      8.3468      2.5506      0.1552      6.0229     23.1650    105.2914
   253.0000      8.4017      2.5114      0.1269      8.4015     23.2027    111.1797
   253.1000      8.4017      2.4848      0.1156     10.0140     23.0558    113.9490
   253.2000      8.4017      2.4759      0.0522     10.5538     22.6558    110.6765
   253.3000      8.4213      2.4844      0.0798     10.0388     22.3379    106.5009
   253.4000      8.4213      2.4960      0.0952      9.3309     22.4477    104.5298
   253.5000      8.4264      2.4997      0.0904      9.1097     22.8719    104.8616
   253.6000      8.4264      2.5009      0.1002      9.0358     23.0856    106.7103
   253.7000      8.4264      2.5141      0.0933      8.2364     22.9466    110.5454
   253.8000      8.4269      2.5501      0.1007      6.0542     22.7211    118.0095
   253.9000      8.4269      2.5959      0.1798      3.2790     22.5300    125.5903
   254.0000      8.4274      2.6195      0.1958      1.8486     22.2037    130.4003
   254.1000      8.4274      2.6134      0.1233      2.2198     21.8031    133.6315
   254.2000      8.4274      2.5927      0.1324      3.4736     21.6052    134.4320
   254.3000      8.4284      2.5569      0.0992      5.6443     21.6857    131.5974
   254.4000      8.4284      2.5059      0.0700      8.7335     21.7475    128.6331
   254.5000      8.4274      2.4611      0.0487     11.4488     21.5262    128.2048
