~Version Information
VERS.                      2.0: CWLS Log ASCII Standard - VERSION 2.0
WRAP.                       NO: One line per depth step
~Well Information Block
STRT.FT               -12.2500: 
STOP.FT              1948.2500: 
STEP.FT                 0.2500: 
NULL.                -999.2500: 
COMP.          Petrogulf Corporation: COMPANY
WELL.            Torcom 17-33R: WELL
FLD.           Purgatorie River: FIELD
LOC.           1483' FSL & 1804' FEL--: LOCATION
PROV.                       CO: PROVINCE
CNTY.               Las Animas: COUNTRY
SRVC.          Patterson Wireline: SERVICE COMPANY
DATE.          Fri Sep 30 10:11:43 2005: LOG DATE
UWI.           05 071 08096 00: UNIQUE WELL ID
~Curve Information Block
DEPT.FT            0 000 00 00: Depth
CCL.                          : Casing Collar Locator
TT3.usec                      : CBL 3' Travel Time
AMP3.mV                       : CBL 3' Amplitude
GR.GAPI                       : Gamma Ray
~Parameter Information Block
~A  Depth       CCL         TT3         AMP3         GR     
# ...
   121.7500      0.0000    278.5117     75.3857     67.3779
   122.0000      0.0000    278.5013     75.5088     67.6368
   122.2500      0.0000    278.4871     75.6158     65.6848
   122.5000      0.0000    278.4730     75.6768     62.3709
   122.7500      0.0000    278.4640     75.7068     58.7256
   123.0000      0.0000    278.4619     75.7311     55.2881
   123.2500      0.0000    278.4650     75.7477     52.2775
   123.5000      0.0000    278.4708     75.7267     50.1041
   123.7500      0.0000    278.4775     75.6421     49.2538
   124.0000      0.0000    278.4829     75.5046     49.6876
   124.2500      0.0000    278.4828     75.3639     50.6841
   124.5000      0.0000    278.4729     75.2773     51.3774
   124.7500      0.0000    278.4525     75.2739     51.4172
   125.0000      0.0000    278.4256     75.3417     51.2384
   125.2500      0.0000    278.3999     75.4368     51.7889
   125.5000      0.0000    278.3836     75.5085     53.7135
   125.7500      0.0000    278.3788     75.5327     56.5775
   126.0000      0.0000    278.3786     75.5292     59.0676
   126.2500      0.0000    278.3709     75.5414     60.1323
   126.5000      0.0000    278.3498     75.5920     59.7892
   126.7500      0.0000    278.3216     75.6637     58.8056
   127.0000      0.0000    278.2993     75.7229     57.7783
   127.2500      0.0000    278.2914     75.7546     56.5282
   127.5000      0.0000    278.2955     75.7650     54.4878
   127.7500      0.0000    278.3010     75.7600     51.9372
   128.0000      0.0000    278.2968     75.7344     50.5067
   128.2500      0.0000    278.2773     75.6858     51.6775
   128.5000      0.0000    278.2437     75.6284     54.8841
   128.7500      0.0000    278.2008     75.5874     57.8174
   129.0000      0.0000    278.1547     75.5831     58.6396
   129.2500      0.0000    278.1129     75.6201     57.3470
   129.5000      0.0000    278.0822     75.6872     55.1140
   129.7500      0.0000    278.0647     75.7608     53.0962
   130.0000      0.0000    278.0540     75.8125     51.9482
   130.2500      0.0000    278.0399     75.8210     51.7807
   130.5000      0.0000    278.0159     75.7821     52.1936
   130.7500      0.0000    277.9838     75.6999     52.6595
   131.0000      0.0000    277.9522     75.5554     53.0606
   131.2500      0.0000    277.9359     75.2629     53.6917
   131.5000      0.0000    277.9672     74.6407     54.7932
   131.7500      0.0000    278.1279     73.4252     56.3091
   132.0000      0.0000    278.5721     71.3451     58.0146
   132.2500      0.0000    279.4685     68.2549     59.7124
   132.5000      0.0000    280.8411     64.3280     61.2645
   132.7500      0.0000    282.4470     60.2061     62.4822
   133.0000      0.0000    283.8751     56.8342     63.2882
   133.2500      0.0000    284.8246     54.9028     64.2899
   133.5000      0.0000    285.2808     54.3774     66.9663
   133.7500      0.0000    285.4291     54.6336     72.7923
   134.0000      2.0000    285.4578     55.0067     81.8563
   134.2500      0.0000    285.4577     55.1251     92.2912
   134.5000      0.0000    285.4352     54.8670    101.3990
   134.7500      0.0000    285.3371     54.3032    107.8542
   135.0000      0.0000    285.0536     53.8248    112.6897
   135.2500      0.0000    284.4566     54.1656    117.6469
   135.5000      0.0000    283.4969     56.0333    122.6261
   135.7500      0.0000    282.2752     59.5812    125.3623
   136.0000      0.0000    281.0054     64.1844    123.7942
   136.2500      0.0000    279.9036     68.7276    118.3811
   136.5000      0.0000    279.0992     72.2249    111.8516
   136.7500      0.0000    278.6064     74.3186    106.9419
   137.0000      0.0000    278.3539     75.2776    104.6169
   137.2500      0.0000    278.2448     75.6077    104.2286
   137.5000      0.0000    278.2033     75.7015    104.7806
   137.7500      0.0000    278.1859     75.7448    105.8024
   138.0000      0.0000    278.1730     75.7891    107.3487
   138.2500      0.0000    278.1602     75.8323    109.3712
   138.5000      0.0000    278.1494     75.8586    110.9885
   138.7500      0.0000    278.1408     75.8545    110.6164
   139.0000      0.0000    278.1307     75.8218    107.2742
   139.2500      0.0000    278.1180     75.7787    101.7284
   139.5000      0.0000    278.1088     75.7410     96.0617
   139.7500      0.0000    278.1124     75.7024     92.2772
   140.0000      0.0000    278.1323     75.6417     91.2363
   140.2500      0.0000    278.1623     75.5488     92.2230
   140.5000      0.0000    278.1919     75.4357     93.4127
   140.7500      0.0000    278.2146     75.3235     93.5965
   141.0000      0.0000    278.2291     75.2294     93.5068
   141.2500      0.0000    278.2358     75.1687     94.4918
   141.5000      0.0000    278.2346     75.1528     95.9486
   141.7500      0.0000    278.2274     75.1730     95.3038
   142.0000      0.0000    278.2178     75.1986     90.9282
   142.2500      0.0000    278.2092     75.2071     84.1700
   142.5000      0.0000    278.2023     75.2107     78.0508
   142.7500      0.0000    278.1966     75.2333     74.5489
   143.0000      0.0000    278.1925     75.2700     73.6194
   143.2500      0.0000    278.1898     75.2889     74.2849
   143.5000      0.0000    278.1865     75.2776     75.7640
   143.7500      0.0000    278.1805     75.2635     77.4595
   144.0000      0.0000    278.1741     75.2780     78.7257
   144.2500      0.0000    278.1729     75.3136     79.3760
   144.5000      0.0000    278.1800     75.3350     80.0021
   144.7500      0.0000    278.1928     75.3220     81.1454
   145.0000      0.0000    278.2068     75.2821     82.5740
   145.2500      0.0000    278.2185     75.2282     83.9852
   145.5000      0.0000    278.2238     75.1673     85.9457
   145.7500      0.0000    278.2160     75.1117     89.4342
   146.0000      0.0000    278.1911     75.0781     94.7189
   146.2500      0.0000    278.1552     75.0682    101.0481
   146.5000      0.0000    278.1231     75.0615    107.1428
   146.7500      0.0000    278.1075     75.0365    111.7050
   147.0000      0.0000    278.1090     74.9917    113.7996
   147.2500      0.0000    278.1162     74.9431    113.2917
   147.5000      0.0000    278.1169     74.9067    111.0093
   147.7500      0.0000    278.1093     74.8902    108.1018
   148.0000      0.0000    278.1019     74.8969    105.0191
   148.2500      0.0000    278.1030     74.9275    101.4024
   148.5000      0.0000    278.1133     74.9749     97.0648
   148.7500      0.0000    278.1279     75.0226     92.7258
   149.0000      0.0000    278.1431     75.0572     89.5989
   149.2500      0.0000    278.1574     75.0836     88.4160
   149.5000      0.0000    278.1682     75.1199     88.8930
   149.7500      0.0000    278.1707     75.1700     90.1826
   150.0000      0.0000    278.1620     75.2111     91.9146
   150.2500      0.0000    278.1451     75.2219     94.5280
   150.5000      0.0000    278.1284     75.2202     98.3572
   150.7500      0.0000    278.1194     75.2554    102.8449
   151.0000      0.0000    278.1194     75.3535    106.9948
   151.2500      0.0000    278.1236     75.4805    110.2674
   151.5000      0.0000    278.1259     75.5695    112.7382
   151.7500      0.0000    278.1241     75.5857    114.5395
   152.0000      0.0000    278.1212     75.5552    115.1905
   152.2500      0.0000    278.1227     75.5284    113.5979
   152.5000      0.0000    278.1312     75.5220    109.2481
   152.7500      0.0000    278.1447     75.5053    103.5478
   153.0000      0.0000    278.1589     75.4441     99.3290
   153.2500      0.0000    278.1709     75.3515     98.5544
   153.5000      0.0000    278.1801     75.2853    100.6703
   153.7500      0.0000    278.1863     75.2941    103.3075
   154.0000      0.0000    278.1883     75.3774    104.2834
   154.2500      0.0000    278.1854     75.4971    102.9409
   154.5000      0.0000    278.1794     75.6141    100.1405
   154.7500      0.0000    278.1756     75.7068     97.3312
   155.0000      0.0000    278.1794     75.7681     95.3214
