~Version Information
VERS.                      2.0: CWLS Log ASCII Standard - VERSION 2.0
WRAP.                       NO: One line per depth step
~Well Information Block
STRT.FT               548.0000: 
STOP.FT              1916.0000: 
STEP.FT                 0.2500: 
NULL.                -999.2500: 
COMP.          Pioneer Natural Resources: COMPANY
WELL.          Blackjack 32-11 Tr: WELL
FLD.           Purgatorie River: FIELD
LOC.           2066' FNL & 1453' FEL: LOCATION
PROV.                 Colorado: PROVINCE
CNTY.               Las Animas: COUNTRY
SRVC.                Patterson: SERVICE COMPANY
DATE.          Tue Aug 16 12:08:23 2005: LOG DATE
UWI.                          : UNIQUE WELL ID
~Curve Information Block
DEPT.FT            0 000 00 00: Depth
SN.Ohm-m                      : IEL Short Normal
SP.mV                         : IEL Spontaneous Potential
DIR.Ohm-m                     : IEL Induction Resistivity
GR.GAPI                       : Gamma Ray
~Parameter Information Block
~A  Depth        SN          SP         DIR          GR     
# ...
  1352.0000     14.6598    -42.7971     10.5262    117.7454
  1352.2500     14.8158    -46.5006     10.2849    122.5796
  1352.5000     15.0825    -51.4841     10.2341    113.0063
  1352.7500     15.1251    -48.7328      9.4627    110.8846
  1353.0000     15.1764    -46.2742      9.4704    107.3446
  1353.2500     15.1682    -45.5036      9.1746    104.4739
  1353.5000     15.5844    -45.7037      9.1456    104.2548
  1353.7500     16.4580    -45.2874      9.2122    105.9551
  1354.0000     16.7285    -43.7197      9.7628    110.1090
  1354.2500     16.6398    -40.3115      9.7470    115.4037
  1354.5000     16.6101    -39.1356     10.2978    117.4344
  1354.7500     16.2401    -45.0328     10.6380    118.8343
  1355.0000     16.2446    -45.9085     10.8773    105.8111
  1355.2500     15.6166    -47.4178     11.0202    111.1268
  1355.5000     15.1208    -47.6505     11.9553    111.4340
  1355.7500     15.0716    -48.8165     11.4724    106.1642
  1356.0000     15.2683    -49.3835     11.7290    107.0289
  1356.2500     15.2827    -47.7062     10.1205    115.1813
  1356.5000     15.0999    -47.1681      9.0447    113.4383
  1356.7500     15.4366    -46.9273      7.8378    103.4319
  1357.0000     15.4425    -46.7973      7.5311    108.5458
  1357.2500     15.4379    -46.6726      7.3456    116.2644
  1357.5000     15.7492    -47.3860      7.0076    120.8327
  1357.7500     15.9733    -48.2001      6.8288    118.1482
  1358.0000     16.1890    -48.0047      6.7466    108.0727
  1358.2500     16.2386    -45.5099      8.1838    110.1604
  1358.5000     16.5565    -45.7904     12.0909    109.5739
  1358.7500     16.7422    -45.6415     51.9085    106.0956
  1359.0000     17.4515    -45.7870    200.8751    115.2963
  1359.2500     17.1069    -47.5806 100000.0000    121.8528
  1359.5000     17.2205    -48.4861 100000.0000    113.4579
  1359.7500     17.2950    -49.5904 100000.0000    114.2799
  1360.0000     17.6745    -50.2148 100000.0000    111.0265
  1360.2500     17.8284    -51.5520 100000.0000    102.5203
  1360.5000     18.2875    -51.2851 100000.0000    103.6464
  1360.7500     18.1654    -51.1137     17.3635    110.8310
  1361.0000     17.6748    -51.3284      4.8468    108.7502
  1361.2500     16.5172    -52.0210      3.3441    106.7757
  1361.5000     14.1818    -52.8855      2.1278    108.8990
  1361.7500     10.5121    -54.3823      2.0157    107.2482
  1362.0000      7.8039    -57.0352      1.2092     93.6069
  1362.2500      5.8177    -59.9907      0.8281     96.2851
  1362.5000      5.7967    -63.3031      0.7977     74.1646
  1362.7500      5.9784    -66.9009      1.0603     67.5763
  1363.0000      5.0990    -70.7103      1.8323     72.4666
  1363.2500      4.6133    -76.0293      2.8617     71.9355
  1363.5000      4.6205    -80.4507      2.6191     67.1283
  1363.7500      4.7821    -84.5675      1.6665     75.2899
  1364.0000      4.9494    -86.2090      1.3602     78.8685
  1364.2500      5.1161    -84.3074      1.1315     82.6201
  1364.5000      5.6285    -75.6030      0.9623     85.9805
  1364.7500      5.8781    -66.1703      0.6215     95.5294
  1365.0000      8.0193    -61.6130      0.3531     93.3576
  1365.2500     10.0846    -59.4121      0.1054     97.2036
  1365.5000     10.3522    -58.2440      0.0682    106.0260
  1365.7500      9.5323    -58.6803      0.0551    104.4581
  1366.0000      7.9166    -60.7272      0.0622    104.2156
  1366.2500      4.3888    -65.8328      0.0690    111.7152
  1366.5000      2.9274    -74.4286      0.0520    101.2640
  1366.7500      2.4965    -87.9062      0.0299     87.1463
  1367.0000      2.4024    -99.6758      0.0242     73.8506
  1367.2500      3.0680   -105.7458      0.0204     72.1655
  1367.5000      2.8181   -107.4979      0.0167     60.3303
  1367.7500      3.6939   -109.3425      0.0158     62.2811
  1368.0000      5.0565   -112.7616      0.0333     70.0751
  1368.2500      4.1861   -116.4260      0.0152     68.8859
  1368.5000      3.6508   -121.7918      0.0147     77.1545
  1368.7500      3.7433   -124.8924      0.0223     83.0223
  1369.0000      4.0322   -123.9126      0.0312     88.4675
  1369.2500      3.4593   -111.0574      0.0570     95.1985
  1369.5000      4.4743    -93.6880      0.0757    103.6232
  1369.7500      7.9946    -82.7056      0.1096    106.1493
  1370.0000     15.2469    -73.1715      0.1459    109.7156
  1370.2500     19.6969    -66.8251      0.2780    115.9796
  1370.5000     23.1335    -61.2174      0.3819    110.7305
  1370.7500     25.0006    -57.2437      0.7991    119.2909
  1371.0000     26.9794    -54.2829      1.7298    118.2656
  1371.2500     27.4268    -51.9523      3.6801    118.4265
  1371.5000     28.0157    -50.4119     15.6809    113.4657
  1371.7500     28.7705    -49.1825 100000.0000    106.4070
  1372.0000     29.7511    -48.3943 100000.0000    103.9645
  1372.2500     30.0881    -47.5109 100000.0000    100.6589
  1372.5000     29.6798    -47.1279 100000.0000     98.7519
  1372.7500     29.1879    -46.6337 100000.0000     87.4214
  1373.0000     27.6367    -45.6525 100000.0000     81.4172
  1373.2500     27.0312    -44.9905 100000.0000     79.4709
  1373.5000     26.2945    -44.5605 100000.0000     98.0778
  1373.7500     25.8643    -43.3398 100000.0000    109.2569
  1374.0000     24.6706    -43.4844 100000.0000    123.0407
  1374.2500     24.4297    -43.4457 100000.0000    113.1569
  1374.5000     22.0876    -43.5067 100000.0000    105.9586
  1374.7500     21.2207    -42.7449 100000.0000    102.3011
  1375.0000     19.7971    -42.1518 100000.0000     96.2597
  1375.2500     19.1395    -41.9479 100000.0000    106.7677
  1375.5000     18.4291    -41.7239 100000.0000    111.5834
  1375.7500     18.0749    -41.3204 100000.0000    120.3546
  1376.0000     17.5139    -40.4078 100000.0000    149.0222
  1376.2500     17.4008    -40.3840 100000.0000    143.4104
  1376.5000     17.1819    -40.2895 100000.0000    138.4352
  1376.7500     16.7302    -40.4305     56.2649    135.0356
  1377.0000     16.7102    -40.3317     30.2088    130.2389
  1377.2500     16.9543    -40.6668     15.0240    123.6073
  1377.5000     17.7169    -40.6812     11.9473    126.7440
  1377.7500     17.7637    -40.8061     10.7397    127.1974
  1378.0000     18.6657    -41.1563      9.8836    125.5808
  1378.2500     19.1049    -41.7907     10.0246    135.1557
  1378.5000     19.3732    -41.9668     10.1917    137.7413
  1378.7500     19.8754    -41.1483     10.2962    133.8220
  1379.0000     20.8035    -38.9532     10.1552    127.2438
  1379.2500     21.9202    -39.0918     12.0519    130.9797
  1379.5000     23.7937    -39.3229     13.3683    128.5388
  1379.7500     26.0594    -40.5264     14.5359    125.1179
  1380.0000     28.2701    -40.6492     15.3226    124.6400
  1380.2500     30.7419    -40.7065     18.6497    112.8531
  1380.5000     33.2895    -40.1349     18.4844     97.6685
  1380.7500     36.7660    -39.0124     23.7667     97.7102
  1381.0000     39.0014    -39.0869     25.1824     88.8309
  1381.2500     41.4151    -39.4551     25.4040     85.4925
  1381.5000     43.1721    -38.9124     27.2257     87.5993
  1381.7500     43.6869    -39.0838     25.7645     86.0195
  1382.0000     43.4603    -39.2736     21.5739    100.6390
  1382.2500     43.0933    -39.5982     24.8217     97.6666
  1382.5000     41.5298    -40.1599     26.3216     95.8937
  1382.7500     40.0334    -40.4354     27.0576    103.9259
  1383.0000     35.9377    -40.3833     26.4129    114.6926
  1383.2500     33.8019    -40.3047     27.2785    125.0199
  1383.5000     31.9127    -39.1286     27.9081    117.0356
  1383.7500     31.3192    -39.6878     24.0427    120.3615
  1384.0000     30.9986    -41.1412     27.8998    117.1909
  1384.2500     30.7301    -42.4598     27.2433    117.6602
  1384.5000     29.9976    -42.1968     27.7371    104.1201
  1384.7500     29.8975    -43.8601     25.6181     95.4404
  1385.0000     30.3958    -47.0103     20.7343     82.6529
  1385.2500     32.3379    -52.0538     20.9731     72.6024
