~Version Information
VERS.                      2.0: CWLS Log ASCII Standard - VERSION 2.0
WRAP.                       NO: One line per depth step
~Well Information Block
STRT.FT               245.0000: 
STOP.FT              2464.2000: 
STEP.FT                 0.1000: 
NULL.                -999.2500: 
COMP.          Pioneer Natural Resources: COMPANY
WELL.          Oink Oink 14-36: WELL
FLD.           Purgatoire River: FIELD
LOC.           216' FSL & 263' FWL--: LOCATION
PROV.                 Colorado: PROVINCE
CNTY.               Las Animas: COUNTRY
SRVC.                Patterson: SERVICE COMPANY
DATE.          Wed Jun 08 16:53:09 2005: LOG DATE
UWI.           05 071 08394 00: UNIQUE WELL ID
~Curve Information Block
DEPT.FT            0 000 00 00: Depth
DCAL.in                       : CDL Caliper
RHOB.g/cc                     : CDL Bulk Density
RHOC.g/cc                     : CDL Density Correction
DPOR.pu                       : CDL Density Porosity
NPOR.pu                       : Neutron Porosity
GR.GAPI                       : Gamma Ray
~Parameter Information Block
~A  Depth       DCAL        RHOB        RHOC        DPOR        NPOR         GR     
# ...
  1118.6000      8.0783      2.5362     -0.0238      6.8944     28.9299    120.0603
  1118.7000      8.0783      2.5527      0.0206      5.8957     28.6001    125.0461
  1118.8000      8.0721      2.5781      0.0370      4.3564     27.9333    129.6087
  1118.9000      8.0721      2.5916      0.0690      3.5380     27.1262    129.3097
  1119.0000      8.0710      2.5769      0.0582      4.4304     26.5531    123.2827
  1119.1000      8.0710      2.5443     -0.0169      6.4059     26.4452    117.9388
  1119.2000      8.0710      2.5217      0.0279      7.7766     26.4763    116.4160
  1119.3000      8.0718      2.5203      0.0050      7.8635     26.0271    118.5136
  1119.4000      8.0718      2.5316      0.0718      7.1770     25.0128    122.4114
  1119.5000      8.0712      2.5452      0.0778      6.3519     23.7280    121.0702
  1119.6000      8.0712      2.5658      0.0373      5.1025     22.3349    112.5815
  1119.7000      8.0712      2.5974      0.0910      3.1851     21.1460    103.6834
  1119.8000      8.0717      2.6269      0.1162      1.3994     20.3923     96.8770
  1119.9000      8.0717      2.6477      0.0922      0.1398     19.8473     92.6373
  1120.0000      8.0740      2.6639      0.0845     -0.8436     19.3064     92.5992
  1120.1000      8.0740      2.6707      0.1468     -1.2527     18.8870     93.8961
  1120.2000      8.0740      2.6654      0.0855     -0.9358     18.7881     93.4863
  1120.3000      8.0745      2.6605      0.0536     -0.6380     19.0639     90.9030
  1120.4000      8.0745      2.6649      0.0920     -0.9015     19.4255     87.3334
  1120.5000      8.0747      2.6821      0.0753     -1.9452     19.6985     83.5480
  1120.6000      8.0747      2.7135      0.0715     -3.8468     19.8608     78.2808
  1120.7000      8.0747      2.7464      0.0753     -5.8438     19.9543     73.1977
  1120.8000      8.0760      2.7583      0.0773     -6.5659     20.2781     70.2346
  1120.9000      8.0760      2.7370      0.0597     -5.2743     20.9859     67.8250
  1121.0000      8.0748      2.6998     -0.0316     -3.0180     21.7934     65.6392
  1121.1000      8.0748      2.6739      0.0004     -1.4457     22.3091     65.7314
  1121.2000      8.0748      2.6649     -0.0012     -0.9051     22.5986     67.4624
  1121.3000      8.0723      2.6653      0.0443     -0.9297     23.0918     68.0761
  1121.4000      8.0723      2.6636      0.0487     -0.8247     23.9134     67.9396
  1121.5000      8.0718      2.6570      0.0337     -0.4235     24.5555     69.0240
  1121.6000      8.0718      2.6543      0.0278     -0.2578     24.9711     70.4133
  1121.7000      8.0718      2.6588      0.0086     -0.5333     25.9463     69.9985
  1121.8000      8.0737      2.6681      0.0149     -1.0942     27.6629     69.4386
  1121.9000      8.0737      2.6837     -0.0025     -2.0431     29.3844     69.9671
  1122.0000      8.0761      2.7074      0.0349     -3.4781     30.6393     70.6915
  1122.1000      8.0761      2.7304      0.0328     -4.8750     31.5455     72.8716
  1122.2000      8.0761      2.7392      0.0328     -5.4074     32.2189     77.6216
  1122.3000      8.0762      2.7340      0.0326     -5.0898     32.7638     83.9157
  1122.4000      8.0762      2.7373     -0.0464     -5.2897     33.1151     88.4643
  1122.5000      8.0751      2.7566      0.0503     -6.4584     33.0796     90.7204
  1122.6000      8.0751      2.7647      0.0638     -6.9502     33.0173     94.0077
  1122.7000      8.0751      2.7508      0.0226     -6.1111     33.1481     99.8730
  1122.8000      8.0773      2.7287      0.0192     -4.7699     33.0748    105.1906
  1122.9000      8.0773      2.7064      0.0369     -3.4196     32.6932    106.9731
  1123.0000      8.0884      2.6875     -0.0280     -2.2747     32.2873    105.7240
  1123.1000      8.0884      2.6695     -0.0074     -1.1811     32.0067    103.8320
  1123.2000      8.0884      2.6408     -0.0391      0.5576     31.6410    104.7914
  1123.3000      8.1154      2.6062     -0.0641      2.6536     30.8833    109.1896
  1123.4000      8.1154      2.5920     -0.0598      3.5128     29.9023    112.4218
  1123.5000      8.1612      2.6170     -0.0005      2.0024     29.2211    110.1398
  1123.6000      8.1612      2.6611      0.0741     -0.6744     28.9126    106.0956
  1123.7000      8.1612      2.6885      0.0131     -2.3360     28.6774    106.5196
  1123.8000      8.2046      2.6954      0.0586     -2.7511     28.3276    109.5302
  1123.9000      8.2046      2.6947      0.0300     -2.7063     28.1561    111.1546
  1124.0000      8.2249      2.6916      0.0198     -2.5225     28.6142    114.6879
  1124.1000      8.2249      2.6841      0.0345     -2.0676     29.3449    123.3033
  1124.2000      8.2249      2.6653      0.0692     -0.9294     29.7696    130.7531
  1124.3000      8.2297      2.6368      0.0168      0.8004     30.0690    130.2396
  1124.4000      8.2297      2.6128      0.0325      2.2566     30.4837    125.0658
  1124.5000      8.2315      2.6055      0.0035      2.6999     30.7587    121.6962
  1124.6000      8.2315      2.6107      0.0792      2.3819     30.5047    119.8883
  1124.7000      8.2315      2.6047      0.0669      2.7431     29.8430    117.9790
  1124.8000      8.2333      2.5778     -0.0060      4.3774     29.3253    118.5552
  1124.9000      8.2333      2.5450     -0.0092      6.3664     29.0832    123.5697
  1125.0000      8.2380      2.5251     -0.0524      7.5684     28.8429    131.2418
  1125.1000      8.2380      2.5279      0.0172      7.4006     28.2486    137.1089
  1125.2000      8.2380      2.5377      0.0744      6.8064     27.2519    138.1542
  1125.3000      8.2389      2.5361      0.0458      6.9033     26.4499    135.6103
  1125.4000      8.2389      2.5249      0.0852      7.5790     26.1971    132.8857
  1125.5000      8.2250      2.5133      0.0482      8.2869     26.0798    131.2341
  1125.6000      8.2250      2.5106      0.0601      8.4484     25.9331    131.2412
  1125.7000      8.2250      2.5168      0.0645      8.0714     25.9333    131.5443
  1125.8000      8.2184      2.5209      0.0417      7.8219     25.6023    129.3077
  1125.9000      8.2184      2.5195      0.0076      7.9076     24.6686    127.6129
  1126.0000      8.2320      2.5203      0.0287      7.8595     23.9485    131.3135
  1126.1000      8.2320      2.5156      0.1151      8.1453     23.9529    138.5553
  1126.2000      8.2320      2.4743      0.1218     10.6504     24.1782    143.6721
  1126.3000      8.2430      2.3963      0.0050     15.3732     24.2770    143.8507
  1126.4000      8.2430      2.3366     -0.0355     18.9949     24.5718    139.2271
  1126.5000      8.2375      2.3443     -0.0748     18.5266     25.3457    134.2799
  1126.6000      8.2375      2.4160      0.0326     14.1834     26.1899    131.9392
  1126.7000      8.2375      2.5137      0.0668      8.2594     26.3926    131.1945
  1126.8000      8.2236      2.6102      0.0871      2.4117     25.9214    133.4524
  1126.9000      8.2236      2.6960      0.1290     -2.7892     25.3945    135.9111
  1127.0000      8.2096      2.7669      0.1816     -7.0866     25.0957    132.6595
  1127.1000      8.2096      2.8232      0.1694    -10.4941     25.0704    128.0566
  1127.2000      8.2096      2.8751      0.1324    -13.6454     25.6433    126.6887
  1127.3000      8.1982      2.9311      0.1309    -17.0334     27.0747    121.4327
  1127.4000      8.1982      2.9819      0.1553    -20.1167     28.8112    110.7756
  1127.5000      8.1872      3.0155      0.0642    -22.1526     30.1332    104.2408
  1127.6000      8.1872      3.0140      0.0921    -22.0581     31.1979    104.4107
  1127.7000      8.1872      2.9597      0.0194    -18.7707     32.0814    104.3570
  1127.8000      8.1764      2.8778     -0.0333    -13.8076     32.3336    100.1147
  1127.9000      8.1764      2.8082     -0.0101     -9.5879     31.8509     96.7928
  1128.0000      8.1709      2.7526     -0.0294     -6.2162     31.0571    100.1199
  1128.1000      8.1709      2.6953     -0.0296     -2.7461     30.2555    108.8735
