~Version Information
VERS.                      2.0: CWLS Log ASCII Standard - VERSION 2.0
WRAP.                       NO: One line per depth step
~Well Information Block
STRT.FT               460.0000: 
STOP.FT               961.2000: 
STEP.FT                 0.1000: 
NULL.                -999.2500: 
COMP.          Pioneer Natural Resources: COMPANY
WELL.                Pug 33-19: WELL
FLD.           Purgatoire River: FIELD
LOC.           1381' FSL & 2140' FEL: LOCATION
PROV.                 Colorado: PROVINCE
CNTY.               Las Animas: COUNTRY
SRVC.                Patterson: SERVICE COMPANY
DATE.          Wed Dec 15 07:19:20 2004: LOG DATE
UWI.           05 071 08193 00: UNIQUE WELL ID
~Curve Information Block
DEPT.FT            0 000 00 00: Depth
DCAL.in                       : CDL Caliper
RHOB.g/cc                     : CDL Bulk Density
RHOC.g/cc                     : CDL Density Correction
DPOR.pu                       : CDL Density Porosity
NPOR.pu                       : Neutron Porosity
GR.GAPI                       : Gamma Ray
~Parameter Information Block
~A  Depth       DCAL        RHOB        RHOC        DPOR        NPOR         GR     
# ...
   805.6000      7.9441      2.6040      0.0218      2.7871     14.4825     79.2332
   805.7000      7.9441      2.6108      0.0545      2.3756     15.0688     82.2231
   805.8000      7.9437      2.6149      0.0675      2.1250     14.8743     80.5907
   805.9000      7.9437      2.6166      0.0478      2.0250     13.9907     76.6831
   806.0000      7.9434      2.6149      0.1146      2.1297     13.2423     72.3688
   806.1000      7.9434      2.6015      0.0604      2.9374     13.0291     68.7114
   806.2000      7.9434      2.5843      0.0747      3.9811     13.3172     65.4667
   806.3000      7.9414      2.5750      0.0490      4.5425     13.9191     65.1012
   806.4000      7.9414      2.5704      0.0745      4.8254     14.4000     70.4002
   806.5000      7.9396      2.5624      0.0339      5.3110     14.2988     77.0490
   806.6000      7.9396      2.5514      0.0594      5.9774     13.7713     79.0943
   806.7000      7.9396      2.5479      0.0346      6.1859     13.4816     75.5816
   806.8000      7.9407      2.5659      0.0406      5.0995     13.6723     68.5431
   806.9000      7.9407      2.5956      0.1080      3.2994     14.1469     60.1087
   807.0000      7.9439      2.6069      0.0986      2.6108     14.4644     52.7390
   807.1000      7.9439      2.5876      0.0873      3.7819     14.3155     48.8189
   807.2000      7.9439      2.5533      0.0619      5.8589     14.0483     51.2633
   807.3000      7.9470      2.5267      0.0606      7.4741     14.0719     59.8291
   807.4000      7.9470      2.5138      0.0614      8.2548     14.3856     67.7269
   807.5000      7.9462      2.5129      0.0238      8.3068     14.6837     71.1888
   807.6000      7.9462      2.5250      0.0801      7.5739     14.5647     71.8267
   807.7000      7.9462      2.5366      0.1057      6.8705     13.9077     71.6991
   807.8000      7.9440      2.5374      0.0190      6.8228     13.2277     72.1963
   807.9000      7.9440      2.5364      0.0632      6.8828     13.1119     70.9406
   808.0000      7.9465      2.5384      0.0511      6.7656     13.2818     66.4049
   808.1000      7.9465      2.5475      0.0696      6.2091     13.0488     63.1424
   808.2000      7.9465      2.5695      0.0784      4.8798     12.5323     61.5878
   808.3000      7.9499      2.5915      0.0897      3.5444     12.1796     57.6522
   808.4000      7.9499      2.5925      0.0887      3.4849     12.0996     54.7425
   808.5000      7.9460      2.5764      0.0672      4.4622     12.4182     55.6771
   808.6000      7.9460      2.5655      0.0743      5.1191     13.1483     55.6524
   808.7000      7.9460      2.5643      0.0645      5.1917     13.8242     52.7781
   808.8000      7.9429      2.5630      0.0785      5.2733     14.0376     52.1106
   808.9000      7.9429      2.5597      0.0860      5.4746     13.7963     58.2014
   809.0000      7.9433      2.5583      0.0710      5.5570     13.3061     69.6781
   809.1000      7.9433      2.5558      0.0671      5.7101     12.7527     77.9515
   809.2000      7.9433      2.5452      0.0466      6.3543     12.1621     75.8193
   809.3000      7.9429      2.5315      0.0173      7.1802     11.8997     68.7712
   809.4000      7.9429      2.5279      0.0343      7.4011     12.2532     65.4857
   809.5000      7.9423      2.5311      0.0715      7.2041     12.7025     65.7237
   809.6000      7.9423      2.5300      0.0310      7.2712     12.7781     62.8754
   809.7000      7.9423      2.5283      0.0292      7.3743     12.8935     53.7351
   809.8000      7.9429      2.5298      0.0765      7.2864     13.1800     45.8862
   809.9000      7.9429      2.5293      0.0310      7.3179     13.2945     49.5494
   810.0000      7.9434      2.5236      0.0667      7.6626     13.5514     62.4200
   810.1000      7.9434      2.5129      0.0308      8.3108     14.1367     71.8594
   810.2000      7.9434      2.5068      0.0242      8.6767     14.4859     70.4421
   810.3000      7.9423      2.5125      0.0484      8.3316     14.5489     62.9672
   810.4000      7.9423      2.5232      0.0396      7.6820     14.7064     58.1319
   810.5000      7.9409      2.5315      0.0474      7.1846     15.1805     58.4636
   810.6000      7.9409      2.5383      0.0427      6.7697     15.9459     61.2071
   810.7000      7.9409      2.5448      0.0649      6.3759     16.5195     63.2908
   810.8000      7.9405      2.5439      0.0602      6.4282     16.6229     64.2180
   810.9000      7.9405      2.5318      0.0380      7.1661     16.5867     63.8677
   811.0000      7.9411      2.5173      0.0527      8.0414     16.7678     61.0702
   811.1000      7.9411      2.5168      0.0112      8.0707     16.8855     58.0438
   811.2000      7.9411      2.5316      0.0837      7.1770     16.5229     58.4382
   811.3000      7.9417      2.5426      0.0732      6.5063     16.1769     61.4384
   811.4000      7.9417      2.5449      0.0259      6.3727     16.5882     63.7422
   811.5000      7.9418      2.5471      0.0122      6.2355     17.4475     66.6428
   811.6000      7.9418      2.5494      0.0640      6.0944     17.7983     74.3697
   811.7000      7.9418      2.5517      0.0460      5.9560     17.3549     83.9852
   811.8000      7.9410      2.5579      0.0595      5.5805     16.8298     88.2081
   811.9000      7.9410      2.5657      0.0289      5.1088     16.7937     88.0377
   812.0000      7.9395      2.5732      0.0426      4.6556     16.9593     89.4687
   812.1000      7.9395      2.5782      0.0539      4.3527     16.9859     91.6436
   812.2000      7.9395      2.5789      0.0348      4.3089     17.0358     89.0736
   812.3000      7.9397      2.5784      0.0275      4.3384     17.0359     82.0306
   812.4000      7.9397      2.5750      0.0786      4.5435     16.5403     78.1085
   812.5000      7.9408      2.5658      0.0177      5.1022     15.6118     79.1196
   812.6000      7.9408      2.5586      0.0231      5.5380     14.9924     80.1613
   812.7000      7.9408      2.5567      0.0665      5.6530     15.3263     81.4043
   812.8000      7.9417      2.5592      0.0138      5.5005     16.3134     86.2878
   812.9000      7.9417      2.5692      0.0358      4.8991     16.9995     94.4761
   813.0000      7.9424      2.5843      0.0417      3.9829     17.3320    100.2984
   813.1000      7.9424      2.6039      0.0436      2.7969     17.7805     99.0953
   813.2000      7.9424      2.6189      0.0888      1.8820     18.2843     90.5533
   813.3000      7.9421      2.6102      0.0914      2.4135     18.9895     81.4426
   813.4000      7.9421      2.5782      0.0542      4.3489     19.9363     80.4684
   813.5000      7.9417      2.5420      0.0553      6.5464     20.8360     84.0399
   813.6000      7.9417      2.5137      0.0104      8.2593     21.9469     85.5858
   813.7000      7.9417      2.4916      0.0336      9.6029     23.2957     87.1144
   813.8000      7.9417      2.4692      0.0171     10.9565     24.2544     91.6159
   813.9000      7.9417      2.4506      0.0028     12.0852     24.6636    100.5512
   814.0000      7.9415      2.4457      0.0117     12.3790     24.8743    108.5958
   814.1000      7.9415      2.4603      0.0536     11.4955     24.5864    108.9539
   814.2000      7.9415      2.4873      0.0988      9.8619     23.2947    104.5893
   814.3000      7.9413      2.5086      0.1409      8.5696     21.4806    102.7168
   814.4000      7.9413      2.5178      0.1010      8.0132     20.0369    104.5883
   814.5000      7.9414      2.5267      0.1397      7.4722     19.1514    102.7941
   814.6000      7.9414      2.5441      0.1404      6.4155     18.3984     94.9244
   814.7000      7.9414      2.5670      0.1344      5.0312     17.5634     88.2902
   814.8000      7.9424      2.5845      0.1449      3.9692     16.7254     87.1566
   814.9000      7.9424      2.5882      0.1510      3.7465     16.2437     88.1394
   815.0000      7.9436      2.5782      0.1214      4.3511     16.4190     87.6452
   815.1000      7.9436      2.5554      0.0655      5.7354     16.9289     87.1099
