~Version Information
VERS.                      2.0: CWLS Log ASCII Standard - VERSION 2.0
WRAP.                       NO: One line per depth step
~Well Information Block
STRT.FT               -10.0000: 
STOP.FT              2297.5000: 
STEP.FT                 0.2500: 
NULL.                -999.2500: 
COMP.          Pioneer Natural Resources: COMPANY
WELL.              Bobsy 34-11: WELL
FLD.           Purgatorie River: FIELD
LOC.           1937' FEL & 451' FSL----------: LOCATION
PROV.                       CO: PROVINCE
CNTY.               Las Animas: COUNTRY
SRVC.          Patterson Wireline: SERVICE COMPANY
DATE.          Mon Apr 18 09:37:11 2005: LOG DATE
UWI.           05 071 08330 00: UNIQUE WELL ID
~Curve Information Block
DEPT.FT            0 000 00 00: Depth
CCL.                          : Casing Collar Locator
TT3.usec                      : CBL 3' Travel Time
AMP3.mV                       : CBL 3' Amplitude
GR.GAPI                       : Gamma Ray
~Parameter Information Block
~A  Depth       CCL         TT3         AMP3         GR     
# ...
  1799.0000      0.0000    691.5507      4.2606     51.9056
  1799.2500      0.0000    674.0883      4.1316     48.0035
  1799.5000      0.0000    645.1002      3.9965     45.5786
  1799.7500      0.0000    610.9457      3.9595     45.0924
  1800.0000      0.0000    586.8455      4.0545     46.1447
  1800.2500      0.0000    586.6285      4.2339     47.6210
  1800.5000      0.0000    610.2366      4.4020     48.4261
  1800.7500      0.0000    643.7610      4.4685     48.2116
  1801.0000      0.0000    671.9390      4.3963     47.3002
  1801.2500      0.0000    688.2964      4.2259     46.0141
  1801.5000      0.0000    694.6024      4.0585     44.4126
  1801.7500      0.0000    695.2343      3.9913     42.6826
  1802.0000      0.0000    693.7056      4.0427     41.3405
  1802.2500      0.0000    692.1147      4.1322     40.7868
  1802.5000      0.0000    691.4028      4.1388     40.8660
  1802.7500      0.0000    691.8280      4.0021     41.0335
  1803.0000      0.0000    693.5181      3.7825     40.9108
  1803.2500      0.0000    696.4835      3.6210     40.6380
  1803.5000      0.0000    700.1133      3.6263     40.8054
  1803.7500      0.0000    703.1477      3.7976     42.1467
  1804.0000      0.0000    704.6973      4.0433     45.0460
  1804.2500      0.0000    705.4680      4.2483     48.9108
  1804.5000      0.0000    707.6002      4.3249     52.1982
  1804.7500      0.0000    712.4340      4.2434     53.6349
  1805.0000      0.0000    718.0789      4.0511     53.5113
  1805.2500      0.0000    719.7651      3.8535     53.6324
  1805.5000      0.0000    713.7604      3.7481     56.2191
  1805.7500      0.0000    701.7207      3.7704     62.7638
  1806.0000      0.0000    690.4086      3.9015     73.1973
  1806.2500      0.0000    685.9881      4.1096     85.7037
  1806.5000      0.0000    689.0066      4.3625     97.6833
  1806.7500      0.0000    695.3898      4.6112    107.2603
  1807.0000      0.0000    700.9604      4.7865    113.8566
  1807.2500      0.0000    704.0019      4.8253    117.4620
  1807.5000      0.0000    704.5670      4.7076    117.9473
  1807.7500      0.0000    703.0085      4.4793    115.6035
  1808.0000      0.0000    699.6697      4.2445    112.1139
  1808.2500      0.0000    695.5881      4.1168    110.2906
  1808.5000      0.0000    692.8049      4.1527    112.4829
  1808.7500      0.0000    693.1995      4.3197    119.1666
  1809.0000      0.0000    696.8348      4.5303    128.8102
  1809.2500      0.0000    701.8695      4.7026    138.8114
  1809.5000      0.0000    706.2058      4.7924    146.8517
  1809.7500      0.0000    708.9017      4.7785    151.8711
  1810.0000      0.0000    710.1375      4.6397    153.9210
  1810.2500      0.0000    710.4523      4.3648    153.4126
  1810.5000      0.0000    710.2278      3.9954    151.0511
  1810.7500      0.0000    709.5283      3.6464    148.1019
  1811.0000      0.0000    708.0452      3.4603    145.7742
  1811.2500      0.0000    705.2109      3.5174    144.2257
  1811.5000      0.0000    700.7330      3.7803    142.5771
  1811.7500      0.0000    695.3300      4.1207    139.9725
  1812.0000      0.0000    690.6354      4.3905    136.6218
  1812.2500      0.0000    687.7588      4.4820    133.8814
  1812.5000      0.0000    686.0235      4.3587    133.1505
  1812.7500      0.0000    683.8945      4.0626    134.5107
  1813.0000      0.0000    681.1793      3.6969    136.4934
  1813.2500      0.0000    679.5416      3.3801    137.0503
  1813.5000      0.0000    680.7370      3.1916    134.5862
  1813.7500      0.0000    685.0320      3.1507    128.5168
  1814.0000      0.0000    691.2365      3.2459    119.5858
  1814.2500      0.0000    697.2637      3.4615    109.9235
  1814.5000      0.0000    700.6362      3.7578    102.4935
  1814.7500      0.0000    699.7672      4.0481     99.7471
  1815.0000      0.0000    695.4911      4.2309    101.9693
  1815.2500      0.0000    690.7061      4.2452    106.8562
  1815.5000      0.0000    688.1437      4.0927    111.3262
  1815.7500      0.0000    688.9084      3.8326    113.8888
  1816.0000      0.0000    692.8152      3.5751    115.1151
  1816.2500      0.0000    698.7678      3.4463    116.1891
  1816.5000      0.0000    704.4247      3.5184    117.5247
  1816.7500      0.0000    706.8746      3.7665    118.6319
  1817.0000      0.0000    704.9167      4.0912    118.9963
  1817.2500      0.0000    700.4206      4.3741    119.0229
  1817.5000      0.0000    696.7315      4.5262    119.8877
  1817.7500      0.0000    695.8669      4.5145    122.1749
  1818.0000      0.0000    697.2827      4.3577    124.8345
  1818.2500      0.0000    698.8068      4.0989    125.8572
  1818.5000      0.0000    698.5075      3.7931    124.1060
  1818.7500      0.0000    696.0358      3.5144    120.6504
  1819.0000      0.0000    692.5725      3.3429    118.3193
  1819.2500      0.0000    689.6776      3.3087    119.5482
  1819.5000      0.0000    688.2386      3.3547    124.3536
  1819.7500      0.0000    688.2066      3.3822    130.4542
  1820.0000      0.0000    688.7803      3.3450    135.2575
  1820.2500      0.0000    688.7872      3.2842    137.5238
  1820.5000      0.0000    687.4841      3.2665    137.5314
  1820.7500      0.0000    685.2869      3.3121    136.2156
  1821.0000      0.0000    683.4646      3.4049    134.4247
  1821.2500      0.0000    683.1539      3.5445    132.9034
  1821.5000      0.0000    684.9384      3.7423    132.4250
  1821.7500      0.0000    688.8708      3.9586    133.2117
  1822.0000      0.0000    694.1966      4.0942    134.1390
  1822.2500      0.0000    699.4014      4.0816    133.1489
  1822.5000      0.0000    703.1276      3.9564    128.7957
  1822.7500      0.0000    704.9575      3.8090    121.1739
  1823.0000      0.0000    705.1082      3.6887    111.4652
  1823.2500      0.0000    703.3885      3.5853    101.2513
  1823.5000      0.0000    698.1913      3.4816     92.2636
  1823.7500      0.0000    686.0262      3.3899     85.8759
  1824.0000      0.0000    662.3783      3.3401     82.3837
  1824.2500      0.0000    625.0702      3.3447     81.0739
  1824.5000      0.0000    578.9663      3.3843     80.9415
  1824.7500      0.0000    537.2602      3.4322     81.0579
  1825.0000      0.0000    515.6350      3.4881     80.6928
  1825.2500      0.0000    522.9441      3.5799     79.5667
  1825.5000      0.0000    556.0799      3.7387     77.8836
  1825.7500      0.0000    602.1871      3.9758     76.0849
  1826.0000      0.0000    645.9003      4.2598     74.7164
  1826.2500      0.0000    677.0378      4.5056     74.2822
  1826.5000      0.0000    693.7267      4.6051     74.8092
  1826.7500      0.0000    699.5510      4.4976     75.5483
  1827.0000      0.0000    698.6349      4.2225     75.4254
  1827.2500      0.0000    692.5585      3.8972     74.1099
  1827.5000      0.0000    679.4836      3.6353     72.7146
  1827.7500      0.0000    655.3134      3.4806     73.0171
  1828.0000      0.0000    617.9556      3.4106     75.6294
  1828.2500      0.0000    572.7544      3.3876     79.1530
  1828.5000      0.0000    532.4210      3.3939     81.5507
  1828.7500      0.0000    509.2348      3.4236     82.3123
  1829.0000      0.0000    507.5975      3.4583     82.8998
  1829.2500      0.0000    524.6671      3.4630     84.9644
  1829.5000      0.0000    554.4858      3.4111     88.5910
  1829.7500      0.0000    588.3498      3.3225     92.6302
  1830.0000      0.0000    615.2824      3.2761     96.2925
  1830.2500      0.0000    628.5363      3.3651     99.8739
  1830.5000     -2.0000    631.7670      3.6228    103.9668
  1830.7500     -2.0000    635.0491      3.9875    108.2145
  1831.0000      0.0000    644.1498      4.3401    111.0451
  1831.2500      0.0000    655.9569      4.5809    110.8371
  1831.5000      0.0000    664.3143      4.6832    107.1860
  1831.7500      0.0000    667.0964      4.6893    100.8079
  1832.0000      0.0000    666.0406      4.6629     92.7775
  1832.2500      0.0000    662.7034      4.6499     84.4345
