~Version Information
VERS.                      2.0: CWLS Log ASCII Standard - VERSION 2.0
WRAP.                       NO: One line per depth step
~Well Information Block
STRT.FT               679.2000: 
STOP.FT              2289.5000: 
STEP.FT                 0.1000: 
NULL.                -999.2500: 
COMP.          Petrogulf Corporation: COMPANY
WELL.          Anderson 18-43V: WELL
FLD.           Purgatorie River: FIELD
LOC.           1782' FSL & 887' FEL: LOCATION
CNTY.               Las Animas: COUNTY
SRVC.                         : SERVICE COMPANY
DATE.          Thu Sep 02 08:33:50 2004: LOG DATE
UWI.           05 071 08156 00: UNIQUE WELL ID
STAT.                 Colorado: STATE
~Curve Information Block
DEPT.FT            0 000 00 00: Depth
GR.GAPI                       : Gamma Ray
DCAL.in                       : CDL Caliper
DPOR.pu                       : CDL Density Porosity
NPOR.pu                       : Neutron Porosity
RHOB.g/cc                     : CDL Bulk Density
RHOC.g/cc                     : CDL Density Correction
~Parameter Information Block
~A  Depth        GR         DCAL        DPOR        NPOR        RHOB        RHOC    
# ...
  2061.6000     63.3649      7.8340      0.0482     18.4631      2.6492      0.0355
  2061.7000     61.8127      7.8340      1.7533     18.1012      2.6211      0.0144
  2061.8000     60.4280      7.8400      3.5114     18.3151      2.5921      0.0387
  2061.9000     59.2318      7.8400      5.0348     17.8790      2.5669     -0.0030
  2062.0000     58.2231      7.8347      5.9643     16.8503      2.5516      0.0244
  2062.1000     57.3804      7.8347      6.3699     16.4249      2.5449      0.0201
  2062.2000     56.6667      7.8347      6.0984     16.8709      2.5494      0.0150
  2062.3000     56.0383      7.8342      5.1034     17.4409      2.5658      0.0502
  2062.4000     55.4509      7.8342      4.4974     17.8150      2.5758      0.0770
  2062.5000     54.8641      7.8335      5.0678     18.1054      2.5664      0.0613
  2062.6000     54.2487      7.8335      6.0631     18.2817      2.5500      0.0116
  2062.7000     53.5851      7.8335      6.5420     18.3789      2.5421      0.0459
  2062.8000     52.8655      7.8334      6.5789     18.4732      2.5414      0.0006
  2062.9000     52.0909      7.8334      6.4416     18.5454      2.5437      0.0265
  2063.0000     51.2719      7.8340      5.8641     18.7823      2.5532      0.0031
  2063.1000     50.4272      7.8340      4.7334     19.2185      2.5719      0.0502
  2063.2000     49.5826      7.8340      3.8549     19.5250      2.5864      0.0802
  2063.3000     48.7675      7.8354      4.0898     19.4975      2.5825      0.1049
  2063.4000     48.0159      7.8354      5.1338     19.1868      2.5653      0.0586
  2063.5000     47.3575      7.8348      5.8960     18.8596      2.5527      0.0415
  2063.6000     46.8168      7.8348      5.9115     18.8858      2.5525      0.0610
  2063.7000     46.4059      7.8348      5.5313     19.3237      2.5587      0.0319
  2063.8000     46.1225      7.8342      5.0753     19.8799      2.5663      0.0523
  2063.9000     45.9469      7.8342      4.5550     20.3795      2.5748      0.0697
  2064.0000     45.8465      7.8332      3.5648     20.6019      2.5912      0.0309
  2064.1000     45.7799      7.8332      2.1047     20.2143      2.6153      0.0808
  2064.2000     45.7049      7.8332      0.8912     19.4803      2.6353      0.0747
  2064.3000     45.5849      7.8337      0.0894     18.9688      2.6485      0.0959
  2064.4000     45.3961      7.8337     -0.4269     19.0648      2.6570      0.0941
  2064.5000     45.1296      7.8334     -0.4538     19.5390      2.6575      0.0903
  2064.6000     44.7918      7.8334      0.0350     19.5369      2.6494      0.1065
  2064.7000     44.3988      7.8334      0.6125     18.7678      2.6399      0.0552
  2064.8000     43.9699      7.8335      0.7314     18.1026      2.6379      0.0585
  2064.9000     43.5245      7.8335      0.3200     18.1834      2.6447      0.0728
  2065.0000     43.0751      7.8342     -0.1707     18.5576      2.6528      0.0651
  2065.1000     42.6285      7.8342     -0.0287     18.5386      2.6505      0.0778
  2065.2000     42.1847      7.8342      1.0055     17.8526      2.6334      0.0322
  2065.3000     41.7435      7.8338      1.8576     17.0126      2.6194     -0.0133
  2065.4000     41.3065      7.8338      1.6051     16.7930      2.6235      0.0358
  2065.5000     40.8797      7.8333      0.9463     16.8847      2.6344      0.0196
  2065.6000     40.4752      7.8333      0.8545     16.7275      2.6359      0.0305
  2065.7000     40.1098      7.8333      1.3664     16.5188      2.6275     -0.0002
  2065.8000     39.8031      7.8326      2.1448     16.6923      2.6146      0.0347
  2065.9000     39.5735      7.8326      3.1511     17.5345      2.5980      0.0622
  2066.0000     39.4379      7.8332      4.1014     18.7571      2.5823      0.0431
  2066.1000     39.4102      7.8332      4.4643     19.7845      2.5763      0.0225
  2066.2000     39.5027      7.8332      4.1867     20.2277      2.5809      0.0104
  2066.3000     39.7272      7.8330      3.8051     19.9979      2.5872      0.0404
  2066.4000     40.0970      7.8330      3.6487     19.3343      2.5898      0.0259
  2066.5000     40.6285      7.8334      3.6896     18.8360      2.5891      0.0534
  2066.6000     41.3391      7.8334      4.0828     18.6606      2.5826      0.0156
  2066.7000     42.2508      7.8334      4.4732     18.6956      2.5762      0.0155
  2066.8000     43.3876      7.8340      4.5878     19.0198      2.5743      0.0286
  2066.9000     44.7755      7.8340      4.4891     19.1164      2.5759      0.0059
  2067.0000     46.4415      7.8325      3.5399     18.9822      2.5916      0.0066
  2067.1000     48.4144      7.8325      1.7314     19.6209      2.6214      0.0902
  2067.2000     50.7238      7.8325      0.7032     20.9635      2.6384      0.1125
  2067.3000     53.3972      7.8315      1.4359     21.5305      2.6263      0.0583
  2067.4000     56.4580      7.8315      2.9392     20.7077      2.6015      0.0639
  2067.5000     59.9173      7.8334      4.1142     19.7305      2.5821      0.0321
  2067.6000     63.7718      7.8334      5.2724     20.0060      2.5630      0.0471
  2067.7000     67.9941      7.8334      7.5948     21.1633      2.5247      0.0144
  2067.8000     72.5303      7.8333     11.2199     21.9983      2.4649     -0.0199
  2067.9000     77.2964      7.8333     14.7497     22.4899      2.4066      0.0085
  2068.0000     82.1824      7.8351     16.7810     23.2587      2.3731     -0.0026
  2068.1000     87.0615      7.8351     17.2689     24.4035      2.3651      0.0272
  2068.2000     91.7979      7.8351     16.9501     25.2631      2.3703      0.0017
  2068.3000     96.2634      7.8360     15.6030     25.1778      2.3925     -0.0029
  2068.4000    100.3456      7.8360     12.8126     24.7969      2.4386      0.0616
  2068.5000    103.9583      7.8357      9.5785     25.1617      2.4920      0.1665
  2068.6000    107.0423      7.8357      7.4961     26.2484      2.5263      0.2335
  2068.7000    109.5654      7.8357      7.1447     26.9767      2.5321      0.2377
  2068.8000    111.5227      7.8378      7.6806     26.4227      2.5233      0.2152
  2068.9000    112.9267      7.8378      8.2812     25.4209      2.5134      0.2296
  2069.0000    113.8078      7.8362      9.3581     25.0327      2.4956      0.1175
  2069.1000    114.2113      7.8362     11.1198     24.8064      2.4665      0.0552
  2069.2000    114.1941      7.8362     12.5301     24.7314      2.4433      0.0198
  2069.3000    113.8214      7.8220     12.8419     25.6771      2.4381      0.0285
  2069.4000    113.1611      7.8220     12.6688     26.8322      2.4410      0.0164
  2069.5000    112.2775      7.8198     13.0620     26.8916      2.4345      0.0433
  2069.6000    111.2269      7.8198     14.1187     26.3611      2.4170      0.0035
  2069.7000    110.0508      7.8198     14.8042     26.1456      2.4057      0.0051
  2069.8000    108.7768      7.8253     14.5263     26.3495      2.4103      0.0181
  2069.9000    107.4257      7.8253     13.9596     26.8857      2.4197      0.0130
  2070.0000    106.0168      7.8240     13.6014     27.5265      2.4256      0.0222
  2070.1000    104.5786      7.8240     12.9506     27.9353      2.4363      0.0269
  2070.2000    103.1543      7.8240     11.7547     28.3155      2.4560      0.0529
  2070.3000    101.8052      7.8204     10.6636     28.8246      2.4741      0.0584
  2070.4000    100.6051      7.8204     10.4866     28.9836      2.4770      0.0777
  2070.5000     99.6307      7.8317     11.1634     28.4540      2.4658      0.0408
  2070.6000     98.9468      7.8317     11.5092     27.7047      2.4601      0.0204
  2070.7000     98.5929      7.8317     10.5851     27.0421      2.4753      0.0412
  2070.8000     98.5687      7.8247      9.0863     26.1398      2.5001      0.0586
  2070.9000     98.8316      7.8247      8.6513     25.1939      2.5073      0.0570
  2071.0000     99.2962      7.8248      9.7429     24.8316      2.4892      0.0293
  2071.1000     99.8430      7.8248     11.1622     25.0764      2.4658      0.0145
