~Version Information
VERS.                      2.0: CWLS Log ASCII Standard - VERSION 2.0
WRAP.                       NO: One line per depth step
~Well Information Block
STRT.FT                -9.2500: 
STOP.FT              2353.7500: 
STEP.FT                 0.2500: 
NULL.                -999.2500: 
COMP.          Petrogulf Corporation: COMPANY
WELL.             Kraft 17-23V: WELL
FLD.           Purgatorie River: FIELD
LOC.           1500' FSL & 1773' FWL--: LOCATION
PROV.                       CO: PROVINCE
CNTY.               Las Animas: COUNTRY
SRVC.          Patterson Wireline: SERVICE COMPANY
DATE.          Wed Dec 10 19:09:59 2003: LOG DATE
UWI.                          : UNIQUE WELL ID
~Curve Information Block
DEPT.FT            0 000 00 00: Depth
CCL.                          : Casing Collar Locator
TT3.usec                      : CBL 3' Travel Time
AMP3.mV                       : CBL 3' Amplitude
GR.GAPI                       : Gamma Ray
~Parameter Information Block
~A  Depth       CCL         TT3         AMP3         GR     
# ...
   158.2500      0.0000    737.8727      3.5927     89.9773
   158.5000      0.0000    735.8063      3.4101     86.5566
   158.7500      0.0000    733.3735      3.3491     84.1484
   159.0000      0.0000    729.7232      3.4354     81.9503
   159.2500      0.0000    724.2377      3.6358     79.8630
   159.5000      0.0000    717.6675      3.8968     79.2180
   159.7500      0.0000    712.9199      4.1631     81.1906
   160.0000      0.0000    713.6686      4.3776     85.0101
   160.2500      0.0000    720.8540      4.4962     88.4272
   160.5000      0.0000    730.3562      4.5014     89.9628
   160.7500      0.0000    735.5146      4.3939     90.2697
   161.0000      0.0000    733.1378      4.1832     91.1399
   161.2500      0.0000    726.4962      3.9013     93.5754
   161.5000      0.0000    721.6627      3.6155     97.1432
   161.7500      0.0000    721.7431      3.4104    100.9006
   162.0000      0.0000    725.3797      3.3406    104.3082
   162.2500      0.0000    729.6091      3.3872    107.0548
   162.5000      0.0000    732.6790      3.4618    108.5737
   162.7500      0.0000    734.4363      3.4715    108.4802
   163.0000      0.0000    735.3537      3.3924    107.3383
   163.2500      0.0000    735.7964      3.2767    106.2936
   163.5000      0.0000    735.9193      3.1950    105.8891
   163.7500      0.0000    735.8309      3.1972    105.6745
   164.0000      0.0000    735.6543      3.3160    104.9044
   164.2500      0.0000    735.4540      3.5571    103.3064
   164.5000      0.0000    735.1909      3.8703    101.2789
   164.7500      0.0000    734.8078      4.1675     99.5629
   165.0000      0.0000    734.3411      4.3829     98.6354
   165.2500      0.0000    733.9218      4.5072     98.4228
   165.5000      0.0000    733.6779      4.5681     98.6383
   165.7500      0.0000    733.6519      4.5996     99.1718
   166.0000      0.0000    733.7918      4.6237    100.0144
   166.2500      0.0000    733.9976      4.6430    101.0642
   166.5000      0.0000    734.1900      4.6412    102.2548
   166.7500      0.0000    734.3202      4.5925    103.7576
   167.0000      0.0000    734.2901      4.4742    105.8305
   167.2500      0.0000    733.8159      4.2822    108.4443
   167.5000      0.0000    732.4346      4.0413    111.1335
   167.7500      0.0000    729.8339      3.7939    113.0894
   168.0000      0.0000    726.4044      3.5709    113.4862
   168.2500      0.0000    723.6733      3.3813    112.1061
   168.5000      0.0000    724.4439      3.2386    109.6311
   168.7500      0.0000    732.2169      3.1742    107.0932
   169.0000      0.0000    748.6227      3.1970    105.1421
   169.2500      0.0000    769.6776      3.2651    103.8338
   169.5000      0.0000    786.2189      3.3325    102.7649
   169.7500      0.0000    791.8330      3.4117    101.3203
   170.0000      0.0000    790.5846      3.5533     99.0115
   170.2500     -2.0000    793.5000      3.7617     95.7467
   170.5000     -1.8369    806.5070      3.9557     91.8892
   170.7500      0.0000    824.4069      4.0406     88.0881
   171.0000      0.0000    837.1337      4.0250     84.9880
   171.2500      0.0000    839.4695      4.0391     83.1491
   171.5000      0.0000    834.2635      4.2037     83.1962
   171.7500      0.0000    828.5452      4.4889     85.5253
   172.0000      0.0000    828.0023      4.7324     89.5400
   172.2500      0.0000    834.2279      4.7904     93.5302
   172.5000      0.0000    845.1376      4.6505     95.7420
   172.7500      0.0000    856.3667      4.4175     95.6643
   173.0000      0.0000    862.8730      4.2234     94.3753
   173.2500      0.0000    861.9254      4.1444     93.6643
   173.5000      0.0000    856.1483      4.1754     94.3855
   173.7500      0.0000    852.0390      4.2602     95.5288
   174.0000      0.0000    853.3364      4.3248     95.4966
   174.2500      0.0000    856.4055      4.2948     94.3007
   174.5000      0.0000    853.6989      4.1272     93.4727
   174.7500      0.0000    841.7681      3.8509     93.6975
   175.0000      0.0000    825.3198      3.5646     93.8672
   175.2500      0.0000    813.6085      3.3688     92.9021
   175.5000      0.0000    812.3028      3.2877     91.3450
   175.7500      0.0000    817.7707      3.2610     90.5834
   176.0000      0.0000    819.5944      3.2134     91.1927
   176.2500      0.0000    809.7081      3.1297     92.4734
   176.5000      0.0000    789.2136      3.0513     93.2846
   176.7500      0.0000    766.2863      3.0129     93.0539
   177.0000      0.0000    748.6145      3.0057     92.0015
   177.2500      0.0000    738.7412      3.0018     90.5256
   177.5000      0.0000    735.3578      2.9887     88.5688
   177.7500      0.0000    736.8870      2.9737     85.8046
   178.0000      0.0000    742.9543      2.9685     82.3721
   178.2500      0.0000    752.7449      2.9771     79.1280
   178.5000      0.0000    762.7581      2.9946     77.0541
   178.7500      0.0000    767.8204      3.0140     76.5646
   179.0000      0.0000    765.4494      3.0419     77.3797
   179.2500      0.0000    758.2385      3.1039     78.8716
   179.5000      0.0000    750.8278      3.2203     80.4823
   179.7500      0.0000    745.7950      3.3753     81.9099
   180.0000      0.0000    743.6857      3.5210     83.0057
   180.2500      0.0000    745.6196      3.6231     83.7904
   180.5000      0.0000    753.8857      3.6971     84.7516
   180.7500      0.0000    769.5548      3.7898     86.7624
   181.0000      0.0000    790.1582      3.9280     90.3086
   181.2500      0.0000    810.7084      4.0923     95.0341
   181.5000      0.0000    827.3423      4.2379    100.1636
   181.7500      0.0000    839.1880      4.3335    104.9166
   182.0000      0.0000    846.4102      4.3766    108.4851
   182.2500      0.0000    848.4854      4.3817    110.1884
   182.5000      0.0000    845.3774      4.3635    109.7127
   182.7500      0.0000    838.3085      4.3305    106.9659
   183.0000      0.0000    828.3877      4.2838    102.0552
   183.2500      0.0000    816.2876      4.2173     95.7351
   183.5000      0.0000    804.0092      4.1260     89.5547
   183.7500      0.0000    794.9614      4.0157     85.2062
   184.0000      0.0000    791.0276      3.8975     83.6425
   184.2500      0.0000    790.6960      3.7786     84.5140
   184.5000      0.0000    791.4415      3.6721     86.0781
   184.7500      0.0000    793.6849      3.6134     85.9102
   185.0000      0.0000    800.5789      3.6464     82.3555
   185.2500      0.0000    812.6915      3.7874     75.8520
   185.5000      0.0000    824.3970      4.0144     69.0564
   185.7500      0.0000    827.5761      4.2894     65.3048
   186.0000      0.0000    818.1979      4.5802     66.3885
   186.2500      0.0000    798.5576      4.8713     71.6928
   186.5000      0.0000    774.9525      5.1517     79.2992
   186.7500      0.0000    754.2799      5.3834     87.2957
   187.0000      0.0000    740.8969      5.5021     94.1080
   187.2500      0.0000    734.9252      5.4727     98.6321
   187.5000      0.0000    733.6153      5.3255    100.6385
   187.7500      0.0000    734.2328      5.1220    100.6325
   188.0000      0.0000    735.6238      4.9032     99.1638
   188.2500      0.0000    737.7919      4.6841     96.6485
   188.5000      0.0000    740.7927      4.4840     93.9010
   188.7500      0.0000    744.1859      4.3411     92.3177
   189.0000      0.0000    747.5577      4.2852     93.0403
   189.2500      0.0000    751.3580      4.3028     95.8498
   189.5000      0.0000    756.2007      4.3456     99.0952
   189.7500      0.0000    760.8384      4.3708    100.8562
   190.0000      0.0000    762.0685      4.3571    100.2133
   190.2500      0.0000    757.8944      4.2884     97.6581
   190.5000      0.0000    750.0316      4.1525     94.6928
   190.7500      0.0000    742.2792      3.9648     92.8948
   191.0000      0.0000    737.1356      3.7693     92.8453
   191.2500      0.0000    734.6924      3.6036     93.8302
   191.5000      0.0000    733.8983      3.4772     94.6799
