~Version Information
VERS.                      2.0: CWLS Log ASCII Standard - VERSION 2.0
WRAP.                       NO: One line per depth step
~Well Information Block
STRT.FT               294.0000: 
STOP.FT              1961.5000: 
STEP.FT                 0.2500: 
NULL.                -999.2500: 
COMP.          Pioneer Natural Resources: COMPANY
WELL.          Commander 43-26 Tr: WELL
FLD.           Purgatoire River: FIELD
LOC.           2439' FSL & 446' FEL: LOCATION
PROV.                 Colorado: PROVINCE
CNTY.               Las Animas: COUNTRY
SRVC.                Patterson: SERVICE COMPANY
DATE.          Thu Apr 14 18:26:07 2005: LOG DATE
UWI.           05 071 08341 00: UNIQUE WELL ID
~Curve Information Block
DEPT.FT            0 000 00 00: Depth
SN.Ohm-m                      : IEL Short Normal
SP.mV                         : IEL Spontaneous Potential
DIR.Ohm-m                     : IEL Induction Resistivity
GR.GAPI                       : Gamma Ray
~Parameter Information Block
~A  Depth        SN          SP         DIR          GR     
# ...
   629.0000   2000.0000   2000.0000     12.5875    156.0054
   629.2500   2000.0000   2000.0000     12.3708    153.7716
   629.5000   2000.0000   2000.0000     12.1924    151.5492
   629.7500   2000.0000   2000.0000     12.0781    151.3555
   630.0000   2000.0000   2000.0000     12.0386    152.7498
   630.2500   2000.0000   2000.0000     12.0669    154.1765
   630.5000   2000.0000   2000.0000     12.1434    156.3736
   630.7500   2000.0000   2000.0000     12.2474    157.9526
   631.0000   2000.0000   2000.0000     12.3680    160.4464
   631.2500   2000.0000   2000.0000     12.5060    161.5067
   631.5000   2000.0000   2000.0000     12.6638    160.5616
   631.7500   2000.0000   2000.0000     12.8336    157.9882
   632.0000   2000.0000   2000.0000     12.9951    152.6327
   632.2500   2000.0000   2000.0000     13.1237    149.2069
   632.5000   2000.0000   2000.0000     13.2042    144.9438
   632.7500   2000.0000   2000.0000     13.2389    142.1026
   633.0000   2000.0000   2000.0000     13.2469    136.2776
   633.2500   2000.0000   2000.0000     13.2561    130.9452
   633.5000   2000.0000   2000.0000     13.2919    122.0412
   633.7500   2000.0000   2000.0000     13.3679    117.3242
   634.0000   2000.0000   2000.0000     13.4814    115.3836
   634.2500   2000.0000   2000.0000     13.6150    118.3724
   634.5000   2000.0000   2000.0000     13.7413    128.0510
   634.7500   2000.0000   2000.0000     13.8289    136.1396
   635.0000   2000.0000   2000.0000     13.8513    147.3219
   635.2500   2000.0000   2000.0000     13.7974    152.8099
   635.5000   2000.0000   2000.0000     13.6753    157.7608
   635.7500   2000.0000   2000.0000     13.5073    159.6268
   636.0000   2000.0000   2000.0000     13.3170    161.7788
   636.2500   2000.0000   2000.0000     13.1228    163.1251
   636.5000   2000.0000   2000.0000     12.9396    164.6173
   636.7500   2000.0000   2000.0000     12.7851    164.9107
   637.0000   2000.0000   2000.0000     12.6812    164.2273
   637.2500   2000.0000   2000.0000     12.6478    163.2473
   637.5000   2000.0000   2000.0000     12.6943    161.1173
   637.7500   2000.0000   2000.0000     12.8149    159.0459
   638.0000   2000.0000   2000.0000     12.9892    154.7383
   638.2500   2000.0000   2000.0000     13.1878    151.2253
   638.5000   2000.0000   2000.0000     13.3806    145.1640
   638.7500   2000.0000   2000.0000     13.5479    140.3787
   639.0000   2000.0000   2000.0000     13.6900    131.9043
   639.2500   2000.0000   2000.0000     13.8291    125.9216
   639.5000   2000.0000   2000.0000     13.9976    118.2112
   639.7500   2000.0000   2000.0000     14.2199    114.7834
   640.0000   2000.0000   2000.0000     14.4989    112.6165
   640.2500   2000.0000   2000.0000     14.8168    112.8250
   640.5000   2000.0000   2000.0000     15.1503    114.6220
   640.7500   2000.0000   2000.0000     15.4867    116.2313
   641.0000   2000.0000   2000.0000     15.8263    118.6195
   641.2500   2000.0000   2000.0000     16.1670    120.1248
   641.5000   2000.0000   2000.0000     16.4842    122.5973
   641.7500   2000.0000   2000.0000     16.7288    124.6921
   642.0000   2000.0000   2000.0000     16.8526    128.7426
   642.2500   2000.0000   2000.0000     16.8430    131.7739
   642.5000   2000.0000   2000.0000     16.7318    135.5707
   642.7500   2000.0000   2000.0000     16.5659    136.7945
   643.0000   2000.0000   2000.0000     16.3669    136.2297
   643.2500   2000.0000   2000.0000     16.1173    134.8064
   643.5000   2000.0000   2000.0000     15.7871    132.9375
   643.7500   2000.0000   2000.0000     15.3742    132.9303
   644.0000   2000.0000   2000.0000     14.9196    135.7031
   644.2500   2000.0000   2000.0000     14.4813    139.2093
   644.5000   2000.0000   2000.0000     14.0959    145.6993
   644.7500   2000.0000   2000.0000     13.7638    150.0411
   645.0000   2000.0000   2000.0000     13.4610    155.7132
   645.2500   2000.0000   2000.0000     13.1645    158.7654
   645.5000   2000.0000   2000.0000     12.8687    162.1676
   645.7500   2000.0000   2000.0000     12.5853    163.5492
   646.0000   2000.0000   2000.0000     12.3305    164.1148
   646.2500   2000.0000   2000.0000     12.1128    163.5509
   646.5000   2000.0000   2000.0000     11.9307    161.6889
   646.7500   2000.0000   2000.0000     11.7769    160.0334
   647.0000   2000.0000   2000.0000     11.6463    157.4076
   647.2500   2000.0000   2000.0000     11.5421    155.9656
   647.5000   2000.0000   2000.0000     11.4768    155.1645
   647.7500   2000.0000   2000.0000     11.4693    155.9398
   648.0000   2000.0000   2000.0000     11.5368    158.9107
   648.2500   2000.0000   2000.0000     11.6848    161.4242
   648.5000   2000.0000   2000.0000     11.9002    164.6094
   648.7500   2000.0000   2000.0000     12.1511    166.0197
   649.0000   2000.0000   2000.0000     12.3963    167.5610
   649.2500   2000.0000   2000.0000     12.6004    168.5186
   649.5000   2000.0000   2000.0000     12.7467    169.4644
   649.7500   2000.0000   2000.0000     12.8397    169.2572
   650.0000   2000.0000   2000.0000     12.8988    167.4234
   650.2500   2000.0000   2000.0000     12.9462    165.4539
   650.5000   2000.0000   2000.0000     12.9966    161.8648
   650.7500   2000.0000   2000.0000     13.0567    159.2351
   651.0000   2000.0000   2000.0000     13.1329    155.5268
   651.2500   2000.0000   2000.0000     13.2398    153.7603
   651.5000   2000.0000   2000.0000     13.3967    152.7758
   651.7500   2000.0000   2000.0000     13.6121    153.0038
   652.0000   2000.0000   2000.0000     13.8685    153.3879
   652.2500   2000.0000   2000.0000     14.1222    152.9247
   652.5000   2000.0000   2000.0000     14.3191    150.8662
   652.7500   2000.0000   2000.0000     14.4187    149.0427
   653.0000   2000.0000   2000.0000     14.4092    146.4892
   653.2500   2000.0000   2000.0000     14.3075    144.8813
   653.5000   2000.0000   2000.0000     14.1463    141.8039
   653.7500   2000.0000   2000.0000     13.9582    139.0116
   654.0000   2000.0000   2000.0000     13.7642    134.2122
   654.2500   2000.0000   2000.0000     13.5729    131.3103
   654.5000   2000.0000   2000.0000     13.3874    128.7738
   654.7500   2000.0000   2000.0000     13.2137    129.0726
   655.0000   2000.0000   2000.0000     13.0599    133.2865
   655.2500   2000.0000   2000.0000     12.9306    138.2187
   655.5000   2000.0000   2000.0000     12.8197    146.5080
   655.7500   2000.0000   2000.0000     12.7119    151.0455
   656.0000   2000.0000   2000.0000     12.5918    154.8955
   656.2500   2000.0000   2000.0000     12.4550    155.6086
   656.5000   2000.0000   2000.0000     12.3129    155.0351
   656.7500   2000.0000   2000.0000     12.1886    154.3203
   657.0000   2000.0000   2000.0000     12.1061    153.7665
   657.2500   2000.0000   2000.0000     12.0783    153.9056
   657.5000   2000.0000   2000.0000     12.1005    154.1208
   657.7500   2000.0000   2000.0000     12.1524    153.5909
   658.0000   2000.0000   2000.0000     12.2110    151.4712
   658.2500   2000.0000   2000.0000     12.2671    149.7258
   658.5000   2000.0000   2000.0000     12.3319    147.9180
   658.7500   2000.0000   2000.0000     12.4308    147.5598
   659.0000   2000.0000   2000.0000     12.5854    147.6462
   659.2500   2000.0000   2000.0000     12.7972    147.4421
   659.5000   2000.0000   2000.0000     13.0403    146.2465
   659.7500   2000.0000   2000.0000     13.2675    145.2507
   660.0000   2000.0000   2000.0000     13.4326    144.6051
   660.2500   2000.0000   2000.0000     13.5160    144.9902
   660.5000   2000.0000   2000.0000     13.5360    146.0900
   660.7500   2000.0000   2000.0000     13.5336    146.5723
   661.0000   2000.0000   2000.0000     13.5464    146.6718
   661.2500   2000.0000   2000.0000     13.5919    146.6935
   661.5000   2000.0000   2000.0000     13.6679    147.3512
   661.7500   2000.0000   2000.0000     13.7655    148.2126
   662.0000   2000.0000   2000.0000     13.8808    149.4345
   662.2500   2000.0000   2000.0000     14.0174    149.6864
