~Version Information
 VERS.                                  2.0 : CWLS LAS VERSION
 WRAP.                                   NO : WRAPING MODE
 SWARE .                 MController 2.5.0J : SOFTWARE VERSION
~Well Information
 WELL.                         Norton 9-14V : WELL
 COMP.                       Petrogulf Corp : COMPANY
 FLD.                      Purgatoire River : FIELD
 LOC.                 SW/SW Sec 9 T33S R67W : LOCATION
 DATE.                             10/27/04 : DATE(S) LOGGED
 SRVC.      Blanco Geological Servivces LLC : SERVICE COMPANY
 STAT.                                   CO : STATE
 CNTY.                           Las Animas : COUNTY
 CTRY.                                  USA : COUNTRY
 API.                       05-071-07891-00 : API NUMBER
 STRT.FT                             752.00 : START DEPTH
 STOP.FT                            2427.00 : STOP DEPTH
 STEP.FT                               1.00 : DEPTH INCREMENT
 NULL.                                -9999 : NULL VALUE
~Curve information
 DEPTH.FT                                   :
 ROP.MIN/FT                                 :
 GAS.UNITS                                  :
~ASCII Log data
# ...
      1752.0         0.27         18.1 
      1753.0         0.23         65.7 
      1754.0         0.27         34.3 
      1755.0         0.27         34.5 
      1756.0         0.20         35.1 
      1757.0         0.27         34.5 
      1758.0         0.23         35.4 
      1759.0         0.23         36.3 
      1760.0         0.23         43.0 
      1761.0         0.23         48.0 
      1762.0         0.13         49.8 
      1763.0         0.17         49.8 
      1764.0         0.18         49.5 
      1765.0         0.20         46.7 
      1766.0         0.37         49.8 
      1767.0         0.13         49.3 
      1768.0         0.27         48.5 
      1769.0         0.20         43.8 
      1770.0         0.22         40.9 
      1771.0         0.17         39.8 
      1772.0         0.23         38.5 
      1773.0         0.13         38.5 
      1774.0         0.10         39.6 
      1775.0         0.17         41.8 
      1776.0         0.27         40.8 
      1777.0         0.23         37.0 
      1778.0         0.37         35.9 
      1779.0         0.27         31.6 
      1780.0         0.23         30.5 
      1781.0         0.30         31.4 
      1782.0         0.27         32.4 
      1783.0         0.20         31.9 
      1784.0         0.23         35.7 
      1785.0         0.48         32.7 
      1786.0         0.13         34.8 
      1787.0         0.27         40.0 
      1788.0         0.23         41.5 
      1789.0         0.27         42.8 
      1790.0         0.20         45.3 
      1791.0         0.20         47.0 
      1792.0         0.17         48.9 
      1793.0         0.23         48.9 
      1794.0         0.27         46.4 
      1795.0         0.27         44.3 
      1796.0         0.20         40.5 
      1797.0         0.45         40.1 
      1798.0         0.33         35.3 
      1799.0         0.27         34.5 
      1800.0         0.30         35.1 
      1801.0         0.27         32.5 
      1802.0         0.37         31.6 
      1803.0         0.37         31.1 
      1804.0         0.33         29.5 
      1805.0         0.23         27.5 
      1806.0         0.27         26.9 
      1807.0         0.23         26.2 
      1808.0         0.25         26.9 
      1809.0         0.23         26.3 
      1810.0         0.30         26.5 
      1811.0         0.23         25.5 
      1812.0         0.23         26.1 
      1813.0         0.27         25.6 
      1814.0         0.23         24.3 
      1815.0         0.20         25.6 
      1816.0         0.23         30.1 
      1817.0         0.27         34.4 
      1818.0         0.23         36.1 
      1819.0         0.20         36.1 
      1820.0         0.23         38.2 
      1821.0         0.23         42.0 
      1822.0         0.25         42.4 
      1823.0         0.23         41.3 
      1824.0         0.27         38.3 
      1825.0         0.20         38.2 
      1826.0         0.27         35.5 
      1827.0         0.40         35.2 
      1828.0         0.43         32.7 
      1829.0         0.33         31.2 
      1830.0         0.33         29.0 
      1831.0         0.27         27.9 
      1832.0         0.27         26.5 
      1833.0         0.23         26.2 
      1834.0         0.20         26.4 
      1835.0         0.28         25.5 
      1836.0         0.27         24.6 
      1837.0         0.30         24.8 
      1838.0         0.27         24.5 
      1839.0         0.27         24.2 
      1840.0         0.23         23.2 
      1841.0         0.27         24.1 
      1842.0         0.27         30.1 
      1843.0         0.30         32.2 
      1844.0         0.23         34.4 
      1845.0         0.27         38.9 
      1846.0         0.30         40.0 
      1847.0         0.28         39.2 
      1848.0         0.20         41.5 
      1849.0         0.20         41.6 
      1850.0         0.17         41.6 
      1851.0         0.20         41.6 
      1852.0         0.17         39.0 
      1853.0         0.17         39.1 
      1854.0         0.20         34.5 
      1855.0         0.20         31.9 
      1856.0         0.33         30.9 
      1857.0         0.33         28.7 
      1858.0         0.30         28.3 
      1859.0         0.23         28.9 
      1860.0         0.27         28.0 
      1861.0         0.23         27.7 
      1862.0         0.28         27.4 
      1863.0         0.30         26.5 
      1864.0         0.37         25.7 
      1865.0         0.23         24.5 
      1866.0         0.27         23.6 
      1867.0         0.27         23.3 
      1868.0         0.23         24.4 
      1869.0         0.27         24.5 
      1870.0         0.23         24.5 
      1871.0         0.23         23.9 
      1872.0         0.23         22.8 
      1873.0         0.23         34.6 
      1874.0         0.25         34.6 
      1875.0         0.23         34.4 
      1876.0         0.27         36.3 
      1877.0         0.23         36.4 
      1878.0         0.23         38.6 
      1879.0         0.23         39.5 
      1880.0         0.23         36.8 
      1881.0         0.23         36.8 
      1882.0         0.23         34.3 
      1883.0         0.27         34.6 
      1884.0         0.23         30.6 
      1885.0         0.17         27.4 
      1886.0         0.20         27.4 
      1887.0         0.30         26.1 
      1888.0         0.23         25.3 
      1889.0         0.28         25.9 
      1890.0         0.23         26.6 
      1891.0         0.23         26.2 
      1892.0         0.23         26.8 
      1893.0         0.23         26.1 
      1894.0         0.27         25.3 
      1895.0         0.27         24.4 
      1896.0         0.27         24.1 
      1897.0         0.30         23.1 
      1898.0         0.27         23.0 
      1899.0         0.27         22.2 
      1900.0         0.27         21.4 
      1901.0         0.27         21.8 
      1902.0         0.28         21.1 
      1903.0         0.27         22.0 
      1904.0         0.27         21.3 
      1905.0         0.27         36.1 
      1906.0         0.27         36.1 
      1907.0         0.27         37.4 
      1908.0         0.30         36.1 
      1909.0         0.27         37.4 
      1910.0         0.27         37.3 
      1911.0         0.27         36.0 
      1912.0         0.30         33.4 
      1913.0         0.23         29.6 
      1914.0         0.25         29.1 
      1915.0         0.20         26.5 
      1916.0         0.27         27.0 
      1917.0         0.33         26.5 
      1918.0         0.30         26.5 
      1919.0         0.30         24.7 
      1920.0         0.27         23.7 
      1921.0         0.33         23.1 
      1922.0         0.37         23.0 
      1923.0         0.33         23.8 
      1924.0         0.33         23.4 
      1925.0         0.30         22.5 
      1926.0         0.27         21.1 
      1927.0         0.28         22.0 
      1928.0         0.30         22.4 
      1929.0         0.30         21.3 
      1930.0         0.30         20.6 
      1931.0         0.27         20.8 
      1932.0         0.27         21.0 
      1933.0         0.30         21.6 
      1934.0         0.27         20.2 
      1935.0         0.27         33.3 
      1936.0         0.40         33.3 
      1937.0         0.30         36.8 
      1938.0         0.25         40.6 
      1939.0         0.27         43.7 
      1940.0         0.27         44.8 
      1941.0         0.23         45.2 
      1942.0         0.27         40.2 
      1943.0         0.23         35.6 
      1944.0         0.27         34.3 
      1945.0         0.27         30.2 
      1946.0         0.27         28.4 
      1947.0         0.33         25.2 
      1948.0         0.33         26.4 
      1949.0         0.33         27.7 
      1950.0         0.23         27.6 
      1951.0         0.38         29.7 
