~Version Information
VERS.                      2.0: CWLS Log ASCII Standard - VERSION 2.0
WRAP.                       NO: One line per depth step
~Well Information Block
STRT.FT                12.0000: 
STOP.FT              1671.7500: 
STEP.FT                 0.2500: 
NULL.                -999.2500: 
COMP.          Pioneer Natural Resources: COMPANY
WELL.          Scott Canyon 11-18 Tr: WELL
FLD.           Purgatoire River: FIELD
LOC.           411' FNL & 580' FWL: LOCATION
PROV.                 Colorado: PROVINCE
CNTY.               Las Animas: COUNTRY
SRVC.                Patterson: SERVICE COMPANY
DATE.          Tue Feb 22 09:52:18 2005: LOG DATE
UWI.           05 071 08286 00: UNIQUE WELL ID
~Curve Information Block
DEPT.FT            0 000 00 00: Depth
GR.GAPI                       : Gamma Ray
CCL.                          : Casing Collar Locator
TT3.usec                      : CBL 3' Travel Time
AMP3.mV                       : CBL 3' Amplitude
~Parameter Information Block
~A  Depth        GR         CCL         TT3         AMP3    
# ...
   682.0000     89.0215      0.0000   1458.0000     17.8390
   682.2500     96.0474      0.0000   1458.0000     17.9299
   682.5000    100.3720      0.0000   1458.0000     17.9326
   682.7500    100.1794      0.0000   1458.0000     17.8159
   683.0000     95.4476      0.0000   1458.0000     17.5568
   683.2500     88.0036      0.0000   1458.0000     17.1571
   683.5000     80.2837      0.0000   1458.0000     16.6594
   683.7500     74.1765      0.0000   1458.0000     16.1525
   684.0000     70.5743      0.0000   1458.0000     15.7614
   684.2500     69.3890      0.0000   1458.0000     15.6187
   684.5000     70.0628      0.0000   1458.0000     15.8154
   684.7500     72.4025      0.0000   1458.0000     16.3534
   685.0000     76.7594      0.0000   1458.0000     17.1375
   685.2500     83.3262      0.0000   1458.0000     18.0257
   685.5000     91.7437      0.0000   1458.0000     18.9205
   685.7500    101.4390      0.0000   1458.0000     19.8308
   686.0000    111.6930      0.0000   1458.0000     20.8423
   686.2500    121.3210      0.0000   1458.0000     22.0012
   686.5000    128.9575      0.0000   1458.0000     23.2120
   686.7500    133.8321      0.0000   1458.0000     24.2475
   687.0000    135.8909      0.0000   1458.0000     24.8747
   687.2500    135.3105      0.0000   1458.0000     24.9905
   687.5000    132.3943      0.0000   1458.0000     24.6502
   687.7500    127.8654      0.0000   1458.0000     23.9826
   688.0000    122.8766      0.0000   1458.0000     23.0959
   688.2500    118.6951      0.0000   1458.0000     22.0609
   688.5000    116.3719      0.0000   1458.0000     20.9496
   688.7500    116.5977      0.0000   1458.0000     19.8515
   689.0000    119.8002      0.0000   1458.0000     18.8478
   689.2500    126.0929      0.0000   1458.0000     17.9821
   689.5000    134.7209      0.0000   1458.0000     17.2592
   689.7500    143.6670      0.0000   1458.0000     16.6671
   690.0000    150.3131      0.0000   1457.9799     16.2002
   690.2500    152.8631      0.0000   1457.8685     15.8559
   690.5000    151.3660      0.0000   1457.3121     15.6050
   690.7500    147.6423      0.0000   1455.2075     15.3795
   691.0000    144.0367      0.0000   1449.0475     15.1053
   691.2500    141.7571      0.0000   1435.0339     14.7505
   691.5000    140.1600      0.0000   1409.9792     14.3396
   691.7500    137.6523      0.0000   1373.9351     13.9289
   692.0000    133.3688      0.0000   1330.5457     13.5688
   692.2500    128.0616      0.0000   1284.8567     13.2782
   692.5000    123.4252      0.0000   1242.1830     13.0417
   692.7500    120.7482      0.0000   1208.8617     12.8277
   693.0000    120.4310      0.0000   1191.9738     12.6109
   693.2500    122.3872      0.0000   1197.4292     12.3842
   693.5000    126.1717      0.0000   1227.6174     12.1642
   693.7500    130.7858      0.0000   1278.4159     11.9896
   694.0000    134.9437      0.0000   1337.8210     11.9042
   694.2500    137.7370      0.0000   1390.6283     11.9296
   694.5000    139.1060      0.0000   1426.9753     12.0520
   694.7500    139.9131      0.0000   1446.4382     12.2314
   695.0000    141.3189      0.0000   1454.5502     12.4136
   695.2500    143.6203      0.0000   1457.1832     12.5466
   695.5000    145.8565      0.0000   1457.8489     12.6076
   695.7500    146.8600      0.0000   1457.9799     12.6158
   696.0000    146.2862      0.0000   1458.0000     12.6083
   696.2500    144.2875      0.0000   1458.0000     12.6112
   696.5000    140.7049      0.0000   1458.0000     12.6408
   696.7500    135.0707      0.0000   1458.0000     12.7184
   697.0000    127.2604      0.0000   1458.0000     12.8640
   697.2500    117.9982      0.0000   1457.9651     13.0782
   697.5000    108.9246      0.0000   1457.7372     13.3369
   697.7500    102.1265      0.0000   1456.5768     13.6009
   698.0000     99.0969      0.0000   1452.0173     13.8309
   698.2500     99.8049      0.0000   1438.0634     13.9958
   698.5000    102.9293      0.0000   1405.0939     14.0770
   698.7500    107.1396      0.0000   1345.6346     14.0721
   699.0000    111.9148      0.0000   1266.0393     13.9996
   699.2500    117.1820      0.0000   1193.0693     13.8988
   699.5000    122.7335      0.0000   1161.7651     13.8138
   699.7500    128.0891      0.0000   1189.3972     13.7694
   700.0000    132.3720      0.0000   1260.6180     13.7615
   700.2500    134.1990      0.0000   1339.8472     13.7730
   700.5000    132.3050      0.0000   1396.4329     13.7949
   700.7500    126.7670      0.0000   1416.5509     13.8285
   701.0000    119.5089      0.0000   1396.9480     13.8674
   701.2500    113.2894      0.0000   1338.0676     13.8863
   701.5000    109.9810      0.0000   1248.9626     13.8551
   701.7500    109.5887      0.0000   1155.2377     13.7674
   702.0000    110.6811      0.0000   1093.6310     13.6528
   702.2500    111.8705      0.0000   1092.0038     13.5609
   702.5000    113.0797      0.0000   1151.1919     13.5289
   702.7500    115.1918      0.0000   1244.5214     13.5618
   703.0000    118.3877      0.0000   1335.8314     13.6377
   703.2500    121.3519      0.0000   1401.0974     13.7314
   703.5000    122.4885      0.0000   1436.6409     13.8275
   703.7500    121.5666      0.0000   1451.5922     13.9112
   704.0000    119.7842      0.0000   1456.4777     13.9576
   704.2500    118.4286      0.0000   1457.7175     13.9426
   704.5000    117.8502      0.0000   1457.9620     13.8645
   704.7500    117.7016      0.0000   1458.0000     13.7454
   705.0000    117.7738      0.0000   1458.0000     13.6134
   705.2500    118.3714      0.0000   1458.0000     13.4868
   705.5000    119.8511      0.0000   1458.0000     13.3730
   705.7500    121.9962      0.0000   1457.9799     13.2747
   706.0000    124.2406      0.0000   1457.8688     13.1952
   706.2500    126.5506      0.0000   1457.3132     13.1440
   706.5000    129.5380      0.0000   1455.2118     13.1420
   706.7500    133.4630      0.0000   1449.0601     13.2162
   707.0000    137.5886      0.0000   1435.0610     13.3745
   707.2500    140.8258      0.0000   1410.0166     13.5856
   707.5000    142.7408      0.0000   1373.9410     13.7960
   707.7500    143.6394      0.0000   1330.3876     13.9736
   708.0000    143.6965      0.0000   1284.2050     14.1321
   708.2500    142.2265      0.0000   1240.0944     14.3110
   708.5000    138.0968      0.0000   1202.5697     14.5358
   708.7500    130.9267      0.0000   1174.6042     14.7954
   709.0000    121.7034      0.0000   1155.9335     15.0516
   709.2500    112.3734      0.0000   1144.3151     15.2649
   709.5000    105.1136      0.0000   1138.3533     15.4134
   709.7500    101.6492      0.0000   1138.1425     15.4909
   710.0000    102.4655      0.0000   1144.1249     15.4903
   710.2500    106.3948      0.0000   1157.4464     15.3958
   710.5000    111.4607      0.0000   1181.6333     15.1915
   710.7500    116.5310      0.0000   1221.2021     14.8671
   711.0000    121.7804      0.0000   1275.9564     14.4005
   711.2500    127.1867      0.0000   1336.8931     13.7323
   711.5000    131.2872      0.0000   1390.2915     12.8058
   711.7500    132.3525      0.0000   1426.8694     11.6858
   712.0000    130.4645      0.0000   1446.4097     10.6015
   712.2500    127.4940      0.0000   1454.5439      9.7834
   712.5000    125.1558      0.0000   1457.1821      9.2709
   712.7500    123.8170      0.0000   1457.8488      8.9495
   713.0000    123.1189      0.0000   1457.9800      8.7306
   713.2500    123.0437      0.0000   1458.0000      8.6076
   713.5000    124.0706      0.0000   1458.0000      8.5852
   713.7500    126.5530     -2.2266   1458.0000      8.6486
   714.0000    130.3110      0.0000   1458.0000      8.8024
   714.2500    134.8831      0.0000   1458.0000      9.1130
   714.5000    139.9212      0.0000   1458.0000      9.7070
   714.7500    145.0423      0.0000   1458.0000     10.6816
   715.0000    149.1663      0.0000   1458.0000     11.9519
   715.2500    150.2920      0.0000   1458.0000     13.2207
