~Version Information
VERS.                      2.0: CWLS Log ASCII Standard - VERSION 2.0
WRAP.                       NO: One line per depth step
~Well Information Block
STRT.FT                15.0000: 
STOP.FT              2556.5000: 
STEP.FT                 0.2500: 
NULL.                -999.2500: 
COMP.          Pioneer Natural Resources: COMPANY
WELL.              Quack 22-24: WELL
FLD.           Purgatoire River: FIELD
LOC.           2492' FNL & 2459' FWL: LOCATION
PROV.                 Colorado: PROVINCE
CNTY.               Las Animas: COUNTRY
SRVC.                Patterson: SERVICE COMPANY
DATE.          Tue Jul 26 07:02:30 2005: LOG DATE
UWI.           05 071 08402 00: UNIQUE WELL ID
~Curve Information Block
DEPT.FT            0 000 00 00: Depth
GR.GAPI                       : Gamma Ray
CCL.                          : Casing Collar Locator
TT3.usec                      : CBL 3' Travel Time
AMP3.mV                       : CBL 3' Amplitude
~Parameter Information Block
~A  Depth        GR         CCL         TT3         AMP3    
# ...
  2360.0000     80.3954      0.0000    669.1603      8.1169
  2360.2500     81.6657      0.0000    662.4357      8.0487
  2360.5000     83.3205      0.0000    654.1910      7.8983
  2360.7500     84.7440      0.0000    647.6146      7.6913
  2361.0000     85.5560      0.0000    643.7872      7.4498
  2361.2500     85.7310      0.0000    641.7810      7.1957
  2361.5000     85.2118      0.0000    640.0002      6.9408
  2361.7500     83.9959      0.0000    637.7394      6.6761
  2362.0000     82.4057      0.0000    635.4241      6.3778
  2362.2500     80.7236      0.0000    633.5975      6.0294
  2362.5000     78.6440      0.0000    632.1069      5.6446
  2362.7500     75.5704      0.0000    630.1649      5.2698
  2363.0000     71.5965      0.0000    626.8953      4.9523
  2363.2500     67.9194      0.0000    621.4224      4.7022
  2363.5000     65.9780      0.0000    612.0958      4.4997
  2363.7500     66.0640      0.0000    595.9631      4.3515
  2364.0000     66.8619      0.0000    570.3472      4.3231
  2364.2500     66.5411      0.0000    536.2573      4.4940
  2364.5000     64.4712      0.0000    501.0832      4.8743
  2364.7500     61.8537      0.6248    478.0924      5.3645
  2365.0000     60.6025      0.0000    480.7066      5.8008
  2365.2500     61.6652     -0.8684    512.8751      6.0619
  2365.5000     64.4557      0.0000    563.8618      6.1640
  2365.7500     67.6270      0.0000    614.6567      6.2473
  2366.0000     70.1459      0.0000    650.7455      6.4422
  2366.2500     71.8493      0.0000    668.8750      6.7608
  2366.5000     73.4255      0.0000    673.8386      7.1569
  2366.7500     75.9566      0.0000    671.9935      7.6632
  2367.0000     80.1209      0.0000    667.7836      8.4036
  2367.2500     85.5201      0.0000    663.3959      9.4714
  2367.5000     90.8431      0.0000    659.8878     10.8490
  2367.7500     94.8913      0.0000    658.1896     12.4579
  2368.0000     97.4831      0.0000    658.3022     14.2476
  2368.2500     99.2742      0.0000    656.6846     16.2106
  2368.5000    100.7437      0.0000    645.5682     18.3159
  2368.7500    101.5726      0.0000    618.3973     20.4360
  2369.0000    100.9714      0.0000    578.6729     22.3492
  2369.2500     98.3712      0.0000    540.8776     23.8303
  2369.5000     93.9733      0.0000    517.4010     24.7636
  2369.7500     89.0192      0.0000    504.8210     25.1854
  2370.0000     85.4682      0.0000    488.3090     25.2358
  2370.2500     84.8944      0.0000    459.2505     25.0844
  2370.5000     87.3596      0.0000    423.0417     24.8880
  2370.7500     91.2252      0.0000    390.1607     24.7744
  2371.0000     94.0248      0.0000    365.8474     24.8209
  2371.2500     94.0216      0.0000    349.4822     25.0310
  2371.5000     91.6682      0.0000    338.9716     25.3359
  2371.7500     89.4989      0.0000    332.9234     25.6321
  2372.0000     90.0443      0.0000    330.5890     25.8337
  2372.2500     93.7589      0.0000    332.2826     25.9038
  2372.5000     98.9630      0.0000    340.8367     25.8439
  2372.7500    103.3744      0.0000    362.0709     25.6504
  2373.0000    105.4294      0.0000    401.6173     25.2828
  2373.2500    104.6921      0.0000    458.5520     24.6830
  2373.5000    101.7755      0.0000    522.0279     23.8338
  2373.7500     97.9909      0.0000    576.7142     22.7912
  2374.0000     94.7162      0.0000    612.9360     21.6513
  2374.2500     92.7940      0.0000    631.1570     20.4867
  2374.5000     92.3492      0.0000    637.8725     19.3075
  2374.7500     92.9713      0.0000    639.4221     18.0782
  2375.0000     94.0554      0.0000    639.3521     16.7732
  2375.2500     95.2431      0.0000    638.9984     15.4264
  2375.5000     96.6857      0.0000    638.7743     14.1275
  2375.7500     98.6536      0.0000    638.9673     12.9668
  2376.0000    100.7430      0.0000    640.1098     11.9810
  2376.2500    101.7814      0.0000    643.0009     11.1493
  2376.5000    100.9429      0.0000    648.3004     10.4248
  2376.7500     98.9961      0.0000    655.7639      9.7625
  2377.0000     97.9361      0.0000    663.9039      9.1267
  2377.2500     98.8361      0.0000    670.7415      8.4995
  2377.5000    100.2347      0.0000    675.0820      7.8915
  2377.7500     99.2879      0.0000    677.0396      7.3350
  2378.0000     94.5729      0.0000    677.4908      6.8603
  2378.2500     87.3622      0.0000    677.2799      6.4784
  2378.5000     80.2972      0.0000    676.8662      6.1844
  2378.7500     75.4326      0.0000    676.3827      5.9677
  2379.0000     73.6183      0.0000    675.7666      5.8152
  2379.2500     74.9666      0.0000    674.7607      5.7102
  2379.5000     79.0386      0.0000    672.7653      5.6349
  2379.7500     84.4789      0.0000    668.7791      5.5763
  2380.0000     89.1121      0.0000    661.8608      5.5283
  2380.2500     91.0621      0.0000    652.0980      5.4890
  2380.5000     90.0804      0.0000    641.1505      5.4553
  2380.7500     87.6473      0.0000    631.4363      5.4218
  2381.0000     85.5931      0.0000    624.5637      5.3794
  2381.2500     84.7202      0.0000    620.6035      5.3183
  2381.5000     84.8084      0.0000    618.6715      5.2327
  2381.7500     85.4495      0.0000    617.8391      5.1262
  2382.0000     86.3740      0.0000    617.5322      5.0115
  2382.2500     87.2429      0.0000    617.4812      4.9016
  2382.5000     87.7540      0.0000    617.5817      4.8025
  2382.7500     88.0652      0.0000    617.8158      4.7139
  2383.0000     88.8705      0.0000    618.2095      4.6363
  2383.2500     90.9310      0.0000    618.8253      4.5741
  2383.5000     94.3055      0.0000    619.7891      4.5312
  2383.7500     97.9039      0.0000    621.3519      4.5070
  2384.0000    100.1847      0.0000    623.8066      4.4983
  2384.2500    100.7299      0.0000    627.1016      4.5027
  2384.5000    100.8743      0.0000    630.5029      4.5198
  2384.7500    102.2215      0.0000    633.0876      4.5483
  2385.0000    104.5647      0.0000    634.9326      4.5811
  2385.2500    105.7360      0.0000    637.3329      4.6054
  2385.5000    103.7507      0.0000    641.2911      4.6090
  2385.7500     98.8976      0.0000    646.2587      4.5890
  2386.0000     93.5624      0.0000    651.0002      4.5539
  2386.2500     90.2050      0.0000    655.1000      4.5169
  2386.5000     89.5976      0.0000    658.7341      4.4881
  2386.7500     90.7064      0.0000    661.3285      4.4735
  2387.0000     91.9079      0.0000    661.3386      4.4771
  2387.2500     92.2078      0.0000    657.4689      4.4995
  2387.5000     91.5404      0.0000    649.9267      4.5352
  2387.7500     90.3778      0.0000    640.6154      4.5732
  2388.0000     89.1963      0.0000    632.0809      4.6012
  2388.2500     87.9979      0.0000    626.0304      4.6123
  2388.5000     86.0815      0.0000    622.7210      4.6093
  2388.7500     82.4768      0.0000    621.5694      4.6012
  2389.0000     77.0046      0.0000    622.1241      4.5962
  2389.2500     70.9282      0.0000    624.4510      4.5979
  2389.5000     66.1806      0.0000    628.7843      4.6076
  2389.7500     63.8352      0.0000    634.9548      4.6257
  2390.0000     63.5875      0.0000    642.2643      4.6485
  2390.2500     64.5493      0.0000    649.8401      4.6674
  2390.5000     65.9334      0.0000    656.8806      4.6749
  2390.7500     66.9484      0.0000    662.6169      4.6696
  2391.0000     66.7980      0.0000    666.4376      4.6529
  2391.2500     65.2752      0.0000    667.9724      4.6260
  2391.5000     63.0774      0.0000    666.4471      4.5911
  2391.7500     61.1792      0.0000    659.4826      4.5559
  2392.0000     59.9646      0.0000    643.0332      4.5331
  2392.2500     59.1811      0.0000    614.6695      4.5348
  2392.5000     58.6776      0.0000    579.1024      4.5645
  2392.7500     58.7324      0.0000    549.2877      4.6138
  2393.0000     59.3634      0.0000    537.9502      4.6667
  2393.2500     59.7249      0.0000    546.1719      4.7081
