~Version Information
VERS.                      2.0: CWLS Log ASCII Standard - VERSION 2.0
WRAP.                       NO: One line per depth step
~Well Information Block
STRT.FT               -13.5000: 
STOP.FT              2092.5000: 
STEP.FT                 0.2500: 
NULL.                -999.2500: 
COMP.          Petrogulf Corporation: COMPANY
WELL.          Robinson 15-11V: WELL
FLD.           Purgatorie River: FIELD
LOC.           226' FNL & 592' FWL--: LOCATION
CNTY.               Las Animas: COUNTY
SRVC.                         : SERVICE COMPANY
DATE.          Tue Aug 17 13:05:46 2004: LOG DATE
UWI.                          : UNIQUE WELL ID
STAT.                       CO: STATE
~Curve Information Block
DEPT.FT            0 000 00 00: Depth
CCL.                          : Casing Collar Locator
TT3.usec                      : CBL 3' Travel Time
AMP3.mV                       : CBL 3' Amplitude
GR.GAPI                       : Gamma Ray
~Parameter Information Block
~A  Depth       CCL         TT3         AMP3         GR     
# ...
  1661.5000      0.0000    606.8280      6.1272     94.2555
  1661.7500      0.0000    601.5558      6.3580     98.8529
  1662.0000      0.0000    589.1487      6.4051    100.1649
  1662.2500      0.0000    570.4970      6.2463     99.6220
  1662.5000      0.0000    550.5194      5.9442     99.2334
  1662.7500      0.0000    536.8477      5.6117    100.0185
  1663.0000      0.0000    536.5651      5.3662    101.5634
  1663.2500      0.0000    552.4292      5.2882    102.5073
  1663.5000      0.0000    579.8630      5.3879    101.6045
  1663.7500      0.0000    607.1149      5.6203     98.8466
  1664.0000      0.0000    621.0024      5.9429     95.5412
  1664.2500      0.0000    615.5555      6.3298     93.1239
  1664.5000      0.0000    596.2241      6.7267     91.9198
  1664.7500      0.0000    576.1860      7.0522     90.9589
  1665.0000      0.0000    568.6467      7.2708     88.9101
  1665.2500      0.0000    580.5604      7.4264     85.4629
  1665.5000      0.0000    609.8658      7.5737     82.0445
  1665.7500      0.0000    646.7943      7.6960     81.0064
  1666.0000      0.0000    679.3957      7.6997     83.7370
  1666.2500      0.0000    700.2468      7.4777     89.2275
  1666.5000      0.0000    708.7673      6.9793     94.3967
  1666.7500      0.0000    707.9691      6.2351     96.2380
  1667.0000      0.0000    700.5718      5.3277     94.1363
  1667.2500      0.0000    689.1103      4.3583     90.0045
  1667.5000      0.0000    678.4178      3.4506     85.9813
  1667.7500      0.0000    675.2476      2.7513     82.3664
  1668.0000      0.0000    683.6472      2.3731     78.0977
  1668.2500      0.0000    700.8309      2.3199     72.7350
  1668.5000      0.0000    718.7099      2.4719     67.3784
  1668.7500      0.0000    730.3748      2.6514     63.9478
  1669.0000      0.0000    735.2309      2.7189     64.1458
  1669.2500      0.0000    737.8647      2.6371     68.9252
  1669.5000      0.0000    742.4795      2.4836     78.1222
  1669.7500      0.0000    749.0242      2.4197     90.1033
  1670.0000      0.0000    754.5673      2.6177    102.1116
  1670.2500      0.0000    757.3076      3.1513    111.6008
  1670.5000      0.0000    758.0189      3.9169    117.4671
  1670.7500      0.0000    758.0931      4.6884    119.9916
  1671.0000      0.0000    757.8460      5.2865    119.9698
  1671.2500      0.0000    757.1504      5.6889    118.2230
  1671.5000      0.0000    756.3229      5.9715    115.5762
  1671.7500      0.0000    755.4360      6.1872    112.6793
  1672.0000      0.0000    753.4911      6.3370    109.8061
  1672.2500      0.0000    749.2625      6.4138    106.9969
  1672.5000      0.0000    742.8555      6.4203    104.3020
  1672.7500      0.0000    735.8635      6.3624    101.8603
  1673.0000      0.0000    729.9390      6.2486     99.8120
  1673.2500      0.0000    725.3474      6.0891     98.0667
  1673.5000      0.0000    720.6086      5.8994     96.2707
  1673.7500      0.0000    713.2358      5.7198     94.2813
  1674.0000      0.0000    701.6580      5.6074     92.5138
  1674.2500      0.0000    687.8643      5.5916     91.4992
  1674.5000      0.0000    678.1353      5.6549     91.2743
  1674.7500      0.0000    679.2219      5.7625     91.3657
  1675.0000      0.0000    692.5768      5.8907     91.2683
  1675.2500      0.0000    712.9485      6.0191     91.0680
  1675.5000      0.0000    732.8331      6.1136     91.5833
  1675.7500      0.0000    747.5089      6.1186     93.3179
  1676.0000      0.0000    756.2722      5.9612     95.1722
  1676.2500      0.0000    760.6940      5.5763     94.9690
  1676.5000      0.0000    762.5015      4.9529     91.6406
  1676.7500      0.0000    762.3192      4.1671     86.5510
  1677.0000      0.0000    759.4537      3.3718     82.5030
  1677.2500      0.0000    752.9111      2.7474     81.4387
  1677.5000      0.0000    743.3943      2.4414     82.6907
  1677.7500      0.0000    734.4050      2.5200     83.2213
  1678.0000      0.0000    730.2878      2.9426     80.0892
  1678.2500      0.0000    732.3009      3.5665     73.1901
  1678.5000      0.0000    736.9880      4.1910     65.5319
  1678.7500      0.0000    739.1801      4.6391     60.8141
  1679.0000      0.0000    736.7064      4.8381     60.9596
  1679.2500      0.0000    731.7897      4.8520     65.6173
  1679.5000      0.0000    728.2338      4.8408     72.9952
  1679.7500      0.0000    728.0395      4.9579     80.6039
  1680.0000      0.0000    730.4689      5.2476     85.8241
  1680.2500      0.0000    733.2223      5.6242     86.9718
  1680.5000      0.0000    733.8825      5.9503     84.4720
  1680.7500      0.0000    730.5016      6.1279     80.7296
  1681.0000      0.0000    720.9602      6.1211     78.1795
  1681.2500      0.0000    702.3567      5.9435     77.2119
  1681.5000      0.0000    672.7194      5.6715     76.2675
  1681.7500      0.0000    634.4851      5.4516     74.1002
  1682.0000      0.0000    594.9225      5.4354     71.6571
  1682.2500      0.0000    561.1653      5.6747     71.4340
  1682.5000      0.0000    535.4590      6.0786     75.0839
  1682.7500      0.0000    516.4974      6.4748     81.8557
  1683.0000      0.0000    503.9490      6.7159     89.2827
  1683.2500      0.0000    499.5723      6.7376     95.0143
  1683.5000      0.0000    504.2532      6.5529     97.8915
  1683.7500      0.0000    515.5538      6.2202     97.8467
  1684.0000      0.0000    528.5485      5.8189     95.5366
  1684.2500      0.0000    538.5007      5.4428     92.3092
  1684.5000      0.0000    543.1164      5.1976     90.0799
  1684.7500      0.0000    543.5643      5.1701     90.5118
  1685.0000      0.0000    543.8477      5.3654     93.8269
  1685.2500      0.0000    548.8421      5.6673     98.5136
  1685.5000      0.0000    562.0260      5.8819    102.4828
  1685.7500      0.0000    583.5135      5.8484    104.4122
  1686.0000      0.0000    608.9835      5.5329    103.9414
  1686.2500      0.0000    631.1580      5.0304    101.1310
  1686.5000      0.0000    644.3500      4.4776     96.1390
  1686.7500      0.0000    648.5613      3.9555     89.2897
  1687.0000      0.0000    649.0464      3.4792     81.5041
  1687.2500      0.0000    652.0567      3.0664     74.6497
  1687.5000      0.0000    660.5735      2.7740     70.9000
  1687.7500      0.0000    672.7626      2.6484     71.2359
  1688.0000      0.0000    684.0604      2.6640     74.6963
  1688.2500      0.0000    691.1153      2.7320     79.1354
  1688.5000      0.0000    693.7847      2.7645     82.3394
  1688.7500      0.0000    693.9121      2.7297     82.6153
  1689.0000      0.0000    693.2367      2.6527     79.4549
  1689.2500      0.0000    692.5634      2.5754     74.3858
  1689.5000      0.0000    692.0418      2.5213     70.4417
  1689.7500      0.0000    691.6047      2.4946     69.7606
  1690.0000      0.0000    691.2094      2.4903     71.8200
  1690.2500      0.0000    690.8346      2.4975     74.4843
  1690.5000      0.0000    690.3079      2.5042     76.4269
  1690.7500      0.0000    689.2063      2.5015     77.9136
  1691.0000      0.0000    687.1962      2.4825     79.3996
  1691.2500      0.0000    684.7527      2.4445     80.2900
  1691.5000      0.0000    683.3258      2.4046     79.6354
  1691.7500      0.0000    684.1711      2.4080     77.5623
  1692.0000      0.0000    686.8063      2.4958     75.2871
  1692.2500      0.0000    689.1550      2.6465     73.7728
  1692.5000      0.0000    689.6110      2.7664     72.9821
  1692.7500      0.0000    688.6502      2.7633     72.4644
  1693.0000      0.0000    687.9988      2.6314     72.1019
  1693.2500      0.0000    688.2693      2.4566     72.0270
  1693.5000      0.0000    687.8536      2.3410     72.1537
  1693.7500      0.0000    684.6411      2.3222     72.0538
  1694.0000      0.0000    678.9539      2.3621     71.2125
  1694.2500      2.0000    673.9769      2.4070     69.4352
  1694.5000      0.0000    672.5213      2.4488     67.2673
  1694.7500      0.0000    674.2490      2.5136     65.9640
