~Version Information
VERS.                      2.0: CWLS Log ASCII Standard - VERSION 2.0
WRAP.                       NO: One line per depth step
~Well Information Block
STRT.FT                -3.2500: 
STOP.FT              2202.2500: 
STEP.FT                 0.2500: 
NULL.                -999.2500: 
COMP.          Pioneer Natural Resources: COMPANY
WELL.           Parklane 43-34: WELL
FLD.           Purgatorie River: FIELD
LOC.           1704' FSL & 1119' FEL--: LOCATION
PROV.                       CO: PROVINCE
CNTY.               Las Animas: COUNTRY
SRVC.                         : SERVICE COMPANY
DATE.          Thu Oct 14 14:49:09 2004: LOG DATE
UWI.           005 071 08162  : UNIQUE WELL ID
~Curve Information Block
DEPT.FT            0 000 00 00: Depth
GR.GAPI                       : Gamma Ray
CCL.                          : Casing Collar Locator
TT3.usec                      : CBL 3' Travel Time
AMP3.mV                       : CBL 3' Amplitude
~Parameter Information Block
~A  Depth        GR         CCL         TT3         AMP3    
# ...
  1738.7500    116.8098      0.0000    766.8603      5.6143
  1739.0000    122.4497      0.0000    758.7606      6.5406
  1739.2500    126.2946      0.0000    756.2681      7.4787
  1739.5000    127.4071      0.0000    754.6379      8.3641
  1739.7500    126.1417      0.0000    750.7180      9.1798
  1740.0000    124.3932      0.0000    744.0438      9.9345
  1740.2500    124.1448      0.0000    736.4224     10.6100
  1740.5000    125.9467      0.0000    730.4525     11.1461
  1740.7500    128.8942      0.0000    727.5703     11.4780
  1741.0000    131.6831      0.0000    726.9422     11.5801
  1741.2500    133.3612      0.0000    726.4738     11.4848
  1741.5000    133.4995      0.0000    725.0826     11.2698
  1741.7500    132.3206      0.0000    723.2802     11.0166
  1742.0000    130.6201      0.0000    721.4812     10.7668
  1742.2500    129.0228      0.0000    719.2210     10.5152
  1742.5000    127.5686      0.0000    716.8292     10.2402
  1742.7500    126.6144      0.0000    716.1989      9.9315
  1743.0000    127.6460      0.0000    718.2520      9.5873
  1743.2500    132.0012      0.0000    720.6508      9.1999
  1743.5000    138.6050      0.0000    719.7949      8.7587
  1743.7500    143.9124      0.0000    714.9623      8.2715
  1744.0000    144.6507      0.0000    709.2211      7.7751
  1744.2500    140.3782      0.0000    705.8962      7.3160
  1744.5000    133.4289      0.0000    705.1010      6.9180
  1744.7500    126.9135      0.0000    704.6404      6.5704
  1745.0000    122.8527      0.0000    703.6048      6.2484
  1745.2500    121.5909      0.0000    703.5737      5.9452
  1745.5000    122.2940      0.0000    706.3698      5.6856
  1745.7500    123.7426      0.0000    711.8183      5.5021
  1746.0000    124.8904      0.0000    718.0568      5.3951
  1746.2500    125.2015      0.0000    723.4756      5.3242
  1746.5000    124.7155      0.0000    727.9262      5.2451
  1746.7500    123.6079      0.0000    732.0718      5.1476
  1747.0000    121.7249      0.0000    736.1059      5.0481
  1747.2500    118.9747      0.0000    739.5639      4.9564
  1747.5000    116.1600      0.0000    742.0486      4.8659
  1747.7500    114.7814      0.0000    743.6097      4.7810
  1748.0000    115.5874      0.0000    744.4874      4.7506
  1748.2500    117.6002      0.0000    744.8155      4.8631
  1748.5000    118.9627      0.0000    744.5616      5.1926
  1748.7500    118.7021      0.0000    743.6360      5.7424
  1749.0000    117.5129      0.0000    741.9955      6.4514
  1749.2500    116.8608      0.0000    739.4083      7.2585
  1749.5000    117.4968      0.0000    734.4479      8.1330
  1749.7500    118.8407      0.0000    724.2086      9.0225
  1750.0000    119.5468      0.0000    707.3223      9.8160
  1750.2500    118.4241      0.0000    688.3617     10.4111
  1750.5000    115.0465      0.0000    676.4783     10.8096
  1750.7500    109.9717      0.0000    676.8746     11.1155
  1751.0000    104.4316      0.0000    685.2223     11.4517
  1751.2500     99.5756      2.0000    692.5829     11.8889
  1751.5000     96.0768      0.0000    693.9889     12.4226
  1751.7500     94.5587      0.0000    690.3903     13.0071
  1752.0000     95.8428      0.0000    684.3652     13.6197
  1752.2500    100.2160      0.0000    676.6920     14.2691
  1752.5000    106.7119      0.0000    667.0906     14.9210
  1752.7500    113.4603      0.0000    657.2636     15.4790
  1753.0000    118.6138      0.0000    652.6596     15.8928
  1753.2500    120.9584      0.0000    659.5262     16.1971
  1753.5000    120.1395      0.0000    678.5150     16.3800
  1753.7500    116.5797      0.0000    702.6213     16.3073
  1754.0000    111.1674      0.0000    722.9269     15.8451
  1754.2500    104.9620      0.0000    735.2130     14.9938
  1754.5000     98.9842      0.0000    740.6107     13.8779
  1754.7500     93.9409      0.0000    742.1626     12.6611
  1755.0000     90.0601      0.0000    742.2361     11.4879
  1755.2500     87.2169      0.0000    742.0872     10.4534
  1755.5000     85.2396      0.0000    742.3475      9.5865
  1755.7500     84.3297      0.0000    743.5319      8.8633
  1756.0000     85.2887      0.0000    746.2434      8.2479
  1756.2500     89.0013      0.0000    750.8033      7.7329
  1756.5000     95.4080      0.0000    756.5800      7.3483
  1756.7500    103.0325      0.0000    761.8667      7.1299
  1757.0000    109.6248      0.0000    764.8654      7.0698
  1757.2500    113.4178      0.0000    764.9446      7.0996
  1757.5000    114.3240      0.0000    763.0087      7.1374
  1757.7500    114.2201      0.0000    760.9318      7.1697
  1758.0000    115.3672      0.0000    760.4563      7.2787
  1758.2500    117.8573      0.0000    761.8241      7.5671
  1758.5000    119.3504      0.0000    763.2919      8.0486
  1758.7500    117.9999      0.0000    762.8041      8.6178
  1759.0000    114.6798      0.0000    760.5881      9.1186
  1759.2500    111.6424      0.0000    759.7231      9.4243
  1759.5000    110.2075      0.0000    763.6703      9.4689
  1759.7500    110.5204      0.0000    772.9326      9.2430
  1760.0000    112.3812      0.0000    783.9008      8.7808
  1760.2500    115.3552      0.0000    791.6876      8.1424
  1760.5000    118.6130      0.0000    794.8580      7.3948
  1760.7500    121.1711      0.0000    796.7253      6.6087
  1761.0000    122.2459      0.0000    800.9590      5.8657
  1761.2500    121.5632      0.0000    806.6406      5.2560
  1761.5000    119.6348      0.0000    808.5980      4.8623
  1761.7500    117.6167      0.0000    802.0964      4.7392
  1762.0000    116.6916      0.0000    786.9556      4.8859
  1762.2500    117.5035      0.0000    768.0428      5.2265
  1762.5000    119.8864      0.0000    752.0118      5.6331
  1762.7500    122.6273      0.0000    742.6949      5.9898
  1763.0000    123.6987      0.0000    739.1240      6.2495
  1763.2500    121.5758      0.0000    737.8231      6.4456
  1763.5000    116.7228      0.0000    736.3765      6.6688
  1763.7500    111.4588      0.0000    734.5569      7.0266
  1764.0000    108.2679      0.0000    732.9879      7.6011
  1764.2500    108.4096      0.0000    731.9215      8.4200
  1764.5000    111.8279      0.0000    731.1599      9.4468
  1764.7500    117.5657      0.0000    730.2756     10.5844
  1765.0000    123.8984      0.0000    728.6320     11.6948
  1765.2500    128.6536      0.0000    725.6729     12.6507
  1765.5000    130.2146      0.0000    721.3517     13.3965
  1765.7500    128.4023      0.0000    716.2513     13.9620
  1766.0000    124.1808      0.0000    711.2913     14.4089
  1766.2500    118.6638      0.0000    707.2189     14.7695
  1766.5000    112.9035      0.0000    704.4194     15.0336
  1766.7500    108.3938      0.0000    703.3864     15.1719
  1767.0000    106.7049      0.0000    705.1428     15.1536
  1767.2500    108.1170      0.0000    710.4813     14.9556
  1767.5000    111.1003      0.0000    718.4824     14.5844
  1767.7500    113.4978      0.0000    726.2924     14.1078
  1768.0000    114.0168      0.0000    730.7932     13.6461
  1768.2500    112.4878      0.0000    730.4681     13.3054
  1768.5000    109.2781      0.0000    725.8547     13.1082
  1768.7500    105.0939      0.0000    718.6091     12.9909
  1769.0000    101.0522      0.0000    710.3130     12.8663
  1769.2500     98.1967      0.0000    702.2663     12.6766
  1769.5000     96.7684      0.0000    696.2227     12.3973
  1769.7500     96.2924      0.0000    694.2369     12.0180
  1770.0000     96.3832      0.0000    696.9432     11.5337
  1770.2500     97.2382      0.0000    702.5873     10.9493
  1770.5000     99.3813      0.0000    708.6423     10.2861
  1770.7500    102.9095      0.0000    714.1244      9.5847
  1771.0000    106.7392      0.0000    719.6920      8.8987
  1771.2500    108.7068      0.0000    725.7726      8.2761
  1771.5000    106.9276      0.0000    731.5079      7.7487
  1771.7500    101.1922      0.0000    735.6726      7.3332
  1772.0000     92.8862      0.0000    737.9252      7.0365
