~Version Information
VERS.                      2.0: CWLS Log ASCII Standard - VERSION 2.0
WRAP.                       NO: One line per depth step
~Well Information Block
STRT.FT                -3.0000: 
STOP.FT              1679.2500: 
STEP.FT                 0.2500: 
NULL.                -999.2500: 
COMP.          Evergreen Operating Corp.: COMPANY
WELL.            Rimrock 14-29: WELL
FLD.           Purgatorie River: FIELD
LOC.           945' FSL & 604' FWL--: LOCATION
PROV.                       CO: PROVINCE
CNTY.               Las Animas: COUNTRY
SRVC.                         : SERVICE COMPANY
DATE.          Mon Oct 04 13:02:21 2004: LOG DATE
UWI.           05 071 08136 00: UNIQUE WELL ID
~Curve Information Block
DEPT.FT            0 000 00 00: Depth
GR.GAPI                       : Gamma Ray
CCL.                          : Casing Collar Locator
TT3.usec                      : CBL 3' Travel Time
AMP3.mV                       : CBL 3' Amplitude
~Parameter Information Block
~A  Depth        GR         CCL         TT3         AMP3    
# ...
   767.5000    147.7221      0.0000    807.6786     13.9746
   767.7500    157.9710      0.0000    792.2032     15.6121
   768.0000    163.8239      0.0000    786.8791     17.3912
   768.2500    166.6843      0.0000    787.3452     18.9956
   768.5000    167.4518      0.0000    789.1567     20.1180
   768.7500    166.5483      0.0000    789.6126     20.5946
   769.0000    164.5594      0.0000    787.6398     20.4496
   769.2500    162.1176      0.0000    783.0750     19.8408
   769.5000    159.2832      0.0000    776.6925     18.9667
   769.7500    155.8892      0.0000    770.1706     17.9954
   770.0000    152.5373      0.0000    765.0922     17.0424
   770.2500    150.3936      0.0000    762.0077     16.1783
   770.5000    149.7408      0.0000    760.5896     15.4325
   770.7500    149.4955      0.0000    760.4297     14.7868
   771.0000    148.5298      0.0000    761.5802     14.1803
   771.2500    146.9397      0.0000    764.5825     13.5427
   771.5000    145.6631      0.0000    770.0332     12.8428
   771.7500    145.2464      0.0000    777.8212     12.1124
   772.0000    145.1516      0.0000    786.6549     11.4181
   772.2500    143.9627      0.0000    794.5768     10.8085
   772.5000    140.2101      0.0000    800.1516     10.2872
   772.7500    133.3722      0.0000    803.1742      9.8268
   773.0000    124.4800      0.0000    804.3549      9.3958
   773.2500    115.8439      0.0000    804.5544      8.9792
   773.5000    109.8332      0.0000    804.3207      8.5872
   773.7500    107.4513      0.0000    803.9007      8.2448
   774.0000    107.8317      0.0000    803.4089      7.9675
   774.2500    109.1615      0.0000    802.8118      7.7508
   774.5000    110.2645      0.0000    801.7380      7.5850
   774.7500    111.3980      0.0000    799.4484      7.4675
   775.0000    113.5764      0.0000    795.3414      7.3931
   775.2500    117.4371      0.0000    789.7395      7.3426
   775.5000    122.9691      0.0000    783.9556      7.2897
   775.7500    129.7636      0.0000    779.1617      7.2131
   776.0000    136.8554      0.0000    775.3511      7.0947
   776.2500    142.6741      0.0000    771.8387      6.9176
   776.5000    145.9350      0.0000    768.4777      6.6770
   776.7500    146.7403      0.0000    765.8191      6.3892
   777.0000    146.5136      0.0000    764.2686      6.0829
   777.2500    146.7687      0.0000    763.5663      5.7844
   777.5000    148.0293      0.0000    762.9855      5.5143
   777.7500    149.6550      0.0000    761.8135      5.2910
   778.0000    150.3788      0.0000    759.8710      5.1329
   778.2500    149.3008      0.0000    757.8528      5.0565
   778.5000    146.8396      0.0000    756.9600      5.0752
   778.7500    144.5682      0.0000    757.8351      5.1917
   779.0000    143.8355      0.0000    759.9253      5.3922
   779.2500    144.7071      0.0000    762.0513      5.6517
   779.5000    146.2753      0.0000    763.4253      5.9461
   779.7500    147.6363      0.0000    763.9798      6.2620
   780.0000    148.5504      0.0000    763.9612      6.5925
   780.2500    149.3728      0.0000    763.2990      6.9251
   780.5000    150.2783      0.0000    760.9441      7.2331
   780.7500    150.3979      0.0000    754.1749      7.4901
   781.0000    148.0159      0.0000    738.5211      7.6970
   781.2500    142.1139      0.0000    709.5453      7.8885
   781.5000    133.7085      0.0000    666.6414      8.1063
   781.7500    125.3255      0.0000    616.8229      8.3676
   782.0000    119.1340      0.0000    574.7903      8.6568
   782.2500    115.6626      0.0000    556.3641      8.9371
   782.5000    113.9070      0.0000    566.9974      9.1650
   782.7500    112.2211      0.0000    595.2320      9.3071
   783.0000    109.3548      0.0000    621.1031      9.3562
   783.2500    105.1221      0.0000    633.5237      9.3354
   783.5000    100.3361      0.0000    637.7014      9.2909
   783.7500     96.3058      0.0000    645.7141      9.2812
   784.0000     94.4575      0.0000    663.8894      9.3604
   784.2500     96.1442      0.0000    689.8462      9.5492
   784.5000    102.3343      0.0000    716.9506      9.8142
   784.7500    113.0828      0.0000    738.9839     10.0858
   785.0000    127.1807      0.0000    752.5807     10.3040
   785.2500    142.3612      0.0000    757.4001     10.4465
   785.5000    155.9118      0.0000    754.3923     10.5141
   785.7500    165.3870      0.0000    744.0565     10.4974
   786.0000    169.3748      0.0000    726.5805     10.3679
   786.2500    168.1334      0.0000    703.9980     10.1039
   786.5000    163.4622      0.0000    681.6702      9.7304
   786.7500    157.6301      0.0000    665.5483      9.3311
   787.0000    152.2232      0.0000    656.4490      9.0106
   787.2500    147.8184      0.0000    648.9240      8.8281
   787.5000    144.4681      0.0000    638.4008      8.7639
   787.7500    142.4502      0.0000    628.2017      8.7561
   788.0000    142.6266      0.0000    627.1199      8.7675
   788.2500    145.7265      0.0000    640.7308      8.8155
   788.5000    150.8549      0.0000    666.0561      8.9655
   788.7500    155.0877      0.0000    693.3898      9.3123
   789.0000    155.3917      0.0000    713.0361      9.9320
   789.2500    151.1840      0.0000    722.3400     10.7976
   789.5000    144.7422      0.0000    726.4016     11.7606
   789.7500    139.3279      0.0000    730.4227     12.6838
   790.0000    137.3138      0.0000    731.5126     13.5913
   790.2500    139.4457      0.0000    718.5924     14.6570
   790.5000    144.7366      0.0000    679.8364     16.0770
   790.7500    150.9808      0.0000    611.9169     17.9861
   791.0000    156.0873      0.0000    525.2070     20.4507
   791.2500    159.1593      0.0000    439.7522     23.4776
   791.5000    160.2397      0.0000    373.3474     27.0117
   791.7500    159.4115      0.0000    331.8168     30.9433
   792.0000    156.5849      0.0000    309.5457     35.1262
   792.2500    152.1684      0.0000    297.0847     39.3753
   792.5000    147.5394      0.0000    287.7060     43.4533
   792.7500    144.2405      0.0000    279.1768     47.0961
   793.0000    142.2603      0.0000    272.0328     50.0954
   793.2500    139.1563      0.0000    267.1465     52.3759
   793.5000    131.3776      0.0000    264.4892     54.0010
   793.7500    117.1918      0.0000    263.3355     55.1131
   794.0000     98.7644      0.0000    262.9266     55.8564
   794.2500     81.0699      0.0000    262.8062     56.3051
   794.5000     68.4126      0.0000    262.7909     56.4223
   794.7500     61.9417      0.0000    262.8385     56.0826
   795.0000     60.1431      0.0000    262.9608     55.1709
   795.2500     60.8069      0.0000    263.1774     53.7146
   795.5000     62.1236      0.0000    263.4851     51.9546
   795.7500     62.6879      0.0000    263.8379     50.2722
   796.0000     61.6136      0.0000    264.1582     49.0077
   796.2500     59.0468      0.0000    264.3701     48.3256
   796.5000     56.1682      0.0000    264.4290     48.2299
   796.7500     54.2393      0.0000    264.3344     48.6523
   797.0000     53.5241      0.0000    264.1246     49.4784
   797.2500     53.2008      0.0000    263.8623     50.5036
   797.5000     52.2721      0.0000    263.6117     51.4203
   797.7500     50.4397      0.0000    263.4220     51.9007
   798.0000     48.1986      0.0000    263.3275     51.7355
   798.2500     46.3063      0.0000    263.3828     50.9279
   798.5000     45.2364      0.0000    263.7484     49.6679
   798.7500     45.0812      0.0000    264.8275     48.1827
   799.0000     45.8158      0.0000    267.3603     46.5625
   799.2500     47.4107      0.0000    272.2226     44.7042
   799.5000     49.6980      0.0000    280.3381     42.4270
   799.7500     52.5147      0.0000    293.7242     39.6552
   800.0000     56.2639      0.0000    318.1597     36.4953
   800.2500     62.0446      0.0000    364.4509     33.1540
   800.5000     70.7278      0.0000    442.8464     29.8055
   800.7500     81.8692      0.0000    551.6181     26.5501
