~Version Information
VERS.                      2.0: CWLS Log ASCII Standard - VERSION 2.0
WRAP.                       NO: One line per depth step
~Well Information Block
STRT.FT               360.0000: 
STOP.FT              1622.7500: 
STEP.FT                 0.2500: 
NULL.                -999.2500: 
COMP.          Pioneer Natural Resources: COMPANY
WELL.                Eric 42-9: WELL
FLD.           Purgatoire River: FIELD
LOC.           2050' FNL & 850' FEL: LOCATION
PROV.                 Colorado: PROVINCE
CNTY.               Las Animas: COUNTRY
SRVC.                Patterson: SERVICE COMPANY
DATE.          Sun Oct 31 17:26:46 2004: LOG DATE
UWI.           05 071 07999 00: UNIQUE WELL ID
~Curve Information Block
DEPT.FT            0 000 00 00: Depth
SN.Ohm-m                      : IEL Short Normal
SP.mV                         : IEL Spontaneous Potential
DIR.Ohm-m                     : IEL Induction Resistivity
GR.GAPI                       : Gamma Ray
~Parameter Information Block
~A  Depth        SN          SP         DIR          GR     
# ...
  1030.0000     16.0201     54.8516     12.9969    154.4843
  1030.2500     16.0061     54.8576     12.6791    155.3917
  1030.5000     16.0737     54.8199     12.4590    153.7051
  1030.7500     16.2400     54.7294     12.3749    151.4367
  1031.0000     16.5252     54.5806     12.4555    147.9364
  1031.2500     16.9612     54.3735     12.7132    145.4127
  1031.5000     17.5754     54.1170     13.1433    139.5503
  1031.7500     18.3608     53.8303     13.7267    133.3134
  1032.0000     19.2696     53.5412     14.4334    120.4948
  1032.2500     20.2421     53.2820     15.2256    110.7315
  1032.5000     21.2456     53.0822     16.0585     97.0336
  1032.7500     22.2856     52.9608     16.8845     89.9384
  1033.0000     23.3855     52.9199     17.6585     83.6453
  1033.2500     24.5608     52.9433     18.3427     82.5629
  1033.5000     25.8027     53.0003     18.9096     85.4498
  1033.7500     27.0627     53.0537     19.3457     89.9632
  1034.0000     28.2394     53.0696     19.6568     99.0816
  1034.2500     29.1912     53.0248     19.8639    105.3429
  1034.5000     29.7868     52.9102     19.9856    112.2154
  1034.7500     29.9694     52.7302     20.0236    113.7031
  1035.0000     29.7830     52.4984     19.9678    110.3549
  1035.2500     29.3437     52.2342     19.8166    105.1455
  1035.5000     28.7914     51.9580     19.5873     96.0345
  1035.7500     28.2513     51.6878     19.3067     91.2433
  1036.0000     27.8009     51.4378     18.9972     88.4924
  1036.2500     27.4397     51.2187     18.6763     90.0229
  1036.5000     27.0876     51.0408     18.3600     96.7093
  1036.7500     26.6186     50.9172     18.0564    103.4050
  1037.0000     25.9004     50.8635     17.7503    115.6346
  1037.2500     24.8164     50.8948     17.3945    124.3266
  1037.5000     23.2868     51.0196     16.9224    135.2419
  1037.7500     21.3089     51.2359     16.2805    138.8038
  1038.0000     18.9987     51.5304     15.4630    136.0844
  1038.2500     16.5866     51.8820     14.5208    129.5502
  1038.5000     14.3457     52.2661     13.5371    117.1124
  1038.7500     12.4942     52.6597     12.5898    110.2475
  1039.0000     11.1312     53.0427     11.7278    105.8404
  1039.2500     10.2350     53.3994     10.9687    107.2380
  1039.5000      9.7046     53.7178     10.3098    114.0211
  1039.7500      9.4098     53.9903      9.7389    120.1594
  1040.0000      9.2269     54.2138      9.2415    129.8650
  1040.2500      9.0574     54.3901      8.8032    135.9792
  1040.5000      8.8358     54.5253      8.4112    143.6904
  1040.7500      8.5339     54.6286      8.0556    147.3777
  1041.0000      8.1560     54.7102      7.7313    150.3011
  1041.2500      7.7273     54.7790      7.4388    150.6491
  1041.5000      7.2843     54.8412      7.1826    149.4160
  1041.7500      6.8676     54.9001      6.9673    147.7323
  1042.0000      6.5169     54.9564      6.7942    144.2926
  1042.2500      6.2613     55.0091      6.6602    141.7964
  1042.5000      6.1068     55.0564      6.5584    138.7536
  1042.7500      6.0295     55.0968      6.4803    137.6014
  1043.0000      5.9840     55.1300      6.4177    137.2677
  1043.2500      5.9273     55.1577      6.3644    137.8285
  1043.5000      5.8462     55.1828      6.3172    139.5013
  1043.7500      5.7619     55.2082      6.2758    140.9468
  1044.0000      5.7080     55.2355      6.2420    143.5355
  1044.2500      5.7017     55.2634      6.2182    145.8150
  1044.5000      5.7364     55.2876      6.2064    150.4740
  1044.7500      5.7903     55.3019      6.2081    154.0859
  1045.0000      5.8398     55.3003      6.2240    158.8140
  1045.2500      5.8695     55.2792      6.2536    160.7413
  1045.5000      5.8802     55.2385      6.2950    161.4538
  1045.7500      5.8878     55.1821      6.3439    160.7645
  1046.0000      5.9098     55.1167      6.3938    158.7863
  1046.2500      5.9486     55.0495      6.4375    157.2454
  1046.5000      5.9905     54.9857      6.4687    154.7187
  1046.7500      6.0223     54.9270      6.4846    152.5331
  1047.0000      6.0402     54.8721      6.4858    147.9797
  1047.2500      6.0427     54.8170      6.4761    144.5419
  1047.5000      6.0286     54.7563      6.4605    141.0065
  1047.7500      6.0075     54.6839      6.4447    141.0800
  1048.0000      5.9976     54.5935      6.4338    145.4355
  1048.2500      6.0055     54.4807      6.4321    150.1901
  1048.5000      6.0151     54.3445      6.4410    157.0359
  1048.7500      6.0025     54.1895      6.4596    159.6739
  1049.0000      5.9612     54.0264      6.4865    159.2194
  1049.2500      5.9101     53.8699      6.5224    156.3453
  1049.5000      5.8808     53.7351      6.5717    150.7625
  1049.7500      5.8980     53.6324      6.6398    148.0072
  1050.0000      5.9699     53.5644      6.7303    146.7467
  1050.2500      6.0903     53.5258      6.8445    147.1310
  1050.5000      6.2442     53.5071      6.9820    147.1741
  1050.7500      6.4113     53.5002      7.1416    146.1081
  1051.0000      6.5724     53.5032      7.3203    143.7684
  1051.2500      6.7193     53.5221      7.5110    142.8291
  1051.5000      6.8581     53.5663      7.7031    143.2444
  1051.7500      7.0026     53.6413      7.8857    144.2364
  1052.0000      7.1635     53.7409      8.0515    145.1137
  1052.2500      7.3441     53.8445      8.2001    144.6496
  1052.5000      7.5429     53.9222      8.3377    142.6308
  1052.7500      7.7580     53.9456      8.4743    141.0990
  1053.0000      7.9864     53.8985      8.6205    139.5294
  1053.2500      8.2264     53.7823      8.7861    139.0320
  1053.5000      8.4874     53.6124      8.9798    138.4640
  1053.7500      8.7962     53.4093      9.2098    137.7041
  1054.0000      9.1859     53.1906      9.4835    135.3797
  1054.2500      9.6731     52.9667      9.8071    133.0646
  1054.5000     10.2453     52.7427     10.1840    129.3006
  1054.7500     10.8709     52.5232     10.6137    127.1593
  1055.0000     11.5230     52.3153     11.0916    124.3941
  1055.2500     12.1958     52.1279     11.6094    122.1745
  1055.5000     12.9062     51.9694     12.1584    117.5090
  1055.7500     13.6801     51.8428     12.7327    113.8917
  1056.0000     14.5367     51.7446     13.3326    109.4017
  1056.2500     15.4773     51.6663     13.9651    107.9201
  1056.5000     16.4826     51.5977     14.6418    108.1576
  1056.7500     17.5159     51.5316     15.3704    109.1119
  1057.0000     18.5312     51.4659     16.1433    109.6396
  1057.2500     19.4831     51.4041     16.9299    108.7822
  1057.5000     20.3419     51.3536     17.6826    106.5806
  1057.7500     21.1115     51.3232     18.3583    105.5691
  1058.0000     21.8390     51.3212     18.9439    105.7660
  1058.2500     22.6000     51.3524     19.4635    106.8819
  1058.5000     23.4567     51.4167     19.9600    109.2501
  1058.7500     24.4186     51.5083     20.4661    110.9509
  1059.0000     25.4370     51.6149     20.9874    113.1840
  1059.2500     26.4365     51.7193     21.5059    113.9980
  1059.5000     27.3597     51.8019     21.9997    113.3470
  1059.7500     28.1967     51.8447     22.4636    111.5185
  1060.0000     28.9865     51.8352     22.9159    107.2985
  1060.2500     29.8002     51.7710     23.3905    104.0759
  1060.5000     30.7192     51.6619     23.9221     99.2785
  1060.7500     31.8096     51.5282     24.5340     96.2524
  1061.0000     33.0910     51.3957     25.2309     92.2807
  1061.2500     34.5197     51.2880     25.9945     90.2847
  1061.5000     36.0064     51.2189     26.7859     88.2916
  1061.7500     37.4510     51.1903     27.5557     87.1634
  1062.0000     38.7668     51.1941     28.2592     84.9045
  1062.2500     39.8935     51.2185     28.8671     83.1196
  1062.5000     40.8088     51.2555     29.3642     81.2941
  1062.7500     41.5250     51.3051     29.7383     81.3593
  1063.0000     42.0560     51.3756     29.9698     83.4250
  1063.2500     42.3801     51.4800     30.0327     85.4538
