~Version Information
VERS.                      2.0: CWLS Log ASCII Standard - VERSION 2.0
WRAP.                       NO: One line per depth step
~Well Information Block
STRT.FT               952.6000: 
STOP.FT              2511.5000: 
STEP.FT                 0.1000: 
NULL.                -999.2500: 
COMP.          Petrogulf Corporation: COMPANY
WELL.             Royal 8-33 V: WELL
FLD.           Purgatoire River: FIELD
LOC.           2365' FSL & 2336' FEL: LOCATION
PROV.                 Colorado: PROVINCE
CNTY.               Las Animas: COUNTRY
SRVC.                Patterson: SERVICE COMPANY
DATE.          Fri Dec 05 09:15:49 2003: LOG DATE
UWI.                          : UNIQUE WELL ID
~Curve Information Block
DEPT.FT            0 000 00 00: Depth
DCAL.in                       : CDL Caliper
RHOB.g/cc                     : CDL Bulk Density
RHOC.g/cc                     : CDL Density Correction
DPOR.pu                       : CDL Density Porosity
GR.GAPI                       : Gamma Ray
NPOR.pu                       : Neutron Porosity
~Parameter Information Block
~A  Depth       DCAL        RHOB        RHOC        DPOR         GR         NPOR    
# ...
  1883.8000      8.1095      2.6449      0.1516      0.3114    103.6359     11.4951
  1883.9000      8.1095      2.6188      0.1269      1.8893    100.7399     10.6880
  1884.0000      8.0971      2.5974      0.0605      3.1908    100.2180     10.3248
  1884.1000      8.0971      2.5857      0.1057      3.8952    118.1670     10.3374
  1884.2000      8.0971      2.5791      0.0661      4.2964    118.6032     10.4324
  1884.3000      8.1072      2.5851      0.0087      3.9307    121.6457     10.4834
  1884.4000      8.1072      2.6117      0.0951      2.3237    126.3241     10.5831
  1884.5000      8.1074      2.6407      0.0982      0.5666    130.6666     10.9615
  1884.6000      8.1074      2.6560      0.1212     -0.3645    137.3947     11.5058
  1884.7000      8.1074      2.6620      0.1434     -0.7261    145.2361     12.0399
  1884.8000      8.1103      2.6628      0.1522     -0.7735    146.6788     12.1840
  1884.9000      8.1103      2.6566      0.1611     -0.3974    142.2757     11.5667
  1885.0000      8.0607      2.6380      0.1985      0.7287    135.5589     10.7649
  1885.1000      8.0607      2.6100      0.1383      2.4234    129.0212     10.3116
  1885.2000      8.0607      2.5869      0.0762      3.8255    128.9066     10.0819
  1885.3000      8.0314      2.5695      0.1328      4.8816    130.2348     10.0078
  1885.4000      8.0314      2.5517      0.0597      5.9588    123.7578      9.8520
  1885.5000      8.1060      2.5415      0.0975      6.5747    116.8955      9.3148
  1885.6000      8.1060      2.5477      0.0839      6.2014    117.2891      8.6465
  1885.7000      8.1060      2.5676      0.1335      4.9917    114.4488      8.3328
  1885.8000      8.1039      2.5916      0.1167      3.5421    101.5452      8.2480
  1885.9000      8.1039      2.6113      0.1234      2.3475     87.2368      7.9824
  1886.0000      8.1021      2.6160      0.1915      2.0614     75.4252      7.6589
  1886.1000      8.1021      2.5996      0.1791      3.0521     63.5868      7.4063
  1886.2000      8.1021      2.5717      0.1615      4.7445     55.0144      7.1223
  1886.3000      8.0082      2.5416      0.1413      6.5709     54.4728      6.9788
  1886.4000      8.0082      2.5220      0.0961      7.7587     59.7259      7.2017
  1886.5000      7.9947      2.5254      0.0997      7.5510     64.9502      7.6576
  1886.6000      7.9947      2.5447      0.1232      6.3835     67.6712      8.0442
  1886.7000      7.9947      2.5663      0.1227      5.0731     69.7972      8.2137
  1886.8000      8.0226      2.5765      0.1860      4.4520     72.3579      8.4210
  1886.9000      8.0226      2.5630      0.1290      5.2714     73.4938      8.9718
  1887.0000      8.0810      2.5388      0.0918      6.7378     70.7498      9.4968
  1887.1000      8.0810      2.5301      0.0924      7.2690     65.0048      9.5079
  1887.2000      8.0810      2.5403      0.0992      6.6511     60.9157      9.2922
  1887.3000      8.0997      2.5454      0.1609      6.3411     60.6357      9.2483
  1887.4000      8.0997      2.5270      0.1341      7.4575     60.8616      9.2858
  1887.5000      8.1553      2.5014      0.0859      9.0064     58.4039      9.2097
  1887.6000      8.1553      2.4875      0.0752      9.8512     56.0022      9.1289
  1887.7000      8.1553      2.4771      0.0860     10.4802     55.4306      8.9835
  1887.8000      8.1454      2.4630      0.0464     11.3346     56.5089      8.3731
  1887.9000      8.1454      2.4599     -0.0098     11.5190     61.2690      7.6228
  1888.0000      8.1501      2.4750      0.0695     10.6039     65.1389      7.2873
  1888.1000      8.1501      2.4905      0.0686      9.6668     62.0050      7.0485
  1888.2000      8.1501      2.4984      0.0194      9.1895     55.5282      6.5314
  1888.3000      8.1222      2.5014      0.1002      9.0072     53.5343      6.0069
  1888.4000      8.1222      2.4916      0.1100      9.5998     56.5956      5.6948
  1888.5000      8.1193      2.4712      0.0720     10.8365     61.6829      5.4673
  1888.6000      8.1193      2.4642     -0.0336     11.2586     68.0164      5.2552
  1888.7000      8.1193      2.4813      0.1097     10.2249     71.8207      5.1825
  1888.8000      8.1155      2.5000      0.1180      9.0921     69.9397      5.4430
  1888.9000      8.1155      2.4984      0.1126      9.1857     66.9192      5.7841
  1889.0000      8.1176      2.4798      0.0683     10.3139     64.0343      5.7969
  1889.1000      8.1176      2.4700      0.0345     10.9117     58.8473      5.6357
  1889.2000      8.1176      2.4828      0.1068     10.1303     55.7775      5.5966
  1889.3000      8.1175      2.5012      0.0956      9.0199     56.9031      5.8357
  1889.4000      8.1175      2.5081      0.1132      8.6029     56.4826      6.1713
  1889.5000      8.1125      2.4993      0.1203      9.1325     52.3518      6.3044
  1889.6000      8.1125      2.4789      0.0390     10.3726     48.7731      6.3950
  1889.7000      8.1125      2.4564      0.0823     11.7334     49.8142      6.9530
  1889.8000      8.1017      2.4445      0.0167     12.4541     53.4733      8.0551
  1889.9000      8.1017      2.4549      0.0802     11.8243     55.0926      9.1802
  1890.0000      8.1065      2.4765      0.1354     10.5181     52.9606     10.0429
  1890.1000      8.1065      2.4837      0.1329     10.0766     49.5773     10.7821
  1890.2000      8.1065      2.4637      0.0878     11.2929     48.9136     11.4076
  1890.3000      8.1398      2.4274      0.0633     13.4882     52.0221     11.9739
  1890.4000      8.1398      2.4110     -0.0245     14.4818     56.7455     12.6006
  1890.5000      8.0986      2.4408      0.0609     12.6790     59.3768     13.2224
  1890.6000      8.0986      2.4886      0.1401      9.7794     62.4160     13.7723
  1890.7000      8.0986      2.5096      0.0933      8.5107     69.6408     13.9622
  1890.8000      8.0865      2.5084      0.0932      8.5820     77.3219     13.5092
  1890.9000      8.0865      2.5165      0.0899      8.0926     84.1460     12.5767
  1891.0000      8.0994      2.5312      0.1402      7.2007     91.9367     11.5071
  1891.1000      8.0994      2.5331      0.0959      7.0836     95.9104     10.5787
  1891.2000      8.0994      2.5367      0.0455      6.8663     93.6963      9.9407
  1891.3000      8.0984      2.5558      0.1363      5.7071     92.1105      9.5386
  1891.4000      8.0984      2.5674      0.1575      5.0043     90.7049      9.1644
  1891.5000      8.0821      2.5593      0.1007      5.4966     82.0363      8.6007
  1891.6000      8.0821      2.5438      0.1555      6.4337     69.8404      7.8560
  1891.7000      8.0821      2.5263      0.1513      7.4973     65.6068      7.1394
  1891.8000      8.1141      2.5110      0.1152      8.4229     69.8609      6.5372
  1891.9000      8.1141      2.5080      0.0666      8.6066     72.3940      6.1280
  1892.0000      8.1253      2.5207      0.1064      7.8336     68.6552      6.3849
  1892.1000      8.1253      2.5391      0.1396      6.7192     63.5887      7.4307
  1892.2000      8.1253      2.5519      0.1489      5.9465     61.8624      8.3698
  1892.3000      8.1290      2.5473      0.1811      6.2236     62.6800      8.5376
  1892.4000      8.1290      2.5208      0.1134      7.8324     64.4820      8.4197
  1892.5000      8.1215      2.4922      0.0908      9.5645     66.9205      8.5238
  1892.6000      8.1215      2.4810      0.0862     10.2410     68.4276      8.7688
  1892.7000      8.1215      2.4871      0.0767      9.8702     67.7451      9.0462
  1892.8000      8.1037      2.5067      0.1056      8.6819     66.3455      9.5808
  1892.9000      8.1037      2.5244      0.1706      7.6144     67.5113     10.0895
  1893.0000      8.1231      2.5165      0.1333      8.0921     71.4742      9.8517
  1893.1000      8.1231      2.4954      0.0565      9.3676     75.3283      9.0326
  1893.2000      8.1231      2.4949      0.0933      9.4004     78.7868      8.2641
  1893.3000      8.1179      2.5192      0.1282      7.9246     81.6007      7.7590
