~Version Information
VERS.                      2.0: CWLS Log ASCII Standard - VERSION 2.0
WRAP.                       NO: One line per depth step
~Well Information Block
STRT.FT               840.0000: 
STOP.FT              2020.0000: 
STEP.FT                 0.1000: 
NULL.                -999.2500: 
COMP.          Petrogulf Corporation: COMPANY
WELL.           Lavedure 7-44R: WELL
FLD.           Purgatorie River: FIELD
LOC.           946' FSL & 521' FEL: LOCATION
PROV.                 Colorado: PROVINCE
CNTY.               Las Animas: COUNTRY
SRVC.                Patterson: SERVICE COMPANY
DATE.          Mon Sep 26 08:30:48 2005: LOG DATE
UWI.                          : UNIQUE WELL ID
~Curve Information Block
DEPT.FT            0 000 00 00: Depth
DCAL.in                       : CDL Caliper
RHOB.g/cc                     : CDL Bulk Density
RHOC.g/cc                     : CDL Density Correction
DPOR.pu                       : CDL Density Porosity
GR.GAPI                       : Gamma Ray
NPOR.pu                       : Neutron Porosity
~Parameter Information Block
~A  Depth       DCAL        RHOB        RHOC        DPOR         GR         NPOR    
# ...
   993.6000      8.1296      2.4352     -0.0411     13.0152    168.5829     28.5875
   993.7000      8.1296      2.3976     -0.0472     15.2976    178.9830     29.0649
   993.8000      8.1357      2.3669     -0.0603     17.1596    179.0519     29.1046
   993.9000      8.1357      2.3383     -0.0165     18.8895    172.4482     28.8463
   994.0000      8.1764      2.3119     -0.0094     20.4938    169.1463     28.5810
   994.1000      8.1764      2.2895      0.0073     21.8463    169.9263     28.5051
   994.2000      8.1764      2.2776      0.0160     22.5670    168.0974     28.8551
   994.3000      8.2553      2.2829      0.0331     22.2494    162.6560     29.7439
   994.4000      8.2553      2.3024      0.1113     21.0696    159.6134     30.7486
   994.5000      8.4292      2.3281      0.1106     19.5083    161.2123     31.2232
   994.6000      8.4292      2.3625      0.1189     17.4266    162.6575     31.1658
   994.7000      8.4292      2.4094      0.1116     14.5828    160.3484     31.0445
   994.8000      8.2357      2.4593      0.1220     11.5563    155.2862     31.0850
   994.9000      8.2357      2.4973      0.1032      9.2550    151.8727     31.1518
   995.0000      8.2196      2.5204      0.0584      7.8550    152.7562     31.0357
   995.1000      8.2196      2.5333      0.0491      7.0712    155.7040     30.7113
   995.2000      8.2196      2.5345      0.0402      6.9998    158.1749     30.3525
   995.3000      8.2094      2.5263      0.0009      7.4964    160.5783     29.9740
   995.4000      8.2094      2.5244     -0.0209      7.6108    164.1213     29.3654
   995.5000      8.1990      2.5370     -0.0120      6.8466    166.4315     28.7689
   995.6000      8.1990      2.5537      0.0403      5.8368    161.3720     28.6128
   995.7000      8.1990      2.5641      0.0312      5.2086    149.6434     28.5960
   995.8000      8.1771      2.5704      0.0385      4.8264    139.1014     28.2638
   995.9000      8.1771      2.5748      0.0173      4.5568    135.5791     27.7574
   996.0000      8.1634      2.5732      0.0405      4.6543    136.2328     27.3654
   996.1000      8.1634      2.5630      0.0166      5.2733    135.4134     27.0988
   996.2000      8.1634      2.5490     -0.0123      6.1183    136.3672     26.9209
   996.3000      8.1577      2.5372     -0.0068      6.8339    140.2981     26.9880
   996.4000      8.1577      2.5312     -0.0229      7.2024    140.6618     27.1892
   996.5000      8.1628      2.5351     -0.0214      6.9623    136.6335     27.1382
   996.6000      8.1628      2.5493      0.0111      6.1048    132.7402     26.7418
   996.7000      8.1628      2.5696      0.0318      4.8721    131.0688     26.3145
   996.8000      8.1604      2.5932      0.0069      3.4442    130.2268     26.0771
   996.9000      8.1604      2.6131      0.0410      2.2379    128.7209     26.0693
   997.0000      8.1585      2.6178      0.0469      1.9503    125.6376     26.2476
   997.1000      8.1585      2.6073      0.0356      2.5905    119.8381     26.2374
   997.2000      8.1585      2.5927      0.0169      3.4736    114.0441     25.8284
   997.3000      8.1564      2.5863     -0.0237      3.8586    112.2708     25.3970
   997.4000      8.1564      2.5943     -0.0249      3.3749    114.7973     25.3334
   997.5000      8.1634      2.6098      0.0268      2.4376    117.0313     25.2762
   997.6000      8.1634      2.6218      0.0094      1.7089    114.2087     24.7523
   997.7000      8.1634      2.6249     -0.0012      1.5218    107.8241     24.1906
   997.8000      8.1597      2.6173     -0.0254      1.9843    103.6714     23.9832
   997.9000      8.1597      2.6045     -0.0281      2.7564    104.3403     23.6962
   998.0000      8.1689      2.5979     -0.0331      3.1560    107.4667     23.0821
   998.1000      8.1689      2.6030      0.0152      2.8473    108.5293     22.6719
   998.2000      8.1689      2.6108      0.0185      2.3746    105.5993     22.6585
   998.3000      8.1691      2.6119     -0.0090      2.3074    101.3954     22.7706
   998.4000      8.1691      2.6084      0.0055      2.5202     99.9276     22.9461
   998.5000      8.1750      2.6092     -0.0259      2.4726    101.1391     23.1322
   998.6000      8.1750      2.6209      0.0307      1.7614    102.8673     23.3789
   998.7000      8.1750      2.6347      0.0579      0.9244    104.1421     23.6753
   998.8000      8.1763      2.6319      0.0655      1.0950    104.2461     23.7098
   998.9000      8.1763      2.6075      0.0380      2.5776    105.4846     23.3747
   999.0000      8.1801      2.5797     -0.0266      4.2604    111.1794     23.1781
   999.1000      8.1801      2.5686      0.0022      4.9327    118.0498     23.6619
   999.2000      8.1801      2.5694     -0.0023      4.8826    120.9965     24.4949
   999.3000      8.1879      2.5668      0.0267      5.0429    122.7738     25.0721
   999.4000      8.1879      2.5644     -0.0212      5.1906    129.7623     25.3584
   999.5000      8.2053      2.5797      0.0203      4.2617    139.5243     25.7300
   999.6000      8.2053      2.6154      0.0373      2.0979    143.0385     26.4567
   999.7000      8.2053      2.6534      0.0875     -0.2057    138.0541     27.2909
   999.8000      8.2097      2.6726      0.0926     -1.3670    131.1389     27.8895
   999.9000      8.2097      2.6740      0.0635     -1.4568    130.8358     28.2177
  1000.0000      8.2183      2.6700      0.0984     -1.2137    136.3149     28.2888
  1000.1000      8.2183      2.6620      0.0105     -0.7297    139.6427     28.2279
  1000.2000      8.2183      2.6473      0.0533      0.1652    138.0900     28.2408
  1000.3000      8.2210      2.6282      0.0160      1.3233    135.0310     28.3133
  1000.4000      8.2210      2.6161      0.0333      2.0524    133.6080     28.4123
  1000.5000      8.2254      2.6171      0.0371      1.9943    133.2549     28.4284
  1000.6000      8.2254      2.6252      0.0415      1.5001    132.3029     28.1172
  1000.7000      8.2254      2.6355      0.0159      0.8786    132.0989     27.6889
  1000.8000      8.2270      2.6444      0.0273      0.3388    133.7212     27.5477
  1000.9000      8.2270      2.6494      0.0348      0.0335    133.2760     27.6323
  1001.0000      8.2277      2.6620      0.0032     -0.7254    129.8651     27.8241
  1001.1000      8.2277      2.6876      0.0537     -2.2761    128.5093     27.9838
  1001.2000      8.2277      2.6971      0.1167     -2.8558    130.8338     27.9307
  1001.3000      8.2337      2.6678      0.0468     -1.0794    134.8091     27.8276
  1001.4000      8.2337      2.6240     -0.0051      1.5766    138.3033     27.9561
  1001.5000      8.2474      2.5967     -0.0440      3.2298    138.9036     28.2404
  1001.6000      8.2474      2.5855     -0.0476      3.9098    136.1230     28.4346
  1001.7000      8.2474      2.5779     -0.0606      4.3723    136.0390     28.4711
  1001.8000      8.2470      2.5694     -0.0342      4.8835    141.9416     28.5509
  1001.9000      8.2470      2.5638     -0.0374      5.2237    144.6371     28.8093
  1002.0000      8.2454      2.5694     -0.0141      4.8868    137.4378     29.0313
  1002.1000      8.2454      2.5843      0.0211      3.9840    128.1364     28.9280
  1002.2000      8.2454      2.5983      0.0436      3.1306    127.4794     28.6080
  1002.3000      8.2443      2.6129      0.0134      2.2486    134.2589     28.5135
  1002.4000      8.2443      2.6247      0.0885      1.5315    141.7097     28.6933
  1002.5000      8.2528      2.6188      0.0204      1.8921    145.5186     28.8000
  1002.6000      8.2528      2.6000      0.0425      3.0277    144.1233     28.6896
  1002.7000      8.2528      2.5860      0.0165      3.8763    141.9636     28.5975
  1002.8000      8.2570      2.5769      0.0468      4.4330    144.1812     28.7580
  1002.9000      8.2570      2.5635     -0.0033      5.2394    148.6514     29.0041
  1003.0000      8.2574      2.5496     -0.0157      6.0839    150.5889     29.1117
  1003.1000      8.2574      2.5382      0.0136      6.7783    150.3065     29.1238
