~Version Information
VERS.                      2.0: CWLS Log ASCII Standard - VERSION 2.0
WRAP.                       NO: One line per depth step
~Well Information Block
STRT.FT               605.6000: 
STOP.FT              1938.0000: 
STEP.FT                 0.1000: 
NULL.                -999.2500: 
COMP.          Petrogulf Corporation: COMPANY
WELL.              Graff 9-31R: WELL
FLD.           Purgatorie River: FIELD
LOC.           707' FNL & 1713' FEL: LOCATION
CNTY.               Las Animas: COUNTY
SRVC.                         : SERVICE COMPANY
DATE.          Mon Oct 25 06:13:30 2004: LOG DATE
UWI.           05 071 08037 00: UNIQUE WELL ID
STAT.                 Colorado: STATE
~Curve Information Block
DEPT.FT            0 000 00 00: Depth
DCAL.in                       : CDL Caliper
RHOB.g/cc                     : CDL Bulk Density
RHOC.g/cc                     : CDL Density Correction
DPOR.pu                       : CDL Density Porosity
GR.GAPI                       : Gamma Ray
NPOR.pu                       : Neutron Porosity
~Parameter Information Block
~A  Depth       DCAL        RHOB        RHOC        DPOR         GR         NPOR    
# ...
  1575.2000      7.9529      2.5624      0.0743      5.3065    164.0481     28.3303
  1575.3000      7.9449      2.5340      0.0162      7.0315    168.0940     27.9056
  1575.4000      7.9449      2.5255      0.0051      7.5482    169.1658     27.7380
  1575.5000      7.9376      2.5308      0.0958      7.2231    167.3279     27.9290
  1575.6000      7.9376      2.5298      0.0494      7.2877    165.7191     28.0081
  1575.7000      7.9376      2.5212      0.0587      7.8040    166.2568     27.6844
  1575.8000      7.9411      2.5181      0.0583      7.9913    168.8723     27.2908
  1575.9000      7.9411      2.5308      0.0466      7.2220    170.4039     26.9976
  1576.0000      7.9385      2.5505      0.0889      6.0281    167.1897     26.7730
  1576.1000      7.9385      2.5515      0.1112      5.9694    163.1208     26.5739
  1576.2000      7.9385      2.5274      0.0943      7.4314    164.2267     26.1317
  1576.3000      7.9359      2.5009      0.0330      9.0350    168.2432     25.3118
  1576.4000      7.9359      2.4856      0.0552      9.9654    170.0672     24.4651
  1576.5000      7.9380      2.4642      0.0866     11.2629    170.5703     23.9181
  1576.6000      7.9380      2.4241      0.0266     13.6886    172.9398     23.5210
  1576.7000      7.9380      2.3823      0.0016     16.2216    174.9457     23.0472
  1576.8000      7.9488      2.3542      0.0429     17.9249    173.8214     22.5219
  1576.9000      7.9488      2.3419      0.0225     18.6715    171.6053     22.2113
  1577.0000      7.9704      2.3491      0.0479     18.2368    170.1785     22.3826
  1577.1000      7.9704      2.3740      0.0988     16.7255    169.3647     22.8687
  1577.2000      7.9704      2.4076      0.0681     14.6908    171.0446     23.0780
  1577.3000      7.9417      2.4430      0.1338     12.5470    173.4700     23.0133
  1577.4000      7.9417      2.4773      0.1079     10.4661    170.2949     23.1763
  1577.5000      7.9356      2.5155      0.1770      8.1531    162.6528     23.4233
  1577.6000      7.9356      2.5552      0.2683      5.7444    157.9256     23.4793
  1577.7000      7.9356      2.5855      0.2973      3.9073    159.1329     23.6380
  1577.8000      7.9497      2.6023      0.2582      2.8895    162.2409     24.2281
  1577.9000      7.9497      2.6037      0.2255      2.8089    162.9773     25.0269
  1578.0000      7.9973      2.5911      0.2174      3.5687    160.1623     25.3855
  1578.1000      7.9973      2.5752      0.1131      4.5349    156.9107     25.1940
  1578.2000      7.9973      2.5586      0.1254      5.5416    155.9455     25.3568
  1578.3000      7.9455      2.5352      0.0521      6.9555    155.5178     26.3376
  1578.4000      7.9455      2.5120      0.0591      8.3664    153.7464     27.2151
  1578.5000      7.9118      2.5025      0.0702      8.9391    151.2286     27.2170
  1578.6000      7.9118      2.5153      0.0484      8.1633    149.0680     26.7585
  1578.7000      7.9118      2.5401      0.1160      6.6604    148.2740     26.5868
  1578.8000      7.9049      2.5544      0.1088      5.7948    149.3967     26.6844
  1578.9000      7.9049      2.5499      0.1390      6.0660    151.7986     26.5683
  1579.0000      7.8965      2.5264      0.1161      7.4887    154.9309     26.1199
  1579.1000      7.8965      2.4947      0.0562      9.4112    155.0271     25.6475
  1579.2000      7.8965      2.4828      0.0360     10.1344    148.1464     25.5483
  1579.3000      7.8903      2.5091      0.0492      8.5403    141.8216     25.8840
  1579.4000      7.8903      2.5595      0.1316      5.4862    142.0898     26.2715
  1579.5000      7.8913      2.6038      0.1408      2.7994    144.2189     26.3629
  1579.6000      7.8913      2.6271      0.1763      1.3858    143.9381     26.2808
  1579.7000      7.8913      2.6305      0.2038      1.1798    141.0594     26.2031
  1579.8000      7.8794      2.6224      0.1833      1.6754    139.5345     26.3690
  1579.9000      7.8794      2.6160      0.1513      2.0631    141.2592     27.0515
  1580.0000      7.8710      2.6121      0.1454      2.2952    142.7896     27.8011
  1580.1000      7.8710      2.5912      0.1536      3.5637    141.2823     27.8786
  1580.2000      7.8710      2.5559      0.0284      5.7017    140.1198     27.2057
  1580.3000      7.8690      2.5398      0.0300      6.6788    141.8199     26.3678
  1580.4000      7.8690      2.5495      0.0002      6.0883    142.5207     25.8534
  1580.5000      7.9234      2.5669      0.0144      5.0361    140.4138     25.8886
  1580.6000      7.9234      2.5830      0.0193      4.0594    138.3687     26.4864
  1580.7000      7.9234      2.5838      0.0389      4.0148    137.6070     27.3601
  1580.8000      7.9347      2.5610     -0.0053      5.3922    137.0027     28.0003
  1580.9000      7.9347      2.5346     -0.0004      6.9950    136.2524     28.1265
  1581.0000      7.9390      2.5240      0.0163      7.6385    135.7109     28.2633
  1581.1000      7.9390      2.5301      0.0598      7.2672    134.8121     28.7067
  1581.2000      7.9390      2.5399      0.0371      6.6719    137.3226     29.1116
  1581.3000      7.9145      2.5482      0.0192      6.1686    145.5304     29.4331
  1581.4000      7.9145      2.5606      0.0530      5.4196    149.2796     29.9273
  1581.5000      7.9069      2.5688      0.0574      4.9241    143.4539     30.2724
  1581.6000      7.9069      2.5608      0.0682      5.4080    137.5026     29.9082
  1581.7000      7.9069      2.5428      0.0576      6.4956    135.1702     29.0945
  1581.8000      7.9009      2.5254      0.0350      7.5512    133.4719     28.6483
  1581.9000      7.9009      2.5142     -0.0094      8.2327    130.2046     29.0118
  1582.0000      7.9043      2.5210      0.0297      7.8202    123.0903     29.6189
  1582.1000      7.9043      2.5503      0.0698      6.0408    116.8496     29.6981
  1582.2000      7.9043      2.5867      0.0623      3.8364    116.6630     29.3893
  1582.3000      7.9011      2.6089      0.1108      2.4888    116.1745     29.0559
  1582.4000      7.9011      2.6103      0.1310      2.4036    110.3771     28.6148
  1582.5000      7.8977      2.5981      0.1234      3.1452    103.3566     27.8835
  1582.6000      7.8977      2.5841      0.0880      3.9937    102.2050     26.9201
  1582.7000      7.8977      2.5849      0.0491      3.9475    107.7977     26.1395
  1582.8000      7.8763      2.6050      0.1330      2.7279    112.2865     25.7901
  1582.9000      7.8763      2.6306      0.1029      1.1745    109.4438     25.6699
  1583.0000      7.8745      2.6451      0.1190      0.2987    101.6568     25.4485
  1583.1000      7.8745      2.6316      0.1423      1.1125     95.5794     24.7928
  1583.2000      7.8745      2.5929      0.0920      3.4592     93.3515     23.8252
  1583.3000      7.8733      2.5592      0.0036      5.5000     92.0028     23.0554
  1583.4000      7.8733      2.5516      0.0243      5.9645     90.4988     22.6278
  1583.5000      7.8802      2.5529      0.0620      5.8844     91.9740     22.6906
  1583.6000      7.8802      2.5479      0.0213      6.1881     94.6140     23.3140
  1583.7000      7.8802      2.5439      0.0412      6.4285     94.4535     23.5323
  1583.8000      7.8778      2.5395      0.0409      6.6999     95.3420     22.6825
  1583.9000      7.8778      2.5348      0.0391      6.9828    100.0464     21.9423
  1584.0000      7.8763      2.5421      0.0484      6.5370    102.9325     22.1756
  1584.1000      7.8763      2.5576      0.0868      5.5987    101.4833     22.5440
  1584.2000      7.8763      2.5673      0.0570      5.0122     99.4316     22.1547
  1584.3000      7.8763      2.5708      0.0586      4.7993     97.7854     21.4742
  1584.4000      7.8763      2.5694      0.1374      4.8875     96.2395     21.4606
  1584.5000      7.8774      2.5606      0.0832      5.4191     96.2544     22.0510
  1584.6000      7.8774      2.5477      0.0764      6.1985     96.2374     22.5301
  1584.7000      7.8774      2.5373      0.0553      6.8283     94.2333     22.5255
