~Version Information
VERS.                      2.0: CWLS Log ASCII Standard - VERSION 2.0
WRAP.                       NO: One line per depth step
~Well Information Block
STRT.FT                -7.5000: 
STOP.FT              1702.2500: 
STEP.FT                 0.2500: 
NULL.                -999.2500: 
COMP.          Pioneer Natural Resources: COMPANY
WELL.          Warrior 33-1 Tr: WELL
FLD.           Purgatoire River: FIELD
LOC.           2648' FSL & 2341' FEL--: LOCATION
PROV.                 Colorado: PROVINCE
CNTY.               Las Animas: COUNTRY
SRVC.                Patterson: SERVICE COMPANY
DATE.          Wed Jun 22 12:18:08 2005: LOG DATE
UWI.           05 071 08412 00: UNIQUE WELL ID
~Curve Information Block
DEPT.FT            0 000 00 00: Depth
CCL.                          : Casing Collar Locator
TT3.usec                      : CBL 3' Travel Time
AMP3.mV                       : CBL 3' Amplitude
GR.GAPI                       : Gamma Ray
~Parameter Information Block
~A  Depth       CCL         TT3         AMP3         GR     
# ...
   897.0000      0.0000    799.3124      5.3630     98.2182
   897.2500      0.0000    769.7296      5.6098    115.6802
   897.5000      0.0000    746.4446      5.6958    128.9533
   897.7500      0.0000    730.8041      5.6044    135.1116
   898.0000      0.0000    721.9219      5.3812    134.9356
   898.2500      0.0000    718.3406      5.0860    131.1538
   898.5000      0.0000    717.3174      4.7476    125.3253
   898.7500      0.0000    714.5954      4.3694    117.1549
   899.0000      0.0000    706.6146      3.9685    106.3704
   899.2500      0.0000    693.3601      3.5968     94.4207
   899.5000      0.0000    678.8578      3.3204     84.1889
   899.7500      0.0000    668.4958      3.1855     78.2348
   900.0000      0.0000    665.4561      3.2028     77.1917
   900.2500      0.0000    669.1495      3.3590     79.5140
   900.5000      0.0000    676.5010      3.6343     82.5856
   900.7500      0.0000    684.5651      4.0013     84.3768
   901.0000      0.0000    692.1055      4.4180     84.6124
   901.2500      0.0000    698.9514      4.8373     84.6039
   901.5000      0.0000    704.2922      5.2319     85.9334
   901.7500      0.0000    706.3069      5.6009     89.2822
   902.0000      0.0000    704.0983      5.9478     94.3012
   902.2500      0.0000    699.8488      6.2584    100.1267
   902.5000      0.0000    698.0726      6.5047    105.7504
   902.7500      0.0000    702.1152      6.6690    110.1434
   903.0000      0.0000    711.4636      6.7615    112.5278
   903.2500      0.0000    722.5236      6.8110    112.9601
   903.5000      0.0000    731.6223      6.8383    112.6959
   903.7500      0.0000    737.1914      6.8449    113.4830
   904.0000      0.0000    739.7325      6.8290    116.0111
   904.2500      0.0000    740.5446      6.8026    119.1664
   904.5000      0.0000    740.7002      6.7874    121.0585
   904.7500      0.0000    740.7507      6.7971    120.7997
   905.0000      0.0000    740.8446      6.8287    119.2027
   905.2500      0.0000    740.9203      6.8681    117.7264
   905.5000      0.0000    740.8813      6.9031    116.9366
   905.7500      0.0000    740.7000      6.9306    116.2726
   906.0000      0.0000    740.4199      6.9542    115.2726
   906.2500      0.0000    740.1042      6.9762    114.6229
   906.5000      0.0000    739.8059      6.9915    115.5221
   906.7500      0.0000    739.5682      6.9888    117.8598
   907.0000      0.0000    739.4186      6.9581    119.6154
   907.2500      0.0000    739.3521      6.9012    118.7231
   907.5000      0.0000    739.3384      6.8298    115.2181
   907.7500      0.0000    739.3554      6.7545    110.9282
   908.0000      0.0000    739.4008      6.6808    107.4925
   908.2500      0.0000    739.4701      6.6167    105.4422
   908.5000      0.0000    739.5457      6.5753    104.8703
   908.7500      0.0000    739.6162      6.5647    105.9461
   909.0000      0.0000    739.6882      6.5792    108.5177
   909.2500      0.0000    739.7484      6.6034    111.7790
   909.5000      0.0000    739.6871      6.6212    114.6251
   909.7500      0.0000    739.2060      6.6258    116.3480
   910.0000      0.0000    737.8480      6.6202    117.1502
   910.2500      0.0000    735.3985      6.6101    118.0840
   910.5000      0.0000    732.6557      6.5961    120.3178
   910.7500      0.0000    731.6563      6.5806    124.1899
   911.0000      0.0000    734.1829      6.5772    128.8127
   911.2500      0.0000    738.9541      6.6043    132.7226
   911.5000      0.0000    740.3439      6.6677    134.9430
   911.7500      0.0000    730.7863      6.7551    135.1471
   912.0000      0.0000    705.2537      6.8471    132.8227
   912.2500      0.0000    664.4976      6.9299    126.9713
   912.5000      0.0000    616.4927      6.9952    117.1981
   912.7500      0.0000    576.0632      7.0314    104.8864
   913.0000      0.0000    559.5112      7.0224     92.8984
   913.2500      0.0000    574.0447      6.9612     84.0459
   913.5000      0.0000    611.2083      6.8643     79.7884
   913.7500      0.0000    652.8758      6.7706     80.1257
   914.0000      0.0000    684.2842      6.7188     84.3383
   914.2500      0.0000    700.9765      6.7255     91.4217
   914.5000      0.0000    705.8181      6.7833     99.8456
   914.7500      0.0000    703.1881      6.8765    107.6403
   915.0000      0.0000    696.6312      6.9913    113.3978
   915.2500      0.0000    689.4095      7.1111    117.1029
   915.5000      0.0000    684.7817      7.2152    119.4932
   915.7500      0.0000    684.8354      7.2888    120.6058
   916.0000      0.0000    689.1503      7.3265    119.4295
   916.2500      0.0000    694.5992      7.3222    115.4093
   916.5000      0.0000    696.7870      7.2623    110.1714
   916.7500      0.0000    692.5911      7.1463    107.0948
   917.0000      0.0000    682.5068      7.0136    108.7377
   917.2500      0.0000    671.2928      6.9202    114.8764
   917.5000      0.0000    666.0158      6.8665    122.9851
   917.7500      0.0000    672.1406      6.7791    129.9896
   918.0000      0.0000    689.7948      6.6047    133.5842
   918.2500      0.0000    713.2598      6.3850    132.8829
   918.5000      0.0000    735.2225      6.1982    128.6584
   918.7500     -2.0000    752.6855      6.0638    122.9774
   919.0000      2.0000    768.3322      5.9475    118.1127
   919.2500      0.0000    785.4704      5.8278    115.3750
   919.5000     -2.0000    802.5901      5.7320    114.7191
   919.7500      0.0000    814.0364      5.7161    115.3810
   920.0000      0.0000    815.0133      5.8089    116.7782
   920.2500      0.0000    804.6339      5.9635    118.7085
   920.5000      0.0000    785.0434      6.0915    120.9374
   920.7500      0.0000    759.3704      6.1731    123.1591
   921.0000      0.0000    730.7784      6.2901    125.5448
   921.2500      0.0000    702.1942      6.5109    128.7905
   921.5000      0.0000    675.7261      6.7918    133.2151
   921.7500      0.0000    652.8224      7.0303    138.0801
   922.0000      0.0000    636.1642      7.1767    142.0672
   922.2500      0.0000    630.8035      7.2575    144.2107
   922.5000      0.0000    640.8774      7.3197    144.2215
   922.7500      0.0000    664.0085      7.3827    142.3882
   923.0000      0.0000    690.0503      7.4391    139.6208
   923.2500      0.0000    706.7059      7.4785    137.2608
   923.5000      0.0000    706.6903      7.4992    136.2056
   923.7500      0.0000    690.5584      7.5008    136.0989
   924.0000      0.0000    665.3410      7.4736    135.6116
   924.2500      0.0000    641.9521      7.3977    133.5602
   924.5000      0.0000    631.1490      7.2561    129.8171
   924.7500      0.0000    637.9575      7.0543    125.4485
   925.0000      0.0000    659.0331      6.8288    121.9168
   925.2500      0.0000    685.7996      6.6297    119.6956
   925.5000      0.0000    709.2379      6.4903    117.6290
   925.7500      0.0000    722.6425      6.4102    114.0262
   926.0000      0.0000    723.7427      6.3689    108.3285
   926.2500      0.0000    716.2141      6.3518    101.4007
   926.5000      0.0000    707.4534      6.3592     94.4053
   926.7500      0.0000    703.2690      6.3889     87.9646
   927.0000      0.0000    704.6099      6.4175     82.4794
   927.2500      0.0000    708.9495      6.4090     78.6606
   927.5000      0.0000    713.7582      6.3473     77.2611
   927.7500      0.0000    718.3458      6.2584     78.4099
   928.0000      0.0000    722.9089      6.1936     81.5430
   928.2500      0.0000    726.9876      6.1897     86.0396
   928.5000      0.0000    729.5635      6.2444     91.7376
   928.7500      0.0000    729.8232      6.3292     98.6526
   929.0000      0.0000    726.8660      6.4216    106.2582
   929.2500      0.0000    719.2814      6.5190    113.1700
   929.5000      0.0000    706.2762      6.6229    117.6122
   929.7500      0.0000    689.3301      6.7198    118.5111
   930.0000      0.0000    671.9974      6.7845    116.3486
   930.2500      0.0000    657.8688      6.8037    112.6514
