~Version Information
 VERS.                                  2.0 : CWLS LAS VERSION
 WRAP.                                   NO : WRAPING MODE
 SWARE .                 MController 2.5.0J : SOFTWARE VERSION
~Well Information
 WELL.                        Galileo 21-11 : WELL
 COMP.    Pioneer Natural Resources USA Inc : COMPANY
 FLD.                      Purgatoire River : FIELD
 LOC.                NE/NW Sec 11 T33S R65W : LOCATION
 DATE.                              4/10/05 : DATE(S) LOGGED
 SRVC.       Blanco Geological Services LLC : SERVICE COMPANY
 STAT.                                   CO : STATE
 CNTY.                           Las Animas : COUNTY
 CTRY.                                  USA : COUNTRY
 API.                       05-071-08353-00 : API NUMBER
 STRT.FT                             586.00 : START DEPTH
 STOP.FT                            1080.00 : STOP DEPTH
 STEP.FT                               1.00 : DEPTH INCREMENT
 NULL.                                -9999 : NULL VALUE
~Curve information
 DEPTH.FT                                   :
 ROP.MIN/FT                                 :
 GAS.UNITS                                  :
~ASCII Log data
# ...
       786.0         0.23         63.1 
       787.0         0.23         62.1 
       788.0         0.20         61.2 
       789.0         0.28         61.2 
       790.0         0.23         60.6 
       791.0         0.23         60.5 
       792.0         0.27         60.7 
       793.0         0.27         60.1 
       794.0         0.30         60.0 
       795.0         0.33         60.2 
       796.0         0.23         60.2 
       797.0         0.23         60.1 
       798.0         0.20         60.3 
       799.0         0.27         59.7 
       800.0         0.23         59.6 
       801.0         0.23         60.2 
       802.0         0.25         60.2 
       803.0         0.23         60.7 
       804.0         0.20         59.3 
       805.0         0.13         59.3 
       806.0         4.55       1357.8 
       807.0         0.10        497.7 
       808.0         0.20        490.2 
       809.0         0.13        440.0 
       810.0         0.17        440.0 
       811.0         0.27        157.6 
       812.0         0.30        129.5 
       813.0         0.28        103.2 
       814.0         0.23         99.0 
       815.0         0.23         91.5 
       816.0         0.23         87.5 
       817.0         0.17         84.3 
       818.0         0.20         82.4 
       819.0         0.20         80.7 
       820.0         0.17         80.4 
       821.0         0.23         80.9 
       822.0         0.17         80.4 
       823.0         0.20         79.9 
       824.0         0.23         79.8 
       825.0         0.20         76.7 
       826.0         0.23         75.2 
       827.0         0.22         75.2 
       828.0         0.20         73.1 
       829.0         0.23         73.6 
       830.0         0.13         75.1 
       831.0         0.17         75.1 
       832.0         0.17         74.9 
       833.0         0.27         74.7 
       834.0         0.27         74.9 
       835.0         0.23         73.1 
       836.0         2.05        228.1 
       837.0         0.47        202.7 
       838.0         0.50        145.2 
       839.0         0.43         99.9 
       840.0         0.37         89.4 
       841.0         0.40         80.3 
       842.0         0.30         74.6 
       843.0         0.33         74.1 
       844.0         0.32         72.0 
       845.0         0.27         71.0 
       846.0         0.27         70.3 
       847.0         0.30         68.8 
       848.0         0.30         68.3 
       849.0         0.30         68.4 
       850.0         0.30         68.0 
       851.0         0.30         69.2 
       852.0         0.27         69.2 
       853.0         0.30         68.7 
       854.0         0.27         68.3 
       855.0         0.27         68.2 
       856.0         0.28         67.9 
       857.0         0.30         67.2 
       858.0         0.27         66.9 
       859.0         0.30         66.2 
       860.0         0.30         66.5 
       861.0         0.30         65.7 
       862.0         0.33         66.0 
       863.0         0.27         66.3 
       864.0         0.33         66.2 
       865.0         0.37         65.5 
       866.0         1.62        322.7 
       867.0         0.43        232.2 
       868.0         0.37        166.1 
       869.0         0.53        136.7 
       870.0         0.37        108.3 
       871.0         0.27         87.7 
       872.0         0.32         79.9 
       873.0         0.23         75.5 
       874.0         0.27         70.5 
       875.0         0.27         70.2 
       876.0         0.27         68.7 
       877.0         0.27         68.6 
       878.0         0.27         67.1 
       879.0         0.23         66.5 
       880.0         0.37         65.8 
       881.0         0.33         65.8 
       882.0         0.30         65.1 
       883.0         0.23         65.7 
       884.0         0.28         65.2 
       885.0         0.27         65.3 
       886.0         0.23         65.2 
       887.0         0.27         65.2 
       888.0         0.27         65.6 
       889.0         0.23         65.6 
       890.0         0.27         66.7 
       891.0         0.27         66.7 
       892.0         0.27         67.2 
       893.0         0.23         67.2 
       894.0         0.27         66.0 
       895.0         0.33         61.0 
       896.0         1.28        259.1 
       897.0         0.30        207.6 
       898.0         0.27        171.8 
       899.0         0.37        165.4 
       900.0         0.43        134.8 
       901.0         0.43        108.9 
       902.0         0.33         86.2 
       903.0         0.38         82.8 
       904.0         0.20         86.8 
       905.0         0.13         86.8 
       906.0         0.20         89.5 
       907.0         0.23         90.8 
       908.0         0.23         91.1 
       909.0         0.23         90.8 
       910.0         0.27         90.8 
       911.0         0.23         89.5 
       912.0         0.30         88.7 
       913.0         0.33         87.6 
       914.0         0.30         87.1 
       915.0         0.23         87.2 
       916.0         0.28         87.6 
       917.0         0.23         88.4 
       918.0         0.23         88.0 
       919.0         0.20         88.4 
       920.0         0.23         88.4 
       921.0         0.23         87.8 
       922.0         0.23         87.7 
       923.0         0.23         87.5 
       924.0         0.20         87.2 
       925.0         0.23         87.2 
       926.0         3.18       1168.1 
       927.0         0.37        440.0 
       928.0         0.37        440.0 
       929.0         0.33        153.2 
       930.0         0.27        116.0 
       931.0         0.28        103.7 
       932.0         0.30         95.2 
       933.0         0.27         94.8 
       934.0         0.30         88.0 
       935.0         0.30         87.6 
       936.0         0.30         86.7 
       937.0         0.30         86.6 
       938.0         0.30         85.5 
       939.0         0.30         84.7 
       940.0         0.30         84.4 
       941.0         0.30         84.9 
       942.0         0.32         84.5 
       943.0         0.30         83.7 
       944.0         0.33         83.5 
       945.0         0.30         83.4 
       946.0         0.30         84.0 
       947.0         0.30         83.8 
       948.0         0.33         84.2 
       949.0         0.30         84.4 
       950.0         0.33         85.1 
       951.0         0.37         84.9 
       952.0         0.38         84.6 
       953.0         0.33         83.5 
       954.0         0.37         75.1 
       955.0         0.33         67.1 
       956.0         2.85        476.6 
       957.0         0.33        166.3 
       958.0         0.30        129.7 
       959.0         0.27        114.6 
       960.0         0.30        104.7 
       961.0         0.27         97.4 
       962.0         0.23         90.6 
       963.0         0.23         89.1 
       964.0         0.27         88.2 
       965.0         0.27         84.0 
       966.0         0.28         83.9 
       967.0         0.27         82.8 
       968.0         0.27         82.3 
       969.0         0.30         81.9 
       970.0         0.27         81.7 
       971.0         0.30         81.2 
       972.0         0.27         81.2 
       973.0         0.27         81.1 
       974.0         0.27         80.5 
       975.0         0.27         80.5 
       976.0         0.27         80.3 
       977.0         0.30         80.4 
       978.0         0.23         80.0 
       979.0         0.28         79.7 
       980.0         0.30         79.4 
       981.0         0.33         79.6 
       982.0         0.33         80.0 
       983.0         0.23         72.0 
       984.0         0.33         64.8 
       985.0         0.23         78.4 
