~Version Information
 VERS.                                  2.0 : CWLS LAS VERSION
 WRAP.                                   NO : WRAPING MODE
 SWARE .                 MController 2.5.0E : SOFTWARE VERSION
~Well Information
 WELL.                    Dude canyon 22-32 : WELL
 COMP.    Pioneer Natural Resources USA Inc : COMPANY
 FLD.                      Purgatoire River : FIELD
 LOC.                SE/NW Sec 32 T32S R67W : LOCATION
 DATE.                         3/06-07/2005 : DATE(S) LOGGED
 SRVC.       Blanco Geological Services LLC : SERVICE COMPANY
 STAT.                                   CO : STATE
 CNTY.                           Las Animas : COUNTY
 CTRY.                                  USA : COUNTRY
 API.                       05-071-08257-00 : API NUMBER
 STRT.FT                             494.00 : START DEPTH
 STOP.FT                            2760.00 : STOP DEPTH
 STEP.FT                               1.00 : DEPTH INCREMENT
 NULL.                                -9999 : NULL VALUE
~Curve information
 DEPTH.FT                                   :
 ROP.MIN/FT                                 :
 GAS.UNITS                                  :
~ASCII Log data
# ...
     2494.00        0.517         91.2 
     2495.00        0.467         72.6 
     2496.00        0.367         66.9 
     2497.00        0.333         60.8 
     2498.00        0.333         48.6 
     2499.00        0.400         40.2 
     2500.00        0.433         37.8 
     2501.00        0.400         43.8 
     2502.00        0.367         52.5 
     2503.00        0.450         68.8 
     2504.00        0.400         74.3 
     2505.00        0.467         73.1 
     2506.00        0.367         63.5 
     2507.00        0.500         64.4 
     2508.00        0.400         63.1 
     2509.00        0.433         49.7 
     2510.00        0.333         34.6 
     2511.00        0.317         28.9 
     2512.00        0.433         37.0 
     2513.00        0.567         43.6 
     2514.00        0.433         45.0 
     2515.00        0.333         51.7 
     2516.00        0.267         58.4 
     2517.00        0.367         58.9 
     2518.00        0.267         55.4 
     2519.00        0.200         50.8 
     2520.00        0.267         49.7 
     2521.00        8.950        120.4 
     2522.00        0.600         47.0 
     2523.00        0.550         50.9 
     2524.00        0.500         58.6 
     2525.00        0.533         69.6 
     2526.00        0.500         78.6 
     2527.00        0.400         85.9 
     2528.00        0.467         89.8 
     2529.00        0.400         90.4 
     2530.00        0.583         90.3 
     2531.00        0.467         85.5 
     2532.00        0.400         79.8 
     2533.00        0.400         77.4 
     2534.00        0.433         74.7 
     2535.00        0.667         69.0 
     2536.00        0.700         61.1 
     2537.00        0.750         58.4 
     2538.00        0.667         56.2 
     2539.00        0.400         55.1 
     2540.00        0.367         52.5 
     2541.00        0.367         49.4 
     2542.00        0.367         44.3 
     2543.00        0.433         40.1 
     2544.00        0.383         44.0 
     2545.00        0.267         51.4 
     2546.00        0.400         71.2 
     2547.00        0.567         96.1 
     2548.00        0.267        102.0 
     2549.00        0.367        102.9 
     2550.00        0.400        101.9 
     2551.00        6.467         96.2 
     2552.00        0.600         19.2 
     2553.00        0.650         38.4 
     2554.00        0.633         41.6 
     2555.00        0.433         45.1 
     2556.00        0.667         45.6 
     2557.00        0.833         46.5 
     2558.00        0.917         65.2 
     2559.00        0.733         73.8 
     2560.00        0.500         73.7 
     2561.00        0.433         69.7 
     2562.00        0.467         65.2 
     2563.00        0.233         59.3 
     2564.00        0.333         54.0 
     2565.00        0.333         47.5 
     2566.00        0.383         45.7 
     2567.00        0.333         48.7 
     2568.00        0.233         52.3 
     2569.00        0.333         63.4 
     2570.00        0.333         75.0 
     2571.00        0.267         78.2 
     2572.00        0.367         80.5 
     2573.00        0.433         90.3 
     2574.00        0.467         93.2 
     2575.00        0.450         90.1 
     2576.00        0.467         79.5 
     2577.00        0.400         74.6 
     2578.00        0.300         71.8 
     2579.00        0.333         66.4 
     2580.00        0.500         57.6 
     2581.00        5.600        133.1 
     2582.00        0.833        129.3 
     2583.00        0.533         77.9 
     2584.00        0.400         47.7 
     2585.00        0.467         69.5 
     2586.00        0.350         70.6 
     2587.00        0.500         68.4 
     2588.00        0.567         60.1 
     2589.00        0.467         84.8 
     2590.00        0.633        121.7 
     2591.00        0.700        127.0 
     2592.00        0.617        122.6 
     2593.00        0.567        107.0 
     2594.00        0.700         95.8 
     2595.00        0.733         94.0 
     2596.00        0.800         85.4 
     2597.00        0.450         49.7 
     2598.00        0.400         28.4 
     2599.00        0.633         15.3 
     2600.00        0.767         12.7 
     2601.00        0.967         48.5 
     2602.00        0.817         50.6 
     2603.00        0.700         51.0 
     2604.00        0.867         50.7 
     2605.00        0.500         44.9 
     2606.00        0.567         47.3 
     2607.00        0.650         55.3 
     2608.00        0.600         58.6 
     2609.00        0.600         58.8 
     2610.00        0.533         56.8 
     2611.00        5.933        126.1 
     2612.00        0.633        106.5 
     2613.00        0.867         74.7 
     2614.00        0.683         73.1 
     2615.00        0.867         69.7 
     2616.00        0.800         55.4 
     2617.00        0.500         56.2 
     2618.00        0.667         64.2 
     2619.00        0.650         65.9 
     2620.00        0.667         65.6 
     2621.00        0.633         62.7 
     2622.00        0.600         61.6 
     2623.00        0.600         54.4 
     2624.00        0.583         46.5 
     2625.00        0.600         42.1 
     2626.00        0.633         41.0 
     2627.00        0.633         43.4 
     2628.00        0.667         46.0 
     2629.00        0.600         46.9 
     2630.00        0.583         47.3 
     2631.00        0.600         48.5 
     2632.00        0.567         48.9 
     2633.00        0.600         49.6 
     2634.00        0.533         51.5 
     2635.00        0.550         52.2 
     2636.00        0.533         52.8 
     2637.00        0.500         52.2 
     2638.00        0.533         50.1 
     2639.00        0.500         46.2 
     2640.00        0.500         44.4 
     2641.00        5.233        130.3 
     2642.00        0.967        134.7 
     2643.00        0.967        108.3 
     2644.00        0.750        112.4 
     2645.00        0.667        118.3 
     2646.00        0.733        113.0 
     2647.00        0.767         84.1 
     2648.00        0.783         77.1 
     2649.00        0.767         86.1 
     2650.00        0.800         86.1 
     2651.00        0.833         86.4 
     2652.00        1.250         84.3 
     2653.00       14.833        479.6 
     2654.00        1.000         27.7 
     2655.00        0.817          8.3 
     2656.00        0.533          8.0 
     2657.00        0.600          7.8 
     2658.00        0.600          8.0 
     2659.00        0.433          7.9 
     2660.00        0.400          7.9 
     2661.00        0.433          7.8 
     2662.00        0.417          8.2 
     2663.00        0.433          8.1 
     2664.00        0.533          8.3 
     2665.00        0.533         24.8 
     2666.00        0.600        133.0 
     2667.00        0.667        140.8 
     2668.00        0.750        112.0 
     2669.00        0.767         66.5 
     2670.00        0.800         43.3 
     2671.00        8.250         44.2 
     2672.00        0.933         45.5 
     2673.00        0.867         48.0 
     2674.00        0.900         42.8 
     2675.00        0.683         49.8 
     2676.00        0.700         54.0 
     2677.00        0.733         55.1 
     2678.00        0.700         55.7 
     2679.00        0.667         55.1 
     2680.00        0.783         55.6 
     2681.00        0.733         56.0 
     2682.00        0.767         56.4 
     2683.00        0.767         58.3 
     2684.00        0.783         58.6 
     2685.00        0.767         58.5 
     2686.00        0.767         58.8 
     2687.00        0.733         59.4 
     2688.00        0.800         60.4 
     2689.00        0.783         61.5 
     2690.00        0.767         64.2 
     2691.00        0.733         67.5 
     2692.00        1.383         65.1 
     2693.00        0.467         63.6 
