~Version Information
VERS.                      2.0: CWLS Log ASCII Standard - VERSION 2.0
WRAP.                       NO: One line per depth step
~Well Information Block
STRT.FT               811.0000: 
STOP.FT              2507.0000: 
STEP.FT                 0.1000: 
NULL.                -999.2500: 
COMP.          Petrogulf Corporation: COMPANY
WELL.               YWAM 7-32V: WELL
FLD.           Purgatoire River: FIELD
LOC.           2423' FNL & 2412' FEL: LOCATION
PROV.                 Colorado: PROVINCE
CNTY.               Las Animas: COUNTRY
SRVC.                Patterson: SERVICE COMPANY
DATE.          Mon Dec 15 07:18:47 2003: LOG DATE
UWI.                          : UNIQUE WELL ID
~Curve Information Block
DEPT.FT            0 000 00 00: Depth
DCAL.in                       : CDL Caliper
RHOB.g/cc                     : CDL Bulk Density
RHOC.g/cc                     : CDL Density Correction
DPOR.pu                       : CDL Density Porosity
NPOR.pu                       : Neutron Porosity
GR.GAPI                       : Gamma Ray
~Parameter Information Block
~A  Depth       DCAL        RHOB        RHOC        DPOR        NPOR         GR     
# ...
  1598.2000      8.1953      2.5926      0.0928      3.4765     19.7314     97.4653
  1598.3000      8.1905      2.6026      0.0804      2.8731     20.1461     98.4591
  1598.4000      8.1905      2.5978      0.1011      3.1639     20.6110    100.3984
  1598.5000      8.1855      2.5765      0.1045      4.4559     20.4492    104.1207
  1598.6000      8.1855      2.5569      0.0311      5.6445     20.0065    107.7866
  1598.7000      8.1855      2.5593      0.0957      5.4989     19.9483    109.7520
  1598.8000      8.1802      2.5749      0.0690      4.5510     19.9904    111.6423
  1598.9000      8.1802      2.5874      0.0794      3.7934     19.6862    113.1630
  1599.0000      8.1586      2.5870      0.0628      3.8153     19.6698    111.0117
  1599.1000      8.1586      2.5710      0.0421      4.7851     20.2900    107.3788
  1599.2000      8.1586      2.5485      0.0283      6.1487     20.8595    104.3932
  1599.3000      8.1800      2.5310      0.0014      7.2139     20.4825     98.0439
  1599.4000      8.1800      2.5262     -0.0111      7.5001     19.2638     87.4299
  1599.5000      8.1886      2.5406      0.0047      6.6286     18.4775     79.2921
  1599.6000      8.1886      2.5687      0.0575      4.9297     18.6762     78.1746
  1599.7000      8.1886      2.5890      0.0873      3.6957     18.6991     81.2339
  1599.8000      8.1869      2.5864      0.0557      3.8533     17.9082     82.2145
  1599.9000      8.1869      2.5685      0.0730      4.9405     17.2239     78.0465
  1600.0000      8.1846      2.5555      0.0304      5.7293     16.9798     72.9798
  1600.1000      8.1846      2.5560      0.0546      5.6940     16.5660     70.3764
  1600.2000      8.1846      2.5575      0.0462      5.6045     16.1243     68.2765
  1600.3000      8.1858      2.5486      0.0647      6.1450     16.0900     65.7225
  1600.4000      8.1858      2.5365      0.0206      6.8804     16.6027     64.2705
  1600.5000      8.1912      2.5332      0.0252      7.0818     17.7236     62.6399
  1600.6000      8.1912      2.5311      0.0644      7.2078     19.1951     60.6209
  1600.7000      8.1912      2.5205     -0.0117      7.8487     20.8301     60.8663
  1600.8000      8.1890      2.5093      0.0290      8.5279     22.6340     64.4114
  1600.9000      8.1890      2.4978      0.0522      9.2248     24.3816     70.6352
  1601.0000      8.1881      2.4811     -0.0119     10.2336     25.6248     78.8326
  1601.1000      8.1881      2.4639      0.0222     11.2786     25.9746     87.4412
  1601.2000      8.1881      2.4433      0.0424     12.5266     25.4762     95.6168
  1601.3000      8.1896      2.4203      0.0052     13.9240     25.1728    104.8488
  1601.4000      8.1896      2.4108      0.0275     14.4992     26.0604    114.0775
  1601.5000      8.1965      2.4221      0.0478     13.8143     27.4963    119.1465
  1601.6000      8.1965      2.4420      0.1054     12.6044     28.2108    119.4681
  1601.7000      8.1965      2.4566      0.1242     11.7186     28.0202    120.9342
  1601.8000      8.2359      2.4693      0.1208     10.9504     27.4456    126.2800
  1601.9000      8.2359      2.4851      0.1053      9.9931     26.9180    128.6983
  1602.0000      8.2487      2.4938      0.1019      9.4691     26.5101    123.9591
  1602.1000      8.2487      2.4928      0.0948      9.5246     26.0988    115.6433
  1602.2000      8.2487      2.4961      0.0953      9.3247     25.2865    107.1015
  1602.3000      8.3059      2.5059      0.1008      8.7318     23.7174     98.1446
  1602.4000      8.3059      2.5085      0.0895      8.5770     21.9025     90.8135
  1602.5000      8.4894      2.4937      0.0745      9.4708     20.8792     87.3280
  1602.6000      8.4894      2.4693      0.0237     10.9527     21.0177     85.5397
  1602.7000      8.4894      2.4555      0.0081     11.7870     21.7355     82.2978
  1602.8000      8.6543      2.4632      0.0453     11.3219     22.7004     75.9027
  1602.9000      8.6543      2.4859      0.0654      9.9457     23.8705     68.9123
  1603.0000      8.9891      2.5081      0.1130      8.6023     24.7765     65.3750
  1603.1000      8.9891      2.5150      0.1018      8.1828     25.1897     66.5152
  1603.2000      8.9891      2.5050      0.0573      8.7873     25.2585     71.4061
  1603.3000      9.6652      2.4918      0.0192      9.5880     24.8448     76.9093
  1603.4000      9.6652      2.4887      0.0288      9.7738     23.8386     80.1193
  1603.5000      9.8979      2.4923      0.0175      9.5577     22.5638     81.0309
  1603.6000      9.8979      2.4917      0.0159      9.5927     21.7960     79.9582
  1603.7000      9.8979      2.4777      0.0549     10.4403     22.1600     75.2005
  1603.8000      9.9647      2.4476      0.0341     12.2666     22.9313     66.6713
  1603.9000      9.9647      2.4184     -0.0017     14.0377     23.0304     59.0383
  1604.0000      9.6238      2.4134     -0.0193     14.3416     22.3440     58.3665
  1604.1000      9.6238      2.4345      0.0367     13.0623     21.3278     62.9998
  1604.2000      9.6238      2.4630      0.0614     11.3330     20.6029     63.9035
  1604.3000      9.4870      2.4846      0.0512     10.0271     20.5311     58.3505
  1604.4000      9.4870      2.4922      0.0966      9.5651     20.8025     53.1717
  1604.5000      8.3982      2.4829      0.0604     10.1288     21.0315     51.4532
  1604.6000      8.3982      2.4644      0.0604     11.2474     21.0809     52.7892
  1604.7000      8.3982      2.4458      0.0261     12.3783     20.7313     56.7687
  1604.8000      8.2525      2.4315      0.0274     13.2432     20.3124     59.8273
  1604.9000      8.2525      2.4264      0.0272     13.5534     20.3787     60.7816
  1605.0000      8.2470      2.4318      0.0535     13.2250     20.6323     60.7736
  1605.1000      8.2470      2.4406      0.0461     12.6885     20.8507     60.1489
  1605.2000      8.2470      2.4431      0.0454     12.5413     21.4984     58.4416
  1605.3000      8.2457      2.4378      0.0414     12.8598     22.4254     55.8216
  1605.4000      8.2457      2.4349      0.0369     13.0367     22.6696     56.7120
  1605.5000      8.2372      2.4399      0.0409     12.7347     22.2138     61.8774
  1605.6000      8.2372      2.4449      0.0611     12.4320     22.0883     64.2778
  1605.7000      8.2372      2.4478      0.0423     12.2533     22.5912     62.0955
  1605.8000      8.2400      2.4592      0.0577     11.5663     23.0536     59.1432
  1605.9000      8.2400      2.4761      0.1055     10.5409     23.2883     55.8173
  1606.0000      8.2402      2.4828      0.0875     10.1321     23.6601     53.4005
  1606.1000      8.2402      2.4759      0.0584     10.5519     23.9835     55.4579
  1606.2000      8.2402      2.4627      0.0661     11.3540     23.9973     60.5340
  1606.3000      8.2504      2.4498      0.0653     12.1336     23.6394     62.7865
  1606.4000      8.2504      2.4476      0.0388     12.2695     22.9497     61.5168
  1606.5000      8.2702      2.4632      0.0423     11.3239     22.3783     60.4475
  1606.6000      8.2702      2.4880      0.0685      9.8187     21.8989     59.0204
  1606.7000      8.2702      2.5037      0.0499      8.8641     20.8302     56.0217
  1606.8000      8.2706      2.4991      0.0576      9.1450     19.3309     53.5428
  1606.9000      8.2706      2.4772      0.0401     10.4756     18.4624     52.6876
  1607.0000      8.2695      2.4546      0.0058     11.8415     18.8198     50.3399
  1607.1000      8.2695      2.4475      0.0321     12.2710     19.8427     46.4498
  1607.2000      8.2695      2.4507      0.0557     12.0801     20.6231     46.3292
  1607.3000      8.2686      2.4497      0.0167     12.1380     20.9391     50.6369
  1607.4000      8.2686      2.4464      0.0322     12.3390     21.2498     54.7342
  1607.5000      8.2684      2.4464      0.0336     12.3416     21.8602     56.7580
  1607.6000      8.2684      2.4489      0.0017     12.1892     22.1856     59.1523
  1607.7000      8.2684      2.4513      0.0245     12.0406     21.9577     64.5884
