~Version Information
VERS.                      2.0: CWLS Log ASCII Standard - VERSION 2.0
WRAP.                       NO: One line per depth step
~Well Information Block
STRT.FT                -2.7500: 
STOP.FT              2139.2500: 
STEP.FT                 0.2500: 
NULL.                -999.2500: 
COMP.          Petrogulf Corporation: COMPANY
WELL.             State 16-34V: WELL
FLD.           Purgatorie River: FIELD
LOC.           1146' FSL & 1393' FEL: LOCATION
PROV.                 Colorado: PROVINCE
CNTY.               Las Animas: COUNTRY
SRVC.          Patterson Wireline: SERVICE COMPANY
DATE.          Wed Jun 25 13:16:42 2003: LOG DATE
UWI.           05 071 07724 00: UNIQUE WELL ID
~Curve Information Block
DEPT.FT            0 000 00 00: Depth
CCL.                          : Casing Collar Locator
TT3.usec                      : CBL 3' Travel Time
AMP3.mV                       : CBL 3' Amplitude
GR.GAPI                       : Gamma Ray
~Parameter Information Block
~A  Depth       CCL         TT3         AMP3         GR     
# ...
   432.7500      0.0000    503.6110     14.0782     84.5201
   433.0000      0.0000    530.6260     13.9086     80.6599
   433.2500      0.0000    571.8891     13.7801     77.8130
   433.5000      0.0000    610.6771     13.6514     77.5565
   433.7500      0.0000    637.0136     13.4907     80.1290
   434.0000      0.0000    650.7330     13.3227     83.7293
   434.2500      0.0000    656.2025     13.2045     85.8364
   434.5000      0.0000    656.8094     13.1574     85.5810
   434.7500      0.0000    654.0164     13.1449     84.5737
   435.0000      0.0000    650.0509     13.1300     85.1001
   435.2500      0.0000    649.7343     13.1276     87.6129
   435.5000      0.0000    657.8174     13.1717     90.2071
   435.7500      0.0000    674.3527     13.2494     90.4846
   436.0000      0.0000    693.8641     13.3072     87.7897
   436.2500      0.0000    709.1858     13.3120     83.6440
   436.5000      0.0000    715.3859     13.2716     80.3157
   436.7500      0.0000    711.0446     13.1974     79.1528
   437.0000      0.0000    698.3885     13.0810     79.9613
   437.2500      0.0000    683.2240     12.9073     81.5859
   437.5000      0.0000    672.6685     12.6739     83.0892
   437.7500      0.0000    670.4067     12.4056     84.4264
   438.0000      0.0000    673.9455     12.1521     85.9782
   438.2500      0.0000    676.8293     11.9500     87.7538
   438.5000      0.0000    672.9376     11.7873     89.3717
   438.7500      0.0000    659.2686     11.6269     90.6417
   439.0000      0.0000    637.4209     11.4589     91.7558
   439.2500      0.0000    614.1167     11.3074     92.8954
   439.5000      0.0000    598.9808     11.1958     93.9372
   439.7500      0.0000    599.5154     11.1256     94.7093
   440.0000      0.0000    616.8198     11.0760     95.3778
   440.2500      0.0000    645.4279     11.0182     96.2481
   440.5000      0.0000    676.6888     10.9496     97.0698
   440.7500      0.0000    702.2900     10.9110     96.9631
   441.0000      0.0000    716.0440     10.9406     95.4155
   441.2500      0.0000    715.3947     11.0155     93.0741
   441.5000      0.0000    703.0396     11.0711     91.2096
   441.7500      0.0000    685.9234     11.0677     90.6340
   442.0000      0.0000    670.9559     11.0043     91.3135
   442.2500      0.0000    661.3383     10.8825     92.5565
   442.5000      0.0000    656.5824     10.6958     93.2072
   442.7500      0.0000    654.8162     10.4518     92.0820
   443.0000      0.0000    654.5497     10.1843     88.8957
   443.2500      0.0000    655.0833      9.9455     84.7272
   443.5000      0.0000    656.2726      9.7783     81.0310
   443.7500      0.0000    658.0259      9.6811     78.2052
   444.0000      0.0000    659.3200      9.5899     75.6770
   444.2500      0.0000    656.9534      9.3917     73.2598
   444.5000      0.0000    645.5828      8.9741     71.5887
   444.7500      0.0000    620.6411      8.3100     71.1482
   445.0000      0.0000    582.8569      7.5145     71.5316
   445.2500      0.0000    539.8825      6.7896     71.7934
   445.5000     -2.0000    502.1461      6.2977     71.1149
   445.7500      0.0000    476.3074      6.0982     69.2576
   446.0000      0.0000    462.6096      6.1736     66.8853
   446.2500      2.0000    457.6172      6.4716     65.3375
   446.5000      0.0000    458.2765      6.9425     65.6126
   446.7500      0.0000    463.2593      7.5785     67.5743
   447.0000      0.0000    471.0425      8.4147     70.3424
   447.2500      0.0000    477.3148      9.4825     73.2262
   447.5000      0.0000    475.8392     10.7514     75.9885
   447.7500      0.0000    463.7750     12.0972     78.3557
   448.0000      0.0000    445.7569     13.3132     79.5930
   448.2500      0.0000    430.5327     14.1845     78.6775
   448.5000      0.0000    423.2964     14.5980     75.0126
   448.7500      0.0000    422.6744     14.5966     69.2270
   449.0000      0.0000    424.5541     14.3323     63.3186
   449.2500      0.0000    426.5089     13.9669     59.6569
   449.5000      0.0000    428.3599     13.5999     59.3836
   449.7500      0.0000    430.7306     13.2616     61.7299
   450.0000      0.0000    434.5708     12.9535     64.9979
   450.2500      0.0000    441.3055     12.6919     68.1062
   450.5000      0.0000    451.9417     12.5089     71.1891
   450.7500      0.0000    465.7565     12.4060     75.0368
   451.0000      0.0000    481.3924     12.3226     80.1270
   451.2500      0.0000    500.3245     12.1730     85.9159
   451.5000      0.0000    527.7194     11.9145     90.7753
   451.7500      0.0000    567.1223     11.5748     92.8718
   452.0000      0.0000    614.2137     11.2236     91.5337
   452.2500      0.0000    657.8376     10.9183     87.8930
   452.5000      0.0000    687.2878     10.6760     84.0932
   452.7500      0.0000    697.1993     10.4911     81.8149
   453.0000      0.0000    686.8580     10.3664     81.4215
   453.2500      0.0000    658.2610     10.3099     82.2981
   453.5000      0.0000    615.8908     10.3038     83.8711
   453.7500      0.0000    566.3522     10.2963     86.2858
   454.0000      0.0000    516.5875     10.2381     90.0143
   454.2500      0.0000    472.4032     10.1294     94.7857
   454.5000      0.0000    437.9761     10.0256     99.1749
   454.7500      0.0000    414.8983      9.9970    101.5453
   455.0000      0.0000    401.4635     10.0797    101.2669
   455.2500      0.0000    394.1337     10.2557     98.7807
   455.5000      0.0000    390.2074     10.4794     94.9121
   455.7500      0.0000    388.8014     10.7172     90.5935
   456.0000      0.0000    389.6476     10.9447     86.7590
   456.2500      0.0000    391.8381     11.1218     83.8682
   456.5000      0.0000    394.0846     11.2097     81.8106
   456.7500      0.0000    395.6024     11.2101     80.6317
   457.0000      0.0000    396.3638     11.1617     80.8286
   457.2500      0.0000    396.6550     11.0962     82.5466
   457.5000      0.0000    396.7073     11.0029     84.8822
   457.7500      0.0000    396.6532     10.8401     86.4346
   458.0000      0.0000    396.5971     10.6001     86.5513
   458.2500      0.0000    396.6342     10.3545     85.8548
   458.5000      0.0000    396.8286     10.1982     85.4987
   458.7500      0.0000    397.1812     10.1499     86.0568
   459.0000      0.0000    397.6303     10.1428     87.3288
   459.2500      0.0000    398.0913     10.1081     89.1023
   459.5000      0.0000    398.5303     10.0366     91.6333
   459.7500      0.0000    399.1049      9.9683     95.0411
   460.0000      0.0000    400.5190      9.9528     98.6032
   460.2500      0.0000    404.7033     10.0084    101.1415
   460.5000      0.0000    415.4586     10.1008    101.9445
   460.7500      0.0000    437.7096     10.1792    100.9736
   461.0000      0.0000    474.1960     10.2400     98.4633
   461.2500      0.0000    521.2728     10.3309     94.8254
   461.5000      0.0000    568.8243     10.4876     90.8833
   461.7500      0.0000    606.7374     10.6904     87.7743
   462.0000      0.0000    632.1631     10.8843     86.3282
   462.2500      0.0000    649.1808     11.0284     86.4398
   462.5000      0.0000    661.8885     11.1231     87.0815
   462.7500      0.0000    670.3285     11.1982     87.0805
   463.0000      0.0000    672.9713     11.2641     86.0571
   463.2500      0.0000    669.4695     11.2822     84.7596
   463.5000      0.0000    659.6734     11.2125     84.5143
   463.7500      0.0000    643.4621     11.0843     86.2223
   464.0000      0.0000    624.4491     10.9788     89.6495
   464.2500      0.0000    611.8834     10.9361     93.3914
   464.5000      0.0000    614.8826     10.9133     95.5755
   464.7500      0.0000    634.0264     10.8429     95.1376
   465.0000      0.0000    660.3629     10.7072     92.8575
   465.2500      0.0000    682.4600     10.5436     90.8808
   465.5000      0.0000    693.5078     10.4089     90.8718
   465.7500      0.0000    693.6625     10.3527     92.6862
   466.0000      0.0000    688.5472     10.3973     94.7328
