~Version Information
VERS.                      2.0: CWLS Log ASCII Standard - VERSION 2.0
WRAP.                       NO: One line per depth step
~Well Information Block
STRT.FT               858.7000: 
STOP.FT              2478.2000: 
STEP.FT                 0.1000: 
NULL.                -999.2500: 
COMP.          Petrogulf Corporation: COMPANY
WELL.           Torcom 17-33 V: WELL
FLD.           Purgatoire River: FIELD
LOC.           1544' FSL & 1746' FEL: LOCATION
PROV.                 Colorado: PROVINCE
CNTY.               Las Animas: COUNTRY
SRVC.                Patterson: SERVICE COMPANY
DATE.          Wed Dec 03 09:22:08 2003: LOG DATE
UWI.                          : UNIQUE WELL ID
~Curve Information Block
DEPT.FT            0 000 00 00: Depth
DCAL.in                       : CDL Caliper
RHOB.g/cc                     : CDL Bulk Density
RHOC.g/cc                     : CDL Density Correction
DPOR.pu                       : CDL Density Porosity
GR.GAPI                       : Gamma Ray
NPOR.pu                       : Neutron Porosity
~Parameter Information Block
~A  Depth       DCAL        RHOB        RHOC        DPOR         GR         NPOR    
# ...
  2356.3000      8.0938      2.5137      0.0802      8.2620     71.2529     15.1003
  2356.4000      8.0938      2.5023      0.1032      8.9513     68.8275     14.8299
  2356.5000      8.0870      2.4931      0.0368      9.5121     63.7654     14.4808
  2356.6000      8.0870      2.5009      0.0503      9.0345     57.2737     13.9086
  2356.7000      8.0870      2.5268      0.0954      7.4696     53.7286     13.4013
  2356.8000      8.0759      2.5478      0.1610      6.1947     55.6056     13.3908
  2356.9000      8.0759      2.5429      0.1102      6.4920     59.8502     13.7551
  2357.0000      8.0726      2.5155      0.0782      8.1516     61.2549     13.9270
  2357.1000      8.0726      2.4827      0.0660     10.1375     57.5894     13.7208
  2357.2000      8.0726      2.4574      0.0457     11.6749     51.1948     13.7394
  2357.3000      8.0691      2.4475      0.0658     12.2735     46.9326     14.2359
  2357.4000      8.0691      2.4613      0.0574     11.4358     45.4886     14.5968
  2357.5000      8.0920      2.4997      0.1087      9.1072     45.0430     14.8250
  2357.6000      8.0920      2.5419      0.1186      6.5520     46.2917     15.4286
  2357.7000      8.0920      2.5611      0.1480      5.3862     48.2478     15.9252
  2357.8000      8.0253      2.5546      0.0983      5.7826     48.6318     15.6623
  2357.9000      8.0253      2.5384      0.1297      6.7659     48.7603     15.4053
  2358.0000      7.9963      2.5252      0.1217      7.5621     50.1643     15.9200
  2358.1000      7.9963      2.5155      0.1405      8.1514     51.5603     16.5765
  2358.2000      7.9963      2.5012      0.1328      9.0211     50.6047     16.6884
  2358.3000      8.0078      2.4833      0.1238     10.1005     47.0114     16.6239
  2358.4000      8.0078      2.4782      0.0650     10.4115     43.4998     16.9095
  2358.5000      8.0081      2.4936      0.1191      9.4797     44.1460     17.4515
  2358.6000      8.0081      2.5151      0.1520      8.1774     50.9714     17.8568
  2358.7000      8.0081      2.5308      0.1526      7.2244     60.0443     18.2349
  2358.8000      8.0140      2.5418      0.1370      6.5575     66.0267     18.8382
  2358.9000      8.0140      2.5424      0.1665      6.5227     68.6814     19.3216
  2359.0000      8.0147      2.5254      0.1297      7.5487     71.2798     19.2582
  2359.1000      8.0147      2.5073      0.1253      8.6492     76.6254     18.7884
  2359.2000      8.0147      2.5128      0.1176      8.3145     82.7511     18.1611
  2359.3000      8.0551      2.5387      0.1612      6.7454     84.4899     17.4778
  2359.4000      8.0551      2.5563      0.1619      5.6801     84.9533     16.7309
  2359.5000      8.0429      2.5563      0.1140      5.6802     88.4780     15.9552
  2359.6000      8.0429      2.5534      0.1338      5.8535     90.7362     15.2507
  2359.7000      8.0429      2.5542      0.1287      5.8065     88.8537     14.4952
  2359.8000      8.0398      2.5634      0.1075      5.2491     84.6738     13.7737
  2359.9000      8.0398      2.5859      0.1181      3.8823     78.4508     13.5434
  2360.0000      8.0274      2.6109      0.1368      2.3695     69.1948     13.7593
  2360.1000      8.0274      2.6240      0.1646      1.5761     60.3160     13.7473
  2360.2000      8.0274      2.6182      0.1337      1.9262     55.2810     13.3484
  2360.3000      8.0596      2.5942      0.1627      3.3799     50.9894     12.9625
  2360.4000      8.0596      2.5694      0.0994      4.8844     47.2367     12.5949
  2360.5000      8.0593      2.5641      0.0641      5.2089     49.2964     12.2167
  2360.6000      8.0593      2.5740      0.1382      4.6069     54.9932     11.9072
  2360.7000      8.0593      2.5912      0.0838      3.5608     58.0444     11.5922
  2360.8000      8.0858      2.6182      0.1087      1.9299     59.9755     11.2191
  2360.9000      8.0858      2.6453      0.1534      0.2837     64.5223     10.6112
  2361.0000      8.0542      2.6524      0.1290     -0.1459     67.5345      9.9557
  2361.1000      8.0542      2.6320      0.1006      1.0888     64.6802      9.9470
  2361.2000      8.0542      2.6040      0.0709      2.7909     59.4964     10.6526
  2361.3000      8.0795      2.5956      0.0148      3.2940     54.4713     11.5137
  2361.4000      8.0795      2.6022      0.0940      2.8971     49.6157     12.1277
  2361.5000      8.0813      2.5947      0.0732      3.3541     49.2303     12.4277
  2361.6000      8.0813      2.5740      0.0327      4.6079     54.8564     12.4430
  2361.7000      8.0813      2.5653      0.0052      5.1311     59.7935     12.2480
  2361.8000      8.0621      2.5718      0.0527      4.7390     58.2224     12.2651
  2361.9000      8.0621      2.5797     -0.0097      4.2593     51.1025     12.6851
  2362.0000      8.0830      2.5794      0.0595      4.2815     44.6545     13.4085
  2362.1000      8.0830      2.5681      0.0131      4.9631     44.7018     14.1555
  2362.2000      8.0830      2.5565      0.0486      5.6682     48.4367     14.2181
  2362.3000      8.0198      2.5516      0.0725      5.9644     49.9296     13.7035
  2362.4000      8.0198      2.5554      0.0310      5.7336     49.5175     13.4492
  2362.5000      7.9157      2.5629      0.1207      5.2786     50.0832     13.4809
  2362.6000      7.9157      2.5676      0.0699      4.9937     51.7058     13.5907
  2362.7000      7.9157      2.5780      0.0660      4.3651     53.6721     13.8225
  2362.8000      7.9080      2.5949      0.1344      3.3376     57.1591     13.8501
  2362.9000      7.9080      2.6055      0.1574      2.6956     60.8923     13.5052
  2363.0000      7.8935      2.5988      0.1730      3.1039     61.2802     13.0873
  2363.1000      7.8935      2.5654      0.1965      5.1251     58.5702     12.9914
  2363.2000      7.8935      2.5190      0.1029      7.9405     54.9963     13.4342
  2363.3000      7.8924      2.4981      0.1045      9.2067     50.8718     14.2250
  2363.4000      7.8924      2.5120      0.1569      8.3625     46.4873     15.0027
  2363.5000      7.8432      2.5277      0.2119      7.4106     44.3629     15.1418
  2363.6000      7.8432      2.5221      0.1972      7.7488     45.7180     14.4169
  2363.7000      7.8432      2.5119      0.1649      8.3683     49.5524     13.5793
  2363.8000      7.8319      2.5242      0.1714      7.6241     51.3778     13.0263
  2363.9000      7.8319      2.5568      0.2263      5.6484     48.4614     12.6573
  2364.0000      7.8242      2.5801      0.2773      4.2360     44.6175     12.6097
  2364.1000      7.8242      2.5726      0.2143      4.6924     41.2905     12.7309
  2364.2000      7.8242      2.5423      0.2038      6.5285     38.4966     12.7175
  2364.3000      7.8279      2.5132      0.1577      8.2924     38.7738     12.6678
  2364.4000      7.8279      2.5077      0.1287      8.6252     42.5120     12.6440
  2364.5000      7.8472      2.5286      0.1136      7.3599     47.3629     12.5825
  2364.6000      7.8472      2.5516      0.1976      5.9641     50.4106     12.6578
  2364.7000      7.8472      2.5614      0.1224      5.3724     49.9903     13.0230
  2364.8000      8.0237      2.5675      0.1661      4.9997     46.6801     13.4849
  2364.9000      8.0237      2.5666      0.1957      5.0544     43.7188     13.8760
  2365.0000      8.1077      2.5538      0.1290      5.8315     45.4641     14.1739
  2365.1000      8.1077      2.5374      0.0960      6.8266     51.0419     14.6216
  2365.2000      8.1077      2.5163      0.1346      8.1022     54.8498     15.5108
  2365.3000      8.1549      2.4921      0.0486      9.5691     54.3688     16.5204
  2365.4000      8.1549      2.4732      0.0536     10.7138     50.9153     17.0464
  2365.5000      8.1645      2.4551      0.0271     11.8101     47.0603     16.8709
  2365.6000      8.1645      2.4366      0.0667     12.9326     48.7088     16.0693
  2365.7000      8.1645      2.4235      0.0597     13.7287     57.2443     15.1916
  2365.8000      8.1397      2.4166      0.0398     14.1446     62.3456     14.9020
