~Version Information
VERS.                      2.0: CWLS Log ASCII Standard - VERSION 2.0
WRAP.                       NO: One line per depth step
~Well Information Block
STRT.FT               754.6000: 
STOP.FT              2329.0000: 
STEP.FT                 0.1000: 
NULL.                -999.2500: 
COMP.          Petrogulf Corporation: COMPANY
WELL.           Anderson 18-42: WELL
FLD.           Purgatoire River: FIELD
LOC.           1668' FNL & 1110' FEL: LOCATION
CNTY.               Las Animas: COUNTY
SRVC.                         : SERVICE COMPANY
DATE.          Tue Dec 16 12:18:55 2003: LOG DATE
UWI.                          : UNIQUE WELL ID
STAT.                 Colorado: STATE
~Curve Information Block
DEPT.FT            0 000 00 00: Depth
DCAL.in                       : CDL Caliper
RHOB.g/cc                     : CDL Bulk Density
RHOC.g/cc                     : CDL Density Correction
DPOR.pu                       : CDL Density Porosity
NPOR.pu                       : Neutron Porosity
GR.GAPI                       : Gamma Ray
~Parameter Information Block
~A  Depth       DCAL        RHOB        RHOC        DPOR        NPOR         GR     
# ...
   889.0000      8.2085      2.4985      0.0880      9.1826     26.6210    125.9810
   889.1000      8.2085      2.5047      0.0857      8.8038     26.5618    128.0595
   889.2000      8.2085      2.5164      0.1051      8.0995     26.7388    130.6595
   889.3000      8.2142      2.5152      0.0871      8.1726     26.8294    130.6709
   889.4000      8.2142      2.4973      0.0386      9.2567     26.7765    127.0236
   889.5000      8.2262      2.4829      0.0634     10.1265     26.8680    119.8009
   889.6000      8.2262      2.4904      0.0365      9.6725     27.2069    112.7633
   889.7000      8.2262      2.5133      0.0624      8.2876     27.7564    106.6931
   889.8000      8.2284      2.5283      0.0625      7.3775     28.2939    102.3443
   889.9000      8.2284      2.5193      0.0587      7.9234     28.4654    103.9817
   890.0000      8.2277      2.4868      0.0221      9.8939     28.4530    110.2800
   890.1000      8.2277      2.4502     -0.0406     12.1087     28.6098    115.2166
   890.2000      8.2277      2.4284     -0.0255     13.4316     28.6578    117.1575
   890.3000      8.2319      2.4141      0.0157     14.2946     28.1509    117.4014
   890.4000      8.2319      2.3932     -0.0333     15.5613     27.1228    119.1375
   890.5000      8.2274      2.3711     -0.0400     16.9013     26.0200    127.4758
   890.6000      8.2274      2.3611      0.0020     17.5105     25.0812    141.2413
   890.7000      8.2274      2.3683      0.0278     17.0733     24.3075    152.4212
   890.8000      8.2262      2.3906      0.0622     15.7202     23.8667    158.4141
   890.9000      8.2262      2.4223      0.0878     13.7993     23.7632    160.8225
   891.0000      8.2273      2.4575      0.1303     11.6696     23.9832    158.8931
   891.1000      8.2273      2.4872      0.1447      9.8686     24.4654    156.4859
   891.2000      8.2273      2.4967      0.1792      9.2937     24.8564    155.9738
   891.3000      8.2258      2.4830      0.1225     10.1230     24.9636    150.2157
   891.4000      8.2258      2.4643      0.0670     11.2519     24.9521    138.8865
   891.5000      8.2229      2.4563      0.0315     11.7403     24.9352    131.1506
   891.6000      8.2229      2.4609      0.0441     11.4616     24.8985    129.6146
   891.7000      8.2229      2.4742      0.0108     10.6570     24.9213    129.9577
   891.8000      8.2203      2.4873      0.0414      9.8606     25.1200    128.2805
   891.9000      8.2203      2.4938      0.0175      9.4694     25.2586    125.2445
   892.0000      8.2299      2.4993      0.0212      9.1351     24.9597    124.1767
   892.1000      8.2299      2.5132      0.0285      8.2904     24.3255    124.1115
   892.2000      8.2299      2.5320      0.0547      7.1502     23.6674    120.0393
   892.3000      8.2279      2.5391      0.0810      6.7220     23.1724    112.8381
   892.4000      8.2279      2.5301      0.0347      7.2660     22.9496    109.9754
   892.5000      8.2145      2.5164      0.0600      8.1000     22.9900    113.7033
   892.6000      8.2145      2.5098     -0.0035      8.4944     23.3931    119.1080
   892.7000      8.2145      2.5221      0.0132      7.7540     24.1894    119.4321
   892.8000      8.2185      2.5451      0.0692      6.3589     24.9231    113.2458
   892.9000      8.2185      2.5611      0.0334      5.3896     25.2168    107.3439
   893.0000      8.2246      2.5708      0.0303      4.8001     25.4667    104.1370
   893.1000      8.2246      2.5834      0.0413      4.0388     26.1374     98.7909
   893.2000      8.2246      2.5949      0.0573      3.3424     26.9702     92.3374
   893.3000      8.2274      2.5920      0.0538      3.5160     27.6911     89.1028
   893.4000      8.2274      2.5770      0.0106      4.4258     28.3927     87.5028
   893.5000      8.2278      2.5682      0.0105      4.9602     28.9010     86.1260
   893.6000      8.2278      2.5757      0.0083      4.5016     28.7509     88.7439
   893.7000      8.2278      2.5882      0.0570      3.7460     28.1579     95.8525
   893.8000      8.2287      2.5875      0.0637      3.7864     27.7695    101.6558
   893.9000      8.2287      2.5714      0.0489      4.7612     27.6489    104.3259
   894.0000      8.2267      2.5442      0.0464      6.4136     27.5527    108.3365
   894.1000      8.2267      2.5117      0.0124      8.3797     27.4599    114.6340
   894.2000      8.2267      2.4939      0.0146      9.4589     27.3537    120.0394
   894.3000      8.2088      2.5023      0.0121      8.9495     27.0800    122.1734
   894.4000      8.2088      2.5178      0.0656      8.0100     26.6283    118.9824
   894.5000      8.2246      2.5158      0.0235      8.1305     26.2667    110.0840
   894.6000      8.2246      2.4947      0.0127      9.4130     25.9587    101.5884
   894.7000      8.2246      2.4665      0.0138     11.1224     25.5445    103.2745
   894.8000      8.2343      2.4442     -0.0027     12.4747     25.1551    115.2682
   894.9000      8.2343      2.4324      0.0428     13.1907     24.9745    123.9016
   895.0000      8.2308      2.4265      0.0152     13.5471     25.0799    120.6376
   895.1000      8.2308      2.4213      0.0618     13.8579     25.3116    113.7500
   895.2000      8.2308      2.4097      0.0411     14.5663     25.3704    115.0561
   895.3000      8.2344      2.3887      0.0277     15.8356     25.2068    123.9335
   895.4000      8.2344      2.3640      0.0165     17.3321     25.1063    135.1511
   895.5000      8.2388      2.3473      0.0071     18.3441     25.2905    145.2033
   895.6000      8.2388      2.3564      0.0032     17.7946     25.6342    145.0041
   895.7000      8.2388      2.3999      0.0619     15.1605     25.9033    133.5535
   895.8000      8.2298      2.4600      0.1487     11.5174     26.2097    121.8348
   895.9000      8.2298      2.5086      0.1962      8.5683     26.6813    114.8419
   896.0000      8.2222      2.5357      0.1731      6.9284     27.1858    114.0103
   896.1000      8.2222      2.5435      0.1704      6.4518     27.5995    120.1530
   896.2000      8.2222      2.5361      0.1227      6.9017     27.8982    125.3258
   896.3000      8.2272      2.5295      0.0615      7.3019     28.1989    121.8671
   896.4000      8.2272      2.5386      0.0597      6.7504     28.6625    116.1922
   896.5000      8.2214      2.5600      0.0458      5.4556     29.1732    115.2749
   896.6000      8.2214      2.5854      0.0291      3.9154     29.3697    114.0696
   896.7000      8.2214      2.6043      0.0242      2.7673     28.9344    109.0583
   896.8000      8.2083      2.6043      0.0590      2.7683     28.1716    103.9283
   896.9000      8.2083      2.5877      0.0456      3.7753     27.8179    104.3953
   897.0000      8.2330      2.5633      0.0651      5.2530     27.8777    113.3202
   897.1000      8.2330      2.5336      0.0522      7.0541     27.7642    125.7573
   897.2000      8.2330      2.5100     -0.0256      8.4837     27.4058    134.8489
   897.3000      8.2060      2.5069      0.0364      8.6749     27.2000    139.3167
   897.4000      8.2060      2.5173      0.0280      8.0423     27.2331    141.0896
   897.5000      8.2063      2.5234      0.0368      7.6747     27.3180    141.8409
   897.6000      8.2063      2.5154      0.0405      8.1554     27.3967    140.3443
   897.7000      8.2063      2.5005     -0.0194      9.0614     27.1704    136.3721
   897.8000      8.2001      2.4981     -0.0193      9.2069     26.4017    133.4774
   897.9000      8.2001      2.5142      0.0280      8.2302     25.6894    129.6626
   898.0000      8.2114      2.5359     -0.0027      6.9122     25.6848    123.4378
   898.1000      8.2114      2.5587      0.0347      5.5346     26.1938    120.4450
   898.2000      8.2114      2.5901      0.0389      3.6323     26.3791    123.8884
   898.3000      8.2086      2.6301      0.0533      1.2063     25.9289    131.5256
   898.4000      8.2086      2.6600      0.0961     -0.6081     25.5776    135.4960
   898.5000      8.2117      2.6628      0.0557     -0.7770     25.8914    130.4911
