~Version Information
VERS.                      2.0: CWLS Log ASCII Standard - VERSION 2.0
WRAP.                       NO: One line per depth step
~Well Information Block
STRT.FT               741.2000: 
STOP.FT              2461.0000: 
STEP.FT                 0.1000: 
NULL.                -999.2500: 
COMP.          Petrogulf Corporation: COMPANY
WELL.           Montoya 12-44V: WELL
FLD.           Purgatorie River: FIELD
LOC.           698' FSL & 599' FEL: LOCATION
CNTY.               Las Animas: COUNTY
SRVC.                         : SERVICE COMPANY
DATE.          Mon Aug 09 06:09:04 2004: LOG DATE
UWI.           05 071 08094 00: UNIQUE WELL ID
STAT.                 Colorado: STATE
~Curve Information Block
DEPT.FT            0 000 00 00: Depth
DCAL.in                       : CDL Caliper
RHOB.g/cc                     : CDL Bulk Density
RHOC.g/cc                     : CDL Density Correction
DPOR.pu                       : CDL Density Porosity
GR.GAPI                       : Gamma Ray
NPOR.pu                       : Neutron Porosity
~Parameter Information Block
~A  Depth       DCAL        RHOB        RHOC        DPOR         GR         NPOR    
# ...
  1998.8000      7.8368      2.6013      0.0599      2.9527    122.4782     26.1369
  1998.9000      7.8368      2.5991      0.1231      3.0846    122.1764     26.4797
  1999.0000      7.8354      2.5874      0.0908      3.7964    120.0562     26.7829
  1999.1000      7.8354      2.5781      0.1018      4.3593    120.3265     26.8272
  1999.2000      7.8354      2.5683      0.1060      4.9531    123.2717     26.5946
  1999.3000      7.8618      2.5574      0.0381      5.6144    125.3746     26.1107
  1999.4000      7.8618      2.5536      0.0186      5.8454    127.2445     25.4272
  1999.5000      7.8618      2.5536      0.0422      5.8443    132.2595     24.8185
  1999.6000      7.8618      2.5493      0.0558      6.1045    137.3806     24.6246
  1999.7000      7.8618      2.5361      0.0734      6.9046    137.6582     24.7372
  1999.8000      7.8509      2.5154      0.0459      8.1590    134.3353     24.8171
  1999.9000      7.8509      2.4974      0.0513      9.2468    132.9049     24.7866
  2000.0000      7.8485      2.4844      0.0628     10.0389    138.0658     25.0728
  2000.1000      7.8485      2.4729      0.0155     10.7333    146.8489     25.7332
  2000.2000      7.8485      2.4682      0.0448     11.0157    150.3265     26.1686
  2000.3000      7.8320      2.4738      0.0403     10.6784    143.6444     26.1143
  2000.4000      7.8320      2.4877      0.0663      9.8345    129.9185     25.6893
  2000.5000      7.8153      2.5070      0.0576      8.6681    120.6564     25.0166
  2000.6000      7.8153      2.5264      0.1113      7.4925    124.1231     24.3985
  2000.7000      7.8153      2.5421      0.0973      6.5391    133.5223     24.2207
  2000.8000      7.7649      2.5613      0.1219      5.3737    136.9271     24.2104
  2000.9000      7.7649      2.5890      0.1096      3.6999    128.7837     24.0230
  2001.0000      7.7452      2.6157      0.0947      2.0760    112.8748     23.9520
  2001.1000      7.7452      2.6280      0.1371      1.3308    101.1991     24.2127
  2001.2000      7.7452      2.6234      0.1453      1.6097     98.7786     24.0970
  2001.3000      7.7187      2.6151      0.0844      2.1138     96.5694     22.9432
  2001.4000      7.7187      2.6083      0.1168      2.5267     91.6274     21.4659
  2001.5000      7.7045      2.5897      0.0989      3.6564     90.1843     20.5930
  2001.6000      7.7045      2.5546      0.0820      5.7848     91.0934     20.3176
  2001.7000      7.7045      2.5158      0.0598      8.1363     91.1613     20.2295
  2001.8000      7.7077      2.4843      0.0658     10.0420     94.4285     20.3728
  2001.9000      7.7077      2.4664      0.0366     11.1247    100.7595     20.7494
  2002.0000      7.7394      2.4675      0.0497     11.0600    103.9535     20.9490
  2002.1000      7.7394      2.4827      0.0573     10.1370    104.1285     21.0158
  2002.2000      7.7394      2.5026      0.0698      8.9350    102.4955     21.2081
  2002.3000      7.7151      2.5233      0.1021      7.6801     99.8774     21.4460
  2002.4000      7.7151      2.5424      0.1319      6.5214     99.3488     21.9234
  2002.5000      7.7018      2.5545      0.1525      5.7857     99.7773     22.6411
  2002.6000      7.7018      2.5637      0.1345      5.2322     98.9168     22.9668
  2002.7000      7.7018      2.5794      0.1764      4.2763     97.4280     22.5342
  2002.8000      7.6871      2.5935      0.2050      3.4267     94.2089     21.6051
  2002.9000      7.6871      2.5918      0.1481      3.5285     92.5136     21.0455
  2003.0000      7.7081      2.5766      0.1433      4.4495     97.0926     21.2998
  2003.1000      7.7081      2.5562      0.1203      5.6837    103.8155     21.6662
  2003.2000      7.7081      2.5386      0.0860      6.7523    105.1434     21.4550
  2003.3000      7.7847      2.5305      0.0337      7.2412    100.1153     20.7920
  2003.4000      7.7847      2.5349      0.0256      6.9773     94.2385     20.3771
  2003.5000      7.7978      2.5468      0.0520      6.2524     88.9602     20.7054
  2003.6000      7.7978      2.5543      0.0619      5.7996     83.7693     21.5434
  2003.7000      7.7978      2.5508      0.0666      6.0107     82.3218     21.9211
  2003.8000      7.8253      2.5446      0.0380      6.3895     85.8116     21.4191
  2003.9000      7.8253      2.5459      0.0350      6.3083     88.0157     20.9251
  2004.0000      7.8311      2.5507      0.0551      6.0152     85.4335     20.7670
  2004.1000      7.8311      2.5480      0.0739      6.1824     81.8054     20.9293
  2004.2000      7.8311      2.5362      0.0521      6.8973     79.2002     21.5683
  2004.3000      7.8275      2.5275      0.0336      7.4262     77.1600     22.0594
  2004.4000      7.8275      2.5313      0.0606      7.1946     76.6584     21.9890
  2004.5000      7.8005      2.5402      0.0743      6.6565     77.4890     21.4721
  2004.6000      7.8005      2.5428      0.0759      6.4962     75.0590     20.4945
  2004.7000      7.8005      2.5366      0.0734      6.8727     67.8029     19.8676
  2004.8000      7.7726      2.5286      0.0409      7.3557     61.8279     20.2783
  2004.9000      7.7726      2.5289      0.0659      7.3406     60.4663     21.0029
  2005.0000      7.7622      2.5360      0.0978      6.9104     62.1135     21.5395
  2005.1000      7.7622      2.5395      0.1020      6.6944     68.1493     22.1124
  2005.2000      7.7622      2.5380      0.0693      6.7894     77.2036     22.4335
  2005.3000      7.7656      2.5419      0.0626      6.5530     79.3829     21.9326
  2005.4000      7.7656      2.5582      0.0249      5.5634     71.9003     20.3511
  2005.5000      7.7502      2.5842      0.0777      3.9909     66.0236     18.5347
  2005.6000      7.7502      2.6113      0.0912      2.3484     66.8069     17.9924
  2005.7000      7.7502      2.6331      0.1008      1.0254     66.5000     18.6062
  2005.8000      7.7375      2.6465      0.1176      0.2151     62.6346     19.1446
  2005.9000      7.7375      2.6457      0.1591      0.2620     60.6660     19.6115
  2006.0000      7.7056      2.6358      0.0996      0.8587     62.5164     20.3420
  2006.1000      7.7056      2.6371      0.1272      0.7802     63.9730     20.8639
  2006.2000      7.7056      2.6554      0.1406     -0.3284     64.1770     20.9375
  2006.3000      7.7032      2.6725      0.1428     -1.3617     67.0912     20.9282
  2006.4000      7.7032      2.6714      0.1406     -1.2946     69.0900     21.0238
  2006.5000      7.7006      2.6579      0.1407     -0.4770     64.8966     20.9751
  2006.6000      7.7006      2.6492      0.1345      0.0483     59.7239     20.7355
  2006.7000      7.7006      2.6489      0.1305      0.0646     57.1158     20.5046
  2006.8000      7.7033      2.6471      0.1340      0.1750     55.6507     20.5300
  2006.9000      7.7033      2.6380      0.1331      0.7251     55.3884     20.6926
  2007.0000      7.7253      2.6234      0.0990      1.6149     55.8867     20.9558
  2007.1000      7.7253      2.6084      0.0921      2.5225     58.1104     21.4099
  2007.2000      7.7253      2.5990      0.0736      3.0890     61.0540     21.7105
  2007.3000      7.7385      2.5995      0.0933      3.0581     61.2789     22.0290
  2007.4000      7.7385      2.6098      0.1037      2.4386     61.1612     22.6311
  2007.5000      7.7113      2.6205      0.1158      1.7873     63.9107     22.9408
  2007.6000      7.7113      2.6180      0.1143      1.9421     67.0887     22.4465
  2007.7000      7.7113      2.5961      0.0921      3.2676     68.6585     21.7217
  2007.8000      7.7409      2.5619      0.0459      5.3421     69.6325     21.5643
  2007.9000      7.7409      2.5299      0.0124      7.2797     73.6601     21.8777
  2008.0000      7.7517      2.5155      0.0174      8.1513     84.8231     22.2168
  2008.1000      7.7517      2.5251      0.0211      7.5703    101.6188     22.2493
  2008.2000      7.7517      2.5457      0.0774      6.3213    115.2257     21.8524
  2008.3000      7.8024      2.5567      0.0487      5.6548    118.1869     21.5047
