~Version Information
VERS.                      2.0: CWLS Log ASCII Standard - VERSION 2.0
WRAP.                       NO: One line per depth step
~Well Information Block
STRT.FT               275.0000: 
STOP.FT               811.2000: 
STEP.FT                 0.1000: 
NULL.                -999.2500: 
COMP.          Pioneer Natural Resources: COMPANY
WELL.          Barrelman 41-27: WELL
FLD.           Purgatoire River: FIELD
LOC.           371' FNL & 493' FEL--: LOCATION
PROV.                 Colorado: PROVINCE
CNTY.               Las Animas: COUNTRY
SRVC.                Patterson: SERVICE COMPANY
DATE.          Fri May 20 11:50:01 2005: LOG DATE
UWI.           05 071 08334 00: UNIQUE WELL ID
~Curve Information Block
DEPT.FT            0 000 00 00: Depth
DCAL.in                       : CDL Caliper
RHOB.g/cc                     : CDL Bulk Density
RHOC.g/cc                     : CDL Density Correction
DPOR.pu                       : CDL Density Porosity
NPOR.pu                       : Neutron Porosity
GR.GAPI                       : Gamma Ray
~Parameter Information Block
~A  Depth       DCAL        RHOB        RHOC        DPOR        NPOR         GR     
# ...
   476.6000      7.9529      2.4599      0.0495     11.5185     20.8781    126.1798
   476.7000      7.9529      2.4193      0.0523     13.9791     20.9611    119.7778
   476.8000      7.9528      2.3882     -0.0073     15.8667     20.4358    118.1541
   476.9000      7.9528      2.3867      0.0005     15.9586     19.7460    121.2494
   477.0000      7.9528      2.4212      0.0052     13.8644     19.4831    124.4737
   477.1000      7.9528      2.4763      0.0557     10.5257     19.6212    122.5097
   477.2000      7.9528      2.5297      0.1575      7.2931     19.7892    116.5425
   477.3000      7.9529      2.5668      0.1625      5.0431     19.8147    109.9417
   477.4000      7.9529      2.5861      0.1960      3.8742     19.7799    104.3016
   477.5000      7.9581      2.5965      0.1305      3.2454     19.7389    102.2525
   477.6000      7.9581      2.6011      0.1560      2.9608     19.5974    104.2180
   477.7000      7.9581      2.5934      0.1106      3.4291     19.3355    105.5973
   477.8000      7.9701      2.5759      0.0886      4.4926     19.2276    103.0557
   477.9000      7.9701      2.5575      0.0751      5.6047     19.4902     98.7635
   478.0000      7.9808      2.5470      0.0467      6.2409     19.9581     97.3354
   478.1000      7.9808      2.5566      0.0094      5.6615     20.3654    100.8202
   478.2000      7.9808      2.5769      0.0866      4.4298     20.6281    106.6922
   478.3000      7.9845      2.5788      0.0770      4.3140     20.7951    109.1135
   478.4000      7.9845      2.5670     -0.0153      5.0310     20.8499    106.4217
   478.5000      7.9833      2.5660      0.0267      5.0909     20.6706    103.3136
   478.6000      7.9833      2.5690      0.0365      4.9106     20.3926    102.4837
   478.7000      7.9833      2.5589      0.0229      5.5227     20.3127    101.5296
   478.8000      7.9823      2.5361      0.0109      6.9018     20.5150     97.4925
   478.9000      7.9823      2.5107      0.0015      8.4406     20.7644     90.7045
   479.0000      7.9822      2.4943     -0.0139      9.4386     20.6750     85.7585
   479.1000      7.9822      2.4888      0.0185      9.7677     20.3250     85.9141
   479.2000      7.9822      2.4835      0.0425     10.0926     20.1246     90.1156
   479.3000      7.9802      2.4767      0.0143     10.5011     20.2529     95.7434
   479.4000      7.9802      2.4866     -0.0063      9.9056     20.5161     98.7015
   479.5000      7.9787      2.5163      0.0373      8.1049     20.6210     94.9601
   479.6000      7.9787      2.5385      0.0575      6.7591     20.3782     91.2107
   479.7000      7.9787      2.5395      0.0504      6.6999     19.6948     95.3469
   479.8000      7.9828      2.5399      0.0782      6.6716     18.8837    101.7944
   479.9000      7.9828      2.5569      0.1089      5.6449     18.4266    104.6333
   480.0000      7.9952      2.5807      0.1414      4.1978     18.4433    103.7396
   480.1000      7.9952      2.5980      0.1295      3.1488     18.8651    100.4228
   480.2000      7.9952      2.6104      0.1075      2.4027     19.3270     98.8908
   480.3000      8.0139      2.6170      0.1236      2.0016     19.4442     99.4637
   480.4000      8.0139      2.6124      0.0655      2.2770     19.4445     96.6417
   480.5000      8.0279      2.6008      0.0615      2.9800     19.6432     89.7396
   480.6000      8.0279      2.5882      0.0183      3.7471     19.9016     84.9410
   480.7000      8.0279      2.5780      0.0310      4.3616     19.9579     85.2524
   480.8000      8.0327      2.5675      0.0408      5.0015     20.0696     86.2244
   480.9000      8.0327      2.5534      0.0285      5.8564     20.6650     84.7061
   481.0000      8.0324      2.5481     -0.0063      6.1755     21.3239     82.2815
   481.1000      8.0324      2.5564      0.0525      5.6741     21.4517     81.8466
   481.2000      8.0324      2.5577      0.0492      5.5969     21.1864     84.5022
   481.3000      8.0319      2.5473      0.0086      6.2239     20.7564     87.6389
   481.4000      8.0319      2.5410      0.0270      6.6071     20.2889     87.6123
   481.5000      8.0308      2.5448     -0.0185      6.3773     20.0481     83.2741
   481.6000      8.0308      2.5599      0.0212      5.4630     19.9746     77.0441
   481.7000      8.0308      2.5760      0.0532      4.4826     19.8626     74.1539
   481.8000      8.0308      2.5739      0.0474      4.6143     19.8904     80.2857
   481.9000      8.0308      2.5554      0.0261      5.7343     20.0486     92.7201
   482.0000      8.0320      2.5409      0.0318      6.6094     20.0786    101.5979
   482.1000      8.0320      2.5394      0.0401      6.7039     20.1720    103.5378
   482.2000      8.0320      2.5456      0.0683      6.3246     20.4108    100.8148
   482.3000      8.0324      2.5526      0.0401      5.9016     20.4907     94.2838
   482.4000      8.0324      2.5541      0.0372      5.8138     20.3943     87.4310
   482.5000      8.0315      2.5426      0.0786      6.5115     20.2213     85.9675
   482.6000      8.0315      2.5208      0.0257      7.8311     19.9270     88.4181
   482.7000      8.0315      2.5022      0.0116      8.9587     19.5927     91.4954
   482.8000      8.0298      2.4954      0.0029      9.3710     19.3501     95.9906
   482.9000      8.0298      2.4988      0.0473      9.1620     19.1180    102.6157
   483.0000      8.0293      2.5031      0.0469      8.9030     18.9021    110.6211
   483.1000      8.0293      2.5002      0.0267      9.0800     18.8669    116.0958
   483.2000      8.0293      2.4931      0.0318      9.5072     18.8633    115.8846
   483.3000      8.0298      2.4924      0.0423      9.5536     18.6277    110.9492
   483.4000      8.0298      2.4991      0.0601      9.1483     18.0828    106.8251
   483.5000      8.0301      2.5107      0.0411      8.4427     17.5674    107.5934
   483.6000      8.0301      2.5281      0.0817      7.3880     17.6855    108.1741
   483.7000      8.0301      2.5409      0.1151      6.6128     18.2109    104.0986
   483.8000      8.0302      2.5400      0.0946      6.6681     18.4279     98.7881
   483.9000      8.0302      2.5367      0.0633      6.8659     18.5164     93.5789
   484.0000      8.0312      2.5386      0.0751      6.7525     18.6396     89.5754
   484.1000      8.0312      2.5333      0.1089      7.0743     18.3734     88.8883
   484.2000      8.0312      2.5140      0.0533      8.2413     17.9000     88.9092
   484.3000      8.0321      2.4875      0.0515      9.8496     17.6521     89.3240
   484.4000      8.0321      2.4632      0.0019     11.3190     17.4883     90.7240
   484.5000      8.0341      2.4550      0.0117     11.8212     17.2096     89.6278
   484.6000      8.0341      2.4671      0.0390     11.0878     17.1840     85.7744
   484.7000      8.0341      2.4922      0.0497      9.5664     17.4932     82.9379
   484.8000      8.0350      2.5214      0.1109      7.7958     17.4452     80.9785
   484.9000      8.0350      2.5444      0.1139      6.3997     16.9842     77.5322
   485.0000      8.0328      2.5549      0.1118      5.7658     16.6298     74.6320
   485.1000      8.0328      2.5507      0.1425      6.0191     16.6443     76.0957
   485.2000      8.0328      2.5411      0.0896      6.6029     16.8687     79.2594
   485.3000      8.0304      2.5442      0.0979      6.4148     16.7954     78.6375
   485.4000      8.0304      2.5562      0.1114      5.6833     16.5052     73.7830
   485.5000      8.0299      2.5583      0.1159      5.5590     16.8043     70.1619
   485.6000      8.0299      2.5495      0.0894      6.0916     17.7458     71.9173
   485.7000      8.0299      2.5426      0.0572      6.5106     18.3278     75.6019
   485.8000      8.0307      2.5376      0.0722      6.8142     18.2283     76.4586
   485.9000      8.0307      2.5272      0.0590      7.4431     18.2631     75.9918
   486.0000      8.0303      2.5167      0.0096      8.0773     18.7927     75.0261
   486.1000      8.0303      2.5099      0.0459      8.4893     19.2462     74.7092
