~Version Information
 VERS.                                  2.0 : CWLS LAS VERSION
 WRAP.                                   NO : WRAPING MODE
 SWARE .                 MController 2.5.0J : SOFTWARE VERSION
~Well Information
 WELL.                  Great Plains 22-21V : WELL
 COMP.                Petrogulf Corporation : COMPANY
 FLD.                      Purgatoire River : FIELD
 LOC.                NE/NW Sec 22 T33S R67W : LOCATION
 DATE.                          08/29-30/05 : DATE(S) LOGGED
 SRVC.       Blanco Geological Services LLC : SERVICE COMPANY
 STAT.                                   CO : STATE
 CNTY.                           Las Animas : COUNTY
 CTRY.                                  USA : COUNTRY
 API.                       05-071-08346-00 : API NUMBER
 STRT.FT                              -2.00 : START DEPTH
 STOP.FT                            2090.00 : STOP DEPTH
 STEP.FT                               1.00 : DEPTH INCREMENT
 NULL.                                -9999 : NULL VALUE
~Curve information
 DEPTH.FT                                   :
 ROP.MIN/FT                                 :
 GAS.UNITS                                  :
~ASCII Log data
# ...
      1598.0         0.52       1039.9 
      1599.0         0.60       1130.4 
      1600.0         0.60       1148.8 
      1601.0         0.63       1244.3 
      1602.0         0.60       1297.0 
      1603.0         0.47       1270.3 
      1604.0         0.42       1180.8 
      1605.0         0.43       1251.9 
      1606.0         0.43       1255.4 
      1607.0         0.40       1162.4 
      1608.0         0.37       1166.9 
      1609.0         0.47       1127.5 
      1610.0         0.37       1124.6 
      1611.0         0.45       1122.4 
      1612.0         0.47       1142.4 
      1613.0         0.53       1145.0 
      1614.0         0.47       1163.4 
      1615.0         0.57       1163.0 
      1616.0         0.62       1123.4 
      1617.0         0.57       1091.0 
      1618.0         0.60        785.4 
      1619.0         0.57       1420.8 
      1620.0         5.10       4678.1 
      1621.0         0.80        975.8 
      1622.0         0.70       1386.8 
      1623.0         0.68       1847.6 
      1624.0         3.10       1681.3 
      1625.0         3.25        192.9 
      1626.0         2.02        102.9 
      1627.0         3.45        363.4 
      1628.0         0.67         89.9 
      1629.0         0.72         71.1 
      1630.0         0.60        128.9 
      1631.0         0.30        111.6 
      1632.0         0.43         99.9 
      1633.0         0.50         99.2 
      1634.0         0.57         70.3 
      1635.0         0.50        150.2 
      1636.0         0.38        164.5 
      1637.0         0.37        148.4 
      1638.0         0.40        101.3 
      1639.0         0.53         69.2 
      1640.0         0.53        140.5 
      1641.0         0.33        184.8 
      1642.0         0.43        208.0 
      1643.0         0.45        181.9 
      1644.0         0.57        276.4 
      1645.0         0.67        380.4 
      1646.0         0.63        325.2 
      1647.0         0.67        134.9 
      1648.0         0.53         61.6 
      1649.0         0.75        263.3 
      1650.0         7.73       3104.8 
      1651.0         0.97        150.8 
      1652.0         0.40        197.9 
      1653.0         0.35        199.0 
      1654.0         0.37        165.6 
      1655.0         0.37        145.0 
      1656.0         0.43        215.7 
      1657.0         0.23        232.0 
      1658.0         0.23        229.2 
      1659.0         0.23        188.8 
      1660.0         0.43        136.6 
      1661.0         0.92        147.0 
      1662.0         0.23        147.9 
      1663.0         0.33        136.2 
      1664.0         0.73         96.8 
      1665.0         0.57         59.5 
      1666.0         0.57         85.1 
      1667.0         0.55         83.1 
      1668.0         0.77        121.9 
      1669.0         0.60        126.9 
      1670.0         0.70         87.5 
      1671.0         0.88         74.9 
      1672.0         0.73         70.5 
      1673.0         0.80         63.2 
      1674.0         0.97         80.2 
      1675.0         0.85         86.2 
      1676.0         0.93        136.3 
      1677.0         1.75        145.0 
      1678.0         0.70        307.8 
      1679.0         0.83       1473.4 
      1680.0         7.13       2591.6 
      1681.0         1.58        109.5 
      1682.0         0.87         74.9 
      1683.0         1.00         83.7 
      1684.0         0.88         83.6 
      1685.0         0.83         66.1 
      1686.0         1.00        109.7 
      1687.0         0.98        122.9 
      1688.0         1.23         74.5 
      1689.0         1.33         59.7 
      1690.0         1.45        102.7 
      1691.0         1.73        109.7 
      1692.0         2.32        200.2 
      1693.0         2.02        109.8 
      1694.0       184.97       9563.5 
      1695.0         0.87         62.4 
      1696.0         1.48         61.0 
      1697.0         1.07        329.4 
      1698.0         0.63       1259.5 
      1699.0         0.60       1256.7 
      1700.0         0.58        695.2 
      1701.0         0.43        452.7 
      1702.0         0.43        503.2 
      1703.0         0.47        551.1 
      1704.0         0.50        555.6 
      1705.0         0.53        501.6 
      1706.0         0.42        440.0 
      1707.0         0.57         61.5 
      1708.0         0.50         86.7 
      1709.0         0.47        100.8 
      1710.0         0.50         99.1 
      1711.0         0.53         86.7 
      1712.0         0.55         64.1 
      1713.0         0.60         54.0 
      1714.0         0.63         54.2 
      1715.0         0.73         54.3 
      1716.0         0.60         62.9 
      1717.0         0.45         75.7 
      1718.0         0.50         81.7 
      1719.0         0.67         81.9 
      1720.0         0.63         84.2 
      1721.0         0.50         90.9 
      1722.0         0.78         95.1 
      1723.0         0.67         95.3 
      1724.0         0.67         94.2 
      1725.0         0.53         88.0 
      1726.0         0.57         82.3 
      1727.0         0.75         78.6 
      1728.0         0.67         90.2 
      1729.0         0.47        112.4 
      1730.0         0.53        165.2 
      1731.0         3.18        335.7 
      1732.0         0.77        135.5 
      1733.0         0.75        135.5 
      1734.0         0.90        109.8 
      1735.0         0.43         75.5 
      1736.0         0.33         72.5 
      1737.0         0.53         74.1 
      1738.0         0.58         78.2 
      1739.0         0.57         78.5 
      1740.0         0.50         78.8 
      1741.0         0.43         78.4 
      1742.0         0.43         72.6 
      1743.0         0.47         62.3 
      1744.0         0.50         66.0 
      1745.0         0.38         69.2 
      1746.0         0.47         70.2 
      1747.0         0.53         71.8 
      1748.0         0.57         71.3 
      1749.0         0.60         67.1 
      1750.0         0.63         61.4 
      1751.0         0.55         57.1 
      1752.0         0.47         56.0 
      1753.0         0.60         55.1 
      1754.0         0.67         52.8 
      1755.0         0.60         49.2 
      1756.0         0.72         50.2 
      1757.0         0.37         51.5 
      1758.0         0.47         52.0 
      1759.0         0.63         51.5 
      1760.0         0.57         50.4 
      1761.0         4.67        279.5 
      1762.0         0.80        119.5 
      1763.0         0.50        100.8 
      1764.0         0.60         79.6 
      1765.0         0.80         63.5 
      1766.0         0.78         63.3 
      1767.0         0.80         61.2 
      1768.0         0.80         54.7 
      1769.0         0.77         50.7 
      1770.0         0.78         49.5 
      1771.0         0.70         49.2 
      1772.0         0.73         49.1 
      1773.0         0.37         53.1 
      1774.0         0.37         53.9 
      1775.0         0.57         53.3 
      1776.0         0.58         51.3 
      1777.0         0.53         48.8 
      1778.0         0.50         49.6 
      1779.0         0.23         55.2 
      1780.0         0.20         62.8 
      1781.0         0.17         67.9 
      1782.0         0.13         69.6 
      1783.0         0.27         69.9 
      1784.0         0.50         67.5 
      1785.0         0.58         61.3 
      1786.0         0.60         57.3 
      1787.0         0.53         53.2 
      1788.0         0.60         53.0 
      1789.0         0.40         52.9 
      1790.0         0.57        130.2 
      1791.0         1.82        351.9 
      1792.0         0.70        403.3 
      1793.0         0.63        335.2 
      1794.0         0.65         87.9 
      1795.0         0.70         66.0 
      1796.0         0.70         82.2 
      1797.0         0.60         84.5 
