~Version Information
VERS.                      2.0: CWLS Log ASCII Standard - VERSION 2.0
WRAP.                       NO: One line per depth step
~Well Information Block
STRT.FT               745.2500: 
STOP.FT              2003.5000: 
STEP.FT                 0.2500: 
NULL.                -999.2500: 
COMP.          Petrogulf Corporation: COMPANY
WELL.            Montoya 6-14V: WELL
FLD.           Purgatorie River: FIELD
LOC.           318' FSL & 882' FWL: LOCATION
CNTY.               Las Animas: COUNTY
SRVC.                         : SERVICE COMPANY
DATE.          Fri Aug 13 04:55:06 2004: LOG DATE
UWI.           05 071 08020 00: UNIQUE WELL ID
STAT.                 Colorado: STATE
~Curve Information Block
DEPT.FT            0 000 00 00: Depth
SP.mV                         : DIL Spontaneous Potential
RILD.Ohm-m                    : DIL Deep Resistivity
RILM.Ohm-m                    : DIL Medium Resistivity
RLL3.Ohm-m                    : DIL Shallow Resistivity
GR.GAPI                       : Gamma Ray
~Parameter Information Block
~A  Depth        SP         RILD        RILM        RLL3         GR     
# ...
  1725.2500     30.7969     17.1403     15.1693     16.6772    151.3951
  1725.5000     30.7910     17.4569     15.4741     17.3869    152.9461
  1725.7500     30.7557     17.7851     15.8966     19.5811    151.6660
  1726.0000     30.6941     18.1277     16.4290     23.7535    145.7488
  1726.2500     30.6124     18.4978     17.0575     30.1017    139.1893
  1726.5000     30.5187     18.9157     17.7635     38.1020    126.5648
  1726.7500     30.4220     19.4023     18.5255     46.3023    117.5704
  1727.0000     30.3302     19.9722     19.3230     52.6604    106.0347
  1727.2500     30.2497     20.6259     20.1403     55.4218    101.2418
  1727.5000     30.1844     21.3434     20.9679     54.0611     99.8823
  1727.7500     30.1357     22.0805     21.8015     49.6404    102.4767
  1728.0000     30.1030     22.7721     22.6374     44.3289    108.9834
  1728.2500     30.0840     23.3441     23.4656     40.4347    113.1082
  1728.5000     30.0753     23.7354     24.2645     39.5358    116.5006
  1728.7500     30.0723     23.9193     24.9994     42.0307    116.4596
  1729.0000     30.0699     23.9139     25.6285     47.0778    113.8483
  1729.2500     30.0634     23.7752     26.1134     52.8409    111.4628
  1729.5000     30.0485     23.5758     26.4335     57.0760    108.7754
  1729.7500     30.0228     23.3817     26.5940     58.0106    108.4861
  1730.0000     29.9863     23.2338     26.6255     55.1487    111.4509
  1730.2500     29.9414     23.1394     26.5736     49.4913    115.8614
  1730.5000     29.8929     23.0738     26.4856     42.9754    124.7684
  1730.7500     29.8462     22.9948     26.3992     37.4917    130.4695
  1731.0000     29.8063     22.8656     26.3370     34.0999    135.5001
  1731.2500     29.7761     22.6807     26.3082     32.8363    135.6308
  1731.5000     29.7558     22.4759     26.3131     33.0463    131.6476
  1731.7500     29.7431     22.3164     26.3499     33.8933    127.2510
  1732.0000     29.7341     22.2683     26.4204     34.7248    120.0060
  1732.2500     29.7243     22.3718     26.5325     35.1934    115.8890
  1732.5000     29.7100     22.6275     26.7002     35.2095    112.3516
  1732.7500     29.6883     22.9987     26.9409     34.8552    111.9299
  1733.0000     29.6573     23.4272     27.2723     34.3291    113.0548
  1733.2500     29.6145     23.8545     27.7086     33.9176    114.0971
  1733.5000     29.5570     24.2410     28.2596     33.9451    115.4912
  1733.7500     29.4800     24.5726     28.9288     34.6713    116.4209
  1734.0000     29.3780     24.8564     29.7144     36.1589    117.7274
  1734.2500     29.2457     25.1120     30.6099     38.1918    118.0479
  1734.5000     29.0799     25.3654     31.6045     40.3254    116.9424
  1734.7500     28.8808     25.6483     32.6838     42.0830    115.3358
  1735.0000     28.6532     25.9987     33.8289     43.2096    112.8831
  1735.2500     28.4064     26.4590     35.0162     43.8249    111.8739
  1735.5000     28.1531     27.0667     36.2171     44.3564    111.3740
  1735.7500     27.9074     27.8425     37.3990     45.2844    111.1909
  1736.0000     27.6832     28.7743     38.5277     46.8687    110.0263
  1736.2500     27.4922     29.8025     39.5697     49.0417    108.3326
  1736.5000     27.3426     30.8184     40.4959     51.5091    104.8428
  1736.7500     27.2380     31.6840     41.2834     53.9453    102.5949
  1737.0000     27.1775     32.2791     41.9166     56.1229    100.5712
  1737.2500     27.1556     32.5555     42.3881     57.9084    100.3504
  1737.5000     27.1637     32.5600     42.6973     59.1759    101.1262
  1737.7500     27.1923     32.4032     42.8493     59.7456    101.9271
  1738.0000     27.2324     32.2006     42.8514     59.4199    103.3413
  1738.2500     27.2780     32.0234     42.7090     58.1128    104.5081
  1738.5000     27.3274     31.8805     42.4224     55.9806    106.2929
  1738.7500     27.3828     31.7292     41.9859     53.4395    106.9751
  1739.0000     27.4495     31.5004     41.3901     51.0232    106.3781
  1739.2500     27.5334     31.1288     40.6305     49.1587    104.8425
  1739.5000     27.6388     30.5795     39.7142     47.9953    101.5651
  1739.7500     27.7668     29.8650     38.6673     47.3709     99.2937
  1740.0000     27.9147     29.0448     37.5342     46.9033     96.2897
  1740.2500     28.0769     28.2094     36.3720     46.1487     94.6195
  1740.5000     28.2464     27.4539     35.2409     44.7815     92.8554
  1740.7500     28.4169     26.8547     34.1948     42.7417     92.5376
  1741.0000     28.5837     26.4556     33.2758     40.2721     93.7679
  1741.2500     28.7445     26.2644     32.5110     37.8025     95.5264
  1741.5000     28.8984     26.2550     31.9140     35.7378     98.8340
  1741.7500     29.0449     26.3752     31.4878     34.2950    101.3069
  1742.0000     29.1822     26.5568     31.2269     33.4901    105.7043
  1742.2500     29.3074     26.7296     31.1200     33.2427    109.1727
  1742.5000     29.4159     26.8353     31.1500     33.4796    114.5008
  1742.7500     29.5036     26.8360     31.2931     34.1562    117.4279
  1743.0000     29.5680     26.7164     31.5163     35.2239    120.0973
  1743.2500     29.6096     26.4807     31.7738     36.6193    120.8474
  1743.5000     29.6320     26.1457     32.0058     38.2832    121.0669
  1743.7500     29.6413     25.7339     32.1396     40.1446    120.6298
  1744.0000     29.6439     25.2662     32.0980     42.0363    118.3130
  1744.2500     29.6455     24.7574     31.8133     43.6263    115.3773
  1744.5000     29.6493     24.2177     31.2444     44.4826    109.9511
  1744.7500     29.6553     23.6587     30.3904     44.2655    107.0024
  1745.0000     29.6609     23.0967     29.2929     42.8926    105.5540
  1745.2500     29.6618     22.5517     28.0254     40.5447    106.9247
  1745.5000     29.6523     22.0397     26.6755     37.5451    111.9604
  1745.7500     29.6274     21.5664     25.3264     34.2430    116.7417
  1746.0000     29.5831     21.1250     24.0456     30.9688    124.9893
  1746.2500     29.5177     20.7019     22.8799     28.0105    130.6075
  1746.5000     29.4322     20.2861     21.8576     25.5615    138.4216
  1746.7500     29.3306     19.8752     20.9923     23.6728    142.9383
  1747.0000     29.2195     19.4775     20.2884     22.2700    148.3510
  1747.2500     29.1074     19.1088     19.7447     21.2355    150.8668
  1747.5000     29.0034     18.7892     19.3574     20.4905    152.7826
  1747.7500     28.9158     18.5418     19.1222     20.0218    152.9130
  1748.0000     28.8507     18.3921     19.0341     19.8593    152.1415
  1748.2500     28.8115     18.3651     19.0889     20.0455    151.5897
  1748.5000     28.7984     18.4806     19.2818     20.6214    151.1814
  1748.7500     28.8089     18.7468     19.6082     21.6199    150.7516
  1749.0000     28.8390     19.1560     20.0632     23.0442    148.2030
  1749.2500     28.8840     19.6841     20.6422     24.8316    144.4767
  1749.5000     28.9391     20.2952     21.3412     26.8405    136.2792
  1749.7500     28.9999     20.9514     22.1571     28.9022    130.3550
  1750.0000     29.0621     21.6242     23.0863     30.9306    123.3194
  1750.2500     29.1217     22.3029     24.1238     33.0055    120.5622
  1750.5000     29.1743     22.9953     25.2596     35.3253    118.3349
  1750.7500     29.2152     23.7197     26.4756     38.0165    116.6523
  1751.0000     29.2393     24.4909     27.7435     40.9294    111.7149
  1751.2500     29.2416     25.3068     29.0248     43.6059    106.7782
  1751.5000     29.2176     26.1420     30.2742     45.4810     98.8490
  1751.7500     29.1644     26.9518     31.4474     46.1877     94.4961
  1752.0000     29.0812     27.6857     32.5099     45.7487     90.1292
  1752.2500     28.9703     28.3042     33.4449     44.5446     88.3937
  1752.5000     28.8369     28.7933     34.2555     43.1180     87.1046
  1752.7500     28.6889     29.1681     34.9619     41.9602     87.0521
  1753.0000     28.5354     29.4678     35.5934     41.3833     87.7256
