~Version Information
VERS.                      2.0: CWLS Log ASCII Standard - VERSION 2.0
WRAP.                       NO: One line per depth step
~Well Information Block
STRT.FT               675.0000: 
STOP.FT              2373.5000: 
STEP.FT                 0.2500: 
NULL.                -999.2500: 
COMP.          Pioneer Natural Resources: COMPANY
WELL.            Harrier 44-33: WELL
FLD.           Purgatoire River: FIELD
LOC.           456' FSL & 930' FEL: LOCATION
PROV.                 Colorado: PROVINCE
CNTY.               Las Animas: COUNTRY
SRVC.                Patterson: SERVICE COMPANY
DATE.          Mon Jun 20 07:40:56 2005: LOG DATE
UWI.           05 071 08398 00: UNIQUE WELL ID
~Curve Information Block
DEPT.FT            0 000 00 00: Depth
SN.Ohm-m                      : IEL Short Normal
SP.mV                         : IEL Spontaneous Potential
DIR.Ohm-m                     : IEL Induction Resistivity
GR.GAPI                       : Gamma Ray
~Parameter Information Block
~A  Depth        SN          SP         DIR          GR     
# ...
  1110.5000   2000.0000   2000.0000     12.6334    127.7798
  1110.7500   2000.0000   2000.0000     13.0231    126.9750
  1111.0000   2000.0000   2000.0000     13.4036    126.3580
  1111.2500   2000.0000   2000.0000     13.7595    125.9607
  1111.5000   2000.0000   2000.0000     14.0809    124.5437
  1111.7500   2000.0000   2000.0000     14.3643    122.9262
  1112.0000   2000.0000   2000.0000     14.6079    119.9416
  1112.2500   2000.0000   2000.0000     14.8087    117.8158
  1112.5000   2000.0000   2000.0000     14.9645    114.5455
  1112.7500   2000.0000   2000.0000     15.0798    112.5243
  1113.0000   2000.0000   2000.0000     15.1695    110.6545
  1113.2500   2000.0000   2000.0000     15.2572    110.7208
  1113.5000   2000.0000   2000.0000     15.3666    113.0488
  1113.7500   2000.0000   2000.0000     15.5108    115.9117
  1114.0000   2000.0000   2000.0000     15.6896    121.8598
  1114.2500   2000.0000   2000.0000     15.8948    126.6659
  1114.5000   2000.0000   2000.0000     16.1197    133.8651
  1114.7500   2000.0000   2000.0000     16.3632    137.5208
  1115.0000   2000.0000   2000.0000     16.6247    140.0172
  1115.2500   2000.0000   2000.0000     16.8957    139.8519
  1115.5000   2000.0000   2000.0000     17.1593    138.0922
  1115.7500   2000.0000   2000.0000     17.4008    136.5597
  1116.0000   2000.0000   2000.0000     17.6200    134.3549
  1116.2500   2000.0000   2000.0000     17.8348    133.1741
  1116.5000   2000.0000   2000.0000     18.0701    131.8657
  1116.7500   2000.0000   2000.0000     18.3440    130.9120
  1117.0000   2000.0000   2000.0000     18.6594    128.3274
  1117.2500   2000.0000   2000.0000     19.0026    125.6008
  1117.5000   2000.0000   2000.0000     19.3415    120.7843
  1117.7500   2000.0000   2000.0000     19.6253    117.8634
  1118.0000   2000.0000   2000.0000     19.7900    114.5683
  1118.2500   2000.0000   2000.0000     19.7715    112.7820
  1118.5000   2000.0000   2000.0000     19.5173    109.7200
  1118.7500   2000.0000   2000.0000     18.9971    107.3059
  1119.0000   2000.0000   2000.0000     18.2164    104.2508
  1119.2500   2000.0000   2000.0000     17.2289    103.5411
  1119.5000   2000.0000   2000.0000     16.1353    105.3197
  1119.7500   2000.0000   2000.0000     15.0560    108.1780
  1120.0000   2000.0000   2000.0000     14.0929    113.7741
  1120.2500   2000.0000   2000.0000     13.3041    117.6394
  1120.5000   2000.0000   2000.0000     12.7034    122.9596
  1120.7500   2000.0000   2000.0000     12.2815    126.1501
  1121.0000   2000.0000   2000.0000     12.0372    130.4235
  1121.2500   2000.0000   2000.0000     12.0098    132.7990
  1121.5000   2000.0000   2000.0000     12.3066    135.4301
  1121.7500   2000.0000   2000.0000     13.1334    136.6180
  1122.0000   2000.0000   2000.0000     14.8523    137.7951
  1122.2500   2000.0000   2000.0000     18.1032    138.2062
  1122.5000   2000.0000   2000.0000     23.9658    138.2164
  1122.7500   2000.0000   2000.0000     33.6048    137.9646
  1123.0000   2000.0000   2000.0000     44.9388    137.7865
  1123.2500   2000.0000   2000.0000     48.3695    138.1126
  1123.5000   2000.0000   2000.0000     41.3047    139.3127
  1123.7500   2000.0000   2000.0000     33.3705    140.2648
  1124.0000   2000.0000   2000.0000     29.2950    141.0282
  1124.2500   2000.0000   2000.0000     29.8075    140.7121
  1124.5000   2000.0000   2000.0000     37.5669    139.1745
  1124.7500   2000.0000   2000.0000     75.5144    137.9301
  1125.0000   2000.0000   2000.0000 100000.0000    136.3004
  1125.2500   2000.0000   2000.0000 100000.0000    135.2130
  1125.5000   2000.0000   2000.0000 100000.0000    132.9910
  1125.7500   2000.0000   2000.0000 100000.0000    131.1513
  1126.0000   2000.0000   2000.0000 100000.0000    128.8337
  1126.2500   2000.0000   2000.0000 100000.0000    128.2925
  1126.5000   2000.0000   2000.0000 100000.0000    129.4790
  1126.7500   2000.0000   2000.0000 100000.0000    131.2286
  1127.0000   2000.0000   2000.0000 100000.0000    133.8148
  1127.2500   2000.0000   2000.0000 100000.0000    134.6160
  1127.5000   2000.0000   2000.0000 100000.0000    133.7814
  1127.7500   2000.0000   2000.0000 100000.0000    132.2387
  1128.0000   2000.0000   2000.0000 100000.0000    129.8408
  1128.2500   2000.0000   2000.0000 100000.0000    128.8298
  1128.5000   2000.0000   2000.0000 100000.0000    128.2709
  1128.7500   2000.0000   2000.0000      5.4423    128.0508
  1129.0000   2000.0000   2000.0000      2.1189    126.6894
  1129.2500   2000.0000   2000.0000      1.3772    124.3068
  1129.5000   2000.0000   2000.0000      1.1863    117.4934
  1129.7500   2000.0000   2000.0000      1.2987    110.7485
  1130.0000   2000.0000   2000.0000      1.8045     98.6932
  1130.2500   2000.0000   2000.0000      3.2901     90.8036
  1130.5000   2000.0000   2000.0000      8.8864     81.4689
  1130.7500   2000.0000   2000.0000     59.1634     77.4249
  1131.0000   2000.0000   2000.0000    191.1802     73.9176
  1131.2500   2000.0000   2000.0000     20.2819     72.5088
  1131.5000   2000.0000   2000.0000      8.6227     71.0145
  1131.7500   2000.0000   2000.0000      6.0586     70.5048
  1132.0000   2000.0000   2000.0000      6.0796     71.2270
  1132.2500   2000.0000   2000.0000      9.2932     73.2573
  1132.5000   2000.0000   2000.0000     51.7647     79.2737
  1132.7500   2000.0000   2000.0000 100000.0000     85.2717
  1133.0000   2000.0000   2000.0000 100000.0000     96.6031
  1133.2500   2000.0000   2000.0000 100000.0000    104.9805
  1133.5000   2000.0000   2000.0000 100000.0000    117.0422
  1133.7500   2000.0000   2000.0000     27.2260    123.7155
  1134.0000   2000.0000   2000.0000     11.1409    130.5147
  1134.2500   2000.0000   2000.0000     11.6814    132.7227
  1134.5000   2000.0000   2000.0000     47.7973    133.0249
  1134.7500   2000.0000   2000.0000 100000.0000    131.9473
  1135.0000   2000.0000   2000.0000 100000.0000    130.0945
  1135.2500   2000.0000   2000.0000 100000.0000    129.4803
  1135.5000   2000.0000   2000.0000 100000.0000    129.7830
  1135.7500   2000.0000   2000.0000 100000.0000    130.4867
  1136.0000   2000.0000   2000.0000 100000.0000    131.7657
  1136.2500   2000.0000   2000.0000 100000.0000    132.6847
  1136.5000   2000.0000   2000.0000 100000.0000    133.8810
  1136.7500   2000.0000   2000.0000 100000.0000    133.9423
  1137.0000   2000.0000   2000.0000 100000.0000    131.1741
  1137.2500   2000.0000   2000.0000 100000.0000    126.4055
  1137.5000   2000.0000   2000.0000 100000.0000    114.0745
  1137.7500   2000.0000   2000.0000 100000.0000    102.9177
  1138.0000   2000.0000   2000.0000 100000.0000     84.5201
  1138.2500   2000.0000   2000.0000 100000.0000     73.4010
  1138.5000   2000.0000   2000.0000 100000.0000     61.9977
  1138.7500   2000.0000   2000.0000    911.3125     59.1386
  1139.0000   2000.0000   2000.0000     68.8478     62.1382
  1139.2500   2000.0000   2000.0000     41.3095     68.1101
  1139.5000   2000.0000   2000.0000     33.5032     80.5122
  1139.7500   2000.0000   2000.0000     31.4928     89.5316
  1140.0000   2000.0000   2000.0000     31.9774    102.2936
  1140.2500   2000.0000   2000.0000     32.7712    109.7836
  1140.5000   2000.0000   2000.0000     31.7402    119.0904
  1140.7500   2000.0000   2000.0000     28.3059    123.6316
  1141.0000   2000.0000   2000.0000     23.9456    127.1313
  1141.2500   2000.0000   2000.0000     20.1725    127.1207
  1141.5000   2000.0000   2000.0000     17.4771    124.3969
  1141.7500   2000.0000   2000.0000     15.7477    121.6213
  1142.0000   2000.0000   2000.0000     14.7350    117.4494
  1142.2500   2000.0000   2000.0000     14.2281    115.3831
  1142.5000   2000.0000   2000.0000     14.0905    114.3961
  1142.7500   2000.0000   2000.0000     14.2589    115.4335
  1143.0000   2000.0000   2000.0000     14.7287    118.9734
  1143.2500   2000.0000   2000.0000     15.5301    121.7411
  1143.5000   2000.0000   2000.0000     16.6954    124.5579
  1143.7500   2000.0000   2000.0000     18.2183    124.6084
