~Version Information
VERS.                      2.0: CWLS Log ASCII Standard - VERSION 2.0
WRAP.                       NO: One line per depth step
~Well Information Block
STRT.FT                -8.2500: 
STOP.FT              2239.2500: 
STEP.FT                 0.2500: 
NULL.                -999.2500: 
COMP.          Pioneer Natural Resources: COMPANY
WELL.            Moo Moo 31-36: WELL
FLD.           Purgatorie River: FIELD
LOC.           612' FNL & 2326' FEL--: LOCATION
PROV.                       CO: PROVINCE
CNTY.               Las Animas: COUNTRY
SRVC.          Patterson Wireline: SERVICE COMPANY
DATE.          Thu Jun 23 10:04:07 2005: LOG DATE
UWI.           05 071 08395 00: UNIQUE WELL ID
~Curve Information Block
DEPT.FT            0 000 00 00: Depth
CCL.                          : Casing Collar Locator
TT3.usec                      : CBL 3' Travel Time
AMP3.mV                       : CBL 3' Amplitude
GR.GAPI                       : Gamma Ray
~Parameter Information Block
~A  Depth       CCL         TT3         AMP3         GR     
# ...
  2068.7500      0.0000    705.8087      2.9537     70.2040
  2069.0000      0.0000    706.1959      2.9596     72.0516
  2069.2500      0.0000    707.1844      3.0154     76.9696
  2069.5000      0.0000    708.9630      3.0889     83.9383
  2069.7500      0.0000    711.4174      3.1472     91.8434
  2070.0000      0.0000    713.9035      3.1822     99.3029
  2070.2500      0.0000    715.5177      3.2213    104.5020
  2070.5000      0.0000    715.6368      3.3251    105.9430
  2070.7500      0.0000    713.8220      3.5485    103.4523
  2071.0000      0.0000    709.0969      3.8747     98.1403
  2071.2500      0.0000    699.8627      4.2065     91.5648
  2071.5000      0.0000    684.7529      4.4392     85.2206
  2071.7500      0.0000    663.7122      4.5241     80.3751
  2072.0000      0.0000    639.1523      4.4602     77.6469
  2072.2500      0.0000    616.6174      4.2607     76.6282
  2072.5000      0.0000    602.7426      3.9512     76.3422
  2072.7500      0.0000    600.5344      3.5918     76.3453
  2073.0000      0.0000    606.8800      3.2795     77.0911
  2073.2500      0.0000    615.9818      3.1169     78.9542
  2073.5000      0.0000    624.9615      3.1643     81.3357
  2073.7500      0.0000    635.2205      3.4048     83.1391
  2074.0000      0.0000    648.8084      3.7433     83.5845
  2074.2500      0.0000    664.7797      4.0489     82.1625
  2074.5000      0.0000    679.5957      4.2220     78.4856
  2074.7500      0.0000    690.2949      4.2363     72.7826
  2075.0000      0.0000    696.4515      4.1293     66.2141
  2075.2500      0.0000    699.4672      3.9679     60.3491
  2075.5000      0.0000    700.8985      3.8269     56.3691
  2075.7500      0.0000    701.6116      3.7740     54.7122
  2076.0000      0.0000    701.6278      3.8373     55.1349
  2076.2500      0.0000    700.0192      3.9790     56.9254
  2076.5000      0.0000    694.6938      4.1169     59.1755
  2076.7500      0.0000    683.2328      4.1797     61.0008
  2077.0000      0.0000    665.9706      4.1440     61.6392
  2077.2500      0.0000    649.1420      4.0375     60.7042
  2077.5000      0.0000    642.5836      3.9249     58.6435
  2077.7500      0.0000    651.4802      3.8731     56.7473
  2078.0000      0.0000    671.0581      3.9022     56.1938
  2078.2500      0.0000    690.9591      3.9737     56.9516
  2078.5000      0.0000    703.6917      4.0411     57.8750
  2078.7500      0.0000    708.1780      4.0951     57.8076
  2079.0000      0.0000    707.4538      4.1444     56.3101
  2079.2500      0.0000    704.9817      4.1712     53.6673
  2079.5000      0.0000    702.5848      4.1360     50.8161
  2079.7500      0.0000    700.1431      4.0325     49.0513
  2080.0000      0.0000    696.1756      3.9184     49.1037
  2080.2500      0.0000    688.8997      3.8715     50.4567
  2080.5000      0.0000    677.8104      3.9112     51.9081
  2080.7500      0.0000    665.4850      3.9787     52.7467
  2081.0000      0.0000    657.7669      4.0039     53.2278
  2081.2500      0.0000    660.5786      3.9816     54.1067
  2081.5000      0.0000    674.9012      3.9626     55.9463
  2081.7500      0.0000    694.9716      3.9765     58.8167
  2082.0000      0.0000    712.4117      3.9918     62.4024
  2082.2500      0.0000    722.2276      3.9643     66.3264
  2082.5000      0.0000    724.8832      3.8949     70.4661
  2082.7500      0.0000    724.0235      3.8053     74.9209
  2083.0000      0.0000    723.3798      3.6894     79.5371
  2083.2500      0.0000    724.8898      3.5355     83.5609
  2083.5000      0.0000    728.0089      3.3740     85.9959
  2083.7500      0.0000    730.3500      3.2543     86.4200
  2084.0000      0.0000    729.5848      3.1933     85.3607
  2084.2500      0.0000    725.1949      3.1878     83.8293
  2084.5000      0.0000    718.7020      3.2539     82.6128
  2084.7500      0.0000    712.4081      3.4048     81.9344
  2085.0000      0.0000    707.8386      3.6055     81.4480
  2085.2500      0.0000    705.1246      3.7904     80.5254
  2085.5000      0.0000    703.7177      3.9142     78.9505
  2085.7500      0.0000    703.8372      3.9667     77.4171
  2086.0000      0.0000    707.2684      3.9609     76.9035
  2086.2500      0.0000    715.9413      3.9272     77.4349
  2086.5000      0.0000    728.7008      3.8981     77.9047
  2086.7500      0.0000    739.9879      3.8818     77.3517
  2087.0000      0.0000    743.5163      3.8653     76.0508
  2087.2500      0.0000    737.8251      3.8419     75.1447
  2087.5000      0.0000    727.2615      3.8204     75.5152
  2087.7500      0.0000    717.5566      3.8115     77.3092
  2088.0000      0.0000    711.5637      3.8134     80.2740
  2088.2500      0.0000    709.0321      3.8105     83.9249
  2088.5000      0.0000    708.7554      3.7905     87.2938
  2088.7500      0.0000    710.1237      3.7649     89.1457
  2089.0000      0.0000    713.1619      3.7643     88.8233
  2089.2500      0.0000    717.5574      3.8070     86.7788
  2089.5000      0.0000    721.7332      3.8760     84.3998
  2089.7500      0.0000    723.3120      3.9310     83.4541
  2090.0000      0.0000    721.0502      3.9424     85.1887
  2090.2500      0.0000    716.0753      3.9087     89.3068
  2090.5000      0.0000    710.8277      3.8490     93.8114
  2090.7500      0.0000    706.9266      3.7862     96.2534
  2091.0000      0.0000    703.9998      3.7389     95.4341
  2091.2500      0.0000    699.4299      3.7158     92.1761
  2091.5000      0.0000    689.0311      3.7091     88.6721
  2091.7500      0.0000    669.8224      3.7029     87.0320
  2092.0000      0.0000    644.1954      3.6964     88.1807
  2092.2500      0.0000    620.9550      3.7092     91.7491
  2092.5000      0.0000    610.3860      3.7595     96.5809
  2092.7500      0.0000    617.2258      3.8423    101.2071
  2093.0000      0.0000    637.6772      3.9329    104.2004
  2093.2500      0.0000    662.5352      4.0016    104.6715
  2093.5000      0.0000    683.3622      4.0224    102.7564
  2093.7500      0.0000    696.4631      3.9754     99.5441
  2094.0000      0.0000    702.4156      3.8571     96.3112
  2094.2500      0.0000    703.8987      3.6945     93.7690
  2094.5000      0.0000    704.3337      3.5427     91.8280
  2094.7500      0.0000    706.1526      3.4490     89.7020
  2095.0000      0.0000    708.1349      3.4191     86.4202
  2095.2500      0.0000    705.2150      3.4265     81.8455
  2095.5000      0.0000    693.4807      3.4514     77.1504
  2095.7500      0.0000    675.8884      3.4941     73.8068
  2096.0000      0.0000    661.1887      3.5576     72.1784
  2096.2500      0.0000    656.1505      3.6331     71.4395
  2096.5000      0.0000    660.3569      3.7058     70.6625
  2096.7500      0.0000    669.0482      3.7727     69.5877
  2097.0000      0.0000    678.4330      3.8605     68.4779
  2097.2500      0.0000    686.8903      4.0114     67.5760
  2097.5000      0.0000    693.2988      4.2357     66.7709
  2097.7500      0.0000    696.5541      4.4906     65.6825
  2098.0000      0.0000    696.5844      4.7272     63.9845
  2098.2500      0.0000    694.8928      4.9327     61.6973
  2098.5000      0.0000    693.6769      5.1064     59.3575
  2098.7500      0.0000    694.1863      5.2263     57.9420
  2099.0000      0.0000    695.8097      5.2709     58.2993
  2099.2500      0.0000    696.5730      5.2534     60.4224
  2099.5000      0.0000    694.2025      5.2157     63.4494
  2099.7500      0.0000    686.7072      5.2010     66.4480
  2100.0000      0.0000    672.8986      5.2404     68.9530
  2100.2500      0.0000    653.2582      5.3539     70.7466
  2100.5000      0.0000    630.1784      5.5449     71.5033
  2100.7500      0.0000    606.8283      5.7940     70.8558
  2101.0000      0.0000    586.4357      6.0632     68.7404
  2101.2500      0.0000    573.6127      6.3098     65.6622
  2101.5000      0.0000    574.6953      6.4953     62.6568
  2101.7500      0.0000    593.6782      6.5946     60.8748
  2102.0000      0.0000    627.3035      6.6071     61.0115
