~Version Information
VERS.                      2.0: CWLS Log ASCII Standard - VERSION 2.0
WRAP.                       NO: One line per depth step
~Well Information Block
STRT.FT               440.0000: 
STOP.FT              1003.5000: 
STEP.FT                 0.2500: 
NULL.                -999.2500: 
COMP.          Pioneer Natural Resources: COMPANY
WELL.              Dylan 42-25: WELL
FLD.           Purgatoire River: FIELD
LOC.           2160' FNL & 855' FEL: LOCATION
PROV.                 Colorado: PROVINCE
CNTY.               Las Animas: COUNTRY
SRVC.                Patterson: SERVICE COMPANY
DATE.          Sat Apr 23 11:21:51 2005: LOG DATE
UWI.           05 071 08229 00: UNIQUE WELL ID
~Curve Information Block
DEPT.FT            0 000 00 00: Depth
SN.Ohm-m                      : IEL Short Normal
SP.mV                         : IEL Spontaneous Potential
DIR.Ohm-m                     : IEL Induction Resistivity
GR.GAPI                       : Gamma Ray
~Parameter Information Block
~A  Depth        SN          SP         DIR          GR     
# ...
   775.0000     38.2768      8.9478     32.8164     61.8085
   775.2500     37.3726      8.8923     32.6693     64.7394
   775.5000     36.4548      8.7811     32.5983     70.6212
   775.7500     35.4968      8.5955     32.5194     75.2916
   776.0000     34.5650      8.3302     32.3432     81.7050
   776.2500     33.8431      7.9982     32.0025     84.1296
   776.5000     33.4902      7.6276     31.4698     82.9276
   776.7500     33.4949      7.2533     30.7605     78.6762
   777.0000     33.7173      6.9070     29.9213     68.8191
   777.2500     34.0573      6.6106     29.0110     61.5849
   777.5000     34.5034      6.3752     28.0842     52.2078
   777.7500     35.0238      6.2084     27.1876     47.7112
   778.0000     35.4709      6.1236     26.3639     43.9961
   778.2500     35.5590      6.1489     25.6507     43.5968
   778.5000     34.9497      6.3285     25.0725     46.1424
   778.7500     33.5019      6.7112     24.6323     49.7004
   779.0000     31.4863      7.3246     24.3113     56.7124
   779.2500     29.4410      8.1441     24.0784     61.6107
   779.5000     27.7834      9.0795     23.9032     68.0568
   779.7500     26.6141      9.9995     23.7674     71.4402
   780.0000     25.8219     10.7885     23.6678     75.1649
   780.2500     25.2710     11.3972     23.6138     76.8725
   780.5000     24.9055     11.8504     23.6203     78.5923
   780.7500     24.7547     12.2153     23.6996     79.4175
   781.0000     24.8795     12.5610     23.8604     80.1992
   781.2500     25.3086     12.9321     24.1142     79.9427
   781.5000     25.9939     13.3441     24.4856     77.1175
   781.7500     26.8193     13.7915     25.0131     73.1999
   782.0000     27.6791     14.2591     25.7330     64.9816
   782.2500     28.5594     14.7296     26.6543     59.0939
   782.5000     29.5564     15.1867     27.7417     51.8641
   782.7500     30.8179     15.6147     28.9201     48.8798
   783.0000     32.3663     15.9969     30.0941     47.0000
   783.2500     33.9521     16.3165     31.1542     46.8078
   783.5000     35.1882     16.5635     31.9531     47.1894
   783.7500     35.8169     16.7432     32.2907     47.9391
   784.0000     35.7891     16.8787     31.9742     50.5963
   784.2500     35.1779     17.0024     30.9459     53.7513
   784.5000     34.0900     17.1394     29.3522     60.4367
   784.7500     32.6171     17.2960     27.4639     65.7396
   785.0000     30.8393     17.4597     25.5312     73.9246
   785.2500     28.8666     17.6118     23.7060     79.0362
   785.5000     26.8672     17.7430     22.0552     85.7617
   785.7500     25.0403     17.8596     20.6032     89.4849
   786.0000     23.5312     17.9778     19.3617     93.4053
   786.2500     22.3671     18.1125     18.3344     94.4688
   786.5000     21.4798     18.2674     17.5143     93.5962
   786.7500     20.7725     18.4320     16.8814     92.0272
   787.0000     20.1743     18.5865     16.4053     90.0344
   787.2500     19.6578     18.7109     16.0497     89.6419
   787.5000     19.2219     18.7955     15.7788     90.1221
   787.7500     18.8720     18.8474     15.5623     90.3503
   788.0000     18.6106     18.8892     15.3799     89.2808
   788.2500     18.4292     18.9499     15.2217     87.2956
   788.5000     18.3061     19.0540     15.0874     82.4174
   788.7500     18.2204     19.2159     14.9852     78.1108
   789.0000     18.1615     19.4403     14.9309     70.9761
   789.2500     18.1135     19.7251     14.9456     66.7218
   789.5000     18.0421     20.0611     15.0515     63.0336
   789.7500     17.9473     20.4298     15.2632     63.1732
   790.0000     17.9393     20.8014     15.5782     67.2892
   790.2500     18.1776     21.1339     15.9688     71.7105
   790.5000     18.7026     21.3793     16.3830     78.3114
   790.7500     19.3793     21.5032     16.7552     81.4281
   791.0000     19.9900     21.5082     17.0248     83.6434
   791.2500     20.3428     21.4352     17.1549     84.0819
   791.5000     20.3659     21.3357     17.1431     84.6950
   791.7500     20.1683     21.2365     17.0224     85.6889
   792.0000     19.9709     21.1265     16.8524     88.2448
   792.2500     19.9545     20.9653     16.7035     90.3450
   792.5000     20.1686     20.7024     16.6387     93.3902
   792.7500     20.5232     20.2979     16.7007     95.0447
   793.0000     20.8510     19.7433     16.9072     96.4115
   793.2500     21.0422     19.0713     17.2516     96.1853
   793.5000     21.1284     18.3462     17.7042     93.8548
   793.7500     21.2280     17.6393     18.2135     91.3319
   794.0000     21.4382     17.0056     18.7121     87.3228
   794.2500     21.7672     16.4706     19.1350     85.0912
   794.5000     22.1484     16.0299     19.4433     82.5987
   794.7500     22.5376     15.6593     19.6388     81.2680
   795.0000     22.9728     15.3325     19.7539     79.4628
   795.2500     23.5086     15.0373     19.8306     78.4737
   795.5000     24.1259     14.7796     19.9041     77.6428
   795.7500     24.7240     14.5735     19.9954     77.5606
   796.0000     25.1704     14.4270     20.1094     77.8457
   796.2500     25.3654     14.3379     20.2331     78.0748
   796.5000     25.2947     14.3008     20.3367     78.2858
   796.7500     25.0161     14.3123     20.3851     78.3980
   797.0000     24.5982     14.3668     20.3543     78.7945
   797.2500     24.1022     14.4496     20.2475     79.3265
   797.5000     23.6022     14.5410     20.0965     80.5762
   797.7500     23.1771     14.6259     19.9461     81.7577
   798.0000     22.8876     14.6977     19.8297     84.0721
   798.2500     22.7626     14.7582     19.7551     85.6416
   798.5000     22.7611     14.8176     19.7074     86.6928
   798.7500     22.7428     14.8926     19.6639     85.7591
   799.0000     22.5466     14.9947     19.6068     81.7650
   799.2500     22.1414     15.1151     19.5296     78.0796
   799.5000     21.6909     15.2211     19.4410     72.6779
   799.7500     21.4710     15.2732     19.3696     69.7856
   800.0000     21.6941     15.2488     19.3629     66.6093
   800.2500     22.3433     15.1528     19.4761     65.0720
   800.5000     23.1701     15.0111     19.7541     63.7145
   800.7500     23.9004     14.8542     20.2173     63.7902
   801.0000     24.4609     14.6982     20.8570     65.6852
   801.2500     25.0339     14.5360     21.6360     67.7328
   801.5000     25.9152     14.3428     22.4945     70.4127
   801.7500     27.2680     14.0943     23.3657     70.9145
   802.0000     29.0163     13.7864     24.2024     68.4842
   802.2500     30.9769     13.4411     25.0007     64.5773
   802.5000     33.0072     13.0954     25.7929     56.2858
   802.7500     35.0686     12.7773     26.6182     50.3072
   803.0000     37.2428     12.4846     27.5064     42.6956
   803.2500     39.5929     12.1788     28.4965     39.2142
   803.5000     41.9428     11.7992     29.6630     36.5694
   803.7500     43.9258     11.2882     31.0990     36.3147
   804.0000     45.3096     10.6150     32.8480     37.6004
   804.2500     46.1557      9.7880     34.8368     39.0696
   804.5000     46.6728      8.8559     36.8768     41.1573
   804.7500     47.0271      7.8979     38.7546     41.9365
   805.0000     47.2714      7.0028     40.3414     41.6742
   805.2500     47.3831      6.2417     41.6186     40.6156
   805.5000     47.3521      5.6457     42.6089     38.5543
   805.7500     47.2288      5.2058     43.3017     37.5423
   806.0000     47.0927      4.8954     43.6385     37.1570
   806.2500     46.9911      4.6905     43.5664     37.4292
   806.5000     46.9004      4.5706     43.1118     37.7818
   806.7500     46.7341      4.5101     42.3955     37.6721
   807.0000     46.3981      4.4820     41.5616     37.0836
   807.2500     45.8567      4.4710     40.6778     36.6749
   807.5000     45.1688      4.4818     39.7046     36.5459
   807.7500     44.4536      4.5354     38.5749     37.0512
   808.0000     43.7926      4.6579     37.3049     38.9961
   808.2500     43.1897      4.8696     36.0162     41.0725
