~Version Information
 VERS.                                  2.0 : CWLS LAS VERSION
 WRAP.                                   NO : WRAPING MODE
 SWARE .                 MController 2.5.0N : SOFTWARE VERSION
~Well Information
 WELL.                                  N/A : WELL
 COMP.                                  N/A : COMPANY
 FLD.                                   N/A : FIELD
 LOC.                                   N/A : LOCATION
 DATE.                                  N/A : DATE(S) LOGGED
 SRVC.                                  N/A : SERVICE COMPANY
 STAT.                                  N/A : STATE
 CNTY.                                  N/A : COUNTY
 CTRY.                                  N/A : COUNTRY
 API.                                   N/A : API NUMBER
 STRT.FT                               0.00 : START DEPTH
 STOP.FT                            2050.00 : STOP DEPTH
 STEP.FT                               1.00 : DEPTH INCREMENT
 NULL.                                -9999 : NULL VALUE
~Curve information
 DEPTH.FT                                   :
 ROP.MIN/FT                                 :
 GAS.UNITS                                  :
~ASCII Log data
# ...
      1400.0         0.53         -0.3 
      1401.0         0.60         -0.7 
      1402.0         0.43         -0.8 
      1403.0         0.50         -0.8 
      1404.0         0.65         -0.6 
      1405.0         0.70         -0.4 
      1406.0         0.83         -0.2 
      1407.0         1.03         -0.3 
      1408.0         1.05         -0.1 
      1409.0         1.07         38.3 
      1410.0         3.88        110.3 
      1411.0         1.12          2.3 
      1412.0         1.10          2.4 
      1413.0         1.70          0.8 
      1414.0         1.48          0.8 
      1415.0         0.77          2.8 
      1416.0         2.35          2.0 
      1417.0         1.13          0.1 
      1418.0         1.07          0.3 
      1419.0         1.02          0.1 
      1420.0         1.00          2.1 
      1421.0         1.07          3.8 
      1422.0         1.45          1.2 
      1423.0         1.40          1.2 
      1424.0         1.12          2.5 
      1425.0         1.30          3.6 
      1426.0         0.67          4.7 
      1427.0         1.07          6.6 
      1428.0         1.38          6.3 
      1429.0         3.95         10.7 
      1430.0         0.53          1.6 
      1431.0         0.83          6.6 
      1432.0         0.62          6.9 
      1433.0         0.50          4.0 
      1434.0         0.60          2.6 
      1435.0         0.53          1.6 
      1436.0         0.53          1.7 
      1437.0         0.65          1.5 
      1438.0         0.57          4.0 
      1439.0         0.77          4.6 
      1440.0         4.42        104.3 
      1441.0         0.95         10.2 
      1442.0         1.07          3.9 
      1443.0         0.63          2.2 
      1444.0         0.83          1.8 
      1445.0         1.05          1.7 
      1446.0         0.93          1.6 
      1447.0         1.00          1.7 
      1448.0         0.83          2.1 
      1449.0         0.82          1.7 
      1450.0         0.70          1.7 
      1451.0         0.93          1.9 
      1452.0         0.77          7.1 
      1453.0         1.12          7.1 
      1454.0         1.00          3.2 
      1455.0         0.77          1.5 
      1456.0         0.85          1.3 
      1457.0        13.63         11.0 
      1458.0         1.03          8.1 
      1459.0         0.50          2.3 
      1460.0         0.70          1.7 
      1461.0         0.60          5.6 
      1462.0         0.62         13.0 
      1463.0         0.77         11.8 
      1464.0         1.13          5.5 
      1465.0         0.87          4.0 
      1466.0         0.82         19.3 
      1467.0         0.93         21.1 
      1468.0         1.00          7.6 
      1469.0         0.92          2.1 
      1470.0         5.62         68.6 
      1471.0         1.05          2.3 
      1472.0         2.13          1.9 
      1473.0         1.15          1.6 
      1474.0         0.93          1.6 
      1475.0        12.42         22.7 
      1476.0         0.68          3.9 
      1477.0         0.93          1.6 
      1478.0         1.00          1.4 
      1479.0         0.88          1.6 
      1480.0         0.80          2.3 
      1481.0         0.77          2.5 
      1482.0         0.67          2.9 
      1483.0         0.70          2.5 
      1484.0         0.72          2.3 
      1485.0         0.63          3.8 
      1486.0         0.80          5.7 
      1487.0         1.03          5.3 
      1488.0         0.58          5.3 
      1489.0         0.63          7.8 
      1490.0         0.60         10.1 
      1491.0         0.63         10.2 
      1492.0         0.63         10.4 
      1493.0         0.50         12.6 
      1494.0         0.52         21.8 
      1495.0         0.53         22.9 
      1496.0         0.47         16.1 
      1497.0         0.33          6.8 
      1498.0         0.27         10.0 
      1499.0         0.33         28.6 
      1500.0         2.18         62.0 
      1501.0         0.60         20.6 
      1502.0         0.57         10.5 
      1503.0         0.50          6.9 
      1504.0         0.23          7.3 
      1505.0         0.32          7.9 
      1506.0         0.37          9.1 
      1507.0         0.23          9.3 
      1508.0         0.23          9.3 
      1509.0         0.50          9.0 
      1510.0         0.43          5.6 
      1511.0         0.50          3.6 
      1512.0         0.50          2.5 
      1513.0         0.33          2.4 
      1514.0         0.32          2.3 
      1515.0         0.30          3.2 
      1516.0         0.30          4.6 
      1517.0         0.77          8.0 
      1518.0         0.70          8.3 
      1519.0         0.60          6.7 
      1520.0         0.37          8.1 
      1521.0         0.35          9.1 
      1522.0         0.33          9.1 
      1523.0         0.37          7.0 
      1524.0         0.40          5.8 
      1525.0         0.33          4.4 
      1526.0         0.37          4.4 
      1527.0         0.37          3.7 
      1528.0         0.47          2.5 
      1529.0         0.40         11.1 
      1530.0         3.12         58.1 
      1531.0         0.48         13.2 
      1532.0         0.30         10.8 
      1533.0         0.33         10.7 
      1534.0         0.30         10.2 
      1535.0         0.47          8.8 
      1536.0         0.57          7.2 
      1537.0         0.57          4.7 
      1538.0         0.65          7.1 
      1539.0         0.53          8.0 
      1540.0         0.40          8.3 
      1541.0         0.33          7.2 
      1542.0         0.43          6.4 
      1543.0         0.37          5.8 
      1544.0         0.37          5.8 
      1545.0         0.47          7.0 
      1546.0         0.38          8.1 
      1547.0         0.63         12.8 
      1548.0         0.47         12.3 
      1549.0         0.33         10.6 
      1550.0         0.37          7.8 
      1551.0         0.30          5.4 
      1552.0         0.57          7.7 
      1553.0         0.62         11.2 
      1554.0         0.60         11.5 
      1555.0         0.33          8.2 
      1556.0         0.33          5.4 
      1557.0         0.33          2.9 
      1558.0         0.20          5.0 
      1559.0         0.40         17.6 
      1560.0         1.95         37.0 
      1561.0         0.27         19.3 
      1562.0         0.43         16.8 
      1563.0         0.40         12.2 
      1564.0         0.30         10.5 
      1565.0         0.30         11.9 
      1566.0         0.30         12.3 
      1567.0         0.38         11.6 
      1568.0         0.40         10.0 
      1569.0         0.40          7.2 
      1570.0         0.50          4.6 
      1571.0         0.43          3.2 
      1572.0         0.37          1.8 
      1573.0         0.47          0.9 
      1574.0         0.40          0.2 
      1575.0         0.23          0.1 
      1576.0         0.38          0.3 
      1577.0         0.33          0.5 
      1578.0         0.23          0.6 
      1579.0         0.20          0.4 
      1580.0         0.23          0.6 
      1581.0         0.37          0.8 
      1582.0         0.40          0.6 
      1583.0         0.33          0.5 
      1584.0         0.40          0.7 
      1585.0         0.27          1.0 
      1586.0         0.38          0.8 
      1587.0         0.33          1.2 
      1588.0         0.23          0.9 
      1589.0         0.23          0.8 
      1590.0         2.75          1.1 
      1591.0         0.37          1.2 
      1592.0         0.43          1.0 
      1593.0         0.73          1.2 
      1594.0         0.47          1.3 
      1595.0         0.70          1.2 
      1596.0         0.42          1.0 
      1597.0         0.37          1.5 
      1598.0         0.30          1.1 
      1599.0         0.20          1.0 
