~Version Information
VERS.                      2.0: CWLS Log ASCII Standard - VERSION 2.0
WRAP.                       NO: One line per depth step
~Well Information Block
STRT.FT                -8.7500: 
STOP.FT              1126.7500: 
STEP.FT                 0.2500: 
NULL.                -999.2500: 
COMP.          Evergreen Operating Corp.: COMPANY
WELL.             Bernice 21-3: WELL
FLD.           Purgatorie River: FIELD
LOC.           201' FNL & 2575' FWL--: LOCATION
PROV.                       CO: PROVINCE
CNTY.               Las Animas: COUNTRY
SRVC.          Patterson Wireline: SERVICE COMPANY
DATE.          Mon Feb 02 12:04:59 2004: LOG DATE
UWI.              05 071 07912: UNIQUE WELL ID
~Curve Information Block
DEPT.FT            0 000 00 00: Depth
CCL.                          : Casing Collar Locator
TT3.usec                      : CBL 3' Travel Time
AMP3.mV                       : CBL 3' Amplitude
GR.GAPI                       : Gamma Ray
~Parameter Information Block
~A  Depth       CCL         TT3         AMP3         GR     
# ...
   862.2500      0.0000    807.0154      5.4822    100.7963
   862.5000      0.0000    806.6450      5.4715    100.2472
   862.7500      0.0000    806.1831      5.4484     97.9724
   863.0000      0.0000    805.6776      5.3769     93.5812
   863.2500      0.0000    804.9975      5.2531     88.2132
   863.5000      0.0000    803.6747      5.1126     83.3576
   863.7500      0.0000    800.8759      4.9898     79.5856
   864.0000      0.0000    796.1257      4.8918     76.4772
   864.2500      0.0000    790.6956      4.8221     73.3495
   864.5000      0.0000    787.8224      4.8008     69.9637
   864.7500      0.0000    790.0362      4.8233     66.7815
   865.0000      0.0000    795.6876      4.8303     64.4586
   865.2500      0.0000    799.5203      4.7663     62.9191
   865.5000      0.0000    797.8387      4.6536     61.2313
   865.7500      0.0000    792.5037      4.5739     58.6912
   866.0000      0.0000    789.0983      4.5839     55.7151
   866.2500     -4.0000    791.5950      4.6732     53.3155
   866.5000     -4.0000    799.2240      4.7930     51.9730
   866.7500      0.0000    807.8968      4.9155     51.4275
   867.0000      0.0000    813.7822      5.0639     51.3331
   867.2500      0.0000    815.7187      5.2788     51.5727
   867.5000      0.0000    815.0239      5.5397     51.8940
   867.7500      0.0000    813.4885      5.7383     51.7049
   868.0000      0.0000    811.9466      5.7635     50.4852
   868.2500      0.0000    810.6460      5.6069     48.3526
   868.5000      0.0000    810.0467      5.3676     46.1841
   868.7500      0.0000    810.6553      5.1719     45.1118
   869.0000      0.0000    812.3348      5.1037     45.6878
   869.2500      0.0000    814.0925      5.1748     47.4216
   869.5000      0.0000    814.6722      5.3257     49.1740
   869.7500      0.0000    813.5525      5.4637     50.0245
   870.0000      0.0000    811.3777      5.5240     49.8140
   870.2500      0.0000    809.3069      5.5038     49.0171
   870.5000      0.0000    808.0309      5.4455     48.2078
   870.7500      0.0000    807.5038      5.3924     47.6866
   871.0000      0.0000    807.3522      5.3587     47.5626
   871.2500      0.0000    807.3134      5.3370     48.0264
   871.5000      0.0000    807.3395      5.3248     49.3002
   871.7500      0.0000    807.4637      5.3353     51.2090
   872.0000      0.0000    807.6758      5.3774     53.0369
   872.2500      0.0000    807.9306      5.4336     54.2483
   872.5000      0.0000    808.2178      5.4673     55.2648
   872.7500      0.0000    808.5712      5.4493     56.9390
   873.0000      0.0000    809.0114      5.3749     59.2345
   873.2500      0.0000    809.4959      5.2631     61.0965
   873.5000      0.0000    809.9244      5.1482     61.7888
   873.7500      0.0000    810.1924      5.0705     61.7671
   874.0000      0.0000    810.2453      5.0621     62.1131
   874.2500      0.0000    810.0975      5.1265     63.6649
   874.5000      0.0000    809.8296      5.2356     66.8294
   874.7500      0.0000    809.5809      5.3514     71.6299
   875.0000      0.0000    809.5054      5.4460     77.5284
   875.2500      0.0000    809.6719      5.4990     83.3540
   875.5000      0.0000    809.9918      5.4948     87.7220
   875.7500      0.0000    810.2773      5.4397     89.8014
   876.0000      0.0000    810.3970      5.3724     89.7976
   876.2500      0.0000    810.3634      5.3343     88.6903
   876.5000      0.0000    810.2818      5.3273     87.4704
   876.7500      0.0000    810.2394      5.3153     86.5255
   877.0000      0.0000    810.2441      5.2769     85.5983
   877.2500      0.0000    810.2383      5.2437     84.3090
   877.5000      0.0000    810.1502      5.2663     82.7412
   877.7500      0.0000    809.9328      5.3511     81.4872
   878.0000      0.0000    809.5583      5.4531     81.0609
   878.2500      0.0000    808.9877      5.5351     81.3415
   878.5000      0.0000    808.1890      5.6056     81.7270
   878.7500      0.0000    807.2228      5.6889     81.7367
   879.0000      0.0000    806.2850      5.7833     81.3073
   879.2500      0.0000    805.5993      5.8641     80.5914
   879.5000      0.0000    805.2524      5.9134     79.7628
   879.7500      0.0000    805.1733      5.9278     79.2141
   880.0000      0.0000    805.3012      5.9089     79.7001
   880.2500      0.0000    805.7477      5.8581     81.6777
   880.5000      0.0000    806.8092      5.7808     84.3785
   880.7500      0.0000    808.7836      5.6920     86.2350
   881.0000      0.0000    811.5775      5.6108     86.4717
   881.2500      0.0000    814.3468      5.5458     85.5906
   881.5000      0.0000    815.8060      5.4847     84.1979
   881.7500      0.0000    815.2878      5.4092     82.3228
   882.0000      0.0000    813.4117      5.3299     80.1014
   882.2500      0.0000    811.4371      5.2923     78.1784
   882.5000      0.0000    810.1079      5.3323     76.9326
   882.7500      0.0000    809.2868      5.4302     75.8440
   883.0000      0.0000    808.3785      5.5264     74.2066
   883.2500      0.0000    806.6471      5.5822     72.3947
   883.5000      0.0000    803.1638      5.6097     71.9020
   883.7500      0.0000    796.9114      5.6419     73.8393
   884.0000      0.0000    787.3000      5.6886     77.6604
   884.2500      0.0000    774.4684      5.7313     81.6576
   884.5000      0.0000    758.9429      5.7526     84.3998
   884.7500      0.0000    741.5203      5.7529     85.3885
   885.0000      0.0000    724.0847      5.7389     84.7913
   885.2500      0.0000    710.2709      5.7143     83.2461
   885.5000      0.0000    704.3436      5.6908     81.7598
   885.7500      0.0000    708.6735      5.6877     81.0648
   886.0000      0.0000    721.9038      5.7060     80.8714
   886.2500      0.0000    739.5312      5.7177     80.1426
   886.5000      0.0000    756.5543      5.6962     78.2303
   886.7500      0.0000    769.7293      5.6496     75.4681
   887.0000      0.0000    777.7697      5.6094     72.7565
   887.2500      0.0000    780.6397      5.5901     70.9729
   887.5000      0.0000    779.5087      5.5731     70.6440
   887.7500      0.0000    776.7303      5.5347     71.6926
   888.0000      0.0000    774.7181      5.4753     73.3679
   888.2500      0.0000    774.6257      5.4169     74.5928
   888.5000      0.0000    776.2250      5.3805     74.5296
   888.7500      0.0000    778.7280      5.3725     72.9538
   889.0000      0.0000    781.6017      5.3890     70.3166
   889.2500      0.0000    784.9443      5.4236     67.5908
   889.5000      0.0000    789.1793      5.4718     65.8913
   889.7500      0.0000    794.4085      5.5333     65.8524
   890.0000      0.0000    800.2744      5.6122     67.1449
   890.2500      0.0000    806.5009      5.7081     68.5977
   890.5000      0.0000    813.0945      5.8036     68.8932
   890.7500      0.0000    819.6050      5.8672     67.3007
   891.0000      0.0000    824.6595      5.8760     63.9262
   891.2500      0.0000    826.9171      5.8244     59.4377
   891.5000      0.0000    826.3760      5.7095     54.7618
   891.7500      0.0000    824.1536      5.5284     51.0973
   892.0000      0.0000    821.1619      5.3146     49.7691
   892.2500      0.0000    817.6118      5.1561     51.4664
   892.5000      0.0000    813.4144      5.1418     55.6675
   892.7500      0.0000    808.1196      5.2762     61.1874
   893.0000      0.0000    800.6127      5.4561     67.2717
   893.2500      0.0000    790.1816      5.5385     73.9261
   893.5000      0.0000    778.6978      5.4458     81.1885
   893.7500      0.0000    770.8903      5.2255     88.2776
   894.0000      0.0000    770.8784      5.0092     93.7191
   894.2500      0.0000    778.1812      4.9008     96.4493
   894.5000      0.0000    788.0093      4.9045     96.6788
   894.7500      0.0000    795.3854      4.9603     95.5925
   895.0000      0.0000    798.3495      5.0252     94.4987
   895.2500      4.0000    797.9240      5.0959     94.3658
   895.5000      0.0000    796.2860      5.1727     95.5998
