~Version Information
VERS.                      2.0: CWLS Log ASCII Standard - VERSION 2.0
WRAP.                       NO: One line per depth step
~Well Information Block
STRT.FT                -8.0000: 
STOP.FT              2410.0000: 
STEP.FT                 0.2500: 
NULL.                -999.2500: 
COMP.          Petrogulf Corporation: COMPANY
WELL.            Torcom 17-33V: WELL
FLD.           Purgatorie River: FIELD
LOC.           1544' FSL & 1746' FEL--: LOCATION
PROV.                       CO: PROVINCE
CNTY.               Las Animas: COUNTRY
SRVC.          Patterson Wireline: SERVICE COMPANY
DATE.          Wed Dec 10 17:24:27 2003: LOG DATE
UWI.                          : UNIQUE WELL ID
~Curve Information Block
DEPT.FT            0 000 00 00: Depth
CCL.                          : Casing Collar Locator
TT3.usec                      : CBL 3' Travel Time
AMP3.mV                       : CBL 3' Amplitude
GR.GAPI                       : Gamma Ray
~Parameter Information Block
~A  Depth       CCL         TT3         AMP3         GR     
    -8.0000   -999.2500   -999.2500   -999.2500   -999.2500
    -7.7500   -999.2500   -999.2500   -999.2500     86.1705
    -7.5000   -999.2500   -999.2500   -999.2500     84.4501
    -7.2500   -999.2500   -999.2500   -999.2500     82.9493
    -7.0000   -999.2500   -999.2500   -999.2500     82.3715
    -6.7500   -999.2500   -999.2500   -999.2500     82.7537
    -6.5000   -999.2500   -999.2500   -999.2500     83.5600
    -6.2500   -999.2500   -999.2500   -999.2500     83.9701
    -6.0000   -999.2500   -999.2500   -999.2500     83.3457
    -5.7500   -999.2500   -999.2500   -999.2500     81.6340
    -5.5000   -999.2500   -999.2500   -999.2500     79.2593
    -5.2500   -999.2500   -999.2500   -999.2500     76.6521
    -5.0000   -999.2500   -999.2500   -999.2500     74.1192
    -4.7500   -999.2500   -999.2500   -999.2500     72.0608
    -4.5000   -999.2500   -999.2500   -999.2500     70.8663
    -4.2500   -999.2500   -999.2500   -999.2500     70.4475
    -4.0000   -999.2500   -999.2500   -999.2500     70.2165
    -3.7500   -999.2500   -999.2500   -999.2500     69.7781
    -3.5000   -999.2500   -999.2500   -999.2500     69.4263
    -3.2500   -999.2500   -999.2500   -999.2500     69.7831
    -3.0000   -999.2500   -999.2500   -999.2500     71.1450
    -2.7500   -999.2500   -999.2500   -999.2500     73.2451
    -2.5000   -999.2500   1500.0000      0.7094     75.3782
    -2.2500   -999.2500   1500.0000      0.7352     76.7358
    -2.0000   -999.2500   1500.0000      0.7487     76.8729
    -1.7500   -999.2500   1500.0000      0.7491     75.8202
    -1.5000   -999.2500   1500.0000      0.7358     73.5408
    -1.2500   -999.2500   1500.0000      0.7089     69.5393
    -1.0000   -999.2500   1500.0000      0.6724     63.5399
    -0.7500   -999.2500   1500.0000      0.6342     56.3796
    -0.5000   -999.2500   1500.0000      0.6010     49.6641
    -0.2500   -999.2500   1500.0000      0.5759     44.5598
     0.0000   -999.2500   1500.0000      0.5621     41.2492
     0.2500   -999.2500   1500.0000      0.5636     39.3399
     0.5000   -999.2500   1500.0000      0.5783     38.3559
     0.7500   -999.2500   1500.0000      0.5955     37.9930
     1.0000   -999.2500   1500.0000      0.6054     38.2780
     1.2500   -999.2500   1500.0000      0.6086     39.4563
     1.5000   -999.2500   1500.0000      0.6119     41.5965
     1.7500   -999.2500   1500.0000      0.6186     44.4339
     2.0000   -999.2500   1500.0000      0.6254     47.6123
     2.2500   -999.2500   1500.0000      0.6266     50.8409
     2.5000   -999.2500   1500.0000      0.6190     53.7855
     2.7500   -999.2500   1500.0000      0.6039     56.0774
     3.0000      0.0000   1500.0000      0.5863     57.4831
     3.2500      0.0000   1500.0000      0.5716     57.8954
     3.5000      0.0000   1500.0000      0.5634     57.2850
     3.7500      0.0000   1500.0000      0.5675     55.9323
     4.0000      0.0000   1500.0000      0.5930     54.5598
     4.2500      0.0000   1500.0000      0.6445     53.8150
     4.5000      0.0000   1500.0000      0.7102     53.6067
     4.7500      0.0000   1500.0000      0.7632     53.2377
     5.0000      0.0000   1500.0000      0.7812     52.1659
     5.2500      0.0000   1500.0000      0.7639     50.4791
     5.5000      0.0000   1500.0000      0.7310     48.7335
     5.7500      0.0000   1500.0000      0.7058     47.4102
     6.0000      0.0000   1500.0000      0.7013     46.4114
     6.2500      0.0000   1500.0000      0.7152     45.2101
     6.5000      0.0000   1500.0000      0.7299     43.6139
     6.7500      0.0000   1500.0000      0.7211     42.1552
     7.0000      0.0000   1500.0000      0.6761     41.5383
     7.2500      0.0000   1500.0000      0.6056     41.8972
     7.5000      0.0000   1500.0000      0.5381     42.7829
     7.7500      0.0000   1500.0000      0.4995     43.7146
     8.0000      0.0000   1500.0000      0.4955     44.5002
     8.2500      0.0000   1500.0000      0.5116     45.0842
     8.5000      0.0000   1500.0000      0.5279     45.3915
     8.7500      0.0000   1500.0000      0.5341     45.3931
     9.0000      0.0000   1500.0000      0.5323     45.0535
     9.2500      0.0000   1500.0000      0.5278     44.1010
     9.5000      0.0000   1500.0000      0.5213     42.1316
     9.7500      0.0000   1500.0000      0.5088     39.1757
    10.0000      0.0000   1500.0000      0.4860     36.0191
    10.2500      0.0000   1500.0000      0.4533     33.8191
    10.5000      0.0000   1500.0000      0.4195     33.4343
    10.7500      0.0000   1499.9515      0.4011     35.0043
    11.0000      0.0000   1499.6356      0.4188     37.7931
    11.2500      0.0000   1498.0319      0.4911     40.4765
    11.5000      0.0000   1491.6903      0.6314     42.0586
    11.7500      0.0000   1472.1820      0.8582     42.6725
    12.0000      0.0000   1425.4698      1.2154     43.1596
    12.2500      0.0000   1338.5852      1.7631     43.8408
    12.5000      0.0000   1213.5551      2.5128     44.1557
    12.7500      0.0000   1075.7927      3.3643     43.6477
    13.0000      0.0000    962.7559      4.1389     42.7990
    13.2500      0.0000    899.0398      4.6951     42.4759
    13.5000      0.0000    881.3329      5.0054     42.8788
    13.7500      0.0000    885.9332      5.1306     43.5899
    14.0000      0.0000    888.4534      5.1472     44.4511
    14.2500      0.0000    877.5102      5.1079     45.6594
    14.5000      0.0000    854.9714      5.0441     46.9101
    14.7500      0.0000    828.7175      4.9827     47.1800
    15.0000      0.0000    806.1407      4.9511     45.8487
    15.2500      0.0000    790.9918      4.9699     43.6805
    15.5000      0.0000    783.1311      5.0389     42.1200
    15.7500      0.0000    780.3405      5.1336     41.6676
    16.0000      0.0000    780.7202      5.2179     41.3838
    16.2500      0.0000    784.1004      5.2645     40.0566
    16.5000      0.0000    791.8157      5.2642     37.5337
    16.7500      0.0000    805.0153      5.2207     34.8560
    17.0000      0.0000    822.8395      5.1398     33.3625
    17.2500      0.0000    842.4327      5.0308     33.6663
    17.5000      0.0000    860.3433      4.9191     35.1616
    17.7500      0.0000    872.9301      4.8457     36.4211
    18.0000      0.0000    877.1647      4.8437     36.3607
    18.2500      0.0000    874.6959      4.9173     35.2415
    18.5000      0.0000    874.3417      5.0438     34.4849
    18.7500      0.0000    885.7387      5.1872     35.3868
    19.0000      0.0000    908.7813      5.3100     38.0519
    19.2500      0.0000    931.5533      5.3809     41.5431
    19.5000      0.0000    940.0758      5.3747     44.7209
    19.7500      0.0000    929.9466      5.2669     46.7444
    20.0000      0.0000    909.2806      5.0508     47.1170
    20.2500      0.0000    892.0222      4.7742     45.7992
    20.5000      0.0000    888.8114      4.5446     43.5417
    20.7500      0.0000    902.1559      4.4628     41.9202
    21.0000      0.0000    927.2996      4.5388     42.5227
    21.2500      0.0000    957.9838      4.6908     45.6907
    21.5000      0.0000    993.4768      4.8276     50.1674
    21.7500      0.0000   1037.8619      4.9133     54.3426
    22.0000      0.0000   1090.0825      4.9618     57.8097
    22.2500      0.0000   1138.9895      5.0062     61.3585
    22.5000      0.0000   1171.5846      5.0783     65.5153
    22.7500      0.0000   1181.3597      5.1869     69.5797
    23.0000      0.0000   1166.7454      5.3054     72.4005
    23.2500      0.0000   1128.8627      5.3945     73.9009
    23.5000      0.0000   1074.4639      5.4363     75.2265
    23.7500      0.0000   1016.3215      5.4359     77.1192
    24.0000      0.0000    967.5839      5.4038     78.7641
    24.2500      0.0000    935.9819      5.3563     78.8049
    24.5000      0.0000    922.5154      5.3224     77.0447
    24.7500      0.0000    923.2001      5.3341     74.6430
    25.0000      0.0000    930.6936      5.4097     73.0251
    25.2500      0.0000    935.7698      5.5498     73.0165
