~Version Information
VERS.                                  2.0 : CWLS LAS VERSION
WRAP.                                   NO : WRAPING MODE
SWARE .                 MController 2.5.0J : SOFTWARE VERSION
~Well Information
WELL.                         State 16-43V : WELL
COMP.                       Petrogulf CORP : COMPANY
FLD.                NE/SE Sec 16 T33S R67W : FIELD
LOC.                      Purgatoire River : LOCATION
DATE.                            12/3-4/04 : DATE(S) LOGGED
SRVC.        Blanco Geological Service LLC : SERVICE COMPANY
STAT.                                   CO : STATE
CNTY.                            Las Animas: COUNTY
CTRY.                                  USA : COUNTRY
API.                           05-071-08015: API NUMBER
STRT.FT                             626.00 : START DEPTH
STOP.FT                            2125.00 : STOP DEPTH
STEP.FT                               1.00 : DEPTH INCREMENT
NULL.                                -9999 : NULL VALUE
~Curve information
DEPTH.FT                                   :
ROP.MIN/FT                                 :
GAS.UNITS                                  :
~ASCII Log data
       626.0     -9999.00          3.8
       627.0        57.45          4.1
       628.0         0.27          3.4
       629.0         0.27          4.7
       630.0         0.27          4.7
       631.0         0.27          5.4
       632.0         0.28          5.3
       633.0         0.27          5.0
       634.0         0.20          7.5
       635.0         0.43         54.1
       636.0         0.40         34.4
       637.0         0.33         18.0
       638.0         0.23         12.0
       639.0         0.30          5.1
       640.0         0.33          2.6
       641.0         0.27          2.3
       642.0         0.33          2.2
       643.0         0.22          2.1
       644.0         0.27          1.3
       645.0         0.27          1.4
       646.0         0.27          2.2
       647.0         0.27          3.0
       648.0         0.23          2.7
       649.0         0.27          3.3
       650.0         0.27          2.7
       651.0         0.30          1.4
       652.0         0.27          1.4
       653.0         0.23          2.7
       654.0         0.20          3.2
       655.0         0.17          3.3
       656.0         0.25          3.0
       657.0         0.27          3.2
       658.0         0.37          2.8
       659.0         0.30          3.1
       660.0         0.37          2.5
       661.0         0.23          1.9
       662.0         0.13          1.8
       663.0         0.27          2.4
       664.0         0.17          3.2
       665.0         0.27          3.6
       666.0         0.30          3.7
       667.0         0.27          3.2
       668.0         0.37          2.1
       669.0         0.30          1.9
       670.0         0.30          2.9
       671.0         0.30          2.8
       672.0         0.27          3.7
       673.0         0.27          4.2
       674.0         0.30          5.1
       675.0         0.32          4.7
       676.0         0.33          4.6
       677.0         0.30          3.7
       678.0         0.33          3.4
       679.0         0.27          3.6
       680.0         0.17          2.9
       681.0         0.17          2.8
       682.0         0.20          3.3
       683.0         0.27          4.1
       684.0         0.30          2.2
       685.0         0.27          4.1
       686.0         0.27          7.1
       687.0         0.13          6.4
       688.0         0.20          6.0
       689.0         0.20          6.0
       690.0         0.23          6.3
       691.0         0.17          6.1
       692.0         0.23          9.2
       693.0         0.23         16.2
       694.0         0.27         21.7
       695.0         0.30         23.4
       696.0         0.38         19.9
       697.0         0.27         17.9
       698.0         0.30         14.1
       699.0         0.30         10.5
       700.0         0.30          9.7
       701.0         0.27         10.7
       702.0         0.27         10.3
       703.0         0.27          9.6
       704.0         0.30          7.9
       705.0         0.37          6.7
       706.0         0.23          6.9
       707.0         0.20          7.2
       708.0         0.25          7.6
       709.0         0.20          7.6
       710.0         0.17          8.2
       711.0         0.20          7.9
       712.0         0.23          7.9
       713.0         0.20          8.3
       714.0         0.07          7.4
       715.0         0.13          6.7
       716.0         0.20          5.5
       717.0         0.27          6.7
       718.0         0.25          9.6
       719.0         0.13         10.5
       720.0         0.17         10.9
       721.0         0.20         15.2
       722.0         0.17         20.2
       723.0         0.13         21.6
       724.0         0.20         21.9
       725.0         0.20         20.8
       726.0         0.17         18.5
       727.0         0.13         16.6
       728.0         0.20         14.5
       729.0         0.17         13.2
       730.0         0.20         11.4
       731.0         0.13          9.8
       732.0         0.13          8.8
       733.0         0.13          8.5
       734.0         0.30          9.5
       735.0         0.17          7.8
       736.0         0.10          7.5
       737.0         0.13          6.1
       738.0         0.12          6.2
       739.0         0.13          7.0
       740.0         0.10          7.8
       741.0         0.13          8.7
       742.0         0.17          8.4
       743.0         0.13          8.3
       744.0         0.17          8.5
       745.0         0.10          8.2
       746.0         0.10          7.8
       747.0         0.10          7.7
       748.0         0.30         11.4
       749.0         0.23         11.7
       750.0         0.13         11.8
       751.0         0.10         11.2
       752.0         0.17         11.2
       753.0         0.20         11.0
       754.0         0.20         11.0
       755.0         0.17         10.6
       756.0         0.13         11.1
       757.0         0.17         10.8
       758.0         0.20         11.3
       759.0         0.17         12.3
       760.0         0.20         11.5
       761.0         0.23         10.7
       762.0         0.20         11.8
       763.0         0.27         13.2
       764.0         0.23         12.4
       765.0         0.23         12.0
       766.0         0.28          9.9
       767.0         0.23          9.5
       768.0         0.23          8.7
       769.0         0.20          9.3
       770.0         0.20         10.6
       771.0         0.20         11.5
       772.0         0.17         10.2
       773.0         0.17          9.7
       774.0         0.17          8.7
       775.0         0.17          8.6
       776.0         0.10          8.4
       777.0         0.37          8.3
       778.0         0.20          8.7
       779.0         0.20          8.7
       780.0         0.20          7.8
       781.0         0.20          8.4
       782.0         0.20          8.6
       783.0         0.23          8.3
       784.0         0.17          8.7
       785.0         0.13          7.6
       786.0         0.13          7.8
       787.0         0.10          9.0
       788.0         0.10          9.5
       789.0         0.07         10.2
       790.0         0.10          9.7
       791.0         0.07          9.6
       792.0         0.10         10.0
       793.0         0.10          9.0
       794.0         0.10          8.7
       795.0         0.15          8.3
       796.0         0.20          8.0
       797.0         0.17          9.6
       798.0         0.20         10.5
       799.0         0.17         10.8
       800.0         0.17         10.3
       801.0         0.20         10.0
       802.0         0.20         10.5
       803.0         0.23         11.0
       804.0         0.17         11.3
       805.0         0.13         12.5
       806.0         0.33         20.5
       807.0         0.23         19.3
       808.0         0.23         20.6
       809.0         0.20         19.4
       810.0         0.20         19.1
       811.0         0.20         19.7
       812.0         0.17         18.2
       813.0         0.20         18.1
       814.0         0.18         18.5
       815.0         0.17         17.9
       816.0         0.20         18.5
       817.0         0.17         18.4
       818.0         0.13         18.3
       819.0         0.13         19.0
       820.0         0.10         20.6
       821.0         0.10         21.5
       822.0         0.10         21.7
       823.0         0.10         22.5
       824.0         0.10         23.3
       825.0         0.10         22.8
       826.0         0.10         22.2
       827.0         0.17         22.2
       828.0         0.20         23.3
       829.0         0.13         23.2
       830.0         0.17         23.8
       831.0         0.37         23.1
