~Version Information
VERS.                      2.0: CWLS Log ASCII Standard - VERSION 2.0
WRAP.                       NO: One line per depth step
~Well Information Block
STRT.FT               660.8000: 
STOP.FT              2375.1000: 
STEP.FT                 0.1000: 
NULL.                -999.2500: 
COMP.          Petrogulf Corporation: COMPANY
WELL.             State 16-34V: WELL
FLD.           Purgatorie River: FIELD
LOC.           1146' FSL & 1393' FEL: LOCATION
CNTY.               Las Animas: COUNTY
SRVC.                         : SERVICE COMPANY
DATE.          Sat Jun 07 20:51:20 2003: LOG DATE
UWI.           05 071 07724 00: UNIQUE WELL ID
STAT.                 Colorado: STATE
~Curve Information Block
DEPT.FT            0 000 00 00: Depth
DCAL.in                       : Caliper from Density Tool
RHOB.g/cc                     : Bulk Density
RHOC.g/cc                     : Density Correction
DPOR.pu                       : Density Porosity
GR.GAPI                       : Gamma Ray
NPOR.pu                       : Neutron Porosity
~Parameter Information Block
~A  Depth       DCAL        RHOB        RHOC        DPOR         GR         NPOR    
# ...
   670.4000   -999.2500   -999.2500   -999.2500   -999.2500     95.8564     50.1427
   670.5000   -999.2500   -999.2500   -999.2500   -999.2500     94.9361     50.0890
   670.6000   -999.2500   -999.2500   -999.2500   -999.2500     93.9560     50.0368
   670.7000   -999.2500   -999.2500   -999.2500   -999.2500     92.9431     49.9932
   670.8000   -999.2500   -999.2500   -999.2500   -999.2500     91.9256     49.9651
   670.9000   -999.2500   -999.2500   -999.2500   -999.2500     90.9321     49.9582
   671.0000   -999.2500   -999.2500   -999.2500   -999.2500     89.9925     49.9766
   671.1000   -999.2500   -999.2500   -999.2500   -999.2500     89.1352     50.0223
   671.2000   -999.2500   -999.2500   -999.2500   -999.2500     88.3897     50.0947
   671.3000   -999.2500   -999.2500   -999.2500   -999.2500     87.7819     50.1908
   671.4000   -999.2500   -999.2500   -999.2500   -999.2500     87.3322     50.3049
   671.5000   -999.2500   -999.2500   -999.2500   -999.2500     87.0522     50.4290
   671.6000   -999.2500   -999.2500   -999.2500   -999.2500     86.9423     50.5532
   671.7000   -999.2500   -999.2500   -999.2500   -999.2500     86.9904     50.6663
   671.8000   -999.2500   -999.2500   -999.2500   -999.2500     87.1703     50.7565
   671.9000   -999.2500   -999.2500   -999.2500   -999.2500     87.4453     50.8128
   672.0000   -999.2500   -999.2500   -999.2500   -999.2500     87.7687     50.8262
   672.1000   -999.2500   -999.2500   -999.2500   -999.2500     88.0904     50.7900
   672.2000   -999.2500   -999.2500   -999.2500   -999.2500     88.3604     50.7016
   672.3000   -999.2500   -999.2500   -999.2500   -999.2500     88.5325     50.5624
   672.4000   -999.2500   -999.2500   -999.2500   -999.2500     88.5701     50.3774
   672.5000   -999.2500   -999.2500   -999.2500   -999.2500     88.4483     50.1547
   672.6000   -999.2500   -999.2500   -999.2500   -999.2500     88.1544     49.9047
   672.7000   -999.2500   -999.2500   -999.2500   -999.2500     87.6889     49.6379
   672.8000   -999.2500   -999.2500   -999.2500   -999.2500     87.0627     49.3642
   672.9000   -999.2500   -999.2500   -999.2500   -999.2500     86.2936     49.0915
   673.0000   -999.2500   -999.2500   -999.2500   -999.2500     85.4033     48.8249
   673.1000   -999.2500   -999.2500   -999.2500   -999.2500     84.4137     48.5668
   673.2000   -999.2500   -999.2500   -999.2500   -999.2500     83.3431     48.3175
   673.3000   -999.2500   -999.2500   -999.2500   -999.2500     82.2074     48.0752
   673.4000   -999.2500   -999.2500   -999.2500   -999.2500     81.0178     47.8381
   673.5000   -999.2500   -999.2500   -999.2500   -999.2500     79.7839     47.6044
   673.6000   -999.2500   -999.2500   -999.2500   -999.2500     78.5150     47.3736
   673.7000   -999.2500   -999.2500   -999.2500   -999.2500     77.2234     47.1466
   673.8000   -999.2500   -999.2500   -999.2500   -999.2500     75.9251     46.9260
   673.9000   -999.2500   -999.2500   -999.2500   -999.2500     74.6410     46.7161
   674.0000   -999.2500   -999.2500   -999.2500   -999.2500     73.3968     46.5218
   674.1000   -999.2500   -999.2500   -999.2500   -999.2500     72.2208     46.3491
   674.2000   -999.2500   -999.2500   -999.2500   -999.2500     71.1411     46.2037
   674.3000   -999.2500   -999.2500   -999.2500   -999.2500     70.1845     46.0908
   674.4000   -999.2500   -999.2500   -999.2500   -999.2500     69.3730     46.0151
   674.5000   -999.2500   -999.2500   -999.2500   -999.2500     68.7231     45.9800
   674.6000   -999.2500   -999.2500   -999.2500   -999.2500     68.2459     45.9879
   674.7000   -999.2500   -999.2500   -999.2500   -999.2500     67.9464     46.0400
   674.8000      8.4460   -999.2500   -999.2500   -999.2500     67.8241     46.1363
   674.9000      8.4460   -999.2500   -999.2500   -999.2500     67.8732     46.2757
   675.0000      8.4512   -999.2500   -999.2500   -999.2500     68.0839     46.4563
   675.1000      8.4512   -999.2500   -999.2500   -999.2500     68.4414     46.6759
   675.2000      8.4512   -999.2500   -999.2500   -999.2500     68.9273     46.9318
   675.3000      8.4063   -999.2500   -999.2500   -999.2500     69.5187     47.2219
   675.4000      8.4063   -999.2500   -999.2500   -999.2500     70.1912     47.5448
   675.5000      8.3444   -999.2500   -999.2500   -999.2500     70.9184     47.9000
   675.6000      8.3444   -999.2500   -999.2500   -999.2500     71.6749     48.2880
   675.7000      8.3444   -999.2500   -999.2500   -999.2500     72.4373     48.7104
   675.8000      8.2815   -999.2500   -999.2500   -999.2500     73.1874     49.1684
   675.9000      8.2815   -999.2500   -999.2500   -999.2500     73.9118     49.6627
   676.0000      8.2522   -999.2500   -999.2500   -999.2500     74.6025     50.1917
   676.1000      8.2522   -999.2500   -999.2500   -999.2500     75.2573     50.7510
   676.2000      8.2522   -999.2500   -999.2500   -999.2500     75.8767     51.3322
   676.3000      8.2604      2.3905     -0.7373     15.7266     76.4637     51.9231
   676.4000      8.2604      2.3905     -0.7373     15.7266     77.0188     52.5074
   676.5000      8.2825      2.4169     -0.7553     14.1302     77.5390     53.0664
   676.6000      8.2825      2.4169     -0.7553     14.1302     78.0151     53.5799
   676.7000      8.2825      2.4169     -0.7553     14.1302     78.4318     54.0282
   676.8000      8.2889      2.4961     -0.7266      9.3292     78.7684     54.3936
   676.9000      8.2889      2.4961     -0.7266      9.3292     79.0012     54.6620
   677.0000      8.2906      2.5620     -0.6753      5.3343     79.1094     54.8234
   677.1000      8.2906      2.5620     -0.6753      5.3343     79.0785     54.8726
   677.2000      8.2906      2.5620     -0.6753      5.3343     78.9044     54.8094
   677.3000      8.3463      2.6389     -0.5835      0.6728     78.5961     54.6382
   677.4000      8.3463      2.6389     -0.5835      0.6728     78.1750     54.3676
   677.5000      8.4206      2.6582     -0.5313     -0.4974     77.6734     54.0101
   677.6000      8.4206      2.6582     -0.5313     -0.4974     77.1303     53.5814
   677.7000      8.4206      2.6582     -0.5313     -0.4974     76.5875     53.0991
   677.8000      8.3934      2.6382     -0.4804      0.7124     76.0853     52.5824
   677.9000      8.3934      2.6382     -0.4804      0.7124     75.6600     52.0501
   678.0000      8.3154      2.6039     -0.4635      2.7964     75.3426     51.5199
   678.1000      8.3154      2.6039     -0.4635      2.7964     75.1581     51.0077
   678.2000      8.3154      2.6039     -0.4635      2.7964     75.1240     50.5257
   678.3000      8.2599      2.5444     -0.4543      6.3974     75.2520     50.0831
   678.4000      8.2599      2.5444     -0.4543      6.3974     75.5447     49.6856
   678.5000      8.1993      2.5098     -0.4533      8.4991     75.9956     49.3356
   678.6000      8.1993      2.5098     -0.4533      8.4991     76.5873     49.0330
   678.7000      8.1993      2.5098     -0.4533      8.4991     77.2910     48.7755
   678.8000      8.1760      2.4727     -0.4535     10.7439     78.0681     48.5594
   678.9000      8.1760      2.4727     -0.4535     10.7439     78.8732     48.3806
   679.0000      8.2280      2.4577     -0.4537     11.6548     79.6570     48.2347
   679.1000      8.2280      2.4577     -0.4537     11.6548     80.3706     48.1176
   679.2000      8.2280      2.4577     -0.4537     11.6548     80.9713     48.0262
   679.3000      8.3209      2.4448     -0.4546     12.4383     81.4249     47.9579
   679.4000      8.3209      2.4448     -0.4546     12.4383     81.7106     47.9110
   679.5000      8.3734      2.4389     -0.4563     12.7958     81.8212     47.8844
   679.6000      8.3734      2.4389     -0.4563     12.7958     81.7649     47.8769
   679.7000      8.3734      2.4389     -0.4563     12.7958     81.5650     47.8872
   679.8000      8.3395      2.4274     -0.4616     13.4912     81.2568     47.9137
   679.9000      8.3395      2.4274     -0.4616     13.4912     80.8842     47.9542
