~Version Information
VERS.                      2.0: CWLS Log ASCII Standard - VERSION 2.0
WRAP.                       NO: One line per depth step
~Well Information Block
STRT.FT                -4.0000: 
STOP.FT              2464.0000: 
STEP.FT                 0.2500: 
NULL.                -999.2500: 
COMP.          Pioneer Natural Resources: COMPANY
WELL.            Rancher 12-35: WELL
FLD.           Purgatorie River: FIELD
LOC.           2131' FNL & 297' FWL--: LOCATION
PROV.                       CO: PROVINCE
CNTY.               Las Animas: COUNTRY
SRVC.                         : SERVICE COMPANY
DATE.          Wed Oct 20 13:17:53 2004: LOG DATE
UWI.                          : UNIQUE WELL ID
~Curve Information Block
DEPT.FT            0 000 00 00: Depth
GR.GAPI                       : Gamma Ray
CCL.                          : Casing Collar Locator
TT3.usec                      : CBL 3' Travel Time
AMP3.mV                       : CBL 3' Amplitude
~Parameter Information Block
~A  Depth        GR         CCL         TT3         AMP3    
# ...
  1939.0000    146.4361      0.0000    723.1906      7.2833
  1939.2500    143.3819      0.0000    728.9319      7.1836
  1939.5000    139.3045      0.0000    735.1744      7.0482
  1939.7500    134.1553      0.0000    739.1414      6.9254
  1940.0000    126.9328      0.0000    737.4692      6.8560
  1940.2500    117.9020      0.0000    728.7086      6.8511
  1940.5000    109.8893      0.0000    714.1566      6.8930
  1940.7500    106.3265      0.0000    695.5187      6.9473
  1941.0000    108.0320      0.0000    671.9470      6.9789
  1941.2500    112.7061      0.0000    640.9106      6.9686
  1941.5000    117.4065      0.0000    603.9109      6.9136
  1941.7500    120.7494      0.0000    571.0715      6.8146
  1942.0000    123.0252      0.0000    556.2397      6.6702
  1942.2500    125.1459      0.0000    564.7444      6.4877
  1942.5000    127.5115      0.0000    588.4044      6.2935
  1942.7500    129.3131      0.0000    615.2905      6.1267
  1943.0000    128.9334      0.0000    641.0303      6.0223
  1943.2500    125.4086      0.0000    666.8591      5.9893
  1943.5000    119.6209      0.0000    690.6377      6.0026
  1943.7500    114.0551      0.0000    705.8914      6.0217
  1944.0000    111.2028      0.0000    708.9299      6.0227
  1944.2500    111.9208      0.0000    703.1369      6.0111
  1944.5000    115.2638      0.0000    695.8045      6.0098
  1944.7500    119.6813      0.0000    692.0118      6.0437
  1945.0000    123.7492      0.0000    692.0060      6.1302
  1945.2500    125.9298      0.0000    693.5196      6.2730
  1945.5000    124.9183      0.0000    695.0208      6.4591
  1945.7500    121.0267      0.0000    696.5087      6.6703
  1946.0000    116.6762      0.0000    698.6555      6.8960
  1946.2500    114.8971      0.0000    702.2819      7.1293
  1946.5000    117.2730      0.0000    708.0889      7.3519
  1946.7500    123.1667      0.0000    715.9896      7.5301
  1947.0000    130.4611      0.0000    724.5386      7.6264
  1947.2500    136.8416      0.0000    731.4308      7.6166
  1947.5000    140.8061      0.0000    734.8401      7.5038
  1947.7500    142.2064      0.0000    734.4158      7.3218
  1948.0000    141.9206      0.0000    731.2509      7.1238
  1948.2500    140.7768      0.0000    727.0909      6.9592
  1948.5000    139.0987      0.0000    723.3207      6.8549
  1948.7500    137.3412      0.0000    720.2804      6.8115
  1949.0000    136.2906      0.0000    717.2396      6.8155
  1949.2500    136.2470      0.0000    713.0295      6.8521
  1949.5000    136.6402      0.0000    707.1505      6.9110
  1949.7500    136.7243      0.0000    700.7268      6.9805
  1950.0000    136.2832      0.0000    696.1214      7.0459
  1950.2500    135.7859      0.0000    695.1472      7.0956
  1950.5000    136.1524      0.0000    697.7888      7.1244
  1950.7500    138.0318      0.0000    702.7599      7.1310
  1951.0000    140.9972      0.0000    708.7600      7.1211
  1951.2500    143.6054      0.0000    714.9895      7.1093
  1951.5000    144.5453      0.0000    721.0291      7.1075
  1951.7500    143.9186      0.0000    726.5499      7.1122
  1952.0000    143.3057      0.0000    731.1525      7.1100
  1952.2500    144.2249      0.0000    734.6017      7.0905
  1952.5000    146.4650      0.0000    737.2656      7.0480
  1952.7500    148.3743      0.0000    739.9854      6.9816
  1953.0000    148.6976      0.0000    743.2013      6.9023
  1953.2500    147.6874      0.0000    746.2463      6.8351
  1953.5000    146.6313      0.0000    747.7827      6.8051
  1953.7500    146.7151      0.0000    747.1277      6.8224
  1954.0000    147.9875      0.0000    744.9803      6.8812
  1954.2500    149.0695      0.0000    742.7136      6.9663
  1954.5000    148.2222      0.0000    741.1792      7.0590
  1954.7500    144.9756      0.0000    740.3522      7.1424
  1955.0000    140.4431      0.0000    739.8063      7.2055
  1955.2500    136.0694      0.0000    739.1810      7.2432
  1955.5000    132.5113      0.0000    738.2505      7.2558
  1955.7500    129.7263      0.0000    736.7501      7.2470
  1956.0000    127.7296      0.0000    734.2716      7.2197
  1956.2500    126.7213      0.0000    730.4332      7.1698
  1956.5000    126.2827      0.0000    725.2476      7.0880
  1956.7500    125.0832      0.0000    719.2759      6.9702
  1957.0000    122.1259      0.0000    713.4514      6.8306
  1957.2500    118.1943      0.0000    708.9890      6.7072
  1957.5000    115.5606      0.0000    707.3749      6.6531
  1957.7500    116.1506      0.0000    709.7914      6.7078
  1958.0000    119.9130      0.0000    716.0225      6.8645
  1958.2500    124.6236      0.0000    724.0206      7.0664
  1958.5000    127.2176      0.0000    730.9096      7.2448
  1958.7500    126.0232      0.0000    734.6902      7.3623
  1959.0000    122.3396      0.0000    735.2824      7.4182
  1959.2500    119.5913      0.0000    734.3071      7.4214
  1959.5000    120.4352      0.0000    733.8664      7.3691
  1959.7500    124.6669      0.0000    735.0652      7.2538
  1960.0000    130.1534      0.0000    737.4549      7.0826
  1960.2500    135.4297      0.0000    739.8563      6.8838
  1960.5000    140.6605      0.0000    741.5150      6.6950
  1960.7500    146.2265      0.0000    742.4063      6.5460
  1961.0000    151.4263      0.0000    742.8372      6.4478
  1961.2500    154.9429      0.0000    743.0903      6.3946
  1961.5000    156.0231      0.0000    743.3199      6.3701
  1961.7500    155.0255      0.0000    743.5464      6.3554
  1962.0000    153.2679      0.0000    743.6970      6.3330
  1962.2500    152.2951      0.0000    743.7070      6.2910
  1962.5000    152.7880      0.0000    743.5875      6.2250
  1962.7500    154.1436      0.0000    743.4025      6.1397
  1963.0000    155.2549      0.0000    743.1591      6.0451
  1963.2500    155.4018      0.0000    742.7057      5.9509
  1963.5000    154.1940      0.0000    741.6919      5.8629
  1963.7500    151.2471      0.0000    739.6493      5.7884
  1964.0000    146.3815      0.0000    736.2689      5.7408
  1964.2500    139.7137      0.0000    731.7783      5.7345
  1964.5000    131.4346      0.0000    727.0919      5.7724
  1964.7500    122.2760      0.0000    723.5646      5.8362
  1965.0000    114.2476      0.0000    722.4757      5.8945
  1965.2500    109.8255      0.0000    724.2938      5.9275
  1965.5000    109.8853      0.0000    728.0061      5.9427
  1965.7500    112.8448      0.0000    731.4737      5.9579
  1966.0000    116.2330      0.0000    733.0674      5.9691
  1966.2500    119.1701      0.0000    733.0496      5.9505
  1966.5000    123.2483      0.0000    733.0953      5.8921
  1966.7500    130.6310      0.0000    734.4851      5.8232
  1967.0000    141.1096      0.0000    737.0547      5.7892
  1967.2500    151.3891      0.0000    739.8465      5.8127
  1967.5000    157.5241      0.0000    742.3661      5.8817
  1967.7500    157.8409      0.0000    745.2795      5.9726
  1968.0000    153.6570      0.0000    750.6389      6.0793
  1968.2500    147.8406      0.0000    761.5721      6.2150
  1968.5000    142.7310      0.0000    780.2335      6.3726
  1968.7500    139.0465      0.0000    804.1650      6.4802
  1969.0000    136.3555      0.0000    824.9415      6.4288
  1969.2500    133.9463      0.0000    832.9683      6.1871
  1969.5000    130.9234      0.0000    825.2940      5.8824
  1969.7500    126.2583      0.0000    808.4285      5.7176
  1970.0000    119.6646      0.0000    793.0089      5.7943
  1970.2500    112.1755      2.0000    785.4429      6.0449
  1970.5000    105.4291      0.0000    783.6952      6.3269
  1970.7500    100.6137      0.0000    780.5124      6.5437
  1971.0000     98.1368      0.0000    771.0891      6.6845
  1971.2500     97.7625      0.0000    757.5886      6.7981
  1971.5000     98.7564      0.0000    746.1765      6.9459
  1971.7500     99.9944      0.0000    740.9643      7.1632
  1972.0000    100.2008      0.0000    741.7590      7.4507
  1972.2500     98.4944      0.0000    746.1866      7.7950
