~Version Information
VERS.                      2.0: CWLS Log ASCII Standard - VERSION 2.0
WRAP.                       NO: One line per depth step
~Well Information Block
STRT.FT               418.4000: 
STOP.FT              1170.0000: 
STEP.FT                 0.1000: 
NULL.                -999.2500: 
COMP.          Evergreen Operating Corporation: COMPANY
WELL.             Bernice 21-3: WELL
FLD.           Purgatoire River: FIELD
LOC.           201' FNL & 2575' FWL: LOCATION
PROV.                 Colorado: PROVINCE
CNTY.               Las Animas: COUNTRY
SRVC.                Patterson: SERVICE COMPANY
DATE.          Mon Jan 26 14:55:16 2004: LOG DATE
UWI.             05 071 07912 : UNIQUE WELL ID
~Curve Information Block
DEPT.FT            0 000 00 00: Depth
DCAL.in                       : CDL Caliper
RHOB.g/cc                     : CDL Bulk Density
RHOC.g/cc                     : CDL Density Correction
DPOR.pu                       : CDL Density Porosity
NPOR.pu                       : Neutron Porosity
GR.GAPI                       : Gamma Ray
~Parameter Information Block
~A  Depth       DCAL        RHOB        RHOC        DPOR        NPOR         GR     
# ...
   994.4000      8.0855      2.5107      0.0259      8.4443     29.1406    134.1121
   994.5000      8.0844      2.5158      0.0553      8.1306     28.9346    132.6605
   994.6000      8.0844      2.5176      0.0620      8.0256     28.4599    131.2415
   994.7000      8.0844      2.5286      0.0492      7.3565     28.1727    127.0345
   994.8000      8.0856      2.5493      0.0774      6.1049     28.4152    119.6577
   994.9000      8.0856      2.5600      0.1250      5.4533     28.8566    114.9193
   995.0000      8.0852      2.5499      0.0833      6.0692     28.8681    115.2519
   995.1000      8.0852      2.5284      0.0623      7.3697     28.6019    118.3905
   995.2000      8.0852      2.5043      0.0614      8.8307     28.5059    124.7399
   995.3000      8.0864      2.4835      0.0021     10.0904     28.5131    130.6542
   995.4000      8.0864      2.4759     -0.0061     10.5540     28.4672    129.7938
   995.5000      8.0855      2.4816      0.0174     10.2059     28.3895    124.4216
   995.6000      8.0855      2.4938      0.0030      9.4637     28.3546    120.6025
   995.7000      8.0855      2.5106      0.0416      8.4496     28.3997    119.2691
   995.8000      8.0880      2.5276      0.0393      7.4193     28.5808    121.5022
   995.9000      8.0880      2.5380      0.0412      6.7864     28.9144    126.0397
   996.0000      8.0852      2.5391      0.0334      6.7230     29.1922    124.5272
   996.1000      8.0852      2.5306      0.0392      7.2377     29.2923    113.2759
   996.2000      8.0852      2.5122      0.0263      8.3505     29.2676    100.5397
   996.3000      8.0771      2.4917      0.0050      9.5944     29.0436     92.2184
   996.4000      8.0771      2.4846     -0.0024     10.0228     28.6616     90.5015
   996.5000      8.0733      2.4970      0.0166      9.2721     28.1868     97.3703
   996.6000      8.0733      2.5240      0.0291      7.6390     27.6270    104.9278
   996.7000      8.0733      2.5532      0.0437      5.8692     27.4859    103.3390
   996.8000      8.0738      2.5630      0.0747      5.2718     27.8220     95.8500
   996.9000      8.0738      2.5475      0.0259      6.2146     28.0134     90.1506
   997.0000      8.0750      2.5282      0.0341      7.3817     28.0692     87.6677
   997.1000      8.0750      2.5217      0.0060      7.7780     28.5645     89.4567
   997.2000      8.0750      2.5253      0.0137      7.5588     29.4297     95.5410
   997.3000      8.0728      2.5324      0.0127      7.1266     30.0175    104.5868
   997.4000      8.0728      2.5362      0.0197      6.8973     29.9303    118.5451
   997.5000      8.0757      2.5272     -0.0033      7.4396     29.2940    128.8804
   997.6000      8.0757      2.5047      0.0252      8.8058     28.6201    122.6427
   997.7000      8.0757      2.4816     -0.0166     10.2075     28.3460    108.7183
   997.8000      8.0739      2.4734      0.0188     10.7005     28.3912    103.0312
   997.9000      8.0739      2.4831      0.0060     10.1157     28.4214    105.4865
   998.0000      8.0729      2.4951      0.0573      9.3858     28.3898    109.3549
   998.1000      8.0729      2.4966      0.0159      9.2965     28.4125    112.5453
   998.2000      8.0729      2.4923      0.0365      9.5550     28.4325    111.7803
   998.3000      8.0729      2.4828      0.0556     10.1347     28.5575    104.7204
   998.4000      8.0729      2.4673      0.0083     11.0712     28.8759     96.4387
   998.5000      8.0737      2.4578      0.0046     11.6471     29.0925     93.7237
   998.6000      8.0737      2.4576      0.0429     11.6636     29.0228     97.9166
   998.7000      8.0737      2.4593     -0.0001     11.5581     28.8909    105.0731
   998.8000      8.0744      2.4656      0.0231     11.1766     28.9079    110.8340
   998.9000      8.0744      2.4838      0.0236     10.0751     29.0085    111.0338
   999.0000      8.0727      2.5067      0.0637      8.6858     29.0636    105.0173
   999.1000      8.0727      2.5120      0.0612      8.3611     29.0239     98.7715
   999.2000      8.0727      2.4979      0.0345      9.2194     28.8926     96.5387
   999.3000      8.0711      2.4886      0.0108      9.7832     28.6775     96.7980
   999.4000      8.0711      2.4900      0.0421      9.6961     28.6487    100.0078
   999.5000      8.0777      2.4866      0.0110      9.9007     29.0821    106.4515
   999.6000      8.0777      2.4782      0.0209     10.4119     29.6603    112.8012
   999.7000      8.0777      2.4782      0.0162     10.4093     29.8735    116.0294
   999.8000      8.0855      2.4844      0.0503     10.0390     29.7099    114.6124
   999.9000      8.0855      2.4805      0.0225     10.2699     29.5915    110.4291
  1000.0000      8.0843      2.4706     -0.0034     10.8714     29.6127    107.4178
  1000.1000      8.0843      2.4706      0.0062     10.8722     29.5462    105.6298
  1000.2000      8.0843      2.4772      0.0146     10.4706     29.4351    105.2817
  1000.3000      8.0844      2.4802     -0.0012     10.2930     29.4934    110.4256
  1000.4000      8.0844      2.4831      0.0375     10.1177     29.6729    120.0074
  1000.5000      8.0889      2.4888      0.0401      9.7717     29.8964    125.5015
  1000.6000      8.0889      2.4866      0.0474      9.9054     30.4098    120.8400
  1000.7000      8.0889      2.4613      0.0642     11.4376     31.3318    113.1828
  1000.8000      8.1002      2.4091      0.0364     14.6017     32.2192    114.7687
  1000.9000      8.1002      2.3365     -0.0344     19.0021     32.7090    124.1249
  1001.0000      8.0963      2.2455     -0.0629     24.5124     33.0013    130.9244
  1001.1000      8.0963      2.1326     -0.0855     31.3593     33.3877    130.3774
  1001.2000      8.0963      2.0027     -0.0936     39.2333     33.9102    123.3345
  1001.3000      8.0974      1.8674     -0.1509     47.4301     34.4724    114.8698
  1001.4000      8.0974      1.7381     -0.1634     55.2637     34.8882    107.4416
  1001.5000      8.1339      1.6332     -0.1912     61.6255     35.1002     97.4523
  1001.6000      8.1339      1.5662     -0.1523     65.6852     35.2633     84.0619
  1001.7000      8.1339      1.5156     -0.0602     68.7544     35.3990     72.0734
  1001.8000      8.4702      1.4538     -0.0357     72.4980     35.3108     65.5458
  1001.9000      8.4702      1.3948      0.0280     76.0753     35.0514     62.5036
  1002.0000      8.9572      1.3598      0.0692     78.1936     34.8393     60.6474
  1002.1000      8.9572      1.3429      0.0698     79.2199     34.6510     61.2283
  1002.2000      8.9572      1.3330      0.0588     79.8173     34.3110     60.9740
  1002.3000      9.6840      1.3329      0.0360     79.8244     33.7891     56.2765
  1002.4000      9.6840      1.3524      0.0151     78.6408     33.2281     52.6552
  1002.5000      9.4763      1.3953      0.0444     76.0418     32.6903     55.1375
  1002.6000      9.4763      1.4540      0.0372     72.4826     32.2055     61.0206
  1002.7000      9.4763      1.5237      0.0458     68.2576     31.6943     68.3451
  1002.8000      8.6092      1.6076      0.0462     63.1767     30.9723     77.4917
  1002.9000      8.6092      1.7037      0.0993     57.3536     30.1549     83.7757
  1003.0000      8.4244      1.8067      0.1256     51.1106     29.4867     84.4370
  1003.1000      8.4244      1.9165      0.1468     44.4571     29.0050     82.1802
  1003.2000      8.4244      2.0239      0.1681     37.9429     28.6462     82.6651
  1003.3000      8.3684      2.1139      0.1650     32.4921     28.5245     90.8428
  1003.4000      8.3684      2.1893      0.1214     27.9240     28.6278    102.5570
  1003.5000      8.3526      2.2596      0.1309     23.6610     28.7150    111.7912
  1003.6000      8.3526      2.3233      0.0793     19.8029     28.7715    118.6287
  1003.7000      8.3526      2.3821      0.0564     16.2335     28.8641    124.4070
  1003.8000      8.3506      2.4366      0.0683     12.9311     28.9940    131.0565
  1003.9000      8.3506      2.4674      0.0941     11.0637     29.1911    138.2892
