~Version Information
VERS.                      2.0: CWLS Log ASCII Standard - VERSION 2.0
WRAP.                       NO: One line per depth step
~Well Information Block
STRT.FT                -7.2500: 
STOP.FT              2610.0000: 
STEP.FT                 0.2500: 
NULL.                -999.2500: 
COMP.          Pioneer Natural Resources: COMPANY
WELL.              Wagner 13-9: WELL
FLD.           Purgatorie River: FIELD
LOC.           1819' FSL & 1111' FWL--: LOCATION
PROV.                       CO: PROVINCE
CNTY.               Las Animas: COUNTRY
SRVC.          Patterson Wireline: SERVICE COMPANY
DATE.          Wed May 18 09:08:26 2005: LOG DATE
UWI.           05 071 08302 00: UNIQUE WELL ID
~Curve Information Block
DEPT.FT            0 000 00 00: Depth
CCL.                          : Casing Collar Locator
TT3.usec                      : CBL 3' Travel Time
AMP3.mV                       : CBL 3' Amplitude
GR.GAPI                       : Gamma Ray
~Parameter Information Block
~A  Depth       CCL         TT3         AMP3         GR     
# ...
  2404.7500      0.0000    363.4431      4.5399     52.6787
  2405.0000      0.0000    367.8091      4.3698     52.8845
  2405.2500      0.0000    386.5078      4.1757     55.6486
  2405.5000      0.0000    425.8077      3.9651     60.1744
  2405.7500      0.0000    484.9717      3.7434     64.5692
  2406.0000      0.0000    553.0762      3.5329     67.2278
  2406.2500      0.0000    614.3276      3.3915     67.7198
  2406.5000      0.0000    657.9600      3.3941     66.5591
  2406.7500      0.0000    682.9491      3.5751     64.5528
  2407.0000      0.0000    694.6124      3.8864     62.4458
  2407.2500      0.0000    698.8561      4.2112     60.8104
  2407.5000      0.0000    699.3961      4.4293     60.1301
  2407.7500      0.0000    698.1363      4.4803     61.0408
  2408.0000      0.0000    696.4521      4.3681     64.1863
  2408.2500      0.0000    695.5291      4.1207     69.5855
  2408.5000      0.0000    695.5791      3.7742     76.4248
  2408.7500      0.0000    695.2205      3.3971     83.5699
  2409.0000      0.0000    692.4311      3.0947     89.9912
  2409.2500      0.0000    686.6888      2.9639     94.9004
  2409.5000      0.0000    680.3596      3.0438     98.0644
  2409.7500      0.0000    677.3667      3.2985     99.9651
  2410.0000      0.0000    679.7121      3.6292    101.3301
  2410.2500      0.0000    685.3893      3.9157    102.5013
  2410.5000      0.0000    690.0940      4.0889    103.2263
  2410.7500      0.0000    690.7528      4.1815    102.8178
  2411.0000      0.0000    687.5523      4.2884    100.6547
  2411.2500      0.0000    683.4576      4.4632     96.9845
  2411.5000      0.0000    682.0295      4.6570     93.1235
  2411.7500      0.0000    684.9501      4.7552     90.4101
  2412.0000      0.0000    691.0494      4.6647     89.1440
  2412.2500      0.0000    697.5722      4.3746     88.9134
  2412.5000      0.0000    702.2496      3.9702     89.4457
  2412.7500      0.0000    704.1092      3.6053     90.4631
  2413.0000      0.0000    702.6777      3.4333     91.1506
  2413.2500      0.0000    697.0298      3.5173     90.4989
  2413.5000      0.0000    685.7057      3.7825     88.1562
  2413.7500      0.0000    667.4689      4.0713     84.7107
  2414.0000      0.0000    642.2772      4.2654     81.1872
  2414.2500      0.0000    611.8103      4.3520     78.2342
  2414.5000      0.0000    579.0237      4.3633     75.7924
  2414.7500      0.0000    547.8355      4.2788     73.6387
  2415.0000      0.0000    524.0769      4.0344     72.0338
  2415.2500      0.0000    515.1470      3.6382     71.6192
  2415.5000      0.0000    525.6731      3.2330     72.8917
  2415.7500      0.0000    553.3894      2.9927     75.9632
  2416.0000      0.0000    590.6939      2.9657     80.4077
  2416.2500      0.0000    629.1880      3.0606     84.9174
  2416.5000      0.0000    661.8461      3.1804     87.3755
  2416.7500      0.0000    683.6232      3.3150     85.9738
  2417.0000     -2.0000    693.2839      3.4896     80.7642
  2417.2500     -2.0000    694.3101      3.6705     74.1267
  2417.5000     -2.0000    691.9412      3.7746     69.3822
  2417.7500      0.0000    689.1623      3.7676     68.6548
  2418.0000      0.0000    686.2080      3.7136     72.0043
  2418.2500      0.0000    683.2457      3.6986     78.1997
  2418.5000      0.0000    681.7705      3.7231     85.5464
  2418.7500      0.0000    683.0726      3.7123     91.9322
  2419.0000      0.0000    686.7231      3.6342     95.0977
  2419.2500      0.0000    691.6323      3.5501     93.7155
  2419.5000      0.0000    697.6790      3.5268     88.2855
  2419.7500      0.0000    705.0416      3.5551     80.9402
  2420.0000      0.0000    712.2828      3.5848     74.3241
  2420.2500      0.0000    716.5693      3.5912     70.3003
  2420.5000      0.0000    716.2750      3.5699     69.3429
  2420.7500      0.0000    712.5090      3.5107     70.9381
  2421.0000      0.0000    707.6526      3.4213     74.4064
  2421.2500      0.0000    703.1042      3.3469     79.4157
  2421.5000      0.0000    698.9779      3.3316     85.8603
  2421.7500      0.0000    695.2847      3.3845     93.1370
  2422.0000      0.0000    692.4728      3.4995     99.5311
  2422.2500      0.0000    690.7923      3.6692    102.9151
  2422.5000      0.0000    689.5580      3.8567    102.6226
  2422.7500      0.0000    686.6290      3.9966    100.4156
  2423.0000      0.0000    677.5632      4.0517     99.1126
  2423.2500      0.0000    655.7545      4.0444    100.1341
  2423.5000      0.0000    615.9454      4.0210    102.3522
  2423.7500      0.0000    559.8469      4.0079    103.2516
  2424.0000      0.0000    498.1107      3.9969    101.2228
  2424.2500      0.0000    445.0409      3.9551     96.8421
  2424.5000      0.0000    410.0565      3.8648     92.2057
  2424.7500      0.0000    393.2845      3.7652     89.2028
  2425.0000      0.0000    387.8726      3.7285     88.2046
  2425.2500      0.0000    385.6830      3.7817     88.1775
  2425.5000      0.0000    381.8838      3.8770     88.1273
  2425.7500      0.0000    376.1112      3.9453     88.2505
  2426.0000      0.0000    370.5817      3.9589     89.3347
  2426.2500      0.0000    367.3285      3.9373     91.2945
  2426.5000      0.0000    366.6236      3.9153     92.9622
  2426.7500      0.0000    367.0551      3.9238     93.4142
  2427.0000      0.0000    366.6643      3.9866     93.0708
  2427.2500      0.0000    364.3445      4.1091     93.2090
  2427.5000      0.0000    360.4801      4.2707     94.4202
  2427.7500      0.0000    356.3315      4.4400     95.6959
  2428.0000      0.0000    352.9792      4.5894     95.1756
  2428.2500      0.0000    350.8862      4.6895     91.7672
  2428.5000      0.0000    350.1459      4.7081     85.9726
  2428.7500      0.0000    350.9062      4.6338     79.2938
  2429.0000      0.0000    353.5946      4.5008     72.9939
  2429.2500      0.0000    358.6375      4.3673     67.4089
  2429.5000      0.0000    365.6557      4.2696     62.3419
  2429.7500      0.0000    372.8618      4.2094     58.0038
  2430.0000      0.0000    377.6753      4.1827     55.3931
  2430.2500      0.0000    378.5309      4.1938     55.5338
  2430.5000      0.0000    376.7627      4.2362     58.2490
  2430.7500      0.0000    377.3421      4.2828     61.8921
  2431.0000      0.0000    387.6754      4.3078     64.7048
  2431.2500      0.0000    414.1270      4.3078     66.4789
  2431.5000      0.0000    457.0068      4.3008     68.5339
  2431.7500      0.0000    507.5727      4.3134     72.0016
  2432.0000      0.0000    551.4223      4.3616     76.4907
  2432.2500      0.0000    577.2743      4.4335     80.5160
  2432.5000      0.0000    582.6807      4.4958     82.8583
  2432.7500      0.0000    570.9431      4.5267     83.2645
  2433.0000      0.0000    544.8789      4.5343     82.1268
  2433.2500      0.0000    506.3011      4.5432     79.8887
  2433.5000      0.0000    460.4076      4.5720     76.7781
  2433.7500      0.0000    417.1078      4.6202     72.8519
  2434.0000      0.0000    386.6850      4.6694     68.1083
  2434.2500      0.0000    375.5760      4.6964     62.6738
  2434.5000      0.0000    386.1335      4.6938     57.2045
  2434.7500      0.0000    416.1008      4.6754     53.0755
  2435.0000      0.0000    454.8685      4.6603     51.6094
  2435.2500      0.0000    483.8182      4.6563     52.7840
  2435.5000      0.0000    488.2606      4.6594     55.0543
  2435.7500      0.0000    471.8086      4.6634     56.6778
  2436.0000      0.0000    455.1670      4.6611     56.9906
  2436.2500      0.0000    458.8265      4.6400     56.4824
  2436.5000      0.0000    488.1834      4.5881     56.1921
  2436.7500      0.0000    533.5779      4.5080     57.0917
  2437.0000      0.0000    580.0407      4.4181     59.4370
  2437.2500      0.0000    616.2411      4.3401     62.3540
  2437.5000      0.0000    637.9393      4.2870     64.4094
  2437.7500      0.0000    646.4790      4.2639     64.8971
  2438.0000      0.0000    645.4097      4.2697     64.4021
