~Version Information
VERS.                      2.0: CWLS Log ASCII Standard - VERSION 2.0
WRAP.                       NO: One line per depth step
~Well Information Block
STRT.FT               387.1000: 
STOP.FT              1748.0000: 
STEP.FT                 0.1000: 
NULL.                -999.2500: 
COMP.          Evergreen Operating Corp.: COMPANY
WELL.          Pachorek 13-31 Tr: WELL
FLD.           Cottontail Pass: FIELD
LOC.           1575' FSL & 900' FWL--API# 05-071-07019-00: LOCATION
PROV.                 Colorado: PROVINCE
CNTY.               Las Animas: COUNTRY
SRVC.          Scientific Data Systems, Inc.: SERVICE COMPANY
DATE.          Tue Aug 08 15:02:37 2000: LOG DATE
UWI.                      05071070190000:UNIQUE WELL IDENTIFICATION
~Curve Information Block
DEPT.FT            0 000 00 00: Depth
DCAL.in                       : CDL Caliper
RHOB.g/cc                     : CDL Bulk Density
RHOC.g/cc                     : CDL Density Correction
DPOR.pu                       : CDL Density Porosity
GR.GAPI                       : Gamma Ray
NPOR.pu                       : Neutron Porosity
~Parameter Information Block
~A  Depth       DCAL        RHOB        RHOC        DPOR         GR         NPOR    
# ...
   579.1000      7.9093      2.4828     -0.0116     10.1348    167.3253     32.2249
   579.2000      7.9093      2.4833     -0.0071     10.1012    167.5529     32.2949
   579.3000      7.9012      2.4839     -0.0022     10.0668    167.8883     32.4115
   579.4000      7.9012      2.4844      0.0027     10.0335    168.2378     32.5714
   579.5000      7.8909      2.4850      0.0076     10.0018    168.5269     32.7652
   579.6000      7.8909      2.4855      0.0121      9.9719    168.7115     32.9781
   579.7000      7.8909      2.4859      0.0163      9.9433    168.7827     33.1896
   579.8000      7.8824      2.4864      0.0202      9.9157    168.7523     33.3747
   579.9000      7.8824      2.4868      0.0241      9.8894    168.6506     33.5057
   580.0000      7.8829      2.4872      0.0281      9.8661    168.5099     33.5543
   580.1000      7.8829      2.4875      0.0325      9.8495    168.3542     33.4944
   580.2000      7.8829      2.4875      0.0377      9.8456    168.1946     33.3035
   580.3000      7.8886      2.4872      0.0437      9.8637    168.0270     32.9647
   580.4000      7.8886      2.4864      0.0506      9.9153    167.8470     32.4681
   580.5000      7.8889      2.4848      0.0583     10.0148    167.6404     31.8096
   580.6000      7.8889      2.4821      0.0666     10.1781    167.4046     30.9910
   580.7000      7.8889      2.4780      0.0750     10.4215    167.1460     30.0185
   580.8000      7.8871      2.4725      0.0830     10.7603    166.8843     28.9023
   580.9000      7.8871      2.4651      0.0901     11.2074    166.6508     27.6558
   581.0000      7.8836      2.4558      0.0959     11.7708    166.4837     26.2963
   581.1000      7.8836      2.4445      0.0998     12.4529    166.4271     24.8460
   581.2000      7.8836      2.4314      0.1018     13.2488    166.5208     23.3328
   581.3000      7.8731      2.4166      0.1018     14.1456    166.7970     21.7912
   581.4000      7.8731      2.4005      0.1003     15.1225    167.2663     20.2618
   581.5000      7.8798      2.3835      0.0978     16.1514    167.9066     18.7891
   581.6000      7.8798      2.3662      0.0953     17.1983    168.6613     17.4197
   581.7000      7.8798      2.3493      0.0938     18.2253    169.4297     16.1976
   581.8000      7.9207      2.3333      0.0942     19.1931    170.0760     15.1620
   581.9000      7.9207      2.3190      0.0974     20.0632    170.4382     14.3445
   582.0000      7.9716      2.3068      0.1037     20.8009    170.3577     13.7683
   582.1000      7.9716      2.2973      0.1132     21.3772    169.7043     13.4486
   582.2000      7.9716      2.2908      0.1254     21.7705    168.4031     13.3933
   582.3000      8.0120      2.2875      0.1393     21.9677    166.4554     13.6041
   582.4000      8.0120      2.2876      0.1538     21.9644    163.9460     14.0772
   582.5000      8.0611      2.2909      0.1675     21.7648    161.0330     14.8027
   582.6000      8.0611      2.2972      0.1793     21.3802    157.9243     15.7647
   582.7000      8.0611      2.3063      0.1882     20.8285    154.8515     16.9387
   582.8000      8.1261      2.3178      0.1933     20.1322    152.0363     18.2911
   582.9000      8.1261      2.3313      0.1942     19.3166    149.6562     19.7779
   583.0000      8.1945      2.3463      0.1908     18.4088    147.8274     21.3454
   583.1000      8.1945      2.3623      0.1833     17.4361    146.5949     22.9320
   583.2000      8.1945      2.3790      0.1721     16.4246    145.9324     24.4722
   583.3000      8.2261      2.3959      0.1578     15.3991    145.7544     25.9013
   583.4000      8.2261      2.4127      0.1412     14.3821    145.9340     27.1607
   583.5000      8.1983      2.4290      0.1232     13.3934    146.3220     28.2037
   583.6000      8.1983      2.4446      0.1047     12.4498    146.7784     28.9990
   583.7000      8.1983      2.4592      0.0863     11.5654    147.1865     29.5326
   583.8000      8.1419      2.4726      0.0689     10.7515    147.4702     29.8087
   583.9000      8.1419      2.4847      0.0531     10.0160    147.6077     29.8475
   584.0000      8.0709      2.4955      0.0394      9.3647    147.6258     29.6823
   584.1000      8.0709      2.5048      0.0281      8.8004    147.5944     29.3557
   584.2000      8.0709      2.5127      0.0193      8.3235    147.6116     28.9146
   584.3000      7.9967      2.5191      0.0131      7.9324    147.7868     28.4062
   584.4000      7.9967      2.5242      0.0094      7.6237    148.2178     27.8742
   584.5000      7.9426      2.5280      0.0080      7.3923    148.9750     27.3561
   584.6000      7.9426      2.5307      0.0085      7.2322    150.0938     26.8815
   584.7000      7.9426      2.5323      0.0104      7.1359    151.5638     26.4718
   584.8000      7.9244      2.5329      0.0131      7.0957    153.3298     26.1402
   584.9000      7.9244      2.5328      0.0162      7.1030    155.2976     25.8925
   585.0000      7.9310      2.5320      0.0191      7.1487    157.3418     25.7292
   585.1000      7.9310      2.5308      0.0214      7.2237    159.3187     25.6462
   585.2000      7.9310      2.5292      0.0228      7.3182    161.0793     25.6365
   585.3000      7.9419      2.5275      0.0233      7.4228    162.4825     25.6915
   585.4000      7.9419      2.5258      0.0229      7.5281    163.4168     25.8025
   585.5000      7.9497      2.5242      0.0218      7.6254    163.8108     25.9610
   585.6000      7.9497      2.5228      0.0204      7.7068    163.6469     26.1592
   585.7000      7.9497      2.5219      0.0192      7.7657    162.9627     26.3901
   585.8000      7.9544      2.5213      0.0185      7.7975    161.8480     26.6469
   585.9000      7.9544      2.5213      0.0186      7.7997    160.4368     26.9224
   586.0000      7.9494      2.5218      0.0199      7.7715    158.8868     27.2082
   586.1000      7.9494      2.5227      0.0222      7.7153    157.3560     27.4938
   586.2000      7.9494      2.5240      0.0255      7.6346    155.9811     27.7664
   586.3000      7.9328      2.5257      0.0294      7.5354    154.8642     28.0109
   586.4000      7.9328      2.5275      0.0336      7.4245    154.0632     28.2105
   586.5000      7.9128      2.5294      0.0375      7.3095    153.5951     28.3483
   586.6000      7.9128      2.5312      0.0409      7.1978    153.4500     28.4092
   586.7000      7.9128      2.5329      0.0434      7.0962    153.6014     28.3817
   586.8000      7.8995      2.5343      0.0450      7.0102    154.0231     28.2605
   586.9000      7.8995      2.5354      0.0456      6.9436    154.6973     28.0470
   587.0000      7.8905      2.5362      0.0455      6.8985    155.6154     27.7504
   587.1000      7.8905      2.5366      0.0449      6.8752    156.7713     27.3866
   587.2000      7.8905      2.5366      0.0443      6.8724    158.1505     26.9762
   587.3000      7.8839      2.5364      0.0441      6.8873    159.7196     26.5418
   587.4000      7.8839      2.5359      0.0446      6.9167    161.4186     26.1055
   587.5000      7.8805      2.5352      0.0461      6.9569    163.1668     25.6861
   587.6000      7.8805      2.5344      0.0490      7.0049    164.8620     25.2975
   587.7000      7.8805      2.5335      0.0532      7.0581    166.3945     24.9479
   587.8000      7.8814      2.5326      0.0587      7.1154    167.6648     24.6405
   587.9000      7.8814      2.5316      0.0653      7.1769    168.5950     24.3742
   588.0000      7.8872      2.5305      0.0726      7.2440    169.1389     24.1453
   588.1000      7.8872      2.5292      0.0802      7.3192    169.2891     23.9491
   588.2000      7.8872      2.5278      0.0878      7.4055    169.0782     23.7810
   588.3000      7.8925      2.5261      0.0947      7.5062    168.5756     23.6375
   588.4000      7.8925      2.5242      0.1007      7.6235    167.8752     23.5169
   588.5000      7.8949      2.5220      0.1052      7.7584    167.0904     23.4193
   588.6000      7.8949      2.5195      0.1082      7.9096    166.3380     23.3466
