~Version Information
VERS.                      2.0: CWLS Log ASCII Standard - VERSION 2.0
WRAP.                       NO: One line per depth step
~Well Information Block
STRT.FT               743.8000: 
STOP.FT              1975.8000: 
STEP.FT                 0.1000: 
NULL.                -999.2500: 
COMP.          Petrogulf Corporation: COMPANY
WELL.            Montoya 6-14V: WELL
FLD.           Purgatorie River: FIELD
LOC.           318' FSL & 882' FWL: LOCATION
CNTY.               Las Animas: COUNTY
SRVC.                         : SERVICE COMPANY
DATE.          Sat Aug 14 09:19:43 2004: LOG DATE
UWI.           05 071 08020 00: UNIQUE WELL ID
STAT.                 Colorado: STATE
~Curve Information Block
DEPT.FT            0 000 00 00: Depth
DCAL.in                       : CDL Caliper
RHOB.g/cc                     : CDL Bulk Density
RHOC.g/cc                     : CDL Density Correction
DPOR.pu                       : CDL Density Porosity
GR.GAPI                       : Gamma Ray
NPOR.pu                       : Neutron Porosity
~Parameter Information Block
~A  Depth       DCAL        RHOB        RHOC        DPOR         GR         NPOR    
# ...
  1559.8000      8.1357      2.3991      0.4062     15.2085    141.2754     26.0802
  1559.9000      8.1357      2.5216      0.4596      7.7802    137.8277     26.3751
  1560.0000      8.1587      2.6276      0.4625      1.3571    133.4774     25.6904
  1560.1000      8.1587      2.6966      0.4591     -2.8225    134.5997     24.9759
  1560.2000      8.1587      2.7357      0.4477     -5.1919    139.3447     24.7239
  1560.3000      8.0221      2.7521      0.4451     -6.1895    141.9812     24.6673
  1560.4000      8.0221      2.7328      0.4159     -5.0163    141.0442     24.6763
  1560.5000      7.9544      2.6724      0.2197     -1.3581    137.1507     24.5868
  1560.6000      7.9544      2.6015      0.0746      2.9394    130.8287     23.9687
  1560.7000      7.9544      2.5502      0.0561      6.0499    124.2586     23.3714
  1560.8000      7.9168      2.5225      0.0206      7.7268    119.9449     23.7759
  1560.9000      7.9168      2.5161      0.0301      8.1132    119.6215     24.6145
  1561.0000      7.9164      2.5277      0.0098      7.4115    122.6282     24.8634
  1561.1000      7.9164      2.5484      0.0128      6.1561    125.3208     24.8331
  1561.2000      7.9164      2.5647      0.0564      5.1695    128.2615     24.9928
  1561.3000      7.9087      2.5660      0.0087      5.0880    135.4336     24.9656
  1561.4000      7.9087      2.5530      0.0369      5.8804    144.1670     24.3806
  1561.5000      7.9110      2.5383      0.0022      6.7712    146.2452     23.6965
  1561.6000      7.9110      2.5360      0.0195      6.9104    142.6331     23.5492
  1561.7000      7.9110      2.5402      0.0361      6.6533    139.5861     23.9300
  1561.8000      7.9146      2.5415     -0.0078      6.5742    136.1447     24.2771
  1561.9000      7.9146      2.5464     -0.0234      6.2793    136.1336     24.2779
  1562.0000      7.9099      2.5569      0.0449      5.6411    142.8240     24.4702
  1562.1000      7.9099      2.5663      0.0006      5.0732    148.3450     25.0069
  1562.2000      7.9099      2.5685      0.0638      4.9404    147.0649     24.8947
  1562.3000      7.9184      2.5525      0.0438      5.9062    141.2170     23.8499
  1562.4000      7.9184      2.5247      0.0066      7.5914    134.5024     23.0540
  1562.5000      7.9262      2.5052     -0.0024      8.7731    131.5028     23.3986
  1562.6000      7.9262      2.4979     -0.0010      9.2169    135.0100     24.7086
  1562.7000      7.9262      2.4954     -0.0178      9.3682    141.4642     26.2260
  1562.8000      7.9153      2.4856      0.0161      9.9640    145.5436     27.4217
  1562.9000      7.9153      2.4466      0.0696     12.3277    144.8517     28.0819
  1563.0000      7.9225      2.3745     -0.0382     16.6964    138.2916     27.8092
  1563.1000      7.9225      2.3038     -0.0473     20.9790    129.0126     26.7490
  1563.2000      7.9225      2.2647     -0.0437     23.3542    124.9030     25.7578
  1563.3000      7.9175      2.2508      0.0071     24.1916    128.1642     25.1700
  1563.4000      7.9175      2.2442      0.0121     24.5942    131.3592     24.9041
  1563.5000      7.9140      2.2446      0.0320     24.5696    128.0493     24.9786
  1563.6000      7.9140      2.2641      0.0299     23.3879    123.0455     25.2840
  1563.7000      7.9140      2.2991      0.1668     21.2688    124.7706     25.6544
  1563.8000      8.0156      2.3284      0.2163     19.4909    130.1553     26.1508
  1563.9000      8.0156      2.3409      0.2846     18.7315    127.2579     26.8873
  1564.0000      8.2573      2.3347      0.3135     19.1084    117.2470     27.6036
  1564.1000      8.2573      2.3051      0.3266     20.9027    113.0708     27.7940
  1564.2000      8.2573      2.2508      0.2695     24.1955    114.1202     27.5270
  1564.3000      8.8197      2.1820      0.2335     28.3648    112.3295     26.9466
  1564.4000      8.8197      2.1330      0.1190     31.3308    110.4421     26.2978
  1564.5000      9.0579      2.1524      0.1102     30.1561    111.9691     26.4987
  1564.6000      9.0579      2.2443      0.2846     24.5880    115.5241     27.4963
  1564.7000      9.0579      2.3616      0.3958     17.4787    124.0494     28.0568
  1564.8000      8.9148      2.4634      0.4234     11.3101    139.7636     27.5417
  1564.9000      8.9148      2.5359      0.4594      6.9155    155.8130     26.7853
  1565.0000      8.8257      2.5836      0.4387      4.0251    162.3927     27.0282
  1565.1000      8.8257      2.6199      0.4169      1.8246    159.4555     27.9318
  1565.2000      8.8257      2.6435      0.3776      0.3936    156.5276     28.1967
  1565.3000      9.0100      2.6342      0.3084      0.9564    155.8539     27.5597
  1565.4000      9.0100      2.5890      0.1174      3.6978    154.9869     26.8321
  1565.5000      9.1105      2.5384      0.0512      6.7617    155.0389     26.7367
  1565.6000      9.1105      2.5134      0.0156      8.2810    155.5797     27.0041
  1565.7000      9.1105      2.5150      0.0628      8.1836    158.2272     26.7867
  1565.8000      8.9339      2.5191      0.0537      7.9334    160.6507     25.7859
  1565.9000      8.9339      2.5128     -0.0075      8.3130    155.1268     24.3603
  1566.0000      8.1108      2.5125      0.0171      8.3311    142.7483     23.0431
  1566.1000      8.1108      2.5339      0.0226      7.0372    129.2342     22.3738
  1566.2000      8.1108      2.5638      0.1161      5.2228    117.2259     22.4467
  1566.3000      7.9615      2.5779      0.0557      4.3689    110.4174     22.4969
  1566.4000      7.9615      2.5805      0.0359      4.2093    114.2784     21.7200
  1566.5000      8.0481      2.5843      0.1071      3.9828    126.6330     20.4884
  1566.6000      8.0481      2.5809      0.0903      4.1884    137.2637     19.7448
  1566.7000      8.0481      2.5709      0.0426      4.7961    140.2443     19.8448
  1566.8000      7.9508      2.5725      0.0413      4.6993    139.0556     20.6698
  1566.9000      7.9508      2.5866      0.0656      3.8406    140.8900     20.9388
  1567.0000      7.7685      2.5953      0.0113      3.3130    143.2612     19.4076
  1567.1000      7.7685      2.5904      0.0608      3.6101    138.6395     17.4095
  1567.2000      7.7685      2.5831     -0.0080      4.0547    130.3843     16.4432
  1567.3000      7.7448      2.5885      0.0161      3.7247    128.6322     16.0287
  1567.4000      7.7448      2.6041      0.0300      2.7803    132.9293     15.3303
  1567.5000      7.7090      2.6203      0.0547      1.8006    133.4862     14.4733
  1567.6000      7.7090      2.6357      0.0447      0.8672    128.7634     13.9768
  1567.7000      7.7090      2.6496      0.0515      0.0261    124.8323     13.6777
  1567.8000      7.7048      2.6549      0.0227     -0.2982    123.0271     13.1168
  1567.9000      7.7048      2.6485      0.0417      0.0915    120.6849     12.6066
  1568.0000      7.7026      2.6399      0.0288      0.6151    116.4497     12.5393
  1568.1000      7.7026      2.6362      0.0437      0.8335    109.4851     12.7915
  1568.2000      7.7026      2.6339      0.0312      0.9732    102.4891     12.7655
  1568.3000      7.7052      2.6325      0.0447      1.0601    100.7161     12.1897
  1568.4000      7.7052      2.6337      0.0578      0.9889    105.5629     11.8411
  1568.5000      7.7078      2.6384      0.0237      0.7050    110.5371     12.2071
  1568.6000      7.7078      2.6483      0.0539      0.1056    110.2576     12.8245
  1568.7000      7.7078      2.6565      0.0612     -0.3952    108.4379     13.0506
  1568.8000      7.6892      2.6573      0.0523     -0.4449    108.7194     12.7160
  1568.9000      7.6892      2.6520      0.0519     -0.1183    107.3551     12.2493
  1569.0000      7.7002      2.6397      0.0594      0.6222    103.0425     12.2299
  1569.1000      7.7002      2.6217      0.0364      1.7161    101.5760     12.8204
  1569.2000      7.7002      2.6062      0.0228      2.6553    102.3803     13.5877
  1569.3000      7.6905      2.6026      0.0288      2.8713    101.9993     13.8726
