~Version Information
VERS.                      2.0: CWLS Log ASCII Standard - VERSION 2.0
WRAP.                       NO: One line per depth step
~Well Information Block
STRT.FT               875.6000: 
STOP.FT              2510.0000: 
STEP.FT                 0.1000: 
NULL.                -999.2500: 
COMP.          Petrogulf Corporation: COMPANY
WELL.          Collister 17-31 V: WELL
FLD.           Purgatoire River: FIELD
LOC.           910' FNL & 1594' FEL: LOCATION
PROV.                 Colorado: PROVINCE
CNTY.               Las Animas: COUNTRY
SRVC.                Patterson: SERVICE COMPANY
DATE.          Fri Dec 12 13:49:30 2003: LOG DATE
UWI.                          : UNIQUE WELL ID
~Curve Information Block
DEPT.FT            0 000 00 00: Depth
DCAL.in                       : CDL Caliper
DPOR.pu                       : CDL Density Porosity
NPOR.pu                       : Neutron Porosity
RHOB.g/cc                     : CDL Bulk Density
RHOC.g/cc                     : CDL Density Correction
GR.GAPI                       : Gamma Ray
~Parameter Information Block
~A  Depth       DCAL        DPOR        NPOR        RHOB        RHOC         GR     
# ...
  1326.8000      8.0694     -3.4003     33.1000      2.7061      0.2532    109.6218
  1326.9000      8.0694     -3.2669     32.2835      2.7039      0.1853    108.4539
  1327.0000      8.0640     -3.4953     30.7920      2.7077      0.1509    107.4146
  1327.1000      8.0640     -5.8606     28.8549      2.7467      0.1331    106.8900
  1327.2000      8.0640     -9.2789     27.0882      2.8031      0.2595    106.9763
  1327.3000      8.0844    -11.0372     25.7378      2.8321      0.2026    104.5634
  1327.4000      8.0844    -10.5882     24.2326      2.8247      0.1369     98.2282
  1327.5000      8.0743     -9.6019     22.4213      2.8084      0.0738     90.2123
  1327.6000      8.0743     -8.5872     21.0024      2.7917      0.1190     81.5158
  1327.7000      8.0743     -6.6250     20.1920      2.7593      0.0253     73.5425
  1327.8000      8.0677     -4.2547     19.3285      2.7202     -0.0190     67.4800
  1327.9000      8.0677     -2.9324     17.9313      2.6984     -0.0085     61.7300
  1328.0000      8.0749     -2.2368     16.4015      2.6869      0.0109     56.7111
  1328.1000      8.0749     -0.9630     15.4517      2.6659      0.0128     54.1723
  1328.2000      8.0749      0.3141     15.2709      2.6448      0.0493     54.9170
  1328.3000      8.0716      0.3673     15.0233      2.6439      0.0279     58.8247
  1328.4000      8.0716     -0.3165     14.3102      2.6552      0.1140     65.0554
  1328.5000      8.0762      0.1058     14.0058      2.6483      0.1048     74.5192
  1328.6000      8.0762      2.1206     14.4775      2.6150      0.0871     84.2330
  1328.7000      8.0762      5.2438     15.0680      2.5635      0.1382     89.7106
  1328.8000      8.0784      9.4650     15.3040      2.4938      0.0516     94.6435
  1328.9000      8.0784     13.7491     15.4305      2.4231      0.0237    101.9425
  1329.0000      8.0834     16.8059     15.8099      2.3727     -0.0099    107.3577
  1329.1000      8.0834     17.9730     16.2593      2.3534     -0.0197    109.4308
  1329.2000      8.0834     16.4291     16.6898      2.3789     -0.0378    111.2730
  1329.3000      8.0884     12.7925     17.4167      2.4389      0.0763    114.8123
  1329.4000      8.0884     10.3498     18.4904      2.4792      0.2524    121.4587
  1329.5000      8.0995     11.0057     19.5020      2.4684      0.2205    132.1416
  1329.6000      8.0995     12.2523     20.3451      2.4478      0.1582    144.5636
  1329.7000      8.0995     11.3140     21.1517      2.4633      0.2616    156.3988
  1329.8000      8.1232      8.9032     21.5552      2.5031      0.3356    166.6230
  1329.9000      8.1232      7.3373     21.2513      2.5289      0.3138    173.0788
  1330.0000      8.1111      7.9525     20.6817      2.5188      0.3399    174.0771
  1330.1000      8.1111     10.0638     20.3287      2.4839      0.1846    170.0149
  1330.2000      8.1111     11.6066     20.2428      2.4585      0.2163    166.6410
  1330.3000      8.2301     11.8298     20.1665      2.4548      0.2903    172.3056
  1330.4000      8.2301     11.5954     19.8404      2.4587      0.2973    186.4377
  1330.5000      8.2667     11.3906     19.1720      2.4621      0.2852    198.8250
  1330.6000      8.2667     10.9310     18.4968      2.4696      0.2845    202.9738
  1330.7000      8.2667     10.4756     18.5577      2.4772      0.2821    202.3577
  1330.8000      8.3661     10.6063     19.3239      2.4750      0.2535    198.5822
  1330.9000      8.3661     11.2605     19.8110      2.4642      0.2518    188.5670
  1331.0000      8.3902     12.2859     19.4830      2.4473      0.2557    177.1021
  1331.1000      8.3902     13.2342     18.9194      2.4316      0.1855    172.2314
  1331.2000      8.3902     13.4134     18.9715      2.4287      0.2124    171.4879
  1331.3000      8.3962     12.5273     19.6753      2.4433      0.2133    172.5966
  1331.4000      8.3962     10.6996     20.5806      2.4735      0.2193    177.3569
  1331.5000      8.4221      8.6271     21.3563      2.5077      0.2633    181.1657
  1331.6000      8.4221      6.8994     21.8503      2.5362      0.2265    183.3485
  1331.7000      8.4221      5.5838     22.2513      2.5579      0.2967    191.6898
  1331.8000      8.5612      4.9176     22.7175      2.5689      0.2679    203.9568
  1331.9000      8.5612      5.1600     23.0909      2.5649      0.3044    208.1538
  1332.0000      8.5765      6.3116     23.4113      2.5459      0.2161    204.1095
  1332.1000      8.5765      7.9157     23.4455      2.5194      0.1409    201.0041
  1332.2000      8.5765      9.3380     23.0797      2.4959      0.1287    199.0326
  1332.3000      8.4457     10.0605     22.7283      2.4840      0.0828    192.9377
  1332.4000      8.4457     10.1576     22.6229      2.4824      0.1288    186.9662
  1332.5000      8.3841     10.8060     22.4256      2.4717      0.1596    187.5788
  1332.6000      8.3841     12.6727     22.0340      2.4409      0.1325    192.7835
  1332.7000      8.3841     14.6296     21.8661      2.4086      0.1060    199.2305
  1332.8000      8.3843     15.3592     22.0140      2.3966      0.0523    203.7812
  1332.9000      8.3843     15.0769     22.2876      2.4012      0.0988    203.9695
  1333.0000      8.4251     14.5674     22.4177      2.4096      0.0195    208.8898
  1333.1000      8.4251     13.9227     22.0101      2.4203      0.0613    226.3210
  1333.2000      8.4251     13.5110     21.0167      2.4271      0.0786    244.6620
  1333.3000      8.4286     14.1347     20.0105      2.4168      0.0707    249.7048
  1333.4000      8.4286     15.5541     19.3915      2.3934      0.0281    243.8390
  1333.5000      8.3871     16.3981     18.8564      2.3794      0.0115    243.7955
  1333.6000      8.3871     16.1091     18.1536      2.3842      0.0585    254.3672
  1333.7000      8.3871     15.6239     17.4391      2.3922      0.0429    258.7915
  1333.8000      8.3686     15.9500     16.7160      2.3868      0.0322    251.3279
  1333.9000      8.3686     17.4570     15.8019      2.3620      0.0145    239.6920
  1334.0000      8.3670     19.8286     14.8618      2.3228      0.0682    226.9637
  1334.1000      8.3670     22.3095     14.2342      2.2819      0.0648    214.8294
  1334.2000      8.3670     24.7035     13.9923      2.2424      0.1069    205.4443
  1334.3000      8.3686     27.7719     13.8698      2.1918      0.1055    199.0645
  1334.4000      8.3686     31.4738     13.3909      2.1307      0.1128    194.5602
  1334.5000      8.3666     34.5349     12.5198      2.0802      0.0968    189.7430
  1334.6000      8.3666     36.6723     12.0769      2.0449      0.1337    183.7446
  1334.7000      8.3666     38.5652     12.6558      2.0137      0.1290    179.0318
  1334.8000      8.3739     38.8972     13.7040      2.0082      0.1225    177.8719
  1334.9000      8.3739     35.4265     14.6233      2.0655      0.3956    181.4227
  1335.0000      8.4989     29.6571     15.7218      2.1607      0.5754    186.1038
  1335.1000      8.4989     25.6202     17.0319      2.2273      0.6226    187.2563
  1335.2000      8.4989     24.5950     18.0421      2.2442      0.5455    185.9165
  1335.3000      8.4919     23.8478     18.6079      2.2565      0.4720    181.3512
  1335.4000      8.4919     20.3609     18.9095      2.3140      0.4893    168.9404
  1335.5000      8.6170     14.5551     19.0311      2.4098      0.5950    154.7182
  1335.6000      8.6170      9.5445     18.8260      2.4925      0.6605    151.9908
  1335.7000      8.6170      7.0964     18.5169      2.5329      0.5597    158.6921
  1335.8000      8.7661      6.1872     18.4876      2.5479      0.5105    161.6795
  1335.9000      8.7661      5.4955     18.3511      2.5593      0.4493    157.5790
  1336.0000      9.1642      5.3157     17.4370      2.5623      0.4687    156.2678
  1336.1000      9.1642      6.7181     16.0647      2.5392      0.5109    159.8066
  1336.2000      9.1642      9.5006     14.8987      2.4932      0.4087    160.1827
  1336.3000      9.1072     12.2108     14.1147      2.4485      0.3463    156.9357
