~Version Information
VERS.                      2.0: CWLS Log ASCII Standard - VERSION 2.0
WRAP.                       NO: One line per depth step
~Well Information Block
STRT.FT               -19.0000: 
STOP.FT              1343.5000: 
STEP.FT                 0.5000: 
NULL.                -999.2500: 
COMP.          Evergreen Operating Corporation: COMPANY
WELL.            Trigger 13-35: WELL
FLD.           Purgatorie River: FIELD
LOC.           2245' FSL & 594' FWL: LOCATION
PROV.                 Colorado: PROVINCE
CNTY.               Las Animas: COUNTRY
SRVC.                         : SERVICE COMPANY
DATE.          Mon Jun 23 12:06:52 2003: LOG DATE
UWI.           05-071-07838-00: UNIQUE WELL ID
~Curve Information Block
DEPT.FT            0 000 00 00: Depth
TT3.usec                      : CBL 3' Travel Time
AMP3.mV                       : CBL 3' Amplitude
GR.GAPI                       : Gamma Ray
CCL.                          : Casing Collar Locator
~Parameter Information Block
~A  Depth       TT3         AMP3         GR         CCL     
# ...
  1053.0000    758.2524      1.8798    158.3021      0.0000
  1053.5000    775.6301      1.8775    153.3179      0.0000
  1054.0000    723.3107      1.9827    145.6553      0.0000
  1054.5000    712.8193      2.0058    134.8328      0.0000
  1055.0000    747.2777      1.8973    123.3576      5.0000
  1055.5000    769.3616      1.7442     98.0168      0.0000
  1056.0000    758.2479      1.8204     73.2585      0.0000
  1056.5000    727.5380      2.0146     67.6717      0.0000
  1057.0000    700.6971      2.0427     72.7433      0.0000
  1057.5000    680.6442      2.2174     77.5739      0.0000
  1058.0000    684.2088      2.1719     84.1960      0.0000
  1058.5000    687.5848      2.0610     99.5042      0.0000
  1059.0000    671.3622      2.1321    117.0062      0.0000
  1059.5000    614.6235      2.2039    123.7450      0.0000
  1060.0000    640.8008      2.2486    112.4436      0.0000
  1060.5000    688.3679      2.3312     93.3066      0.0000
  1061.0000    687.3452      2.2837     80.5601      0.0000
  1061.5000    680.6448      2.2747     77.9991      0.0000
  1062.0000    638.2904      2.2957     80.2793      0.0000
  1062.5000    547.5309      2.2534     83.7860      0.0000
  1063.0000    507.4365      2.2562     97.8800      0.0000
  1063.5000    511.1514      2.2998    114.6680      0.0000
  1064.0000    523.4713      2.2695    119.2722      0.0000
  1064.5000    575.0570      2.1978    118.1728      0.0000
  1065.0000    632.0735      2.0997    113.3509      0.0000
  1065.5000    649.7201      2.1344    105.8228      0.0000
  1066.0000    668.1489      2.1412    105.4163      0.0000
  1066.5000    685.1894      2.1138    114.0876      0.0000
  1067.0000    673.6252      2.1690    122.8258      0.0000
  1067.5000    663.1782      2.1328    123.9752      0.0000
  1068.0000    660.8865      2.1482    119.7716      0.0000
  1068.5000    727.1635      2.1558    112.3024      0.0000
  1069.0000    759.8336      2.1777    104.1792      0.0000
  1069.5000    708.7180      2.1610    101.5701      0.0000
  1070.0000    686.0332      2.1025    106.0520      0.0000
  1070.5000    689.5187      2.0528    112.0444      0.0000
  1071.0000    611.9572      1.9746    114.9911      0.0000
  1071.5000    597.9880      1.9882    110.0510      0.0000
  1072.0000    683.7322      1.9802     92.0217      0.0000
  1072.5000    711.3663      2.0292     73.3147      0.0000
  1073.0000    646.7744      2.0512     69.4924      0.0000
  1073.5000    574.1231      2.0224     83.0717      0.0000
  1074.0000    643.5398      2.0011     99.6729      0.0000
  1074.5000    708.5638      1.9840    104.6672      0.0000
  1075.0000    726.7579      2.0528     95.2892      0.0000
  1075.5000    737.4753      2.1120     80.5485      0.0000
  1076.0000    722.4044      2.1655     72.4376      0.0000
  1076.5000    721.8685      2.1515     70.4788      0.0000
  1077.0000    741.3531      2.0891     66.8202      0.0000
  1077.5000    753.0049      2.0201     66.1831      0.0000
  1078.0000    771.0494      2.0534     70.3376      0.0000
  1078.5000    782.7651      2.0490     70.7269      0.0000
  1079.0000    784.0215      2.1274     68.6927      0.0000
  1079.5000    781.0791      2.1389     68.8736      0.0000
  1080.0000    770.9470      2.0802     70.0813      0.0000
  1080.5000    749.6274      2.0439     68.8301      0.0000
  1081.0000    687.9623      2.0643     64.0436      0.0000
  1081.5000    583.9034      2.0670     60.5211      0.0000
  1082.0000    590.6077      2.0778     61.0490      0.0000
  1082.5000    660.4457      2.0198     61.1910      0.0000
  1083.0000    697.1040      1.9786     60.3411      0.0000
  1083.5000    732.2635      1.9595     58.1625      0.0000
  1084.0000    659.0056      1.9416     53.7456      0.0000
  1084.5000    538.1392      1.9023     51.1191      0.0000
  1085.0000    531.6196      1.9121     53.0164      0.0000
  1085.5000    644.6480      2.0251     57.6701      0.0000
  1086.0000    729.9961      2.0308     67.8584      0.0000
  1086.5000    702.0194      2.0320     87.7504      0.0000
  1087.0000    589.9192      1.9783    109.1435      0.0000
  1087.5000    519.0432      2.0464    122.7363      0.0000
  1088.0000    572.1403      2.0647    124.0470      0.0000
  1088.5000    683.1331      1.9454    117.9295      0.0000
  1089.0000    734.4153      1.9418    113.6858      0.0000
  1089.5000    795.5411      1.9862    110.9065      0.0000
  1090.0000    830.6262      1.9423    101.4679      0.0000
  1090.5000    843.8581      2.0199     89.0393      5.0000
  1091.0000    843.1796      2.0524     84.4695      0.0000
  1091.5000    827.0146      1.9792     91.1239      0.0000
  1092.0000    795.8784      1.9218     98.2006      0.0000
  1092.5000    778.0189      1.7031    100.3337      0.0000
  1093.0000    781.9776      1.8255     96.8579      0.0000
  1093.5000    788.3604      1.8421     90.1030      0.0000
  1094.0000    784.5345      1.8421     92.7084      0.0000
  1094.5000    763.4464      1.8762    102.4200      0.0000
  1095.0000    755.4023      1.9059    108.6825      0.0000
  1095.5000    755.5526      1.9233    116.1461      0.0000
  1096.0000    755.3798      1.9611    125.1751      0.0000
  1096.5000    755.3485      1.9560    127.1698      0.0000
  1097.0000    758.2175      1.9550    120.8570      0.0000
  1097.5000    765.4725      2.0439    114.6833      0.0000
  1098.0000    772.9435      2.1070    115.8919      0.0000
  1098.5000    770.0805      2.1548    118.0224      0.0000
  1099.0000    758.0264      2.0722    122.7697      0.0000
  1099.5000    756.2630      1.9159    130.2406      0.0000
  1100.0000    755.7546      1.8706    131.7938      0.0000
  1100.5000    754.8873      1.9882    127.9874      0.0000
  1101.0000    754.3589      2.1750    132.6136      0.0000
  1101.5000    747.2318      2.2713    144.5887      0.0000
  1102.0000    690.9466      2.2709    146.7773      0.0000
  1102.5000    584.0239      2.2497    141.8842      0.0000
  1103.0000    545.1069      2.1691    140.1395      0.0000
  1103.5000    512.3248      2.1187    131.8383      0.0000
  1104.0000    457.5143      2.1171    118.5063      0.0000
  1104.5000    444.3940      2.1924    110.3251      0.0000
  1105.0000    467.9236      2.2681    108.8145      0.0000
  1105.5000    576.4408      2.3433    111.5262      0.0000
  1106.0000    695.9135      2.3335    113.0434      0.0000
  1106.5000    667.6021      2.2701    112.0255      0.0000
  1107.0000    589.8083      2.2239    105.0736      0.0000
  1107.5000    646.8260      2.2635     95.0732      0.0000
  1108.0000    730.6204      2.3811     85.5399      0.0000
  1108.5000    735.9235      2.4806     80.8373      0.0000
  1109.0000    719.6507      2.4545     82.2233      0.0000
  1109.5000    699.1959      2.3340     85.0461      0.0000
  1110.0000    671.3727      2.1883     87.1990      0.0000
  1110.5000    614.8597      2.1620     87.0358      0.0000
  1111.0000    621.7109      2.2041     85.0869      0.0000
  1111.5000    677.6299      2.1894     88.2065      0.0000
  1112.0000    694.4330      2.2149     98.2896      0.0000
  1112.5000    689.4449      2.1981    108.1263      0.0000
  1113.0000    682.7042      2.1765    105.4173      0.0000
  1113.5000    655.8608      2.1949     95.9177      0.0000
  1114.0000    625.7368      2.2607     92.7248      0.0000
  1114.5000    604.9105      2.2561     96.4757      0.0000
  1115.0000    655.3105      2.3019     98.4457      0.0000
  1115.5000    662.9454      2.2922     98.1141      0.0000
  1116.0000    627.7198      2.2472     96.3316      0.0000
  1116.5000    661.3329      2.1660     91.8121      0.0000
  1117.0000    690.9976      2.1896     90.2016      0.0000
  1117.5000    704.8759      2.3473     94.8571      0.0000
  1118.0000    702.5128      2.3795     99.7870      0.0000
  1118.5000    569.4398      2.3255     97.7110      0.0000
  1119.0000    450.7269      2.2470     91.6280      0.0000
  1119.5000    429.8132      2.2035     88.1875      0.0000
