~Version Information
VERS.                      2.0: CWLS Log ASCII Standard - VERSION 2.0
WRAP.                       NO: One line per depth step
~Well Information Block
STRT.FT               480.0000: 
STOP.FT              1625.5000: 
STEP.FT                 0.1000: 
NULL.                -999.2500: 
COMP.          Pioneer Natural Resources: COMPANY
WELL.          Dude Canyon 22-32 Tr: WELL
FLD.           Purgatoire River: FIELD
LOC.           1741' FNL & 2331' FWL: LOCATION
PROV.                 Colorado: PROVINCE
CNTY.               Las Animas: COUNTRY
SRVC.                Patterson: SERVICE COMPANY
DATE.          Mon Jul 11 10:33:06 2005: LOG DATE
UWI.           05 071 08421 00: UNIQUE WELL ID
~Curve Information Block
DEPT.FT            0 000 00 00: Depth
DCAL.in                       : CDL Caliper
RHOB.g/cc                     : CDL Bulk Density
RHOC.g/cc                     : CDL Density Correction
DPOR.pu                       : CDL Density Porosity
GR.GAPI                       : Gamma Ray
NPOR.pu                       : Neutron Porosity
~Parameter Information Block
~A  Depth       DCAL        RHOB        RHOC        DPOR         GR         NPOR    
# ...
  1612.8000      7.8695      2.5961      0.1103      3.2654   -999.2500   -999.2500
  1612.9000      7.8695      2.5963      0.0616      3.2551   -999.2500   -999.2500
  1613.0000      7.8527      2.6065      0.1194      2.6377   -999.2500   -999.2500
  1613.1000      7.8527      2.6162      0.0917      2.0507   -999.2500   -999.2500
  1613.2000      7.8527      2.6322      0.0580      1.0793   -999.2500   -999.2500
  1613.3000      7.8712      2.6621      0.0915     -0.7310   -999.2500   -999.2500
  1613.4000      7.8712      2.6852      0.1329     -2.1322   -999.2500   -999.2500
  1613.5000      7.8765      2.6854      0.1199     -2.1441   -999.2500   -999.2500
  1613.6000      7.8765      2.6765      0.1045     -1.6035   -999.2500   -999.2500
  1613.7000      7.8765      2.6695      0.1193     -1.1820   -999.2500   -999.2500
  1613.8000      7.8570      2.6541      0.1614     -0.2476   -999.2500   -999.2500
  1613.9000      7.8570      2.6265      0.0786      1.4235   -999.2500   -999.2500
  1614.0000      7.8525      2.6052      0.0359      2.7174   -999.2500   -999.2500
  1614.1000      7.8525      2.5987      0.0178      3.1119   -999.2500   -999.2500
  1614.2000      7.8525      2.5987      0.0170      3.1112   -999.2500   -999.2500
  1614.3000      7.8665      2.6109      0.0323      2.3667   -999.2500   -999.2500
  1614.4000      7.8665      2.6402      0.1251      0.5921   -999.2500   -999.2500
  1614.5000      7.8654      2.6611      0.1508     -0.6722   -999.2500   -999.2500
  1614.6000      7.8654      2.6542      0.0808     -0.2516   -999.2500   -999.2500
  1614.7000      7.8654      2.6273      0.0989      1.3741   -999.2500   -999.2500
  1614.8000      7.8461      2.5914      0.0790      3.5506   -999.2500   -999.2500
  1614.9000      7.8461      2.5610      0.0231      5.3940   -999.2500   -999.2500
  1615.0000      7.8458      2.5552     -0.0089      5.7438   -999.2500   -999.2500
  1615.1000      7.8458      2.5800      0.0298      4.2417   -999.2500   -999.2500
  1615.2000      7.8458      2.6247      0.0484      1.5313   -999.2500   -999.2500
  1615.3000      7.8608      2.6625      0.1178     -0.7571   -999.2500   -999.2500
  1615.4000      7.8608      2.6696      0.0767     -1.1868   -999.2500   -999.2500
  1615.5000      7.8716      2.6612      0.0191     -0.6792   -999.2500   -999.2500
  1615.6000      7.8716      2.6622      0.0367     -0.7423   -999.2500   -999.2500
  1615.7000      7.8716      2.6690      0.0649     -1.1510   -999.2500   -999.2500
  1615.8000      7.8668      2.6762      0.0225     -1.5909   -999.2500   -999.2500
  1615.9000      7.8668      2.6761      0.1315     -1.5802   -999.2500   -999.2500
  1616.0000      7.8727      2.6490      0.1003      0.0633   -999.2500   -999.2500
  1616.1000      7.8727      2.6021      0.0735      2.9042   -999.2500   -999.2500
  1616.2000      7.8727      2.5589      0.0566      5.5201   -999.2500   -999.2500
  1616.3000      7.8739      2.5294      0.0178      7.3113   -999.2500   -999.2500
  1616.4000      7.8739      2.5129      0.0414      8.3093   -999.2500   -999.2500
  1616.5000      7.8605      2.5066      0.0117      8.6901   -999.2500   -999.2500
  1616.6000      7.8605      2.5178      0.0300      8.0147   -999.2500   -999.2500
  1616.7000      7.8605      2.5454      0.0721      6.3419   -999.2500   -999.2500
  1616.8000      7.8722      2.5657      0.1197      5.1099   -999.2500   -999.2500
  1616.9000      7.8722      2.5651      0.1002      5.1432   -999.2500   -999.2500
  1617.0000      7.8775      2.5516      0.1427      5.9663   -999.2500   -999.2500
  1617.1000      7.8775      2.5396      0.0667      6.6922   -999.2500   -999.2500
  1617.2000      7.8775      2.5428      0.0996      6.4959   -999.2500   -999.2500
  1617.3000      7.8580      2.5536      0.1521      5.8397   -999.2500   -999.2500
  1617.4000      7.8580      2.5574      0.1333      5.6127   -999.2500   -999.2500
  1617.5000      7.7975      2.5627      0.1774      5.2895   -999.2500   -999.2500
  1617.6000      7.7975      2.5794      0.1527      4.2795   -999.2500   -999.2500
  1617.7000      7.7975      2.6075      0.1061      2.5776   -999.2500   -999.2500
  1617.8000      7.7933      2.6381      0.1630      0.7189   -999.2500   -999.2500
  1617.9000      7.7933      2.6526      0.1347     -0.1586   -999.2500   -999.2500
  1618.0000      7.8094      2.6480      0.1480      0.1193   -999.2500   -999.2500
  1618.1000      7.8094      2.6379      0.1395      0.7349   -999.2500   -999.2500
  1618.2000      7.8094      2.6305      0.1531      1.1820   -999.2500   -999.2500
  1618.3000      7.8489      2.6278      0.1266      1.3448   -999.2500   -999.2500
  1618.4000      7.8489      2.6331      0.1118      1.0222   -999.2500   -999.2500
  1618.5000      7.8652      2.6379      0.1334      0.7354   -999.2500   -999.2500
  1618.6000      7.8652      2.6170      0.1092      2.0017   -999.2500   -999.2500
  1618.7000      7.8652      2.5731      0.0483      4.6596   -999.2500   -999.2500
  1618.8000      7.8719      2.5466     -0.0006      6.2657   -999.2500   -999.2500
  1618.9000      7.8719      2.5527      0.0548      5.8965   -999.2500   -999.2500
  1619.0000      7.8791      2.5679      0.0773      4.9762   -999.2500   -999.2500
  1619.1000      7.8791      2.5747      0.1002      4.5615   -999.2500   -999.2500
  1619.2000      7.8791      2.5710      0.0911      4.7909   -999.2500   -999.2500
  1619.3000      7.8785      2.5594      0.0453      5.4899   -999.2500   -999.2500
  1619.4000      7.8785      2.5428      0.0337      6.4982   -999.2500   -999.2500
  1619.5000      7.8860      2.5249      0.0282      7.5844   -999.2500   -999.2500
  1619.6000      7.8860      2.5264     -0.0054      7.4917   -999.2500   -999.2500
  1619.7000      7.8860      2.5620      0.0856      5.3310   -999.2500   -999.2500
  1619.8000      7.8754      2.6097      0.1286      2.4424   -999.2500   -999.2500
  1619.9000      7.8754      2.6388      0.0941      0.6791   -999.2500   -999.2500
  1620.0000      7.8677      2.6442      0.1240      0.3494   -999.2500   -999.2500
  1620.1000      7.8677      2.6431      0.0899      0.4169   -999.2500   -999.2500
  1620.2000      7.8677      2.6542      0.1300     -0.2562   -999.2500   -999.2500
  1620.3000      7.8565      2.6729      0.1461     -1.3874   -999.2500   -999.2500
  1620.4000      7.8565      2.6751      0.1154     -1.5217   -999.2500   -999.2500
  1620.5000      7.8382      2.6464      0.0824      0.2207   -999.2500   -999.2500
  1620.6000      7.8382      2.6024      0.0305      2.8819   -999.2500   -999.2500
  1620.7000      7.8382      2.5700      0.0971      4.8493   -999.2500   -999.2500
  1620.8000      7.6982      2.5476      0.1198      6.2050   -999.2500   -999.2500
  1620.9000      7.6982      2.5256      0.0119      7.5370   -999.2500   -999.2500
  1621.0000      7.6594      2.5141      0.0420      8.2367   -999.2500   -999.2500
  1621.1000      7.6594      2.5218      0.0360      7.7707   -999.2500   -999.2500
  1621.2000      7.6594      2.5479      0.0629      6.1870   -999.2500   -999.2500
  1621.3000      7.6326      2.5798      0.0697      4.2528   -999.2500   -999.2500
  1621.4000      7.6326      2.6004      0.0793      3.0077   -999.2500   -999.2500
  1621.5000      7.6312      2.6055      0.0651      2.6981   -999.2500   -999.2500
  1621.6000      7.6312      2.6016      0.0770      2.9337   -999.2500   -999.2500
  1621.7000      7.6312      2.5985      0.0837      3.1200   -999.2500   -999.2500
  1621.8000      7.6530      2.6234      0.0561      1.6144   -999.2500   -999.2500
  1621.9000      7.6530      2.7202      0.0564     -4.2531   -999.2500   -999.2500
  1622.0000      7.6902      2.7648      0.0556     -6.9593   -999.2500   -999.2500
  1622.1000      7.6902      2.3188      0.5267     20.0715   -999.2500   -999.2500
  1622.2000      7.6902      1.3175      0.0200     80.7551   -999.2500   -999.2500
  1622.3000      7.7042      0.4468      0.0200    133.5286   -999.2500   -999.2500
