~Version Information
VERS.                      2.0: CWLS Log ASCII Standard - VERSION 2.0
WRAP.                       NO: One line per depth step
~Well Information Block
STRT.FT               460.5000: 
STOP.FT              2197.0000: 
STEP.FT                 0.2500: 
NULL.                -999.2500: 
COMP.          Petrogulf Corporation: COMPANY
WELL.              Silva 1-43R: WELL
FLD.           Purgatorie River: FIELD
LOC.           1971' FSL & 526' FEL: LOCATION
CNTY.               Las Animas: COUNTY
SRVC.                Patterson: SERVICE COMPANY
DATE.          Sun Jun 18 03:37:26 2006: LOG DATE
UWI.           05 071 08372 00: UNIQUE WELL ID
STAT.                 Colorado: STATE
~Curve Information Block
DEPT.FT            0 000 00 00: Depth
SN.Ohm-m                      : IEL Short Normal
SP.mV                         : IEL Spontaneous Potential
DIR.Ohm-m                     : IEL Induction Resistivity
GR.GAPI                       : Gamma Ray
~Parameter Information Block
~A  Depth        SN          SP         DIR          GR     
# ...
   494.0000   2000.0000   2000.0000     65.0450     81.9825
   494.2500   2000.0000   2000.0000     64.2451     80.6093
   494.5000   2000.0000   2000.0000     63.3698     80.1533
   494.7500   2000.0000   2000.0000     62.6190     80.7018
   495.0000   2000.0000   2000.0000     62.2496     82.3141
   495.2500   2000.0000   2000.0000     62.4695     83.5954
   495.5000   2000.0000   2000.0000     63.2618     85.3625
   495.7500   2000.0000   2000.0000     64.2957     86.4385
   496.0000   2000.0000   2000.0000     65.0707     88.4856
   496.2500   2000.0000   2000.0000     65.2557     90.4293
   496.5000   2000.0000   2000.0000     64.8852     93.7392
   496.7500   2000.0000   2000.0000     64.2092     95.4606
   497.0000   2000.0000   2000.0000     63.4152     96.3951
   497.2500   2000.0000   2000.0000     62.5119     96.0532
   497.5000   2000.0000   2000.0000     61.4085     95.2051
   497.7500   2000.0000   2000.0000     60.0576     95.0304
   498.0000   2000.0000   2000.0000     58.5355     95.3173
   498.2500   2000.0000   2000.0000     56.9843     95.1673
   498.5000   2000.0000   2000.0000     55.4558     93.3087
   498.7500   2000.0000   2000.0000     53.8083     91.1438
   499.0000   2000.0000   2000.0000     51.7726     87.9238
   499.2500   2000.0000   2000.0000     49.1600     86.3579
   499.5000   2000.0000   2000.0000     46.0150     84.3122
   499.7500   2000.0000   2000.0000     42.6051     82.3381
   500.0000   2000.0000   2000.0000     39.3574     77.8934
   500.2500   2000.0000   2000.0000     36.8318     74.4770
   500.5000   2000.0000   2000.0000     35.6928     70.0988
   500.7500   2000.0000   2000.0000     36.7201     68.0748
   501.0000   2000.0000   2000.0000     40.9753     66.3034
   501.2500   2000.0000   2000.0000     50.0983     66.0444
   501.5000   2000.0000   2000.0000     66.1716     67.6691
   501.7500   2000.0000   2000.0000     89.0483     70.3077
   502.0000   2000.0000   2000.0000    110.0934     76.1223
   502.2500   2000.0000   2000.0000    117.2908     80.5920
   502.5000   2000.0000   2000.0000    113.5545     86.9003
   502.7500   2000.0000   2000.0000    108.9386     90.1762
   503.0000   2000.0000   2000.0000    107.7512     93.0946
   503.2500   2000.0000   2000.0000    110.6219     93.7794
   503.5000   2000.0000   2000.0000    119.7476     93.5261
   503.7500   2000.0000   2000.0000    144.3084     92.9588
   504.0000   2000.0000   2000.0000    218.3191     92.2499
   504.2500   2000.0000   2000.0000    611.9953     92.1917
   504.5000   2000.0000   2000.0000 100000.0000     93.0080
   504.7500   2000.0000   2000.0000 100000.0000     94.2744
   505.0000   2000.0000   2000.0000 100000.0000     97.6248
   505.2500   2000.0000   2000.0000 100000.0000    101.0004
   505.5000   2000.0000   2000.0000 100000.0000    107.4442
   505.7500   2000.0000   2000.0000 100000.0000    112.0595
   506.0000   2000.0000   2000.0000 100000.0000    118.3363
   506.2500   2000.0000   2000.0000 100000.0000    121.6994
   506.5000   2000.0000   2000.0000 100000.0000    125.3446
   506.7500   2000.0000   2000.0000 100000.0000    126.9309
   507.0000   2000.0000   2000.0000 100000.0000    128.4878
   507.2500   2000.0000   2000.0000 100000.0000    129.3884
   507.5000   2000.0000   2000.0000 100000.0000    131.0747
   507.7500   2000.0000   2000.0000     20.5432    132.3416
   508.0000   2000.0000   2000.0000      6.1036    133.6105
   508.2500   2000.0000   2000.0000      3.8593    133.5232
   508.5000   2000.0000   2000.0000      3.2419    131.9305
   508.7500   2000.0000   2000.0000      3.2347    130.3248
   509.0000   2000.0000   2000.0000      3.6186    127.6362
   509.2500   2000.0000   2000.0000      4.3863    125.4755
   509.5000   2000.0000   2000.0000      5.7229    121.2978
   509.7500   2000.0000   2000.0000      8.2916    118.2782
   510.0000   2000.0000   2000.0000     14.5834    114.9923
   510.2500   2000.0000   2000.0000     41.0941    114.3419
   510.5000   2000.0000   2000.0000 100000.0000    115.5754
   510.7500   2000.0000   2000.0000 100000.0000    117.3200
   511.0000   2000.0000   2000.0000 100000.0000    120.7197
   511.2500   2000.0000   2000.0000   4072.6321    123.6253
   511.5000   2000.0000   2000.0000     59.8207    129.2256
   511.7500   2000.0000   2000.0000     32.9164    133.3884
   512.0000   2000.0000   2000.0000     25.6194    138.4713
   512.2500   2000.0000   2000.0000     23.0662    140.0355
   512.5000   2000.0000   2000.0000     22.2376    139.2747
   512.7500   2000.0000   2000.0000     22.1435    137.4225
   513.0000   2000.0000   2000.0000     22.4425    134.5275
   513.2500   2000.0000   2000.0000     23.0896    133.4431
   513.5000   2000.0000   2000.0000     24.2477    133.7677
   513.7500   2000.0000   2000.0000     26.2714    135.0062
   514.0000   2000.0000   2000.0000     29.6876    136.9598
   514.2500   2000.0000   2000.0000     35.0232    137.4641
   514.5000   2000.0000   2000.0000     42.1925    136.5779
   514.7500   2000.0000   2000.0000     49.3140    135.3052
   515.0000   2000.0000   2000.0000     52.8472    133.5149
   515.2500   2000.0000   2000.0000     51.3479    132.9070
   515.5000   2000.0000   2000.0000     47.1123    133.1510
   515.7500   2000.0000   2000.0000     42.6853    133.9931
   516.0000   2000.0000   2000.0000     38.9725    135.9460
   516.2500   2000.0000   2000.0000     35.9350    137.4073
   516.5000   2000.0000   2000.0000     33.4343    139.1018
   516.7500   2000.0000   2000.0000     31.5276    139.5621
   517.0000   2000.0000   2000.0000     30.3847    139.2379
   517.2500   2000.0000   2000.0000     30.1042    138.6063
   517.5000   2000.0000   2000.0000     30.6023    137.5583
   517.7500   2000.0000   2000.0000     31.5715    136.9858
   518.0000   2000.0000   2000.0000     32.5352    136.2976
   518.2500   2000.0000   2000.0000     33.0560    135.7713
   518.5000   2000.0000   2000.0000     33.0082    134.6124
   518.7500   2000.0000   2000.0000     32.6352    133.5910
   519.0000   2000.0000   2000.0000     32.3236    131.9136
   519.2500   2000.0000   2000.0000     32.3373    130.8900
   519.5000   2000.0000   2000.0000     32.6968    129.5413
   519.7500   2000.0000   2000.0000     33.2061    128.3666
   520.0000   2000.0000   2000.0000     33.5935    125.3170
   520.2500   2000.0000   2000.0000     33.7078    122.7046
   520.5000   2000.0000   2000.0000     33.6096    120.4056
   520.7500   2000.0000   2000.0000     33.4709    121.5497
   521.0000   2000.0000   2000.0000     33.4039    127.4812
   521.2500   2000.0000   2000.0000     33.3896    132.4874
   521.5000   2000.0000   2000.0000     33.3389    137.5230
   521.7500   2000.0000   2000.0000     33.2045    137.8798
   522.0000   2000.0000   2000.0000     33.0297    134.3684
   522.2500   2000.0000   2000.0000     32.8976    130.5164
   522.5000   2000.0000   2000.0000     32.8545    124.4409
   522.7500   2000.0000   2000.0000     32.8775    120.9663
   523.0000   2000.0000   2000.0000     32.9031    117.1972
   523.2500   2000.0000   2000.0000     32.8851    115.5229
   523.5000   2000.0000   2000.0000     32.8393    113.6531
   523.7500   2000.0000   2000.0000     32.8412    112.6276
   524.0000   2000.0000   2000.0000     32.9875    111.4840
   524.2500   2000.0000   2000.0000     33.3521    110.9664
   524.5000   2000.0000   2000.0000     33.9698    110.0804
   524.7500   2000.0000   2000.0000     34.8423    109.0922
   525.0000   2000.0000   2000.0000     35.9502    106.7222
   525.2500   2000.0000   2000.0000     37.2506    104.3252
   525.5000   2000.0000   2000.0000     38.6697     98.7057
   525.7500   2000.0000   2000.0000     40.1117     93.3652
   526.0000   2000.0000   2000.0000     41.4981     84.0215
   526.2500   2000.0000   2000.0000     42.8175     78.1244
   526.5000   2000.0000   2000.0000     44.1384     71.1943
   526.7500   2000.0000   2000.0000     45.5569     67.8210
   527.0000   2000.0000   2000.0000     47.1155     63.8096
   527.2500   2000.0000   2000.0000     48.7544     61.4402
