~Version Information
 VERS.                                  2.0 : CWLS LAS VERSION
 WRAP.                                   NO : WRAPING MODE
 SWARE .                 MController 2.5.0E : SOFTWARE VERSION
~Well Information
 WELL.                       Parklane 43-34 : WELL
 COMP.             Evergreen Operating Corp : COMPANY
 FLD.                      Purgatorie River : FIELD
 LOC.                NE/SE Sec 34 T32S R66W : LOCATION
 DATE.                          10/04-06/04 : DATE(S) LOGGED
 SRVC.       Blanco Geological Services LLC : SERVICE COMPANY
 STAT.                                   CO : STATE
 CNTY.                           Las Animas : COUNTY
 CTRY.                                  USA : COUNTRY
 API.                       05-071-08162-00 : API NUMBER
 STRT.FT                             467.00 : START DEPTH
 STOP.FT                            2245.00 : STOP DEPTH
 STEP.FT                               1.00 : DEPTH INCREMENT
 NULL.                                -9999 : NULL VALUE
~Curve information
 DEPTH.FT                                   :
 ROP.MIN/FT                                 :
 GAS.UNITS                                  :
~ASCII Log data
# ...
      867.00        0.167         26.8 
      868.00        0.067         23.8 
      869.00        0.133         22.4 
      870.00        0.300         19.7 
      871.00        0.100         16.1 
      872.00        0.133         15.5 
      873.00        0.167         14.9 
      874.00        0.167         14.0 
      875.00        0.167         13.1 
      876.00        0.167         11.5 
      877.00        0.167         10.0 
      878.00        0.333          9.4 
      879.00        0.167          6.6 
      880.00        0.133          5.5 
      881.00        0.133          5.1 
      882.00        0.167          3.3 
      883.00        0.167          2.9 
      884.00        0.183          2.7 
      885.00        0.100          2.4 
      886.00        0.133          2.4 
      887.00        0.100          3.3 
      888.00        0.167          3.4 
      889.00        0.167          3.2 
      890.00        0.133          2.9 
      891.00        0.167          3.1 
      892.00        0.233          2.5 
      893.00        0.200          2.3 
      894.00        0.267          5.7 
      895.00        0.200         12.6 
      896.00        2.050        104.3 
      897.00        0.333         75.2 
      898.00        0.233         62.6 
      899.00        0.233         52.7 
      900.00        0.200         44.4 
      901.00        0.200         41.4 
      902.00        0.200         34.0 
      903.00        0.167         24.7 
      904.00        0.200         19.9 
      905.00        0.200         16.5 
      906.00        0.200         13.8 
      907.00        0.167         11.7 
      908.00        0.200          9.2 
      909.00        0.217          6.9 
      910.00        0.133          5.8 
      911.00        0.200          4.0 
      912.00        0.200          2.7 
      913.00        0.133          2.9 
      914.00        0.167          2.5 
      915.00        0.167          2.3 
      916.00        0.133          2.7 
      917.00        0.167          2.1 
      918.00        0.167          2.4 
      919.00        0.167          2.4 
      920.00        0.133          1.9 
      921.00        0.167          2.1 
      922.00        0.167          2.4 
      923.00        0.133          4.9 
      924.00        0.167         12.0 
      925.00        0.133         21.6 
      926.00        1.850        127.1 
      927.00        0.333         67.2 
      928.00        0.267         52.8 
      929.00        0.167         44.4 
      930.00        0.167         42.6 
      931.00        0.167         36.9 
      932.00        0.100         34.6 
      933.00        0.167         33.1 
      934.00        0.267         29.4 
      935.00        0.133         30.4 
      936.00        0.483         37.6 
      937.00        0.533         39.8 
      938.00        0.433         47.9 
      939.00        0.133         48.5 
      940.00        0.100         46.3 
      941.00        0.100         44.1 
      942.00        0.100         42.0 
      943.00        0.100         40.4 
      944.00        0.100         38.9 
      945.00        0.133         39.1 
      946.00        0.133         38.1 
      947.00        0.167         37.3 
      948.00        0.167         35.2 
      949.00        0.167         33.7 
      950.00        0.167         30.2 
      951.00        0.167         28.4 
      952.00        0.167         29.9 
      953.00        0.133         37.5 
      954.00        0.200         58.9 
      955.00        0.183        104.3 
      956.00        1.567        184.2 
      957.00        0.167         70.9 
      958.00        0.167         63.4 
      959.00        0.200         57.9 
      960.00        0.233         53.1 
      961.00        0.200         49.1 
      962.00        0.167         46.2 
      963.00        0.133         53.9 
      964.00        0.200         54.3 
      965.00        0.183         50.2 
      966.00        0.200         45.6 
      967.00        0.233         44.4 
      968.00        0.167         43.3 
      969.00        0.167         44.7 
      970.00        0.167         41.0 
      971.00        0.233         36.5 
      972.00        0.200         35.9 
      973.00        0.167         36.0 
      974.00        0.167         35.6 
      975.00        0.167         35.0 
      976.00        0.133         33.2 
      977.00        0.100         31.9 
      978.00        0.100         29.9 
      979.00        0.100         29.2 
      980.00        0.100         27.6 
      981.00        0.100         26.4 
      982.00        0.133         27.2 
      983.00        0.133         29.8 
      984.00        0.167         36.8 
      985.00        0.167         53.3 
      986.00        1.617        142.9 
      987.00        0.200         82.0 
      988.00        0.200         68.5 
      989.00        0.167         58.3 
      990.00        0.167         52.0 
      991.00        0.167         47.4 
      992.00        0.167         45.2 
      993.00        0.100         43.6 
      994.00        0.100         42.0 
      995.00        0.167         41.4 
      996.00        0.200         39.6 
      997.00        0.200         38.5 
      998.00        0.217         38.0 
      999.00        0.167         36.7 
     1000.00        0.133         35.9 
     1001.00        0.167         38.1 
     1002.00        0.167         39.6 
     1003.00        0.133         35.9 
     1004.00        0.200         32.1 
     1005.00        0.167         30.8 
     1006.00        0.200         31.7 
     1007.00        0.367         30.3 
     1008.00        0.367         27.1 
     1009.00        0.233         22.5 
     1010.00        0.100         21.3 
     1011.00        0.133         22.8 
     1012.00        0.100         25.5 
     1013.00        0.133         31.1 
     1014.00        0.133         40.6 
     1015.00        0.100         52.5 
     1016.00        1.583        130.2 
     1017.00        0.233         79.7 
     1018.00        0.167         66.0 
     1019.00        0.200         58.8 
     1020.00        0.200         51.8 
     1021.00        0.300         46.2 
     1022.00        0.133         41.6 
     1023.00        0.100         40.1 
     1024.00        0.100         39.3 
     1025.00        0.233         38.6 
     1026.00        0.183         37.2 
     1027.00        0.200         35.7 
     1028.00        0.200         35.2 
     1029.00        0.167         35.2 
     1030.00        0.167         40.5 
     1031.00        0.200         43.5 
     1032.00        0.167         40.0 
     1033.00        0.167         36.1 
     1034.00        0.233         33.6 
     1035.00        0.167         31.9 
     1036.00        0.200         32.0 
     1037.00        0.167         30.2 
     1038.00        0.133         27.9 
     1039.00        0.200         25.5 
     1040.00        0.167         23.3 
     1041.00        0.167         23.6 
     1042.00        0.167         29.2 
     1043.00        0.133         35.2 
     1044.00        0.133         44.4 
     1045.00        0.133         62.4 
     1046.00        1.583        151.3 
     1047.00        0.333         78.7 
     1048.00        0.267         59.1 
     1049.00        0.233         49.7 
     1050.00        0.200         45.2 
     1051.00        0.167         42.5 
     1052.00        0.200         41.7 
     1053.00        0.517         41.8 
     1054.00        0.500         41.6 
     1055.00        0.400         39.5 
     1056.00        0.333         37.8 
     1057.00        0.367         36.2 
     1058.00        0.200         34.8 
     1059.00        0.167         35.6 
     1060.00        0.133         39.8 
     1061.00        0.133         39.7 
     1062.00        0.133         37.0 
     1063.00        0.167         35.5 
     1064.00        0.167         33.1 
     1065.00        0.200         32.0 
     1066.00        0.100         30.8 
