~Version Information
VERS.                      2.0: CWLS Log ASCII Standard - VERSION 2.0
WRAP.                       NO: One line per depth step
~Well Information Block
STRT.FT               866.0000: 
STOP.FT              2029.0000: 
STEP.FT                 0.2500: 
NULL.                -999.2500: 
COMP.          Petrogulf Corporation: COMPANY
WELL.             State 16-21R: WELL
FLD.           Purgatorie River: FIELD
LOC.           203' FNL & 1560' FWL: LOCATION
PROV.                 Colorado: PROVINCE
CNTY.               Las Animas: COUNTRY
SRVC.                Patterson: SERVICE COMPANY
DATE.          Tue Aug 16 12:55:36 2005: LOG DATE
UWI.                071 08313 : UNIQUE WELL ID
~Curve Information Block
DEPT.FT            0 000 00 00: Depth
SP.mV                         : DIL Spontaneous Potential
RILD.Ohm-m                    : DIL Deep Resistivity
RILM.Ohm-m                    : DIL Medium Resistivity
RLL3.Ohm-m                    : DIL Shallow Resistivity
GR.GAPI                       : Gamma Ray
~Parameter Information Block
~A  Depth        SP         RILD        RILM        RLL3         GR     
   866.0000   2000.0000     11.8933 100000.0000   2000.0000     84.2941
   866.2500   2000.0000     12.2757 100000.0000   2000.0000     83.1303
   866.5000   2000.0000     12.5704 100000.0000   2000.0000     85.6649
   866.7500   2000.0000     11.3960 100000.0000   2000.0000     85.3788
   867.0000   2000.0000     11.2639 100000.0000   2000.0000     80.8829
   867.2500   2000.0000     11.2852 100000.0000   2000.0000     74.8916
   867.5000   2000.0000     11.1150 100000.0000   2000.0000     65.8346
   867.7500   2000.0000     11.0254 100000.0000   2000.0000     60.9583
   868.0000   2000.0000     10.9769 100000.0000   2000.0000     56.3623
   868.2500   2000.0000     10.9518 100000.0000   2000.0000     53.1259
   868.5000   2000.0000     10.8617 100000.0000   2000.0000     48.2605
   868.7500   2000.0000     10.6531 100000.0000   2000.0000     46.6175
   869.0000   2000.0000     10.4422 100000.0000   2000.0000     48.7102
   869.2500   2000.0000      9.9816 100000.0000   2000.0000     52.5506
   869.5000   2000.0000      9.5191 100000.0000   2000.0000     43.8228
   869.7500   2000.0000      9.1563 100000.0000   2000.0000     40.8518
   870.0000   2000.0000      8.9619 100000.0000   2000.0000     42.1752
   870.2500   2000.0000      8.9775 100000.0000   2000.0000     44.3835
   870.5000   2000.0000      8.2794 100000.0000   2000.0000     39.6026
   870.7500   2000.0000      8.1580 100000.0000   2000.0000     41.7535
   871.0000   2000.0000      8.1405 100000.0000   2000.0000     44.7091
   871.2500   2000.0000      8.1024 100000.0000   2000.0000     43.5818
   871.5000   2000.0000      8.2243 100000.0000   2000.0000     40.8486
   871.7500   2000.0000      8.3414 100000.0000   2000.0000     39.9839
   872.0000   2000.0000      8.2598 100000.0000   2000.0000     40.7619
   872.2500   2000.0000      8.2439 100000.0000   2000.0000     43.8365
   872.5000   2000.0000      8.5123 100000.0000   2000.0000     51.1135
   872.7500   2000.0000      8.8760 100000.0000   2000.0000     57.3892
   873.0000   2000.0000      9.2535 100000.0000   2000.0000     72.4746
   873.2500   2000.0000      9.8896 100000.0000   2000.0000     79.1460
   873.5000   2000.0000      9.4786 100000.0000   2000.0000     93.7161
   873.7500   2000.0000      9.0464 100000.0000   2000.0000    106.1357
   874.0000   2000.0000      9.2239 100000.0000   2000.0000    107.2003
   874.2500   2000.0000      9.3898 100000.0000   2000.0000    109.4301
   874.5000   2000.0000      9.5997 100000.0000   2000.0000    107.9510
   874.7500   2000.0000      9.3279 100000.0000   2000.0000    108.6944
   875.0000   2000.0000      8.5598 100000.0000   2000.0000    105.4440
   875.2500   2000.0000      8.2136 100000.0000   2000.0000    108.5529
   875.5000   2000.0000      8.2730 100000.0000   2000.0000    114.1691
   875.7500   2000.0000      8.5920 100000.0000   2000.0000    113.8512
   876.0000   2000.0000      9.1507 100000.0000   2000.0000    117.3878
   876.2500   2000.0000      9.3689 100000.0000   2000.0000    114.1298
   876.5000   2000.0000      9.4667 100000.0000   2000.0000    116.7186
   876.7500   2000.0000      9.3694 100000.0000   2000.0000    122.5333
   877.0000   2000.0000      9.3020 100000.0000   2000.0000    119.5904
   877.2500   2000.0000      9.5080 100000.0000   2000.0000    120.4885
   877.5000   2000.0000      9.1190 100000.0000   2000.0000    125.7304
   877.7500   2000.0000      8.2397 100000.0000   2000.0000    119.3829
   878.0000   2000.0000      7.3920 100000.0000   2000.0000    122.1561
   878.2500   2000.0000      8.1173 100000.0000   2000.0000    124.4113
   878.5000   2000.0000     10.9953 100000.0000   2000.0000    108.3514
   878.7500   2000.0000     15.8852 100000.0000   2000.0000    101.2750
   879.0000   2000.0000     18.3415 100000.0000   2000.0000     78.7781
   879.2500   2000.0000     16.0148 100000.0000   2000.0000     70.7133
   879.5000   2000.0000     14.3464 100000.0000   2000.0000     61.9133
   879.7500   2000.0000     12.8516 100000.0000   2000.0000     60.4649
   880.0000   2000.0000     12.2153 100000.0000   2000.0000     56.8391
   880.2500   2000.0000     12.0536 100000.0000   2000.0000     52.6000
   880.5000   2000.0000     11.0849 100000.0000   2000.0000     57.9671
   880.7500   2000.0000     12.5612 100000.0000   2000.0000     68.3621
   881.0000   2000.0000     18.7520 100000.0000   2000.0000     80.6832
   881.2500   2000.0000     42.0470 100000.0000   2000.0000     78.2782
   881.5000   2000.0000    141.1597 100000.0000   2000.0000     83.0622
   881.7500   2000.0000     40.9566 100000.0000   2000.0000     89.1292
   882.0000   2000.0000     14.4983 100000.0000   2000.0000    103.9958
   882.2500   2000.0000     10.2644 100000.0000   2000.0000    104.2073
   882.5000   2000.0000      9.3664 100000.0000   2000.0000    101.8720
   882.7500   2000.0000      9.4454 100000.0000   2000.0000    105.5020
   883.0000   2000.0000      9.8575 100000.0000   2000.0000    101.8653
   883.2500   2000.0000     10.2387 100000.0000   2000.0000    109.3077
   883.5000   2000.0000      9.9977 100000.0000   2000.0000    102.6946
   883.7500   2000.0000      9.9043 100000.0000   2000.0000     96.8194
   884.0000   2000.0000     12.9753 100000.0000   2000.0000     97.5058
   884.2500   2000.0000 100000.0000 100000.0000   2000.0000     94.7948
   884.5000   2000.0000 100000.0000 100000.0000   2000.0000     92.4664
   884.7500   2000.0000 100000.0000 100000.0000   2000.0000     97.9877
   885.0000   2000.0000     91.8521 100000.0000   2000.0000    101.7791
   885.2500   2000.0000      5.0219 100000.0000   2000.0000    108.3331
   885.5000   2000.0000      3.9254 100000.0000   2000.0000    112.7647
   885.7500   2000.0000      4.4097 100000.0000   2000.0000    117.0201
   886.0000   2000.0000      5.7487 100000.0000   2000.0000    123.9539
   886.2500   2000.0000      7.0932 100000.0000   2000.0000    122.7297
   886.5000   2000.0000      7.9982 100000.0000   2000.0000    114.8278
   886.7500   2000.0000     10.3679 100000.0000   2000.0000    111.6993
   887.0000   2000.0000     39.8395 100000.0000   2000.0000    108.0534
   887.2500   2000.0000 100000.0000 100000.0000   2000.0000    104.6786
   887.5000   2000.0000      5.7743 100000.0000   2000.0000    105.8179
   887.7500   2000.0000      1.9564 100000.0000   2000.0000    106.3320
   888.0000   2000.0000      1.0522 100000.0000   2000.0000    111.5547
   888.2500   2000.0000      1.1806    258.4464   2000.0000    111.8955
   888.5000   2000.0000      2.6460      3.2737   2000.0000    113.4668
   888.7500   2000.0000      6.9370      2.6643   2000.0000    116.6839
   889.0000   2000.0000     15.3710      4.5994   2000.0000    125.9161
   889.2500   2000.0000     37.5496     14.0297   2000.0000    124.6007
   889.5000   2000.0000     98.7519     21.5595   2000.0000    124.1334
   889.7500   2000.0000 100000.0000     14.5121   2000.0000    122.6475
   890.0000   2000.0000 100000.0000     13.5366   2000.0000    126.1402
   890.2500   2000.0000 100000.0000     12.2519   2000.0000    125.7268
   890.5000   2000.0000 100000.0000     12.7778   2000.0000    126.1910
   890.7500   2000.0000 100000.0000     14.0680   2000.0000    126.0122
   891.0000   2000.0000     30.6000     22.4143   2000.0000    136.5886
   891.2500   2000.0000     12.4291 100000.0000   2000.0000    148.1853
   891.5000   2000.0000     13.5230 100000.0000   2000.0000    160.3615
   891.7500   2000.0000     14.8940     70.4634   2000.0000    159.7259
   892.0000   2000.0000     15.5298     28.3127   2000.0000    149.8855
   892.2500   2000.0000     16.5382     24.6471   2000.0000    143.5878
   892.5000   2000.0000     17.1375     24.3860   2000.0000    137.1758
   892.7500   2000.0000     18.0119     22.2786   2000.0000    134.4744
   893.0000   2000.0000     19.0900     22.0307   2000.0000    132.2658
   893.2500   2000.0000     21.8980     21.4001   2000.0000    135.1422
   893.5000   2000.0000     29.6572     17.9397   2000.0000    138.6886
   893.7500   2000.0000     24.5608     16.7905   2000.0000    147.9288
