~Version Information
VERS.                      2.0: CWLS Log ASCII Standard - VERSION 2.0
WRAP.                       NO: One line per depth step
~Well Information Block
STRT.FT               987.5000: 
STOP.FT              2426.0000: 
STEP.FT                 0.5000: 
NULL.                -999.2500: 
COMP.          Evergreen Operating Corporation: COMPANY
WELL.          McCullough 34-32: WELL
FLD.           Purgatorie River: FIELD
LOC.           261' FSL & 2098' FEL--: LOCATION
PROV.                 Colorado: PROVINCE
CNTY.               Las Animas: COUNTRY
SRVC.          Patterson Wireline: SERVICE COMPANY
DATE.          Mon May 17 13:38:56 2004: LOG DATE
UWI.           05-071-07953-00: UNIQUE WELL ID
~Curve Information Block
DEPT.FT            0 000 00 00: Depth
CCL.                          : Casing Collar Locator
TT3.usec                      : CBL 3' Travel Time
AMP3.mV                       : CBL 3' Amplitude
GR.GAPI                       : Gamma Ray
~Parameter Information Block
~A  Depth       CCL         TT3         AMP3         GR     
# ...
  1724.5000      0.0000    761.0401      7.0027    111.3741
  1725.0000      0.0000    735.8327      6.8046    133.8282
  1725.5000      0.0000    674.7980      7.3182    150.0423
  1726.0000      0.0000    661.2225      8.6115    154.2609
  1726.5000      0.0000    701.7946      9.2209    159.4846
  1727.0000      0.0000    721.7572      9.0188    169.0811
  1727.5000      0.0000    725.6390      8.7787    169.5280
  1728.0000      0.0000    726.2921      8.6224    163.1926
  1728.5000      0.0000    718.6445      8.4503    153.9136
  1729.0000      0.0000    714.5786      8.3468    144.9167
  1729.5000      0.0000    715.6555      8.1991    145.7926
  1730.0000      0.0000    710.1934      7.9741    156.0483
  1730.5000      0.0000    702.9819      7.9887    168.2576
  1731.0000      0.0000    703.9807      8.2274    173.8772
  1731.5000      0.0000    711.2896      8.3448    165.3159
  1732.0000      0.0000    713.4787      8.2861    149.4852
  1732.5000      0.0000    711.5853      8.2920    138.1302
  1733.0000      0.0000    709.1276      8.3682    131.5767
  1733.5000      0.0000    713.4694      8.3305    127.3725
  1734.0000      0.0000    719.2004      8.2088    131.3135
  1734.5000      0.0000    714.5178      8.1590    139.8830
  1735.0000      0.0000    706.2070      8.0313    144.8219
  1735.5000      0.0000    708.3660      7.6580    148.8136
  1736.0000      0.0000    719.1769      7.2726    159.0306
  1736.5000      0.0000    716.5771      7.1286    164.2241
  1737.0000      0.0000    696.3936      7.2368    157.2604
  1737.5000      0.0000    677.0410      7.3596    146.8605
  1738.0000      0.0000    670.8810      7.3776    137.8515
  1738.5000      0.0000    677.3948      7.2325    131.9058
  1739.0000      0.0000    689.7460      7.1640    129.3369
  1739.5000      0.0000    696.6646      7.2882    130.7120
  1740.0000      0.0000    697.5841      7.3419    138.5135
  1740.5000      0.0000    697.2045      7.2878    148.1017
  1741.0000      0.0000    694.0861      7.1917    153.4047
  1741.5000      0.0000    671.0850      7.2009    154.3692
  1742.0000      0.0000    603.1531      7.4583    149.5480
  1742.5000      0.0000    505.4839      7.8424    143.1300
  1743.0000      0.0000    419.3009      8.1523    133.3307
  1743.5000      0.0000    376.8193      8.3016    114.2581
  1744.0000      0.0000    367.1447      8.3657     96.6163
  1744.5000      0.0000    365.5601      8.4853     91.5624
  1745.0000      0.0000    365.2377      8.6541     99.5863
  1745.5000      0.0000    363.8286      8.8449    107.7017
  1746.0000      0.0000    358.4174      8.9462    110.9579
  1746.5000      0.0000    351.6461      8.8750    118.1190
  1747.0000      0.0000    344.4913      8.8064    128.4729
  1747.5000      0.0000    340.8970      8.8198    138.7152
  1748.0000      0.0000    346.0877      8.8787    140.8423
  1748.5000      0.0000    357.0629      8.8243    130.6367
  1749.0000      0.0000    362.7298      8.5936    122.9190
  1749.5000      0.0000    359.1973      8.6685    122.9098
  1750.0000      0.0000    348.5830      9.1796    129.3532
  1750.5000      0.0000    336.1360      9.7730    138.5999
  1751.0000      0.0000    329.2265     10.0585    145.6843
  1751.5000      0.0000    335.2899      9.9447    149.6852
  1752.0000      0.0000    352.1515      9.4926    152.3090
  1752.5000      0.0000    364.8174      9.0908    149.9195
  1753.0000      0.0000    366.7721      8.9765    148.6295
  1753.5000      0.0000    362.7543      8.9976    146.7509
  1754.0000      0.0000    359.6739      8.9755    140.0889
  1754.5000      0.0000    363.6494      8.8231    140.2145
  1755.0000      0.0000    369.3634      8.5887    149.0226
  1755.5000      0.0000    378.6758      8.4058    152.4365
  1756.0000      0.0000    398.3054      8.2947    152.8096
  1756.5000      0.0000    405.2675      8.3024    155.5636
  1757.0000      0.0000    387.6524      8.4401    150.3732
  1757.5000      0.0000    379.2314      8.6298    145.2019
  1758.0000      0.0000    393.7336      8.6450    151.8918
  1758.5000      0.0000    414.2704      8.4267    162.7697
  1759.0000      0.0000    418.4851      8.2960    166.3748
  1759.5000      0.0000    399.0168      8.5585    157.8150
  1760.0000      0.0000    378.0967      8.9256    149.1698
  1760.5000      0.0000    371.1158      8.9214    151.7522
  1761.0000      0.0000    370.9578      8.7780    155.5290
  1761.5000      0.0000    373.6897      8.6387    151.5750
  1762.0000      0.0000    392.6162      8.4870    138.6435
  1762.5000      0.0000    452.8867      8.3432    126.8976
  1763.0000      0.0000    519.8304      8.3628    123.7991
  1763.5000      0.0000    546.7328      8.4941    125.8690
  1764.0000      0.0000    602.3710      8.4456    128.8190
  1764.5000      0.0000    677.6171      8.2043    124.0581
  1765.0000      0.0000    703.7910      7.9393    116.3518
  1765.5000      0.0000    713.4734      7.8098    110.4145
  1766.0000      0.0000    738.4666      7.4762    101.4110
  1766.5000      0.0000    759.0680      6.8430     98.4351
  1767.0000      0.0000    760.2386      6.4534    105.5186
  1767.5000      0.0000    738.1908      6.3165    117.2547
  1768.0000      0.0000    659.0953      6.4900    131.1133
  1768.5000      0.0000    519.7632      7.2019    140.7828
  1769.0000      0.0000    436.3250      8.0960    143.5211
  1769.5000      0.0000    497.2819      8.3879    139.3973
  1770.0000      0.0000    602.8041      8.2102    135.0377
  1770.5000      0.0000    603.9221      8.1115    136.6689
  1771.0000      0.0000    500.5523      8.2550    145.8197
  1771.5000      0.0000    438.8561      8.4037    161.5699
  1772.0000      0.0000    512.1595      8.4979    171.1095
  1772.5000      0.0000    606.4065      8.6506    167.8446
  1773.0000      0.0000    561.2731      9.0335    160.3519
  1773.5000      0.0000    442.5543      9.3841    158.4786
  1774.0000      0.0000    390.1036      9.2663    163.5345
  1774.5000      0.0000    413.2081      8.7599    170.2676
  1775.0000      0.0000    458.0671      8.2746    179.2631
  1775.5000      0.0000    475.9424      8.0986    180.2937
  1776.0000      0.0000    471.5492      8.1438    171.2108
  1776.5000      0.0000    450.1448      8.1961    166.9104
  1777.0000      0.0000    463.7994      8.2009    167.3192
  1777.5000      0.0000    555.4990      8.0662    165.0209
  1778.0000      0.0000    650.9385      7.9573    157.2811
  1778.5000      0.0000    691.7540      8.0990    159.4540
  1779.0000      0.0000    699.4921      8.1821    168.0721
  1779.5000      0.0000    702.1647      8.2301    167.4083
  1780.0000      0.0000    710.9326      8.3722    158.5750
  1780.5000      0.0000    712.9318      8.5425    148.4724
  1781.0000      0.0000    655.6522      8.5727    138.3927
  1781.5000      0.0000    529.5815      8.4638    125.0050
  1782.0000      0.0000    456.0663      8.5242    111.8291
  1782.5000      0.0000    514.8402      8.6678    102.2402
  1783.0000      0.0000    596.3144      8.7723     99.0032
  1783.5000      0.0000    548.1017      8.9118     95.9659
  1784.0000      0.0000    421.7551      9.0276     88.9344
  1784.5000      0.0000    354.9572      9.0857     84.7022
  1785.0000      0.0000    357.8534      9.0102     91.9613
  1785.5000      0.0000    387.0819      8.9634    105.7976
  1786.0000      0.0000    386.7148      9.0583    115.0650
  1786.5000      0.0000    359.6522      9.1054    124.0016
  1787.0000      0.0000    342.6976      9.1047    137.0617
  1787.5000      0.0000    336.6042      9.2027    149.8216
  1788.0000      0.0000    342.6270      9.2787    160.4501
  1788.5000      0.0000    351.8290      9.1085    166.8075
  1789.0000      0.0000    363.1841      8.8935    163.9104
  1789.5000      0.0000    429.3689      8.8267    153.0682
  1790.0000      0.0000    562.5097      8.6454    142.3558
  1790.5000      0.0000    662.8652      8.3593    133.9414
  1791.0000      0.0000    681.3936      8.2048    122.5710
