~Version Information
VERS.                      2.0: CWLS Log ASCII Standard - VERSION 2.0
WRAP.                       NO: One line per depth step
~Well Information Block
STRT.FT               230.0000: 
STOP.FT              1527.0000: 
STEP.FT                 0.1000: 
NULL.                -999.2500: 
COMP.          Pioneer Natural Resources: COMPANY
WELL.              Border 21-3: WELL
FLD.           Purgatorie River: FIELD
LOC.           865' FNL & 1415' FWL: LOCATION
PROV.                 Colorado: PROVINCE
CNTY.               Las Animas: COUNTRY
SRVC.                         : SERVICE COMPANY
DATE.          Thu Dec 09 16:57:34 2004: LOG DATE
UWI.           05 071 08169 00: UNIQUE WELL ID
~Curve Information Block
DEPT.FT            0 000 00 00: Depth
LTEN.lb                       : Surface Line Tension
DCAL.in                       : CDL Caliper
RHOB.g/cc                     : CDL Bulk Density
RHOC.g/cc                     : CDL Density Correction
DPOR.pu                       : CDL Density Porosity
GR.GAPI                       : Gamma Ray
NPOR.pu                       : Neutron Porosity
~Parameter Information Block
~A  Depth       LTEN        DCAL        RHOB        RHOC        DPOR         GR         NPOR    
# ...
  1086.8000    870.7876      8.0311      1.2639     -0.0176     84.0032     36.9416     31.8762
  1086.9000    870.7876      8.0311      1.2537     -0.0271     84.6224     32.4923     32.2761
  1087.0000    896.8270      8.0585      1.2434     -0.0166     85.2461     29.7148     32.4802
  1087.1000    896.8270      8.0585      1.2347     -0.0276     85.7786     27.1581     32.6409
  1087.2000    896.8270      8.0585      1.2272     -0.0208     86.2298     23.7304     32.6569
  1087.3000    895.0187      8.1099      1.2230     -0.0117     86.4828     20.5464     32.8506
  1087.4000    895.0187      8.1099      1.2294     -0.0277     86.0949     20.1422     33.6647
  1087.5000    862.4513      8.0262      1.2561     -0.0259     84.4806     22.5613     34.3372
  1087.6000    862.4513      8.0262      1.3008      0.0295     81.7724     26.7313     33.8749
  1087.7000    862.4513      8.0262      1.3438      0.0436     79.1645     30.9745     32.2911
  1087.8000    883.6479      7.9614      1.3714      0.0209     77.4896     31.6498     30.7927
  1087.9000    883.6479      7.9614      1.3906      0.0394     76.3267     28.2835     30.5122
  1088.0000    875.5894      7.9474      1.4058      0.0740     75.4033     24.9280     31.2449
  1088.1000    875.5894      7.9474      1.4074      0.0756     75.3079     25.1377     32.1857
  1088.2000    875.5894      7.9474      1.3871      0.0408     76.5387     28.3458     32.6981
  1088.3000    867.5150      7.9484      1.3453      0.0209     79.0738     31.5659     32.6878
  1088.4000    867.5150      7.9484      1.2933     -0.0711     82.2224     34.2189     32.3358
  1088.5000    898.3226      7.9463      1.2582     -0.1083     84.3497     37.8733     31.6281
  1088.6000    898.3226      7.9463      1.2667     -0.0806     83.8346     42.1316     30.9458
  1088.7000    898.3226      7.9463      1.3286     -0.0526     80.0840     44.5447     30.6954
  1088.8000    904.0792      7.9475      1.4379      0.0139     73.4613     43.0677     30.6213
  1088.9000    904.0792      7.9475      1.5756      0.0606     65.1124     41.5142     30.4563
  1089.0000    851.8629      7.9384      1.7250      0.1125     56.0620     45.9602     30.3039
  1089.1000    851.8629      7.9384      1.8826      0.1556     46.5096     55.8240     29.9514
  1089.2000    851.8629      7.9384      2.0399      0.2443     36.9742     67.6132     28.9333
  1089.3000    918.2955      7.9079      2.1806      0.2342     28.4502     78.3071     27.7617
  1089.4000    918.2955      7.9079      2.3037      0.2608     20.9889     84.9249     27.3785
  1089.5000    876.2820      7.8758      2.4105      0.2356     14.5121     89.9880     27.4194
  1089.6000    876.2820      7.8758      2.4836      0.2316     10.0859     98.9543     27.3717
  1089.7000    876.2820      7.8758      2.5082      0.1467      8.5919    111.6994     27.2441
  1089.8000    853.5489      7.8435      2.5005      0.0741      9.0600    121.9394     26.7310
  1089.9000    853.5489      7.8435      2.4870      0.0585      9.8814    123.7779     25.6519
  1090.0000    931.2320      7.8379      2.4750      0.0908     10.6088    122.9548     24.9160
  1090.1000    931.2320      7.8379      2.4655      0.0546     11.1806    128.3638     25.1968
  1090.2000    931.2320      7.8379      2.4689      0.0660     10.9728    136.1194     25.8120
  1090.3000    860.5223      7.8379      2.4845      0.0747     10.0303    139.1481     25.9482
  1090.4000    860.5223      7.8379      2.5000      0.0755      9.0931    138.7532     25.6728
  1090.5000    854.9301      7.8372      2.5071      0.1037      8.6597    138.0966     25.2522
  1090.6000    854.9301      7.8372      2.5052      0.0794      8.7774    135.6807     24.9205
  1090.7000    854.9301      7.8372      2.5036      0.0519      8.8731    126.6843     24.7077
  1090.8000    931.9420      7.8364      2.5104      0.0941      8.4624    113.1762     24.5378
  1090.9000    931.9420      7.8364      2.5212      0.0878      7.8066    107.8669     24.2589
  1091.0000    870.7853      7.8365      2.5339      0.0807      7.0374    115.2041     23.5410
  1091.1000    870.7853      7.8365      2.5543      0.0644      5.8015    122.3625     23.0992
  1091.2000    870.7853      7.8365      2.5820      0.1098      4.1207    120.5554     23.8542
  1091.3000    856.7524      7.8376      2.6069      0.1058      2.6129    115.1028     25.1715
  1091.4000    856.7524      7.8376      2.6209      0.1205      1.7613    110.8248     25.8619
  1091.5000    899.1577      7.8356      2.6230      0.1118      1.6353    108.0653     25.6220
  1091.6000    899.1577      7.8356      2.6145      0.1068      2.1534    107.5177     25.2969
  1091.7000    899.1577      7.8356      2.5982      0.0878      3.1401    111.4617     25.5406
  1091.8000    875.5381      7.8347      2.5817      0.0756      4.1380    120.7108     25.6490
  1091.9000    875.5381      7.8347      2.5723      0.0571      4.7118    129.3402     24.9492
  1092.0000    882.0434      7.8354      2.5721      0.0716      4.7224    130.0097     24.0889
  1092.1000    882.0434      7.8354      2.5803      0.0744      4.2267    123.5548     23.7533
  1092.2000    882.0434      7.8354      2.5876      0.1104      3.7789    119.4463     23.5168
  1092.3000    915.5750      7.8365      2.5817      0.0775      4.1421    124.2501     23.1564
  1092.4000    915.5750      7.8365      2.5650      0.0563      5.1497    133.6410     23.1137
  1092.5000    894.4701      7.8363      2.5520      0.0477      5.9406    140.7132     23.7803
  1092.6000    894.4701      7.8363      2.5502      0.0261      6.0500    143.7863     24.5966
  1092.7000    894.4701      7.8363      2.5572      0.0842      5.6226    142.3585     24.1519
  1092.8000    909.2469      7.8359      2.5681      0.0777      4.9614    137.5313     22.4328
  1092.9000    909.2469      7.8359      2.5772      0.0723      4.4139    133.9804     21.2443
  1093.0000    902.3448      7.8357      2.5733      0.1028      4.6496    134.2590     21.5261
  1093.1000    902.3448      7.8357      2.5551      0.0390      5.7541    135.1481     22.6372
  1093.2000    902.3448      7.8357      2.5318      0.0608      7.1665    133.7763     23.2684
  1093.3000    850.9282      7.8345      2.5066      0.0405      8.6886    133.8271     23.0197
  1093.4000    850.9282      7.8345      2.4824      0.0387     10.1560    138.7674     22.9452
  1093.5000    891.0693      7.8364      2.4621      0.0457     11.3888    143.3556     23.3897
  1093.6000    891.0693      7.8364      2.4513      0.0202     12.0397    142.8561     23.8713
  1093.7000    891.0693      7.8364      2.4550      0.0332     11.8196    139.7301     24.4737
  1093.8000    915.7924      7.8368      2.4610      0.0613     11.4574    137.1997     25.3009
  1093.9000    915.7924      7.8368      2.4490      0.0486     12.1829    139.8026     26.1148
  1094.0000    881.1190      7.8374      2.4122      0.0316     14.4150    146.8978     26.6038
  1094.1000    881.1190      7.8374      2.3586     -0.0177     17.6604    153.0534     26.9676
  1094.2000    881.1190      7.8374      2.2967      0.0121     21.4107    156.6560     27.6902
  1094.3000    889.2459      7.8371      2.2309     -0.0271     25.4005    156.1097     28.5318
  1094.4000    889.2459      7.8371      2.1719     -0.0164     28.9779    151.9625     29.3870
  1094.5000    906.3519      7.8390      2.1318     -0.0312     31.4077    147.0439     30.3013
  1094.6000    906.3519      7.8390      2.1159     -0.0137     32.3667    140.3106     30.7565
  1094.7000    906.3519      7.8390      2.1234     -0.0238     31.9138    133.3913     30.4592
  1094.8000    909.5037      7.8378      2.1461      0.0488     30.5380    129.5631     30.0059
  1094.9000    909.5037      7.8378      2.1785      0.0518     28.5766    128.0588     29.9293
  1095.0000    884.6335      7.8121      2.2364      0.0762     25.0653    128.8200     30.2111
  1095.1000    884.6335      7.8121      2.3294      0.2072     19.4296    130.6924     30.4347
