~Version Information
VERS.                      2.0: CWLS Log ASCII Standard - VERSION 2.0
WRAP.                       NO: One line per depth step
~Well Information Block
STRT.FT               575.0000: 
STOP.FT              2016.2000: 
STEP.FT                 0.1000: 
NULL.                -999.2500: 
COMP.          Pioneer Natural Resources: COMPANY
WELL.          Bucksnort 41-35: WELL
FLD.           Purgatoire River: FIELD
LOC.           117' FNL & 463' FEL--: LOCATION
PROV.                 Colorado: PROVINCE
CNTY.               Las Animas: COUNTRY
SRVC.                Patterson: SERVICE COMPANY
DATE.          Thu Jul 21 15:01:23 2005: LOG DATE
UWI.           05 071 08401 00: UNIQUE WELL ID
~Curve Information Block
DEPT.FT            0 000 00 00: Depth
DCAL.in                       : CDL Caliper
RHOB.g/cc                     : CDL Bulk Density
RHOC.g/cc                     : CDL Density Correction
DPOR.pu                       : CDL Density Porosity
NPOR.pu                       : Neutron Porosity
GR.GAPI                       : Gamma Ray
~Parameter Information Block
~A  Depth       DCAL        RHOB        RHOC        DPOR        NPOR         GR     
# ...
  1986.2000      7.8203      2.4750      0.0282     10.6081     22.4973   -999.2500
  1986.3000      7.8184      2.4788      0.0213     10.3768     22.9101   -999.2500
  1986.4000      7.8184      2.4901      0.0473      9.6911     22.5096   -999.2500
  1986.5000      7.8189      2.4921      0.0335      9.5670     21.9814   -999.2500
  1986.6000      7.8189      2.4821      0.0408     10.1772     21.7236   -999.2500
  1986.7000      7.8189      2.4711      0.0416     10.8447     21.2939   -999.2500
  1986.8000      7.8206      2.4737      0.0146     10.6874     20.8241   -999.2500
  1986.9000      7.8206      2.4935      0.0391      9.4864     20.7767   -999.2500
  1987.0000      7.8218      2.5180      0.0692      8.0008     20.7263   -999.2500
  1987.1000      7.8218      2.5330      0.0525      7.0909     20.3375   -999.2500
  1987.2000      7.8218      2.5321      0.0815      7.1479     20.1927   -999.2500
  1987.3000      7.8216      2.5198      0.0464      7.8924     20.6645   -999.2500
  1987.4000      7.8216      2.5071      0.0832      8.6576     21.3836   -999.2500
  1987.5000      7.8200      2.4994      0.0396      9.1284     21.7026   -999.2500
  1987.6000      7.8200      2.5025      0.0288      8.9405     21.5979   -999.2500
  1987.7000      7.8200      2.5173      0.0511      8.0434     21.4958   -999.2500
  1987.8000      7.8194      2.5335      0.0565      7.0587     21.4221   -999.2500
  1987.9000      7.8194      2.5441      0.0823      6.4197     21.1451   -999.2500
  1988.0000      7.8198      2.5455      0.0670      6.3350     20.5746   -999.2500
  1988.1000      7.8198      2.5371      0.0463      6.8423     20.2487   -999.2500
  1988.2000      7.8198      2.5260      0.0486      7.5169     20.6066   -999.2500
  1988.3000      7.8209      2.5151      0.0606      8.1783     21.1575   -999.2500
  1988.4000      7.8209      2.4966      0.0557      9.2994     21.5928   -999.2500
  1988.5000      7.8232      2.4702      0.0176     10.8994     22.0241   -999.2500
  1988.6000      7.8232      2.4537      0.0193     11.8970     22.3515   -999.2500
  1988.7000      7.8232      2.4599      0.0211     11.5205     22.3423   -999.2500
  1988.8000      7.8270      2.4781      0.0503     10.4196     22.0260   -999.2500
  1988.9000      7.8270      2.4904      0.0231      9.6745     21.8381   -999.2500
  1989.0000      7.8332      2.4961      0.0335      9.3294     21.8877   -999.2500
  1989.1000      7.8332      2.5016      0.0500      8.9949     21.8174   -999.2500
  1989.2000      7.8332      2.4982      0.0529      9.1993     21.6459   -999.2500
  1989.3000      7.8396      2.4796      0.0243     10.3246     22.2292   -999.2500
  1989.4000      7.8396      2.4607     -0.0034     11.4738     25.3679   -999.2500
  1989.5000      7.8425      2.4546      0.0277     11.8412     32.8357   -999.2500
  1989.6000      7.8425      2.4566      0.0480     11.7223     42.5116   -999.2500
  1989.7000      7.8425      2.4611      0.0228     11.4476     48.9713   -999.2500
  1989.8000      7.8436      2.4705      0.0345     10.8770     51.2617   -999.2500
  1989.9000      7.8436      2.4807      0.0556     10.2627     51.7089   -999.2500
  1990.0000      7.8456      2.4835      0.0538     10.0909     51.7561   -999.2500
  1990.1000      7.8456      2.4758      0.0676     10.5594     51.7587   -999.2500
  1990.2000      7.8456      2.4610      0.0411     11.4521   -999.2500   -999.2500
  1990.3000      7.8477      2.4522      0.0096     11.9876   -999.2500   -999.2500
  1990.4000      7.8477      2.4581      0.0344     11.6312   -999.2500   -999.2500
  1990.5000      7.8488      2.4740      0.0424     10.6666   -999.2500   -999.2500
  1990.6000      7.8488      2.4881      0.0527      9.8113   -999.2500   -999.2500
  1990.7000      7.8488      2.4900      0.0643      9.6940   -999.2500   -999.2500
  1990.8000      7.8489      2.4819      0.0473     10.1882   -999.2500   -999.2500
  1990.9000      7.8489      2.4755      0.0562     10.5773   -999.2500   -999.2500
  1991.0000      7.8475      2.4806      0.0300     10.2645   -999.2500   -999.2500
  1991.1000      7.8475      2.4953      0.0520      9.3786   -999.2500   -999.2500
  1991.2000      7.8475      2.5047      0.0803      8.8047   -999.2500   -999.2500
  1991.3000      7.8475      2.5008      0.0489      9.0403   -999.2500   -999.2500
  1991.4000      7.8475      2.4907      0.0524      9.6522   -999.2500   -999.2500
  1991.5000      7.8489      2.4852      0.0164      9.9883   -999.2500   -999.2500
  1991.6000      7.8489      2.4912      0.0461      9.6238   -999.2500   -999.2500
  1991.7000      7.8489      2.5022      0.0968      8.9587   -999.2500   -999.2500
  1991.8000      7.8489      2.5057      0.0533      8.7448   -999.2500   -999.2500
  1991.9000      7.8489      2.4977      0.0920      9.2327   -999.2500   -999.2500
  1992.0000      7.8467      2.4843      0.0376     10.0395   -999.2500   -999.2500
  1992.1000      7.8467      2.4807      0.0590     10.2605   -999.2500   -999.2500
  1992.2000      7.8467      2.4850      0.0833      9.9990   -999.2500   -999.2500
  1992.3000      7.8405      2.4853      0.0513      9.9804   -999.2500   -999.2500
  1992.4000      7.8405      2.4850      0.0463     10.0003   -999.2500   -999.2500
  1992.5000      7.8321      2.4910      0.0359      9.6356   -999.2500   -999.2500
  1992.6000      7.8321      2.5004      0.0641      9.0638   -999.2500   -999.2500
  1992.7000      7.8321      2.5066      0.0448      8.6898   -999.2500   -999.2500
  1992.8000      7.8284      2.5067      0.0586      8.6871   -999.2500   -999.2500
  1992.9000      7.8284      2.4996      0.0417      9.1126   -999.2500   -999.2500
  1993.0000      7.8282      2.4901      0.0347      9.6890   -999.2500   -999.2500
  1993.1000      7.8282      2.4902      0.0410      9.6852   -999.2500   -999.2500
  1993.2000      7.8282      2.4996      0.0694      9.1143   -999.2500   -999.2500
  1993.3000      7.8267      2.4995      0.0664      9.1237   -999.2500   -999.2500
  1993.4000      7.8267      2.4802      0.0466     10.2889   -999.2500   -999.2500
  1993.5000      7.8246      2.4571      0.0313     11.6896   -999.2500   -999.2500
  1993.6000      7.8246      2.4498      0.0419     12.1339   -999.2500   -999.2500
  1993.7000      7.8246      2.4555      0.0425     11.7859   -999.2500   -999.2500
  1993.8000      7.8219      2.4596      0.0562     11.5381   -999.2500   -999.2500
  1993.9000      7.8219      2.4589      0.0490     11.5842   -999.2500   -999.2500
  1994.0000      7.8198      2.4585      0.0464     11.6043   -999.2500   -999.2500
  1994.1000      7.8198      2.4615      0.0564     11.4245   -999.2500   -999.2500
  1994.2000      7.8198      2.4653      0.0637     11.1959   -999.2500   -999.2500
  1994.3000      7.8190      2.4628      0.0681     11.3473   -999.2500   -999.2500
  1994.4000      7.8190      2.4520      0.0401     12.0030   -999.2500   -999.2500
  1994.5000      7.8189      2.4393      0.0293     12.7720   -999.2500   -999.2500
  1994.6000      7.8189      2.4295      0.0500     13.3660   -999.2500   -999.2500
  1994.7000      7.8189      2.4322     -0.0074     13.1989   -999.2500   -999.2500
  1994.8000      7.8209      2.4589      0.0224     11.5815   -999.2500   -999.2500
  1994.9000      7.8209      2.4903      0.1151      9.6790   -999.2500   -999.2500
  1995.0000      7.8222      2.4936      0.0736      9.4788   -999.2500   -999.2500
  1995.1000      7.8222      2.4733      0.0434     10.7109   -999.2500   -999.2500
  1995.2000      7.8222      2.4587      0.0201     11.5953   -999.2500   -999.2500
  1995.3000      7.8210      2.4585      0.0705     11.6031   -999.2500   -999.2500
  1995.4000      7.8210      2.4613      0.0486     11.4382   -999.2500   -999.2500
  1995.5000      7.8197      2.4609      0.0578     11.4606   -999.2500   -999.2500
  1995.6000      7.8197      2.4607      0.0356     11.4728   -999.2500   -999.2500
  1995.7000      7.8197      2.4664      0.0602     11.1261   -999.2500   -999.2500
