~Version Information
VERS.                      2.0: CWLS Log ASCII Standard - VERSION 2.0
WRAP.                       NO: One line per depth step
~Well Information Block
STRT.FT               453.5000: 
STOP.FT              1386.0000: 
STEP.FT                 0.1000: 
NULL.                -999.2500: 
COMP.          Petrogulf Corporation: COMPANY
WELL.          Great Plains 22-22R: WELL
FLD.           Purgatoire River: FIELD
LOC.           2042' FNL & 1657' FWL--: LOCATION
PROV.                 Colorado: PROVINCE
CNTY.               Las Animas: COUNTRY
SRVC.                Patterson: SERVICE COMPANY
DATE.          Fri Sep 09 14:42:42 2005: LOG DATE
UWI.           05 071 08028 00: UNIQUE WELL ID
~Curve Information Block
DEPT.FT            0 000 00 00: Depth
DCAL.in                       : CDL Caliper
RHOB.g/cc                     : CDL Bulk Density
RHOC.g/cc                     : CDL Density Correction
DPOR.pu                       : CDL Density Porosity
NPOR.pu                       : Neutron Porosity
GR.GAPI                       : Gamma Ray
~Parameter Information Block
~A  Depth       DCAL        RHOB        RHOC        DPOR        NPOR         GR     
# ...
  1067.9000      8.0181      2.5483      0.0065      6.1608     29.9215    128.1956
  1068.0000      8.0005      2.5405      0.0114      6.6357     29.6472    125.2451
  1068.1000      8.0005      2.5370      0.0184      6.8506     28.8446    122.6737
  1068.2000      8.0005      2.5380      0.0180      6.7893     27.6113    120.0130
  1068.3000      7.9821      2.5455      0.0138      6.3363     26.6483    118.1015
  1068.4000      7.9821      2.5532      0.0070      5.8683     26.4159    121.8134
  1068.5000      7.9710      2.5551      0.0169      5.7487     26.3339    130.2555
  1068.6000      7.9710      2.5556      0.0275      5.7220     25.9015    136.7558
  1068.7000      7.9710      2.5604      0.0119      5.4305     25.7482    135.0926
  1068.8000      7.9695      2.5667      0.0198      5.0508     26.2317    125.3204
  1068.9000      7.9695      2.5726     -0.0052      4.6911     26.7111    114.3167
  1069.0000      7.9692      2.5828      0.0080      4.0753     26.8816    108.6198
  1069.1000      7.9692      2.5886      0.0468      3.7197     27.0298    108.9656
  1069.2000      7.9692      2.5722      0.0525      4.7130     27.1655    110.4459
  1069.3000      7.9663      2.5384     -0.0048      6.7647     27.4242    110.7191
  1069.4000      7.9663      2.5081     -0.0081      8.6016     28.1949    114.0450
  1069.5000      7.9651      2.4879     -0.0378      9.8270     29.0543    116.8978
  1069.6000      7.9651      2.4702     -0.0211     10.8975     29.4433    113.2469
  1069.7000      7.9651      2.4472     -0.0272     12.2937     29.7282    108.9078
  1069.8000      7.9660      2.4262     -0.0294     13.5611     30.2960    108.6513
  1069.9000      7.9660      2.4231     -0.0482     13.7505     30.9435    112.9794
  1070.0000      7.9674      2.4359      0.0186     12.9758     31.3694    122.5986
  1070.1000      7.9674      2.4472      0.0393     12.2924     31.6471    130.8657
  1070.2000      7.9674      2.4511      0.0293     12.0531     31.8717    127.6630
  1070.3000      7.9760      2.4544      0.0425     11.8528     31.9323    119.4120
  1070.4000      7.9760      2.4572      0.0458     11.6848     31.7568    117.7109
  1070.5000      8.0026      2.4555      0.0675     11.7866     31.5446    117.0325
  1070.6000      8.0026      2.4531      0.0906     11.9343     31.7196    113.3452
  1070.7000      8.0026      2.4569      0.0855     11.7043     32.2898    113.1290
  1070.8000      8.0363      2.4660      0.1102     11.1498     32.8536    116.1788
  1070.9000      8.0363      2.4747      0.1100     10.6248     32.9661    115.2674
  1071.0000      8.0479      2.4808      0.0859     10.2557     32.5197    110.0558
  1071.1000      8.0479      2.4829      0.1106     10.1253     31.8257    106.5857
  1071.2000      8.0479      2.4815      0.0845     10.2146     31.2333    108.3415
  1071.3000      8.0481      2.4799      0.0826     10.3089     31.0196    114.1048
  1071.4000      8.0481      2.4758      0.0892     10.5605     31.1031    120.7538
  1071.5000      8.0548      2.4689      0.0752     10.9766     31.0511    128.1847
  1071.6000      8.0548      2.4683      0.0526     11.0115     30.8266    136.3023
  1071.7000      8.0548      2.4774      0.0796     10.4616     30.7170    138.2898
  1071.8000      8.0655      2.4884      0.0784      9.7940     30.6969    131.5628
  1071.9000      8.0655      2.4906      0.0946      9.6586     30.6801    126.4463
  1072.0000      8.0733      2.4843      0.0429     10.0430     30.6114    128.4890
  1072.1000      8.0733      2.4811      0.0504     10.2379     30.5272    133.0405
  1072.2000      8.0733      2.4812      0.0479     10.2277     30.5181    134.4279
  1072.3000      8.0761      2.4747      0.0436     10.6219     30.3945    133.3744
  1072.4000      8.0761      2.4600     -0.0006     11.5123     30.1834    136.8923
  1072.5000      8.0767      2.4480     -0.0004     12.2449     30.4666    142.8923
  1072.6000      8.0767      2.4453     -0.0078     12.4083     31.2002    144.6591
  1072.7000      8.0767      2.4431      0.0379     12.5371     31.6863    142.7005
  1072.8000      8.0757      2.4334      0.0356     13.1290     31.8636    137.4175
  1072.9000      8.0757      2.4201      0.0365     13.9351     32.0984    131.8242
  1073.0000      8.0720      2.4055      0.0331     14.8190     32.2802    131.5828
  1073.1000      8.0720      2.3939      0.0145     15.5204     32.2969    135.6842
  1073.2000      8.0720      2.3992     -0.0095     15.2021     32.3681    139.4658
  1073.3000      8.0669      2.4220      0.0524     13.8166     32.5173    140.8719
  1073.4000      8.0669      2.4461      0.0777     12.3590     32.5953    138.1763
  1073.5000      8.0576      2.4643      0.0572     11.2528     32.5935    133.4244
  1073.6000      8.0576      2.4804      0.1064     10.2792     32.5481    131.6180
  1073.7000      8.0576      2.4920      0.0676      9.5783     32.3935    131.0106
  1073.8000      8.0427      2.4951      0.0650      9.3851     32.1233    128.6089
  1073.9000      8.0427      2.4918      0.0122      9.5874     31.9758    127.0680
  1074.0000      8.0310      2.4916      0.0217      9.5972     31.9462    130.7107
  1074.1000      8.0310      2.4988      0.0139      9.1632     31.7478    141.5479
  1074.2000      8.0310      2.5070      0.0191      8.6696     31.1201    153.9317
  1074.3000      8.0283      2.5168      0.0231      8.0698     30.1037    158.3718
  1074.4000      8.0283      2.5381      0.0090      6.7840     29.2252    155.0603
  1074.5000      8.0273      2.5660      0.0572      5.0900     29.1868    149.6297
  1074.6000      8.0273      2.5849      0.0584      3.9451     29.7978    143.2793
  1074.7000      8.0273      2.5911      0.0522      3.5725     30.1815    135.8853
  1074.8000      8.0231      2.5919      0.0100      3.5224     30.4479    131.4633
  1074.9000      8.0231      2.5893      0.0430      3.6763     31.0124    131.4763
  1075.0000      8.0170      2.5783     -0.0127      4.3435     31.3703    131.7800
  1075.1000      8.0170      2.5624      0.0004      5.3073     31.1713    130.8009
  1075.2000      8.0170      2.5459     -0.0299      6.3074     30.8092    128.2587
  1075.3000      8.0124      2.5279     -0.0015      7.3997     30.7508    125.0877
  1075.4000      8.0124      2.5123      0.0078      8.3459     30.9913    124.3694
  1075.5000      8.0145      2.5063      0.0476      8.7106     31.2099    126.8311
  1075.6000      8.0145      2.5108      0.0212      8.4367     31.1814    130.7405
  1075.7000      8.0145      2.5207      0.0630      7.8364     30.7969    133.2930
  1075.8000      8.0181      2.5293      0.0545      7.3129     30.1989    133.2511
  1075.9000      8.0181      2.5372      0.0333      6.8386     29.6432    132.7371
  1076.0000      8.0148      2.5452      0.0752      6.3505     29.1938    135.7760
  1076.1000      8.0148      2.5523      0.0426      5.9221     28.9779    142.0779
  1076.2000      8.0148      2.5605      0.0845      5.4262     29.2629    144.1327
  1076.3000      8.0057      2.5630      0.0962      5.2730     29.8112    140.4019
  1076.4000      8.0057      2.5501      0.0710      6.0538     30.0668    137.8620
  1076.5000      7.9994      2.5251      0.0691      7.5702     29.8214    141.6147
  1076.6000      7.9994      2.5001      0.0379      9.0853     29.3798    150.9059
  1076.7000      7.9994      2.4854      0.0241      9.9748     29.0586    157.3455
  1076.8000      7.9973      2.4819      0.0249     10.1872     29.0908    152.8497
  1076.9000      7.9973      2.4855     -0.0003      9.9690     29.7197    144.4591
  1077.0000      7.9945      2.4898      0.0211      9.7099     30.5064    142.6395
  1077.1000      7.9945      2.4890      0.0067      9.7546     30.6994    144.7373
  1077.2000      7.9945      2.4875     -0.0126      9.8497     30.3285    145.0520
  1077.3000      7.9887      2.4912      0.0012      9.6227     30.0594    141.4799
  1077.4000      7.9887      2.4968      0.0205      9.2846     30.1561    135.5745
