~Version Information
 VERS.                                  2.0 : CWLS LAS VERSION
 WRAP.                                   NO : WRAPING MODE
 SWARE .                 MController 2.5.0J : SOFTWARE VERSION
~Well Information
 WELL.                       Costello 44-24 : WELL
 COMP.    Pioneer Natural Resources USA Inc : COMPANY
 FLD.                      Purgatoire River : FIELD
 LOC.                SE/SE Sec 24 T32S R67W : LOCATION
 DATE.                            7/10/2005 : DATE(S) LOGGED
 SRVC.       BLANCO Geological Services LLC : SERVICE COMPANY
 STAT.                                   CO : STATE
 CNTY.                           Las Animas : COUNTY
 CTRY.                                  USA : COUNTRY
 API.                       05-071-08413-00 : API NUMBER
 STRT.FT                             305.00 : START DEPTH
 STOP.FT                            2545.00 : STOP DEPTH
 STEP.FT                               1.00 : DEPTH INCREMENT
 NULL.                                 999 : NULL VALUE
~Curve information
 DEPTH.FT                                   :
 ROP.MIN/FT                                 :
 GAS.UNITS                                  :
~ASCII Log data
# ...
      1105.0         0.17        140.5 
      1106.0         4.85       2191.7 
      1107.0         0.55       2063.8 
      1108.0         0.23        851.7 
      1109.0         0.23        556.2 
      1110.0         0.27        444.8 
      1111.0         0.23        263.7 
      1112.0         0.20        259.0 
      1113.0         0.20        236.4 
      1114.0         0.20        229.1 
      1115.0         0.27        212.6 
      1116.0         0.23        190.8 
      1117.0         0.20        179.0 
      1118.0         0.23        171.6 
      1119.0         0.23        166.7 
      1120.0         0.20        153.8 
      1121.0         0.25        147.3 
      1122.0         0.20        137.8 
      1123.0         0.23        137.1 
      1124.0         0.20        133.3 
      1125.0         0.23        129.6 
      1126.0         0.23        124.9 
      1127.0         0.17        123.4 
      1128.0         0.20        117.2 
      1129.0         0.23        114.8 
      1130.0         0.20        113.8 
      1131.0         0.20        112.9 
      1132.0         0.17        112.3 
      1133.0         0.10        111.7 
      1134.0         0.20        112.7 
      1135.0         0.10        112.7 
      1136.0         3.25        366.4 
      1137.0         0.30        364.2 
      1138.0         0.32        344.6 
      1139.0         0.20        311.3 
      1140.0         0.17        292.5 
      1141.0         0.20        292.5 
      1142.0         0.27        279.6 
      1143.0         0.27        264.2 
      1144.0         0.27        257.2 
      1145.0         0.23        251.6 
      1146.0         0.30        242.5 
      1147.0         0.23        229.0 
      1148.0         0.23        225.4 
      1149.0         0.28        202.6 
      1150.0         0.20        199.9 
      1151.0         0.20        183.6 
      1152.0         0.23        182.3 
      1153.0         0.17        171.8 
      1154.0         0.20        168.4 
      1155.0         0.20        164.0 
      1156.0         0.17        156.1 
      1157.0         0.10        151.6 
      1158.0         0.10        151.6 
      1159.0         0.13        148.2 
      1160.0         0.20        147.3 
      1161.0         0.22        151.1 
      1162.0         0.27        162.4 
      1163.0         0.23        176.3 
      1164.0         0.23        186.4 
      1165.0         0.17        186.4 
      1166.0         3.10        406.5 
      1167.0         0.27        409.3 
      1168.0         0.42        385.6 
      1169.0         0.30        308.0 
      1170.0         0.23        280.8 
      1171.0         0.20        276.6 
      1172.0         0.17        275.9 
      1173.0         0.23        257.1 
      1174.0         0.17        232.9 
      1175.0         0.18        221.1 
      1176.0         0.17        218.3 
      1177.0         0.13        198.6 
      1178.0         0.17        193.1 
      1179.0         0.17        183.8 
      1180.0         0.17        178.3 
      1181.0         0.20        177.0 
      1182.0         0.20        174.2 
      1183.0         0.23        175.4 
      1184.0         0.18        175.1 
      1185.0         0.10        170.7 
      1186.0         0.10        170.7 
      1187.0         0.10        167.3 
      1188.0         0.07        167.3 
      1189.0         0.10        163.8 
      1190.0         0.13        163.8 
      1191.0         0.20        160.9 
      1192.0         0.17        154.1 
      1193.0         0.17        153.7 
      1194.0         0.17        151.5 
      1195.0         0.33        151.7 
      1196.0         3.03        276.9 
      1197.0         0.53        385.5 
      1198.0         0.30        362.3 
      1199.0         0.55        344.9 
      1200.0         0.13        305.3 
      1201.0         0.13        287.3 
      1202.0         0.27        270.8 
      1203.0         0.27        232.2 
      1204.0         0.17        215.2 
      1205.0         0.10        216.8 
      1206.0         0.10        216.8 
      1207.0         0.07        219.9 
      1208.0         0.15        219.9 
      1209.0         0.13        217.9 
      1210.0         0.20        223.5 
      1211.0         0.27        243.0 
      1212.0         0.23        258.3 
      1213.0         0.23        286.9 
      1214.0         0.20        298.2 
      1215.0         0.22        299.2 
      1216.0         0.20        296.6 
      1217.0         0.23        292.9 
      1218.0         0.27        287.3 
      1219.0         0.17        279.3 
      1220.0         0.20        271.1 
      1221.0         0.20        263.8 
      1222.0         0.20        260.2 
      1223.0         0.23        258.2 
      1224.0         0.23        250.5 
      1225.0         0.17        245.3 
      1226.0         3.38        831.1 
      1227.0         0.23        741.9 
      1228.0         0.25        696.8 
      1229.0         0.23        648.2 
      1230.0         0.23        648.2 
      1231.0         0.27        629.8 
      1232.0         0.27        589.2 
      1233.0         0.23        534.6 
      1234.0         0.27        513.7 
      1235.0         0.20        498.8 
      1236.0         0.23        481.0 
      1237.0         0.20        464.8 
      1238.0         0.17        440.0 
      1239.0         0.17        440.0 
      1240.0         0.17        279.3 
      1241.0         0.23        251.2 
      1242.0         0.20        246.3 
      1243.0         0.32        225.3 
      1244.0         0.20        214.8 
      1245.0         0.20        212.1 
      1246.0         0.20        211.7 
      1247.0         0.20        211.1 
      1248.0         0.17        211.7 
      1249.0         0.13        211.7 
      1250.0         0.20        212.8 
      1251.0         0.17        214.3 
      1252.0         0.17        214.5 
      1253.0         0.20        214.9 
      1254.0         0.20        215.3 
      1255.0         0.23        215.8 
      1256.0         3.82       1185.6 
      1257.0         0.18        925.6 
      1258.0         0.27        680.0 
      1259.0         0.23        549.2 
      1260.0         0.30        524.8 
      1261.0         0.27        523.8 
      1262.0         0.27        523.8 
      1263.0         0.23        521.0 
      1264.0         0.37        508.6 
      1265.0         0.20        463.8 
      1266.0         0.20        442.9 
      1267.0         0.20        278.5 
      1268.0         0.17        272.4 
      1269.0         0.17        254.5 
      1270.0         0.20        249.9 
      1271.0         0.23        235.8 
      1272.0         0.25        224.8 
      1273.0         0.27        202.8 
      1274.0         0.10        202.8 
      1275.0         0.17        201.9 
      1276.0         0.20        193.8 
      1277.0         0.20        193.4 
      1278.0         0.20        192.6 
      1279.0         0.30        197.1 
      1280.0         0.17        202.9 
      1281.0         0.17        204.1 
      1282.0         0.23        198.4 
      1283.0         0.13        198.4 
      1284.0         0.17        190.6 
      1285.0         0.13        185.0 
      1286.0         1.65        181.4 
      1287.0         0.40        194.5 
      1288.0         0.10        255.5 
      1289.0         0.47        459.0 
      1290.0         0.20        880.6 
      1291.0         0.43        996.1 
      1292.0         0.30        775.5 
      1293.0         0.23        748.5 
      1294.0         0.25        656.2 
      1295.0         0.20        586.0 
      1296.0         0.17        537.8 
      1297.0         0.27        522.6 
      1298.0         0.23        462.6 
      1299.0         0.23        446.7 
      1300.0         0.20        279.9 
      1301.0         0.20        279.3 
      1302.0         0.20        277.5 
      1303.0         0.20        273.0 
      1304.0         0.23        264.4 
