~Version Information
VERS.                      2.0: CWLS Log ASCII Standard - VERSION 2.0
WRAP.                       NO: One line per depth step
~Well Information Block
STRT.FT               423.0000: 
STOP.FT              2308.2500: 
STEP.FT                 0.2500: 
NULL.                -999.2500: 
COMP.          Pioneer Natural Resources: COMPANY
WELL.             Culver 14-12: WELL
FLD.           Purgatoire River: FIELD
LOC.           913' FSL & 1140' FWL: LOCATION
PROV.                 Colorado: PROVINCE
CNTY.               Las Animas: COUNTRY
SRVC.                Patterson: SERVICE COMPANY
DATE.          Tue Jun 07 00:21:41 2005: LOG DATE
UWI.           05 071 08386 00: UNIQUE WELL ID
~Curve Information Block
DEPT.FT            0 000 00 00: Depth
SN.Ohm-m                      : IEL Short Normal
SP.mV                         : IEL Spontaneous Potential
DIR.Ohm-m                     : IEL Induction Resistivity
GR.GAPI                       : Gamma Ray
~Parameter Information Block
~A  Depth        SN          SP         DIR          GR     
# ...
   657.5000   2000.0000   2000.0000     20.6513    126.8417
   657.7500   2000.0000   2000.0000     20.4869    124.5173
   658.0000   2000.0000   2000.0000     20.3675    124.4613
   658.2500   2000.0000   2000.0000     20.2929    126.9984
   658.5000   2000.0000   2000.0000     20.2342    133.4665
   658.7500   2000.0000   2000.0000     20.1432    138.4757
   659.0000   2000.0000   2000.0000     19.9772    145.6546
   659.2500   2000.0000   2000.0000     19.7259    149.6281
   659.5000   2000.0000   2000.0000     19.4165    153.3758
   659.7500   2000.0000   2000.0000     19.0956    154.0794
   660.0000   2000.0000   2000.0000     18.8038    152.9186
   660.2500   2000.0000   2000.0000     18.5612    151.3426
   660.5000   2000.0000   2000.0000     18.3710    148.6350
   660.7500   2000.0000   2000.0000     18.2337    146.6322
   661.0000   2000.0000   2000.0000     18.1592    143.0916
   661.2500   2000.0000   2000.0000     18.1675    140.6265
   661.5000   2000.0000   2000.0000     18.2762    138.0018
   661.7500   2000.0000   2000.0000     18.4905    137.4038
   662.0000   2000.0000   2000.0000     18.8033    137.2319
   662.2500   2000.0000   2000.0000     19.2068    136.3400
   662.5000   2000.0000   2000.0000     19.7025    132.4601
   662.7500   2000.0000   2000.0000     20.3019    128.4574
   663.0000   2000.0000   2000.0000     21.0178    122.1294
   663.2500   2000.0000   2000.0000     21.8503    118.7753
   663.5000   2000.0000   2000.0000     22.7725    115.8272
   663.7500   2000.0000   2000.0000     23.7222    114.9256
   664.0000   2000.0000   2000.0000     24.6142    113.8698
   664.2500   2000.0000   2000.0000     25.3716    112.7366
   664.5000   2000.0000   2000.0000     25.9548    110.2604
   664.7500   2000.0000   2000.0000     26.3611    108.6036
   665.0000   2000.0000   2000.0000     26.6003    107.5110
   665.2500   2000.0000   2000.0000     26.6708    108.4360
   665.5000   2000.0000   2000.0000     26.5525    112.6542
   665.7500   2000.0000   2000.0000     26.2157    116.8456
   666.0000   2000.0000   2000.0000     25.6402    123.5069
   666.2500   2000.0000   2000.0000     24.8422    127.2818
   666.5000   2000.0000   2000.0000     23.8877    131.2983
   666.7500   2000.0000   2000.0000     22.8813    133.0248
   667.0000   2000.0000   2000.0000     21.9311    134.7570
   667.2500   2000.0000   2000.0000     21.1134    135.5359
   667.5000   2000.0000   2000.0000     20.4544    135.8876
   667.7500   2000.0000   2000.0000     19.9344    135.1347
   668.0000   2000.0000   2000.0000     19.5121    131.9747
   668.2500   2000.0000   2000.0000     19.1506    128.7560
   668.5000   2000.0000   2000.0000     18.8326    123.5528
   668.7500   2000.0000   2000.0000     18.5527    120.5710
   669.0000   2000.0000   2000.0000     18.3029    117.3095
   669.2500   2000.0000   2000.0000     18.0663    115.8180
   669.5000   2000.0000   2000.0000     17.8300    114.3210
   669.7500   2000.0000   2000.0000     17.6025    113.9007
   670.0000   2000.0000   2000.0000     17.4182    114.6065
   670.2500   2000.0000   2000.0000     17.3216    115.9900
   670.5000   2000.0000   2000.0000     17.3473    118.4080
   670.7500   2000.0000   2000.0000     17.5089    119.3127
   671.0000   2000.0000   2000.0000     17.8006    118.8200
   671.2500   2000.0000   2000.0000     18.2044    117.7673
   671.5000   2000.0000   2000.0000     18.6991    116.9296
   671.7500   2000.0000   2000.0000     19.2706    117.4679
   672.0000   2000.0000   2000.0000     19.9197    119.1034
   672.2500   2000.0000   2000.0000     20.6614    119.6813
   672.5000   2000.0000   2000.0000     21.5164    118.5493
   672.7500   2000.0000   2000.0000     22.5031    116.3796
   673.0000   2000.0000   2000.0000     23.6344    111.4325
   673.2500   2000.0000   2000.0000     24.9157    107.3276
   673.5000   2000.0000   2000.0000     26.3420    100.5393
   673.7500   2000.0000   2000.0000     27.8969     95.9513
   674.0000   2000.0000   2000.0000     29.5595     89.5416
   674.2500   2000.0000   2000.0000     31.3166     85.7525
   674.5000   2000.0000   2000.0000     33.1789     80.6152
   674.7500   2000.0000   2000.0000     35.1920     77.3683
   675.0000   2000.0000   2000.0000     37.4383     73.0063
   675.2500   2000.0000   2000.0000     40.0193     70.9117
   675.5000   2000.0000   2000.0000     43.0179     69.4311
   675.7500   2000.0000   2000.0000     46.4690     69.2119
   676.0000   2000.0000   2000.0000     50.3579     68.8628
   676.2500   2000.0000   2000.0000     54.6380     68.1657
   676.5000   2000.0000   2000.0000     59.2086     66.6371
   676.7500   2000.0000   2000.0000     63.8581     65.7814
   677.0000   2000.0000   2000.0000     68.2534     65.2858
   677.2500   2000.0000   2000.0000     72.1200     65.3723
   677.5000   2000.0000   2000.0000     75.5137     65.5923
   677.7500   2000.0000   2000.0000     78.8571     65.6729
   678.0000   2000.0000   2000.0000     82.5465     66.0829
   678.2500   2000.0000   2000.0000     86.3850     66.9110
   678.5000   2000.0000   2000.0000     89.3399     69.1926
   678.7500   2000.0000   2000.0000     90.1551     71.1465
   679.0000   2000.0000   2000.0000     88.6275     73.7548
   679.2500   2000.0000   2000.0000     86.0298     74.5624
   679.5000   2000.0000   2000.0000     84.0918     73.4572
   679.7500   2000.0000   2000.0000     83.9294     71.2196
   680.0000   2000.0000   2000.0000     85.7943     66.8372
   680.2500   2000.0000   2000.0000     89.2313     64.1501
   680.5000   2000.0000   2000.0000     93.2570     61.2637
   680.7500   2000.0000   2000.0000     96.6242     59.9332
   681.0000   2000.0000   2000.0000     98.3588     58.1469
   681.2500   2000.0000   2000.0000     98.3652     56.9198
   681.5000   2000.0000   2000.0000     97.4748     55.2498
   681.7500   2000.0000   2000.0000     96.8027     54.4384
   682.0000   2000.0000   2000.0000     96.9971     53.7042
   682.2500   2000.0000   2000.0000     97.9137     53.4495
   682.5000   2000.0000   2000.0000     98.7150     53.4360
   682.7500   2000.0000   2000.0000     98.3651     53.7675
   683.0000   2000.0000   2000.0000     96.2600     54.7034
   683.2500   2000.0000   2000.0000     92.5047     55.3867
   683.5000   2000.0000   2000.0000     87.6274     56.0881
   683.7500   2000.0000   2000.0000     82.1776     56.1740
   684.0000   2000.0000   2000.0000     76.5595     55.4528
   684.2500   2000.0000   2000.0000     71.0343     54.3418
   684.5000   2000.0000   2000.0000     65.7335     52.3884
   684.7500   2000.0000   2000.0000     60.6754     51.8247
   685.0000   2000.0000   2000.0000     55.8417     53.8412
   685.2500   2000.0000   2000.0000     51.2538     57.6179
   685.5000   2000.0000   2000.0000     46.9836     66.6482
   685.7500   2000.0000   2000.0000     43.0969     74.3340
   686.0000   2000.0000   2000.0000     39.6076     87.1339
   686.2500   2000.0000   2000.0000     36.4820     95.7805
   686.5000   2000.0000   2000.0000     33.6775    107.8902
   686.7500   2000.0000   2000.0000     31.1700    114.9331
   687.0000   2000.0000   2000.0000     28.9559    122.9227
   687.2500   2000.0000   2000.0000     27.0368    125.7093
   687.5000   2000.0000   2000.0000     25.4059    125.2349
   687.7500   2000.0000   2000.0000     24.0453    122.2351
   688.0000   2000.0000   2000.0000     22.9330    115.8698
   688.2500   2000.0000   2000.0000     22.0502    111.8956
   688.5000   2000.0000   2000.0000     21.3831    108.2950
   688.7500   2000.0000   2000.0000     20.9200    108.0351
   689.0000   2000.0000   2000.0000     20.6461    110.9883
   689.2500   2000.0000   2000.0000     20.5405    114.8200
   689.5000   2000.0000   2000.0000     20.5755    121.8373
   689.7500   2000.0000   2000.0000     20.7221    126.1373
   690.0000   2000.0000   2000.0000     20.9600    130.4198
   690.2500   2000.0000   2000.0000     21.2854    131.5493
   690.5000   2000.0000   2000.0000     21.7058    130.8566
   690.7500   2000.0000   2000.0000     22.2236    128.9678
