~Version Information
 VERS.                                  2.0 : CWLS LAS VERSION
 WRAP.                                   NO : WRAPING MODE
 SWARE .                 MController 2.5.0J : SOFTWARE VERSION
~Well Information
 WELL.                       Beacon 11-18TR : WELL
 COMP.        Pioneer Natural Resources Inc : COMPANY
 FLD.                      Purgatoire River : FIELD
 LOC.                NW/NW Sec 18 T32S R66W : LOCATION
 DATE.                           1/15-16/05 : DATE(S) LOGGED
 SRVC.       Blanco Geological Services LLC : SERVICE COMPANY
 STAT.                                   CO : STATE
 CNTY.                           Las Animas : COUNTY
 CTRY.                                  USA : COUNTRY
 API.                          05-071-08251 : API NUMBER
 STRT.FT                             283.00 : START DEPTH
 STOP.FT                            2753.00 : STOP DEPTH
 STEP.FT                               1.00 : DEPTH INCREMENT
 NULL.                                -9999 : NULL VALUE
~Curve information
 DEPTH.FT                                   :
 ROP.MIN/FT                                 :
 GAS.UNITS                                  :
~ASCII Log data
# ...
      1683.0         0.20         24.1 
      1684.0         0.23         23.8 
      1685.0         0.23         23.4 
      1686.0         0.23         22.9 
      1687.0         0.28         23.2 
      1688.0         0.23         22.4 
      1689.0         0.23         22.7 
      1690.0         0.23         21.7 
      1691.0         0.27         21.4 
      1692.0         0.20         21.2 
      1693.0         0.20         21.0 
      1694.0         0.23         20.5 
      1695.0         0.23         20.2 
      1696.0         0.23         19.7 
      1697.0         0.23         20.3 
      1698.0         0.33         16.5 
      1699.0         0.23         17.9 
      1700.0         0.28         22.2 
      1701.0         0.30         28.2 
      1702.0         0.23         36.1 
      1703.0         0.20         43.3 
      1704.0         0.20         50.1 
      1705.0         0.23         56.0 
      1706.0         0.13         58.3 
      1707.0         0.20         61.2 
      1708.0         0.18         58.9 
      1709.0         0.27         41.9 
      1710.0         0.23         40.4 
      1711.0         0.37         40.3 
      1712.0         0.30         36.9 
      1713.0         0.40         34.3 
      1714.0         0.37         29.6 
      1715.0         0.27         26.3 
      1716.0         0.27         25.2 
      1717.0         0.30         24.6 
      1718.0         0.30         23.7 
      1719.0         0.35         23.2 
      1720.0         0.27         22.1 
      1721.0         0.27         21.6 
      1722.0         0.27         21.4 
      1723.0         0.30         20.8 
      1724.0         0.27         20.7 
      1725.0         0.30         20.5 
      1726.0         0.27         19.9 
      1727.0         0.23         16.1 
      1728.0         0.23         17.0 
      1729.0         0.23         20.5 
      1730.0         0.27         26.0 
      1731.0         0.22         32.9 
      1732.0         0.20         38.6 
      1733.0         0.17         43.3 
      1734.0         0.23         48.4 
      1735.0         0.23         51.3 
      1736.0         0.23         52.0 
      1737.0         0.37         51.5 
      1738.0         0.30         46.3 
      1739.0         0.40         40.9 
      1740.0         0.40         34.1 
      1741.0         0.47         29.0 
      1742.0         0.30         24.4 
      1743.0         0.23         22.4 
      1744.0         0.28         21.6 
      1745.0         0.30         20.6 
      1746.0         0.27         20.0 
      1747.0         0.27         19.9 
      1748.0         0.27         19.9 
      1749.0         0.20         20.4 
      1750.0         0.20         21.2 
      1751.0         0.20         22.0 
      1752.0         0.20         22.2 
      1753.0         0.23         22.5 
      1754.0         0.23         22.0 
      1755.0         0.27         21.9 
      1756.0         0.35         21.5 
      1757.0         0.30         20.6 
      1758.0         0.30         20.2 
      1759.0         0.27         24.1 
      1760.0         0.33         32.7 
      1761.0         0.27         41.8 
      1762.0         0.30         49.6 
      1763.0         0.27         52.8 
      1764.0         0.33         54.0 
      1765.0         0.27         53.6 
      1766.0         0.32         51.4 
      1767.0         0.27         45.2 
      1768.0         0.20         39.4 
      1769.0         0.33         36.0 
      1770.0         0.30         29.9 
      1771.0         0.37         26.4 
      1772.0         0.40         23.1 
      1773.0         0.40         22.4 
      1774.0         0.37         22.1 
      1775.0         0.27         21.8 
      1776.0         0.32         21.7 
      1777.0         0.30         21.0 
      1778.0         0.27         20.7 
      1779.0         0.30         20.4 
      1780.0         0.27         19.8 
      1781.0         0.27         19.8 
      1782.0         0.27         19.3 
      1783.0         0.23         18.8 
      1784.0         0.23         18.8 
      1785.0         0.27         18.6 
      1786.0         0.30         19.9 
      1787.0         0.45         23.6 
      1788.0         0.23         25.1 
      1789.0         0.20         25.7 
      1790.0         0.17         25.6 
      1791.0         0.17         25.8 
      1792.0         0.13         25.9 
      1793.0         0.17         27.0 
      1794.0         0.13         28.1 
      1795.0         0.17         30.1 
      1796.0         0.27         35.0 
      1797.0         0.30         41.8 
      1798.0         0.32         60.0 
      1799.0         0.37         90.9 
      1800.0         0.23        103.4 
      1801.0         0.33        106.6 
      1802.0         0.37        106.0 
      1803.0         0.30         94.8 
      1804.0         0.20         81.4 
      1805.0         0.37         73.0 
      1806.0         0.23         60.1 
      1807.0         0.27         54.1 
      1808.0         0.33         50.2 
      1809.0         0.32         46.2 
      1810.0         0.27         43.5 
      1811.0         0.30         41.3 
      1812.0         0.33         40.0 
      1813.0         0.23         37.7 
      1814.0         0.33         36.8 
      1815.0         0.20         35.5 
      1816.0         0.23         35.4 
      1817.0         0.13         35.3 
      1818.0         0.13         28.9 
      1819.0         0.27         27.6 
      1820.0         0.27         25.0 
      1821.0         0.28         24.5 
      1822.0         0.27         26.9 
      1823.0         0.27         31.5 
      1824.0         0.27         37.2 
      1825.0         0.23         44.0 
      1826.0         0.23         50.2 
      1827.0         0.33         55.8 
      1828.0         0.38         56.4 
      1829.0         0.37         54.9 
      1830.0         0.27         50.3 
      1831.0         0.27         46.4 
      1832.0         0.27         42.7 
      1833.0         0.23         39.5 
      1834.0         0.20         36.5 
      1835.0         0.20         35.0 
      1836.0         0.20         33.5 
      1837.0         0.20         32.0 
      1838.0         0.23         30.3 
      1839.0         0.23         29.6 
      1840.0         0.25         28.7 
      1841.0         0.23         26.4 
      1842.0         0.27         26.2 
      1843.0         0.23         26.7 
      1844.0         0.20         78.1 
      1845.0         0.20         74.1 
      1846.0         0.17         74.2 
      1847.0         0.17         77.1 
      1848.0         0.17         82.7 
      1849.0         0.13         88.7 
      1850.0         0.20         99.9 
      1851.0         0.17        108.3 
      1852.0         0.17        120.7 
      1853.0         0.13        131.3 
      1854.0         0.17        144.0 
      1855.0         0.17        154.2 
      1856.0         0.27        163.2 
      1857.0         0.40        164.0 
      1858.0         0.30        157.1 
      1859.0         0.33        142.5 
      1860.0         0.28        123.4 
      1861.0         0.33        106.0 
      1862.0         0.30         90.8 
      1863.0         0.23         80.4 
      1864.0         0.30         75.4 
      1865.0         0.27         70.4 
      1866.0         0.23         67.2 
      1867.0         0.27         64.8 
      1868.0         0.27         62.4 
      1869.0         0.30         60.3 
      1870.0         0.30         57.5 
      1871.0         0.25         55.1 
      1872.0         0.30         52.9 
      1873.0         0.30         51.2 
      1874.0         0.30         49.1 
      1875.0         0.27         47.4 
      1876.0         0.43         46.5 
      1877.0         0.37         45.1 
      1878.0         0.27         44.1 
      1879.0         0.27         40.7 
      1880.0         0.27         48.7 
      1881.0         0.33         62.0 
      1882.0         0.28         74.1 
