~Version Information
VERS.                      2.0: CWLS Log ASCII Standard - VERSION 2.0
WRAP.                       NO: One line per depth step
~Well Information Block
STRT.FT               580.0000: 
STOP.FT              2729.7500: 
STEP.FT                 0.2500: 
NULL.                -999.2500: 
COMP.          Pioneer Natural Resources: COMPANY
WELL.          Sand Pebbles 13-33: WELL
FLD.           Purgatoire River: FIELD
LOC.           1883' FSL & 63' FWL----: LOCATION
PROV.                 Colorado: PROVINCE
CNTY.               Las Animas: COUNTRY
SRVC.                Patterson: SERVICE COMPANY
DATE.          Fri Mar 11 13:47:45 2005: LOG DATE
UWI.           05 071 08224 00: UNIQUE WELL ID
~Curve Information Block
DEPT.FT            0 000 00 00: Depth
SN.Ohm-m                      : IEL Short Normal
SP.mV                         : IEL Spontaneous Potential
DIR.Ohm-m                     : IEL Induction Resistivity
GR.GAPI                       : Gamma Ray
~Parameter Information Block
~A  Depth        SN          SP         DIR          GR     
# ...
  1417.5000     15.0008   -153.2704     13.6228    127.2182
  1417.7500     14.5419   -150.3044     13.0989    132.1088
  1418.0000     14.1722   -148.1620     12.6696    136.1946
  1418.2500     13.8752   -146.7029     12.3247    136.2739
  1418.5000     13.6376   -145.7552     12.0522    133.6984
  1418.7500     13.4448   -145.1622     11.8399    132.0338
  1419.0000     13.2821   -144.8027     11.6758    132.3952
  1419.2500     13.1354   -144.5932     11.5485    134.7332
  1419.5000     12.9946   -144.4828     11.4481    139.1868
  1419.7500     12.8585   -144.4460     11.3683    141.1673
  1420.0000     12.7383   -144.4769     11.3086    141.5840
  1420.2500     12.6542   -144.5826     11.2749    140.7860
  1420.5000     12.6245   -144.7748     11.2761    139.7905
  1420.7500     12.6536   -145.0624     11.3179    139.8237
  1421.0000     12.7275   -145.4448     11.3974    140.3168
  1421.2500     12.8216   -145.9103     11.5019    139.9867
  1421.5000     12.9160   -146.4371     11.6120    137.1459
  1421.7500     13.0080   -146.9959     11.7102    133.6433
  1422.0000     13.1153   -147.5541     11.7890    127.3624
  1422.2500     13.2651   -148.0799     11.8544    123.7565
  1422.5000     13.4729   -148.5475     11.9223    120.8631
  1422.7500     13.7250   -148.9424     12.0101    120.7277
  1423.0000     13.9755   -149.2642     12.1287    122.2634
  1423.2500     14.1572   -149.5262     12.2763    123.8124
  1423.5000     14.1953   -149.7507     12.4370    125.9421
  1423.7500     14.0248   -149.9626     12.5837    126.3763
  1424.0000     13.6213   -150.1815     12.6894    123.7873
  1424.2500     13.0354   -150.4146     12.7411    119.5340
  1424.5000     12.4032   -150.6517     12.7473    111.0549
  1424.7500     11.9049   -150.8659     12.7338    105.9715
  1425.0000     11.6897   -151.0246     12.7289    102.2093
  1425.2500     11.8093   -151.1097     12.7486    102.8269
  1425.5000     12.1939   -151.1402     12.7886    106.9474
  1425.7500     12.6816   -151.1806     12.8250    110.1578
  1426.0000     13.0913   -151.3275     12.8245    113.3145
  1426.2500     13.3062   -151.6762     12.7605    113.9489
  1426.5000     13.3145   -152.2813     12.6284    113.8420
  1426.7500     13.1855   -153.1308     12.4487    114.1049
  1427.0000     13.0110   -154.1434     12.2567    115.8787
  1427.2500     12.8607   -155.1885     12.0862    117.6109
  1427.5000     12.7694   -156.1178     11.9598    119.6522
  1427.7500     12.7447   -156.7993     11.8868    120.0569
  1428.0000     12.7788   -157.1455     11.8687    118.9987
  1428.2500     12.8552   -157.1323     11.9057    117.3191
  1428.5000     12.9537   -156.8088     12.0008    113.9035
  1428.7500     13.0527   -156.2942     12.1606    111.6022
  1429.0000     13.1348   -155.7582     12.3939    109.0245
  1429.2500     13.1950   -155.3847     12.7079    107.9194
  1429.5000     13.2474   -155.3223     13.1049    106.2417
  1429.7500     13.3196   -155.6391     13.5779    104.3482
  1430.0000     13.4409   -156.3012     14.1082     99.3233
  1430.2500     13.6324   -157.1879     14.6684     94.3040
  1430.5000     13.9041   -158.1375     15.2292     84.8612
  1430.7500     14.2548   -159.0017     15.7690     78.1056
  1431.0000     14.6712   -159.6842     16.2766     68.6864
  1431.2500     15.1261   -160.1494     16.7460     63.3613
  1431.5000     15.5712   -160.4078     17.1666     57.1681
  1431.7500     15.9369   -160.4916     17.5162     54.4453
  1432.0000     16.1468   -160.4343     17.7604     52.8898
  1432.2500     16.1448   -160.2602     17.8616     53.6179
  1432.5000     15.9159   -159.9831     17.7948     57.0570
  1432.7500     15.4899   -159.6109     17.5607     60.5842
  1433.0000     14.9309   -159.1532     17.1838     67.0642
  1433.2500     14.3173   -158.6275     16.6972     71.8317
  1433.5000     13.7194   -158.0616     16.1258     79.4872
  1433.7500     13.1830   -157.4883     15.4842     85.0995
  1434.0000     12.7208   -156.9381     14.7868     94.2852
  1434.2500     12.3162   -156.4311     14.0579    100.3416
  1434.5000     11.9382   -155.9757     13.3315    107.5570
  1434.7500     11.5633   -155.5715     12.6396    110.1888
  1435.0000     11.1892   -155.2160     12.0023    110.3391
  1435.2500     10.8346   -154.9103     11.4246    108.3439
  1435.5000     10.5273   -154.6597     10.9023    103.7238
  1435.7500     10.2885   -154.4738     10.4301    100.4093
  1436.0000     10.1244   -154.3635     10.0073     95.8660
  1436.2500     10.0246   -154.3389      9.6376     93.1781
  1436.5000      9.9670   -154.4070      9.3247     89.4586
  1436.7500      9.9285   -154.5652      9.0688     87.1109
  1437.0000      9.8966   -154.7940      8.8656     83.8943
  1437.2500      9.8724   -155.0495      8.7074     82.1094
  1437.5000      9.8618   -155.2667      8.5855     80.2198
  1437.7500      9.8635   -155.3783      8.4919     79.5676
  1438.0000      9.8661   -155.3485      8.4201     79.5595
  1438.2500      9.8564   -155.2049      8.3656     80.2101
  1438.5000      9.8300   -155.0470      8.3253     82.1897
  1438.7500      9.7936   -155.0179      8.2975     84.2313
  1439.0000      9.7592   -155.2469      8.2809     88.5907
  1439.2500      9.7359   -155.7896      8.2746     92.4687
  1439.5000      9.7260   -156.5965      8.2786     99.5308
  1439.7500      9.7280   -157.5267      8.2943    104.6900
  1440.0000      9.7392   -158.4009      8.3250    112.5532
  1440.2500      9.7559   -159.0687      8.3750    117.8054
  1440.5000      9.7729   -159.4632      8.4476    125.5374
  1440.7500      9.7874   -159.6216      8.5428    130.1743
  1441.0000      9.8033   -159.6632      8.6565    135.4189
  1441.2500      9.8325   -159.7365      8.7838    137.5047
  1441.5000      9.8915   -159.9599      8.9228    138.6217
  1441.7500      9.9943   -160.3829      9.0772    138.1965
  1442.0000     10.1460   -160.9835      9.2558    136.1854
  1442.2500     10.3411   -161.7012      9.4700    134.2608
  1442.5000     10.5669   -162.4863      9.7289    131.0658
  1442.7500     10.8112   -163.3382     10.0366    128.9516
  1443.0000     11.0694   -164.3135     10.3924    126.0324
  1443.2500     11.3476   -165.4969     10.7930    124.2451
  1443.5000     11.6602   -166.9498     11.2349    121.2495
  1443.7500     12.0235   -168.6666     11.7152    118.4731
  1444.0000     12.4513   -170.5615     12.2308    112.5012
  1444.2500     12.9486   -172.4910     12.7764    107.6212
  1444.5000     13.5068   -174.2930     13.3439    100.7747
  1444.7500     14.0998   -175.8191     13.9230     97.7904
  1445.0000     14.6871   -176.9507     14.5039     96.7634
  1445.2500     15.2268   -177.6107     15.0807     98.1015
  1445.5000     15.6960   -177.7838     15.6541    101.7769
  1445.7500     16.1027   -177.5415     16.2290    104.4603
  1446.0000     16.4771   -177.0528     16.8082    107.4729
  1446.2500     16.8489   -176.5560     17.3848    108.1770
  1446.5000     17.2301   -176.2971     17.9384    106.9537
  1446.7500     17.6167   -176.4608     18.4416    105.0811
  1447.0000     18.0052   -177.1269     18.8749    102.2409
  1447.2500     18.4066   -178.2665     19.2416    101.1450
  1447.5000     18.8424   -179.7705     19.5700    101.2889
  1447.7500     19.3229   -181.4882     19.9016    102.4992
  1448.0000     19.8325   -183.2622     20.2742    105.5155
  1448.2500     20.3389   -184.9541     20.7103    107.9095
  1448.5000     20.8178   -186.4619     21.2145    111.0278
  1448.7500     21.2715   -187.7281     21.7755    112.1246
  1449.0000     21.7332   -188.7403     22.3725    111.6937
  1449.2500     22.2629   -189.5202     22.9840    110.2376
  1449.5000     22.9362   -190.1069     23.5987    107.5396
  1449.7500     23.8225   -190.5377     24.2215    106.2958
  1450.0000     24.9581   -190.8344     24.8740    106.2161
  1450.2500     26.3290   -190.9991     25.5876    107.2201
  1450.5000     27.8746   -191.0214     26.3938    109.0714
  1450.7500     29.5084   -190.8960     27.3132    109.6943
