~Version Information
 VERS.                2.0:  CWLS LOG ASCII STANDARD -VERSION 2.0
 WRAP.                 NO:  ONE LINE PER DEPTH STEP
~WELL INFORMATION BLOCK
#MNEM.UNIT       DATA		            DESCRIPTION OF MNEMONIC
#---------    -------------            ------------------------
 STRT.FT  0.500                          :START DEPTH
 STOP.FT  1808.700                       :STOP DEPTH
 STEP.FT  0.100                          :STEP    UP_HOLE  
 NULL.    -999.25                        :NULL VALUE
 COMP.              EL PASO PRODUCTIONS  :COMPANY
 WELL.                     COREHOLE #38  :WELL
 FLD .                 PURGATOIRE RIVER  :FIELD
 LOC .      15   35S   65W               :LOCATION
 CNTY.                           COLFAX  :COUNTY
 STAT.                     NM            :STATE
 CTRY.                                   :
 SRVC.     O'DRISCOLL                    :SERVICE COMPANY
 DATE.   04/28/05                        :LOG DATE
 API .                                   :API NUMBER
 LIC .                                   :LICENSE NUMBER
~Curve Information Block
#MNEM.UNIT      API CODE     Curve Description
#---------    -------------  ------------------------
 DEPT     .FT        00 001 00 00          :  1  DEPTH   
 GAMMA    .API-GR    00 310 00 00          :  2                GAMMA
 VOLTAGE  .MV        00 000 00 00          :  3              VOLTAGE
 CALIPER  .INCH      00 280 00 00          :  4              CALIPER
 DEN(LS)  .G/CC      00 350 00 00          :  5              DEN(LS)
 DEN(SS)  .G/CC      00 350 00 00          :  6              DEN(SS)
 CURRENT  .UA        00 000 00 00          :  7              CURRENT
 RES(SG)  .OHM-M     00 220 00 00          :  8              RES(SG)
 POR(DEN) .PERCENT   00 890 00 00          :  9             POR(DEN)
 DEN(LS)  .CPS       00 350 00 00          : 10              DEN(LS)
 DEN(SS)  .CPS       00 350 00 00          : 11              DEN(SS)
 COMP     .G/CC      00 356 00 00          : 12                 COMP
 DEN(CDL) .G/CC      00 350 00 00          : 13             DEN(CDL)
 TEMP     .DEG F     00 660 00 00          : 14                 TEMP
 DEL_TEMP .DEG F     00 000 00 00          : 15             DEL_TEMP
 TIME     .MINUTES   00 000 00 00          : 16                 TIME
~Parameter Information Block
#MNEM.UNIT   Information     Description
#---------- ---------------  ------------------------
 FILE.      ORIGINAL           :File Type
 FIID.      9139A              :File Type Identifier
 VERS.      3.58G              :System Version
 SER .      1                  :System Serial Number
 TRUK.      .498775            :Truck Calibration Number
 TOOL.        1245             :Tool Serial Number
 TIME.      1507               :Time    HrHrMinMin
 LAT .       36 59'            :Latitude
 LON .       104 39'           :Longitude
 LMF .            GL           :Log Measured From
 DMF .            GL           :Driller Measured From
 PD  .            GL           :Permanent Data
 PDEV.                         :Elevation Permanent Data
 EKB .M                        :Elevation Kelly Bushing
 ELEV.DF                       :Elevation DF
 EGL .M        7777            :Elevation Ground Level
 DRDP.          1825           :Driller's Depth
 CASD.       10.               :Casing Diameter
 CASB.           300           :Casing Bottom
 CASX.         STEEL           :Casing Type
 CAST.                         :Casing Thickness
 TNOC.                         :Time Circulation Stopped
 LOGU.        108              :Logging Unit
 RECB.           R.SIPES       :Recorded By
 OSR1.          9057           :Other Services
 OSR2.                         :Other Services
 OSR3.                         :Other Services
 BS  .MM         3.5           :Bit Size
 MST .                         :Mean Surface Temperature
 TGRD.                         :Temperature Gradiant
 MAGN.            12           :Magnetic Declination
 MDEN.       2.7               :Density Matrix
 MATR.      SANDSTONE          :Neutron Matrix
 DTMT.            54           :Delta T Matrix
 DTFL.                         :Delta T Fluid
 MUDS.                         :Mud Sample Source
 MRS .                         :Mud Resistivity
 MTP .                         :Mud Temperature
 MFRS.                         :Resistivity Mud Filtrate
 MFTP.                         :Temperature Mud Filtrate
 MCRS.                         :Resistivity Mud Cake
 MCTP.                         :Temperature Mud Cake
 FTYP.                         :Fluid Type
 FD  .K/M3                     :Fluid Density
 DFV .S                        :Fluid Viscosity
 FPH .                         :Fuild PH
 ELCO.       50000             :Electron Cutoff
~Other Information
#MNEM.UNIT  Information      Description
#---------- ---------------  ------------------------
# -------------------------- 
~A DEPTH  GAMMA    VOLTAGE  CALIPER DEN(LS) DEN(SS) CURRENT  RES(SG)  POR(DEN) DEN(LS) DEN(SS) COMP  DEN(CDL) TEMP  DEL_TEMP TIME    
# ...
1202.000    122.8     -2.2   2.9  2.74 3.15   132.3     -1.2  52.4  425.54 3083.28 -0.936 2.10 33.3  0.00 0.20100 
1202.100    126.6     -1.0   2.9  2.83 3.12   136.3     -0.5  27.6  355.38 3164.85 -0.600 2.15 33.3  0.00 0.20000 
1202.200    120.0     -0.2   2.9  2.81 3.17   136.8     -0.1  42.0  375.42 3017.06 -0.821 2.17 33.3  0.00 0.19900 
1202.300    115.3     -0.4   2.9  2.92 3.13   136.8     -0.2  12.3  300.28 3118.92 -0.425 2.28 33.3  0.00 0.20000 
1202.400    121.9     -3.2   2.9  2.83 3.08   136.3     -1.7  22.0  355.38 3271.80 -0.504 2.29 33.3  0.00 0.20000 
1202.500    125.7     -2.0   2.9  2.86 3.10   136.0     -1.1  19.2  335.34 3215.74 -0.484 2.35 33.3  0.00 0.20100 
1202.600    127.6     -0.9   2.9  2.80 3.06   135.1     -0.5  25.7  380.44 3327.91 -0.537 2.35 33.3  0.00 0.19900 
1202.700    122.8     -1.2   2.9  2.84 3.10   127.1     -0.7  24.3  350.37 3200.45 -0.550 2.34 33.3  0.00 0.20000 
1202.800    129.4     -4.4   2.9  2.84 3.03   120.7     -2.6  12.3  345.36 3424.83 -0.352 2.31 33.3  0.00 0.20000 
1202.900    120.9     -4.2   2.9  2.83 3.09   120.5     -2.5  24.0  355.38 3231.03 -0.539 2.31 33.3  0.00 0.20000 
1203.000    120.0     -3.6   2.9  2.82 3.11   121.8     -2.1  28.7  360.40 3169.86 -0.612 2.29 33.3  0.00 0.20100 
1203.100    106.8     -3.4   2.9  2.84 3.11   125.2     -2.0  25.1  350.42 3185.15 -0.564 2.19 33.3  0.00 0.19900 
1203.200    107.7     -3.2   2.9  2.79 3.09   133.2     -1.7  31.8  385.45 3236.16 -0.634 2.24 33.3  0.00 0.20000 
1203.300    102.1     -1.4   2.9  2.79 3.13   136.3     -0.7  39.8  390.46 3124.01 -0.763 2.24 33.3  0.00 0.10000 
1203.400    105.8     -2.8   2.9  2.94 3.15   132.9     -1.5  10.3  285.25 3057.80 -0.417 2.24 33.3  0.00 0.20000 
1203.500    103.0     -3.1   2.9  2.84 3.13   135.3     -1.7  27.5  345.36 3118.91 -0.610 2.34 33.3  0.00 0.20000 
1203.600    109.6     -4.3   2.9  2.79 3.05   128.5     -2.4  26.3  390.46 3368.81 -0.534 2.39 33.3  0.00 0.20000 
1203.700    129.4     -4.3   2.9  2.92 3.05   120.4     -2.5   1.9  300.27 3348.30 -0.249 2.27 33.3  0.00 0.20000 
1203.800    124.7     -4.3   2.9  2.83 3.09   121.0     -2.5  24.0  355.40 3231.21 -0.539 2.27 33.3  0.00 0.20000 
1203.900    123.8     -4.5   2.9  2.74 3.12   120.1     -2.7  47.2  425.55 3164.76 -0.846 2.30 33.3  0.00 0.20000 
1204.000    109.6     -4.2   2.9  2.87 3.16   120.6     -2.5  26.6  330.33 3047.64 -0.618 2.23 33.3  0.00 0.20000 
1204.100    100.2     -4.2   2.9  2.85 3.09   120.4     -2.5  19.1  340.35 3251.60 -0.475 2.25 33.3  0.00 0.20000 
1204.200     80.3     -4.3   2.9  2.82 3.07   120.3     -2.6  22.6  365.40 3312.63 -0.502 2.34 33.3  0.00 0.20000 
1204.300     86.0     -4.2   2.9  2.84 3.06   116.3     -2.6  17.2  345.36 3317.76 -0.436 2.33 33.3  0.00 0.20000 
1204.400     82.2     -4.2   2.9  2.87 3.12   115.7     -2.6  19.2  325.32 3149.48 -0.501 2.32 33.3  0.00 0.20000 
1204.500     86.9     -4.0   2.9  2.79 3.09   133.6     -2.1  31.6  385.45 3241.21 -0.630 2.21 33.3  0.00 0.20000 
1204.600     94.5     -4.1   2.9  2.81 3.05   137.2     -2.1  22.1  375.44 3373.81 -0.482 2.18 33.3  0.00 0.20000 
1204.700     93.6     -3.9   2.9  2.76 3.17   136.4     -2.0  52.9  410.51 3011.99 -0.961 2.21 33.3  0.00 0.20000 
1204.800    100.2     -4.0   2.9  2.82 3.10   135.3     -2.1  26.1  360.40 3215.88 -0.569 2.18 33.3  0.00 0.20000 
1204.900     95.4     -3.9   2.9  2.82 3.00   136.6     -2.0  12.0  360.39 3511.77 -0.329 2.18 33.3  0.00 0.20000 
1205.000     96.4     -3.6   2.9  2.80 3.14   126.1     -2.0  39.1  380.45 3088.36 -0.764 2.25 33.3  0.00 0.20000 
1205.100     95.4     -3.8   2.9  2.84 3.10   132.1     -2.0  24.0  350.37 3205.61 -0.545 2.26 33.3  0.00 0.20000 
1205.200     96.4     -4.3   2.9  2.80 3.10   128.7     -2.4  31.6  380.43 3215.80 -0.636 2.17 33.3  0.00 0.10000 
1205.300     88.8     -4.7   2.9  2.87 3.14   124.5     -2.7  23.1  330.33 3108.86 -0.559 2.12 33.3  0.00 0.20000 
1205.400     90.7     -4.3   2.9  2.85 3.21   134.9     -2.3  38.9  340.35 2905.10 -0.812 2.15 33.3  0.00 0.20000 
1205.500     90.7     -4.0   2.9  2.72 3.12   136.2     -2.1  52.6  445.59 3154.64 -0.919 2.14 33.3  0.00 0.20000 
1205.600     78.4     -4.1   2.9  2.88 3.11   137.3     -2.1  15.4  320.31 3190.30 -0.444 2.23 33.3  0.00 0.20000 
1205.700     80.3     -4.2   2.9  2.81 3.13   136.8     -2.2  33.8  370.41 3129.10 -0.686 2.33 33.3  0.00 0.20000 
1205.800     75.6     -3.9   2.9  2.99 3.13   134.5     -2.1  -2.5  255.21 3129.16 -0.249 2.40 33.3  0.00 0.20000 
1205.900     74.7     -4.1   2.9  2.91 3.10   136.1     -2.2   9.2  305.29 3215.73 -0.364 2.43 33.3  0.00 0.20000 
1206.000     67.1     -5.0   2.9  2.86 3.18   136.7     -2.6  31.7  335.38 2991.61 -0.696 2.47 33.3  0.00 0.20000 
1206.100     72.8     -4.7   2.9  2.94 3.12   135.4     -2.5   5.9  285.25 3149.48 -0.341 2.43 33.3  0.00 0.20000 
1206.200     74.7     -3.6   2.9  2.82 3.08   132.9     -1.9  23.5  360.39 3266.71 -0.525 2.33 33.3  0.00 0.20000 
1206.300     80.3     -3.5   2.9  2.99 3.22   126.3     -2.0   9.2  255.20 2884.87 -0.448 2.44 33.3  0.00 0.20000 
1206.400     85.1     -3.7   2.9  2.88 3.25   128.6     -2.0  37.6  320.31 2808.47 -0.823 2.49 33.3  0.00 0.20000 
1206.500     91.7     -3.6   2.9  2.94 3.07   126.4     -2.0  -1.1  285.24 3312.62 -0.222 2.53 33.3  0.00 0.20000 
1206.600     89.8     -4.4   2.9  2.97 3.04   106.1     -3.0  -8.0  270.22 3378.97 -0.131 2.46 33.3  0.00 0.20000 
1206.700     92.6     -4.3   2.9  2.94 3.18   115.5     -2.7  13.5  285.25 2996.70 -0.470 2.55 33.3  0.00 0.20000 
1206.800     84.1     -4.8   2.9  2.86 3.17   117.2     -2.9  29.6  335.34 3027.25 -0.660 2.53 33.3  0.00 0.20000 
1206.900     80.3     -4.4   2.9  2.84 3.02   116.9     -2.7  10.7  345.36 3460.57 -0.325 2.43 33.3  0.00 0.20000 
1207.000     78.4     -4.7   2.9  2.92 3.09   111.7     -3.0   4.6  295.26 3246.39 -0.303 2.43 33.3  0.00 0.20000 
1207.100     81.3     -4.9   2.9  2.86 3.12   107.3     -3.3  21.9  335.34 3164.77 -0.529 2.43 33.3  0.00 0.20000 
1207.200     86.9     -5.2   2.9  2.94 3.16    95.5     -3.9  11.4  285.26 3037.46 -0.435 2.45 33.3  0.00 0.20000 
1207.300     96.4     -5.0   2.9  2.76 3.04    71.0     -5.1  31.4  415.52 3399.32 -0.589 2.43 33.3  0.00 0.20000 
1207.400    102.1     -4.8   2.9  2.93 3.11    84.9     -4.1   5.3  290.25 3195.40 -0.323 2.40 33.3  0.00 0.10000 
1207.500    104.9     -4.5   3.0  2.92 3.13    85.0     -3.8  10.9  295.26 3113.82 -0.409 2.31 33.3  0.00 0.20000 
1207.600    106.8     -4.8   3.0  2.81 3.09    22.1    -15.7  28.0  370.41 3231.02 -0.588 2.36 33.3  0.00 0.20000 
1207.700     90.7     -4.8   2.9  2.78 3.11    46.6     -7.3  38.4  395.47 3169.89 -0.734 2.28 33.3  0.00 0.20000 
1207.800     91.7     -4.7   2.9  2.83 3.05    31.4    -10.8  18.3  355.38 3348.55 -0.441 2.20 33.3  0.00 0.19900 
1207.900     82.2     -4.7   2.9  2.79 3.07    11.4    -29.7  29.2  390.46 3312.61 -0.583 2.23 33.3  0.00 0.20100 
1208.000     75.6     -5.1   3.0  2.76 3.04    10.8    -33.7  32.5  415.52 3378.94 -0.607 2.30 33.3  0.00 0.20000 
1208.100     69.9     -4.8   2.9  2.88 3.14    29.6    -11.5  19.6  320.31 3109.04 -0.516 2.29 33.3  0.00 0.20000 
1208.200     78.4     -4.5   2.9  2.83 3.05    83.3     -3.8  17.3  355.38 3368.72 -0.425 2.23 33.3  0.00 0.20000 
1208.300     71.8     -4.3   2.9  2.77 3.00   103.2     -3.0  21.4  400.48 3522.02 -0.438 2.26 33.3  0.00 0.19900 
1208.400     62.4     -4.0   3.0  2.72 3.09   125.6     -2.3  47.8  450.61 3251.44 -0.831 2.18 33.3  0.00 0.20100 
1208.500     56.7     -4.3   3.0  2.84 3.10   114.1     -2.7  23.0  345.36 3200.44 -0.534 2.18 33.3  0.00 0.20000 
1208.600     64.3     -4.1   3.0  2.80 3.16   121.5     -2.4  42.2  380.44 3037.44 -0.818 2.16 33.3  0.00 0.20000 
1208.700     62.4     -4.1   3.0  2.83 3.05   108.3     -2.7  18.3  355.38 3348.31 -0.441 2.24 33.3  0.00 0.19900 
1208.800     64.3     -4.8   3.0  2.77 3.03    99.3     -3.4  28.2  405.53 3409.52 -0.547 2.20 33.3  0.00 0.20000 
1208.900     79.4     -5.0   2.9  2.82 3.08    17.6    -20.1  23.8  360.40 3261.94 -0.529 2.25 33.3  0.00 0.20100 
