~Version Information
VERS.                      2.0: CWLS Log ASCII Standard - VERSION 2.0
WRAP.                       NO: One line per depth step
~Well Information Block
STRT.FT                -9.2500: 
STOP.FT              1945.2500: 
STEP.FT                 0.2500: 
NULL.                -999.2500: 
COMP.          Pioneer Natural Resources: COMPANY
WELL.          Titan Federal 34-17: WELL
FLD.           Purgatorie River: FIELD
LOC.           321' FSL & 1911' FEL: LOCATION
STAT.                       CO: State
CNTY.               Las Animas: COUNTY
CTRY. USA : Country
SECT. 17 : Section
TOWN. 32S : Township
RANG. 65W : Range
SRVC.          Patterson Wireline: SERVICE COMPANY
DATE.          Tue Oct 11 10:22:27 2005: LOG DATE
API.           05 071 08272 00: UNIQUE WELL ID
~Curve Information Block
DEPT.FT            0 000 00 00: Depth
CCL.                          : Casing Collar Locator
TT3.usec                      : CBL 3' Travel Time
AMP3.mV                       : CBL 3' Amplitude
GR.GAPI                       : Gamma Ray
~Parameter Information Block
~A  Depth       CCL         TT3         AMP3         GR     
# ...
  1129.7500      0.0000    765.6794      6.8912    121.4470
  1130.0000      0.0000    764.3588      6.8984    120.7475
  1130.2500      0.0000    761.8393      6.9755    116.8382
  1130.5000      0.0000    757.4228      7.1259    111.0601
  1130.7500      0.0000    751.4620      7.3565    105.4872
  1131.0000      0.0000    745.6935      7.6749    102.2357
  1131.2500      0.0000    741.9411      8.0487    103.2301
  1131.5000      0.0000    740.1770      8.4001    109.2730
  1131.7500      0.0000    737.9721      8.6632    118.9467
  1132.0000      0.0000    732.0399      8.8282    129.0191
  1132.2500      0.0000    720.8177      8.9272    136.2924
  1132.5000      0.0000    706.0777      8.9983    138.9919
  1132.7500      0.0000    691.8637      9.0661    136.8745
  1133.0000      0.0000    681.5237      9.1350    131.0517
  1133.2500      0.0000    675.8044      9.1898    123.9690
  1133.5000      0.0000    673.4528      9.2113    118.5222
  1133.7500      0.0000    672.8685      9.2010    116.1411
  1134.0000      0.0000    673.0334      9.1894    115.6501
  1134.2500      0.0000    673.5952      9.2157    114.5304
  1134.5000      0.0000    674.7644      9.2934    111.5643
  1134.7500      0.0000    677.3412      9.3926    108.0643
  1135.0000      0.0000    682.4465      9.4505    106.5076
  1135.2500      0.0000    690.4272      9.4086    108.2341
  1135.5000      0.0000    699.5821      9.2539    112.3205
  1135.7500      0.0000    706.5324      9.0351    116.1493
  1136.0000      0.0000    708.5565      8.8387    116.9132
  1136.2500      0.0000    705.4918      8.7457    113.1008
  1136.5000      0.0000    699.5266      8.8003    105.3854
  1136.7500      0.0000    693.9507      8.9999     96.6992
  1137.0000      0.0000    691.9140      9.3005     91.1942
  1137.2500      0.0000    695.1008      9.6261     92.2094
  1137.5000      0.0000    703.0991      9.8747    100.7180
  1137.7500      0.0000    714.3544      9.9251    115.4001
  1138.0000      0.0000    727.3107      9.6650    133.2749
  1138.2500      0.0000    739.8991      9.0506    149.7891
  1138.5000      0.0000    748.5580      8.1518    159.6460
  1138.7500      0.0000    749.5880      7.1263    159.4281
  1139.0000      0.0000    742.3484      6.1286    149.8100
  1139.2500      0.0000    730.5494      5.2310    134.7293
  1139.5000      0.0000    719.7311      4.4214    118.5290
  1139.7500      0.0000    713.3510      3.6649    103.9404
  1140.0000      0.0000    711.0880      2.9620     91.8420
  1140.2500      0.0000    709.9778      2.3519     81.9275
  1140.5000      0.0000    706.3864      1.8731     73.6554
  1140.7500      0.0000    697.7834      1.5333     67.1429
  1141.0000      0.0000    684.7836      1.3141     63.3111
  1141.2500      0.0000    672.1862      1.1967     62.9816
  1141.5000      0.0000    666.5529      1.1762     65.7833
  1141.7500      0.0000    671.3656      1.2599     70.1499
  1142.0000      0.0000    684.2374      1.4577     74.7000
  1142.2500      0.0000    698.5884      1.7792     79.6574
  1142.5000      0.0000    707.8790      2.2383     86.7381
  1142.7500      0.0000    709.6213      2.8537     97.4804
  1143.0000      0.0000    707.2397      3.6392    111.4667
  1143.2500      0.0000    707.6813      4.5896    125.9679
  1143.5000      0.0000    715.2216      5.6786    137.4944
  1143.7500      0.0000    726.9954      6.8644    144.0956
  1144.0000      0.0000    735.5140      8.0897    146.4533
  1144.2500      0.0000    735.6121      9.2680    147.0842
  1144.5000      0.0000    728.1157     10.2738    148.5611
  1144.7500      0.0000    717.4257     10.9720    151.7987
  1145.0000      0.0000    707.6131     11.2838    155.4130
  1145.2500      0.0000    700.8947     11.2330    157.0994
  1145.5000      0.0000    697.4804     10.9283    156.0045
  1145.7500      0.0000    695.6103     10.5070    153.3336
  1146.0000      0.0000    692.8101     10.0857    150.5480
  1146.2500      0.0000    688.0877      9.7349    147.7590
  1146.5000      0.0000    682.6036      9.4748    144.1463
  1146.7500      0.0000    678.1391      9.2892    139.3052
  1147.0000      0.0000    675.4965      9.1500    133.9006
  1147.2500      0.0000    674.3596      9.0357    129.2818
  1147.5000      0.0000    674.0376      8.9374    126.4360
  1147.7500      0.0000    674.0079      8.8558    125.0697
  1148.0000      0.0000    674.0180      8.7935    123.8610
  1148.2500      0.0000    673.9952      8.7493    121.8253
  1148.5000      0.0000    673.9519      8.7191    119.1863
  1148.7500      0.0000    673.9527      8.6999    116.6875
  1149.0000      0.0000    674.1536      8.6922    114.5166
  1149.2500      0.0000    674.8680      8.6973    112.5902
  1149.5000      0.0000    676.4717      8.7141    111.6580
  1149.7500      0.0000    678.9711      8.7368    113.0220
  1150.0000      0.0000    681.5755      8.7576    116.6479
  1150.2500      0.0000    683.0683      8.7675    120.3760
  1150.5000      0.0000    683.0258      8.7585    121.7989
  1150.7500      0.0000    682.4686      8.7315    120.6503
  1151.0000      0.0000    682.8533      8.7048    118.8368
  1151.2500      0.0000    684.5847      8.7135    118.3160
  1151.5000      0.0000    686.9769      8.7969    119.2936
  1151.7500      0.0000    689.5942      8.9831    120.3927
  1152.0000      0.0000    693.1465      9.2798    120.3479
  1152.2500      0.0000    699.1444      9.6765    119.5292
  1152.5000      0.0000    708.9892     10.1524    119.6591
  1152.7500      0.0000    722.7488     10.6722    121.7149
  1153.0000      0.0000    737.5567     11.1633    124.3039
  1153.2500      0.0000    747.2845     11.5037    124.7160
  1153.5000      0.0000    745.6249     11.5544    121.7714
  1153.7500      0.0000    731.3138     11.2229    117.1109
  1154.0000      0.0000    710.5262     10.5075    113.1274
  1154.2500      0.0000    693.3677      9.4922    109.9136
  1154.5000      0.0000    687.9985      8.3100    105.0980
  1154.7500      0.0000    698.1738      7.1026     97.0196
  1155.0000      0.0000    724.4515      5.9868     87.2701
  1155.2500      0.0000    764.0400      5.0349     79.3287
  1155.5000      0.0000    807.9834      4.2812     75.1917
  1155.7500      0.0000    841.9099      3.7416     74.1578
  1156.0000      0.0000    855.1397      3.4226     74.4550
  1156.2500      0.0000    850.2122      3.3184     74.8701
  1156.5000      0.0000    839.6147      3.4205     74.8160
  1156.7500      0.0000    831.7698      3.7393     74.2059
  1157.0000      0.0000    823.5583      4.3142     74.0537
  1157.2500      0.0000    806.7723      5.1983     76.5075
  1157.5000      0.0000    776.3112      6.4365     83.3019
  1157.7500      0.0000    730.0332      8.0608     93.9829
  1158.0000      0.0000    666.6809     10.0861    105.9943
  1158.2500      0.0000    589.3621     12.4743    116.6793
  1158.5000      0.0000    509.1463     15.0845    125.0219
  1158.7500      0.0000    441.3216     17.6594    131.4083
  1159.0000      0.0000    398.7264     19.8727    136.0284
  1159.2500      0.0000    389.7021     21.4251    138.0910
  1159.5000      0.0000    418.0519     22.1551    136.8670
  1159.7500      0.0000    478.9937     22.0942    133.0137
  1160.0000      0.0000    555.8441     21.4161    128.1752
  1160.2500      0.0000    626.4055     20.3265    123.3050
  1160.5000      0.0000    675.7571     18.9996    118.0443
  1160.7500      0.0000    702.4557     17.5821    111.9547
  1161.0000      0.0000    713.7405     16.2042    105.7786
  1161.2500      0.0000    717.5413     14.9584    101.0831
  1161.5000      0.0000    718.6271     13.8770     99.0140
  1161.7500      0.0000    718.9355     12.9425     99.5990
  1162.0000      0.0000    719.0304     12.1186    101.8273
  1162.2500      0.0000    719.0300     11.3727    104.2035
  1162.5000      0.0000    718.9346     10.6860    105.4686
  1162.7500      0.0000    718.6204     10.0577    104.9655
  1163.0000      0.0000    717.8068      9.5047    102.5643
