~Version Information
VERS.                      2.0: CWLS Log ASCII Standard - VERSION 2.0
WRAP.                       NO: One line per depth step
~Well Information Block
STRT.FT               745.2500: 
STOP.FT              2003.5000: 
STEP.FT                 0.2500: 
NULL.                -999.2500: 
COMP.          Petrogulf Corporation: COMPANY
WELL.            Montoya 6-14V: WELL
FLD.           Purgatorie River: FIELD
LOC.           318' FSL & 882' FWL: LOCATION
CNTY.               Las Animas: COUNTY
SRVC.                         : SERVICE COMPANY
DATE.          Fri Aug 13 04:55:06 2004: LOG DATE
UWI.           05 071 08020 00: UNIQUE WELL ID
STAT.                 Colorado: STATE
~Curve Information Block
DEPT.FT            0 000 00 00: Depth
SP.mV                         : DIL Spontaneous Potential
RILD.Ohm-m                    : DIL Deep Resistivity
RILM.Ohm-m                    : DIL Medium Resistivity
RLL3.Ohm-m                    : DIL Shallow Resistivity
GR.GAPI                       : Gamma Ray
~Parameter Information Block
~A  Depth        SP         RILD        RILM        RLL3         GR     
# ...
  1669.2500     27.1043     18.9509     18.7885     28.5013     94.6885
  1669.5000     26.9825     20.1848     20.2876     30.7359     84.6791
  1669.7500     26.8532     21.5995     21.9678     33.0001     80.0851
  1670.0000     26.7205     23.2010     23.8274     35.5555     76.1520
  1670.2500     26.5900     24.9775     25.8580     38.6881     75.1745
  1670.5000     26.4673     26.8940     28.0422     42.6615     75.4764
  1670.7500     26.3574     28.8917     30.3506     47.6882     76.5086
  1671.0000     26.2636     30.8941     32.7393     53.8947     78.8456
  1671.2500     26.1868     32.8194     35.1471     61.2550     80.7037
  1671.5000     26.1266     34.5926     37.4939     69.5027     83.7254
  1671.7500     26.0818     36.1487     39.6816     78.0748     85.8954
  1672.0000     26.0520     37.4312     41.5995     86.1518     89.2414
  1672.2500     26.0377     38.3900     43.1384     92.8159     91.1780
  1672.5000     26.0412     38.9861     44.2114     97.2696     92.8003
  1672.7500     26.0653     39.2012     44.7768     99.0215     92.6664
  1673.0000     26.1121     39.0442     44.8543     97.9675     90.3496
  1673.2500     26.1818     38.5517     44.5254     94.3564     87.3724
  1673.5000     26.2709     37.7839     43.9171     88.6785     81.3026
  1673.7500     26.3722     36.8256     43.1773     81.5331     77.0454
  1674.0000     26.4757     35.7847     42.4478     73.5366     72.3771
  1674.2500     26.5701     34.7805     41.8472     65.3153     71.3984
  1674.5000     26.6450     33.9207     41.4599     57.5718     73.7228
  1674.7500     26.6929     33.2751     41.3333     51.1376     77.3468
  1675.0000     26.7105     32.8583     41.4770     46.9206     83.8653
  1675.2500     26.6994     32.6283     41.8623     45.7410     87.5091
  1675.5000     26.6658     32.4994     42.4222     48.1374     90.5982
  1675.7500     26.6195     32.3656     43.0518     54.2351     91.3292
  1676.0000     26.5721     32.1289     43.6149     63.7026     91.4510
  1676.2500     26.5355     31.7258     43.9588     75.7668     90.9623
  1676.5000     26.5192     31.1494     43.9409     89.2399     88.8923
  1676.7500     26.5292     30.4538     43.4622    102.5428     86.8670
  1677.0000     26.5665     29.7398     42.4965    113.7722     84.6488
  1677.2500     26.6272     29.1227     41.1020    120.9179     84.7492
  1677.5000     26.7037     28.6995     39.4070    122.2997     87.5867
  1677.7500     26.7860     28.5248     37.5767    117.1231     90.7484
  1678.0000     26.8642     28.6012     35.7741    105.8816     96.4810
  1678.2500     26.9300     28.8811     34.1326     90.3454    100.7135
  1678.5000     26.9785     29.2753     32.7423     73.1036    107.5186
  1678.7500     27.0080     29.6684     31.6492     56.8619    112.2032
  1679.0000     27.0212     29.9401     30.8613     43.7804    118.5771
  1679.2500     27.0243     29.9885     30.3545     35.0652    121.2642
  1679.5000     27.0263     29.7522     30.0773     30.9050    120.5488
  1679.7500     27.0380     29.2223     29.9534     30.7261    116.2763
  1680.0000     27.0702     28.4404     29.8861     33.6176    105.8036
  1680.2500     27.1317     27.4835     29.7658     38.6973     98.1339
  1680.5000     27.2276     26.4417     29.4850     45.2058     88.6003
  1680.7500     27.3577     25.3970     28.9593     52.2868     84.3848
  1681.0000     27.5160     24.4092     28.1484     58.6957     81.7062
  1681.2500     27.6921     23.5128     27.0668     62.8299     82.5448
  1681.5000     27.8724     22.7193     25.7775     63.2694     87.8512
  1681.7500     28.0432     22.0247     24.3712     59.5340     93.6625
  1682.0000     28.1922     21.4161     22.9423     52.4586    104.2810
  1682.2500     28.3097     20.8767     21.5700     43.8254    111.7825
  1682.5000     28.3896     20.3903     20.3092     35.5024    122.8795
  1682.7500     28.4285     19.9438     19.1920     28.7021    129.9306
  1683.0000     28.4265     19.5288     18.2322     23.7798    139.2528
  1683.2500     28.3868     19.1417     17.4320     20.5061    143.8831
  1683.5000     28.3161     18.7838     16.7878     18.4591    147.1216
  1683.7500     28.2243     18.4611     16.2941     17.2698    146.5478
  1684.0000     28.1229     18.1865     15.9463     16.6795    142.8804
  1684.2500     28.0229     17.9809     15.7418     16.5102    140.1763
  1684.5000     27.9330     17.8718     15.6806     16.6319    138.2468
  1684.7500     27.8577     17.8880     15.7647     16.9570    138.6857
  1685.0000     27.7977     18.0533     15.9979     17.4538    140.2389
  1685.2500     27.7509     18.3792     16.3836     18.1757    140.4337
  1685.5000     27.7139     18.8619     16.9239     19.2881    138.0794
  1685.7500     27.6847     19.4827     17.6166     21.0659    134.9296
  1686.0000     27.6628     20.2100     18.4521     23.8229    129.1453
  1686.2500     27.6495     21.0014     19.4107     27.7526    125.2558
  1686.5000     27.6470     21.8017     20.4591     32.7233    119.6730
  1686.7500     27.6569     22.5405     21.5482     38.1454    115.9601
  1687.0000     27.6804     23.1320     22.6130     43.0504    110.4240
  1687.2500     27.7183     23.4841     23.5737     46.4208    107.2319
  1687.5000     27.7721     23.5186     24.3403     47.6299    104.4766
  1687.7500     27.8443     23.1943     24.8220     46.7306    104.5234
  1688.0000     27.9383     22.5249     24.9401     44.4035    107.3336
  1688.2500     28.0577     21.5790     24.6454     41.5893    110.4081
  1688.5000     28.2043     20.4615     23.9349     39.0306    115.1997
  1688.7500     28.3771     19.2827     22.8582     36.9767    117.6907
  1689.0000     28.5715     18.1303     21.5092     35.1836    120.2056
  1689.2500     28.7798     17.0550     20.0040     33.1671    121.8689
  1689.5000     28.9930     16.0718     18.4562     30.5452    126.0798
  1689.7500     29.2018     15.1724     16.9572     27.2748    130.3912
  1690.0000     29.3988     14.3397     15.5696     23.6629    138.3996
  1690.2500     29.5783     13.5591     14.3277     20.1791    144.1336
  1690.5000     29.7367     12.8251     13.2451     17.2148    152.6476
  1690.7500     29.8715     12.1401     12.3213     14.9419    158.1095
  1691.0000     29.9808     11.5118     11.5482     13.3181    165.9373
  1691.2500     30.0636     10.9476     10.9137     12.1846    170.7979
  1691.5000     30.1197     10.4519     10.4047     11.3725    176.6508
  1691.7500     30.1508     10.0237     10.0075     10.7714    178.6967
  1692.0000     30.1607      9.6575      9.7086     10.3494    177.8555
  1692.2500     30.1550      9.3455      9.4938     10.1371    174.8626
  1692.5000     30.1401      9.0802      9.3489     10.1900    168.4621
  1692.7500     30.1217      8.8560      9.2590     10.5459    164.1897
  1693.0000     30.1039      8.6701      9.2096     11.1928    159.3233
  1693.2500     30.0886      8.5215      9.1865     12.0516    157.5656
  1693.5000     30.0755      8.4100      9.1778     12.9770    157.4575
  1693.7500     30.0628      8.3357      9.1743     13.7850    158.8806
  1694.0000     30.0480      8.2993      9.1709     14.3055    162.1611
  1694.2500     30.0284      8.3010      9.1663     14.4419    164.3855
  1694.5000     30.0017      8.3403      9.1627     14.2051    167.2219
  1694.7500     29.9656      8.4138      9.1650     13.6991    168.7254
  1695.0000     29.9187      8.5152      9.1796     13.0675    169.8488
  1695.2500     29.8595      8.6349      9.2132     12.4378    169.2713
  1695.5000     29.7874      8.7628      9.2722     11.8971    166.1266
  1695.7500     29.7019      8.8905      9.3614     11.5052    163.2189
  1696.0000     29.6038      9.0137      9.4843     11.3214    159.8489
  1696.2500     29.4953      9.1330      9.6421     11.4131    159.2161
  1696.5000     29.3800      9.2533      9.8346     11.8298    160.1275
  1696.7500     29.2628      9.3824     10.0603     12.5613    160.4468
  1697.0000     29.1490      9.5303     10.3175     13.5111    158.0550
