~Version Information
VERS.                      2.0: CWLS Log ASCII Standard - VERSION 2.0
WRAP.                       NO: One line per depth step
~Well Information Block
STRT.FT               850.0000: 
STOP.FT              1609.7000: 
STEP.FT                 0.1000: 
NULL.                -999.2500: 
COMP.          Petrogulf Corporation: COMPANY
WELL.          Great Plains 22-21R: WELL
FLD.           Purgatorie River: FIELD
LOC.           73' FNL & 1992' FWL: LOCATION
PROV.                 Colorado: PROVINCE
CNTY.               Las Animas: COUNTRY
SRVC.                Patterson: SERVICE COMPANY
DATE.          Wed Sep 14 12:10:29 2005: LOG DATE
UWI.                          : UNIQUE WELL ID
~Curve Information Block
DEPT.FT            0 000 00 00: Depth
NPOR.pu                       : Neutron Porosity
GR.GAPI                       : Gamma Ray
CCL.                          : Casing Collar Locator
~Parameter Information Block
~A  Depth       NPOR         GR         CCL     
# ...
  1100.5000     19.8717     95.2612      0.0000
  1100.6000     19.8717     95.2612      0.0000
  1100.7000     19.8717     95.2612      0.0000
  1100.8000     20.9540     99.8739      0.0000
  1100.9000     20.9540     99.8739      0.0000
  1101.0000     21.9299    106.6960      0.0000
  1101.1000     21.9299    106.6960      0.0000
  1101.2000     21.9299    106.6960      0.0000
  1101.3000     22.7685    114.4760      0.0000
  1101.4000     22.7685    114.4760      0.0000
  1101.5000     23.4973    121.8948      0.0000
  1101.6000     23.4973    121.8948      0.0000
  1101.7000     23.4973    121.8948      0.0000
  1101.8000     24.1158    128.6230      0.0000
  1101.9000     24.1158    128.6230      0.0000
  1102.0000     24.5892    134.7747      0.0000
  1102.1000     24.5892    134.7747      0.0000
  1102.2000     24.5892    134.7747      0.0000
  1102.3000     24.9120    139.8255      0.0000
  1102.4000     24.9120    139.8255      0.0000
  1102.5000     25.1304    142.7134      0.0000
  1102.6000     25.1304    142.7134      0.0000
  1102.7000     25.1304    142.7134      0.0000
  1102.8000     25.2841    142.8725      0.0000
  1102.9000     25.2841    142.8725      0.0000
  1103.0000     25.3533    140.8663      0.0000
  1103.1000     25.3533    140.8663      0.0000
  1103.2000     25.3533    140.8663      0.0000
  1103.3000     25.2906    138.1347      0.0000
  1103.4000     25.2906    138.1347      0.0000
  1103.5000     25.0998    136.1380      0.0000
  1103.6000     25.0998    136.1380      0.0000
  1103.7000     25.0998    136.1380      0.0000
  1103.8000     24.8527    135.2725      0.0000
  1103.9000     24.8527    135.2725      0.0000
  1104.0000     24.6174    134.4390      0.0000
  1104.1000     24.6174    134.4390      0.0000
  1104.2000     24.6174    134.4390      0.0000
  1104.3000     24.3824    131.9946      0.0000
  1104.4000     24.3824    131.9946      0.0000
  1104.5000     24.0689    127.2396      0.0000
  1104.6000     24.0689    127.2396      0.0000
  1104.7000     24.0689    127.2396      0.0000
  1104.8000     23.6257    120.7856      0.0000
  1104.9000     23.6257    120.7856      0.0000
  1105.0000     23.1055    113.6930      0.0000
  1105.1000     23.1055    113.6930      0.0000
  1105.2000     23.1055    113.6930      0.0000
  1105.3000     22.6298    106.8061      0.0000
  1105.4000     22.6298    106.8061      0.0000
  1105.5000     22.2781    100.9126      0.0000
  1105.6000     22.2781    100.9126      0.0000
  1105.7000     22.2781    100.9126      0.0000
  1105.8000     22.0333     96.8161      0.0000
  1105.9000     22.0333     96.8161      0.0000
  1106.0000     21.8383     94.7259      0.0000
  1106.1000     21.8383     94.7259      0.0000
  1106.2000     21.8383     94.7259      0.0000
  1106.3000     21.6780     93.8371      0.0000
  1106.4000     21.6780     93.8371      0.0000
  1106.5000     21.5897     93.0600      0.0000
  1106.6000     21.5897     93.0600      0.0000
  1106.7000     21.5897     93.0600      0.0000
  1106.8000     21.6208     92.2756      0.0000
  1106.9000     21.6208     92.2756      0.0000
  1107.0000     21.8073     92.5918      0.0000
  1107.1000     21.8073     92.5918      0.0000
  1107.2000     21.8073     92.5918      0.0000
  1107.3000     22.1767     95.1705      0.0000
  1107.4000     22.1767     95.1705      0.0000
  1107.5000     22.7445     99.8866      0.0000
  1107.6000     22.7445     99.8866      0.0000
  1107.7000     22.7445     99.8866      0.0000
  1107.8000     23.5108    105.2348      0.0000
  1107.9000     23.5108    105.2348      0.0000
  1108.0000     24.4833    109.4577      0.0000
  1108.1000     24.4833    109.4577      0.0000
  1108.2000     24.4833    109.4577      0.0000
  1108.3000     25.6901    111.4501      0.0000
  1108.4000     25.6901    111.4501      0.0000
  1108.5000     27.1333    110.6305      0.0000
  1108.6000     27.1333    110.6305      0.0000
  1108.7000     27.1333    110.6305      0.0000
  1108.8000     28.7168    106.6311      0.0000
  1108.9000     28.7168    106.6311      0.0000
  1109.0000     30.2523     99.6738      0.0000
  1109.1000     30.2523     99.6738      0.0000
  1109.2000     30.2523     99.6738      0.0000
  1109.3000     31.5700     91.0266      0.0000
  1109.4000     31.5700     91.0266      0.0000
  1109.5000     32.6125     82.5747      0.0000
  1109.6000     32.6125     82.5747      0.0000
  1109.7000     32.6125     82.5747      0.0000
  1109.8000     33.3988     75.8250      0.0000
  1109.9000     33.3988     75.8250      0.0000
  1110.0000     33.9231     71.2919      0.0000
  1110.1000     33.9231     71.2919      0.0000
  1110.2000     33.9231     71.2919      0.0000
  1110.3000     34.1410     68.5278      0.0000
  1110.4000     34.1410     68.5278      0.0000
  1110.5000     34.0580     66.5862      0.0000
  1110.6000     34.0580     66.5862      0.0000
  1110.7000     34.0580     66.5862      0.0000
  1110.8000     33.7823     64.6784      0.0000
  1110.9000     33.7823     64.6784      0.0000
  1111.0000     33.4629     62.6825      0.0000
  1111.1000     33.4629     62.6825      0.0000
  1111.2000     33.4629     62.6825      0.0000
  1111.3000     33.1956     61.1455      0.0000
  1111.4000     33.1956     61.1455      0.0000
  1111.5000     33.0070     60.8865      0.0000
  1111.6000     33.0070     60.8865      0.0000
  1111.7000     33.0070     60.8865      0.0000
  1111.8000     32.8840     62.5549      0.0000
  1111.9000     32.8840     62.5549      0.0000
  1112.0000     32.7774     66.4203      0.0000
  1112.1000     32.7774     66.4203      0.0000
  1112.2000     32.7774     66.4203      0.0000
  1112.3000     32.6050     72.3261      0.0000
  1112.4000     32.6050     72.3261      0.0000
  1112.5000     32.2980     79.6021      0.0000
  1112.6000     32.2980     79.6021      0.0000
  1112.7000     32.2980     79.6021      0.0000
  1112.8000     31.8478     86.9589      0.0000
  1112.9000     31.8478     86.9589      0.0000
  1113.0000     31.2982     92.7775      0.0000
  1113.1000     31.2982     92.7775      0.0000
  1113.2000     31.2982     92.7775      0.0000
  1113.3000     30.7088     96.0306      0.0000
  1113.4000     30.7088     96.0306      0.0000
  1113.5000     30.1263     97.1264      0.0000
  1113.6000     30.1263     97.1264      0.0000
  1113.7000     30.1263     97.1264      0.0000
  1113.8000     29.5635     97.5713      0.0000
  1113.9000     29.5635     97.5713      0.0000
  1114.0000     28.9867     98.5527      1.0000
  1114.1000     28.9867     98.5527      0.0000
  1114.2000     28.9867     98.5527      0.0000
  1114.3000     28.3289     99.9164      0.0000
  1114.4000     28.3289     99.9164      0.0000
  1114.5000     27.5427    100.6046      0.0000
  1114.6000     27.5427    100.6046      0.0000
  1114.7000     27.5427    100.6046      0.0000
  1114.8000     26.6572     99.9689      0.0000
  1114.9000     26.6572     99.9689      0.0000
  1115.0000     25.7957     98.6593      0.0000
  1115.1000     25.7957     98.6593      0.0000
  1115.2000     25.7957     98.6593      0.0000
  1115.3000     25.1293     98.3449      0.0000
  1115.4000     25.1293     98.3449      0.0000
  1115.5000     24.7866    100.5238      0.0000
  1115.6000     24.7866    100.5238      0.0000
  1115.7000     24.7866    100.5238      0.0000
  1115.8000     24.7863    105.3498      0.0000
  1115.9000     24.7863    105.3498      0.0000
  1116.0000     25.0431    111.4482      0.0000
  1116.1000     25.0431    111.4482      0.0000
  1116.2000     25.0431    111.4482      0.0000
  1116.3000     25.4304    116.9472      0.0000
  1116.4000     25.4304    116.9472      0.0000
  1116.5000     25.8352    120.7828      0.0000
  1116.6000     25.8352    120.7828      0.0000
  1116.7000     25.8352    120.7828      0.0000
  1116.8000     26.1678    123.1040      0.0000
  1116.9000     26.1678    123.1040      0.0000
  1117.0000     26.3581    124.7849      0.0000
  1117.1000     26.3581    124.7849      0.0000
