~Version Information
VERS.                      2.0: CWLS Log ASCII Standard - VERSION 2.0
WRAP.                       NO: One line per depth step
~Well Information Block
STRT.FT                -7.7500: 
STOP.FT               973.7500: 
STEP.FT                 0.2500: 
NULL.                -999.2500: 
COMP.          Pioneer Natural Resources: COMPANY
WELL.              Dylan 42-25: WELL
FLD.           Purgatorie River: FIELD
LOC.           2160' FNL & 855' FEL: LOCATION
PROV.                 Colorado: PROVINCE
CNTY.               Las Animas: COUNTRY
SRVC.          Patterson Wireline: SERVICE COMPANY
DATE.          Fri Apr 29 16:36:17 2005: LOG DATE
UWI.           05-071-08229-00: UNIQUE WELL ID
~Curve Information Block
DEPT.FT            0 000 00 00: Depth
CCL.                          : Casing Collar Locator
TT3.usec                      : CBL 3' Travel Time
AMP3.mV                       : CBL 3' Amplitude
GR.GAPI                       : Gamma Ray
~Parameter Information Block
~A  Depth       CCL         TT3         AMP3         GR     
# ...
   561.7500      0.0000    813.7386      8.8160    127.1903
   562.0000      0.0000    821.2571      8.5986    121.4073
   562.2500      0.0000    823.6503      8.4347    115.4392
   562.5000      0.0000    820.3342      8.3293    110.0052
   562.7500      0.0000    811.8751      8.2534    105.1209
   563.0000      0.0000    800.5626      8.1723    101.1618
   563.2500      0.0000    790.7535      8.0728     99.1208
   563.5000      0.0000    786.6210      7.9626     99.6139
   563.7500      0.0000    788.8229      7.8521    101.8589
   564.0000      0.0000    794.3276      7.7463    104.0162
   564.2500      0.0000    800.0128      7.6550    104.7653
   564.5000      0.0000    805.4271      7.6003    104.5568
   564.7500      0.0000    811.5484      7.6025    105.1544
   565.0000      0.0000    818.2258      7.6599    107.8012
   565.2500      0.0000    823.9172      7.7448    111.9900
   565.5000      0.0000    827.0741      7.8261    116.1767
   565.7500      0.0000    826.6485      7.8933    119.5134
   566.0000      0.0000    821.5886      7.9556    122.6016
   566.2500      0.0000    810.9904      8.0186    126.6136
   566.5000      0.0000    795.4516      8.0719    131.7882
   566.7500      0.0000    778.0286      8.1006    136.8423
   567.0000      0.0000    763.1403      8.1045    140.0356
   567.2500      0.0000    754.2523      8.0994    140.8535
   567.5000      0.0000    752.7493      8.0998    140.3919
   567.7500      0.0000    758.3666      8.1000    139.9113
   568.0000      0.0000    769.4298      8.0759    139.2449
   568.2500      0.0000    782.6673      8.0099    136.9109
   568.5000      0.0000    794.2523      7.9103    131.8204
   568.7500      0.0000    801.8857      7.8018    124.7576
   569.0000      0.0000    805.5906      7.6996    118.1087
   569.2500      0.0000    806.8508      7.6016    113.9720
   569.5000      0.0000    807.7483      7.5032    112.3985
   569.7500      0.0000    810.1225      7.4085    111.5205
   570.0000      0.0000    814.2579      7.3257    109.3425
   570.2500      0.0000    818.4980      7.2544    105.3941
   570.5000      0.0000    820.7502      7.1822    101.0362
   570.7500      0.0000    820.3616      7.0948     98.4119
   571.0000      0.0000    818.5877      6.9916     98.6444
   571.2500      0.0000    817.4313      6.8930    100.7523
   571.5000      0.0000    817.9523      6.8256    102.6131
   571.7500      0.0000    819.4379      6.7992    102.8877
   572.0000      0.0000    820.1077      6.8019    101.5829
   572.2500      0.0000    818.3912      6.8202     99.1361
   572.5000      0.0000    813.6428      6.8562     95.7039
   572.7500      0.0000    806.6182      6.9190     91.2082
   573.0000      0.0000    800.3254      7.0016     85.6627
   573.2500      0.0000    799.7481      7.0769     79.6264
   573.5000      0.0000    808.4112      7.1171     74.5398
   573.7500      0.0000    824.1338      7.1138     72.3534
   574.0000      0.0000    839.4277      7.0760     74.4408
   574.2500      0.0000    846.8782      7.0188     80.6620
   574.5000      0.0000    843.7894      6.9611     89.4351
   574.7500      0.0000    832.3882      6.9267     98.8832
   575.0000      0.0000    817.2795      6.9319    107.9234
   575.2500      0.0000    802.9487      6.9721    116.0951
   575.5000      0.0000    792.2564      7.0270    122.8011
   575.7500      0.0000    785.9131      7.0818    127.5110
   576.0000      0.0000    782.9551      7.1429    130.5253
   576.2500      0.0000    781.7432      7.2335    132.7708
   576.5000      0.0000    780.6955      7.3818    134.8973
   576.7500      0.0000    778.5486      7.6156    136.9057
   577.0000      0.0000    774.6789      7.9556    138.3424
   577.2500      0.0000    769.6569      8.3987    138.5411
   577.5000      0.0000    765.1368      8.9065    136.9567
   577.7500      0.0000    762.4711      9.4225    133.6426
   578.0000      0.0000    761.4364      9.9072    129.4592
   578.2500      0.0000    760.8555     10.3512    125.6528
   578.5000      0.0000    760.1951     10.7616    122.9978
   578.7500      0.0000    759.6861     11.1427    121.4618
   579.0000      0.0000    759.1624     11.4882    120.8097
   579.2500      0.0000    758.1561     11.7847    121.1940
   579.5000      0.0000    757.4683     12.0170    122.8245
   579.7500      0.0000    759.5665     12.1692    125.1575
   580.0000      0.0000    766.4929     12.2175    126.7307
   580.2500      0.0000    777.3221     12.1287    126.0138
   580.5000      0.0000    788.1190     11.8800    122.6358
   580.7500      0.0000    795.2552     11.4878    117.7782
   581.0000      0.0000    799.3523     11.0125    113.2404
   581.2500      0.0000    805.2227     10.5299    110.0794
   581.5000      0.0000    816.9173     10.0948    108.0969
   581.7500      0.0000    833.3054      9.7301    106.3380
   582.0000      0.0000    849.2985      9.4409    103.8370
   582.2500      0.0000    860.6367      9.2314    100.0660
   582.5000      0.0000    866.5468      9.1056     95.1903
   582.7500      0.0000    868.6022      9.0574     90.1509
   583.0000      0.0000    868.4174      9.0629     86.1129
   583.2500      0.0000    866.5605      9.0795     83.5878
   583.5000      0.0000    862.7614      9.0536     82.4380
   583.7500      0.0000    856.4305      8.9437     82.8793
   584.0000      0.0000    846.8531      8.7482     85.8689
   584.2500      0.0000    833.3718      8.5086     91.9646
   584.5000      0.0000    816.1083      8.2814    100.0231
   584.7500      0.0000    796.7051      8.1027    107.3667
   585.0000      0.0000    777.9761      7.9771    111.2703
   585.2500      0.0000    762.6086      7.8963    110.5011
   585.5000      0.0000    752.1390      7.8567    106.0023
   585.7500      0.0000    746.8473      7.8570    100.5421
   586.0000      0.0000    746.2403      7.8852     97.4740
   586.2500      0.0000    749.3547      7.9181     99.0898
   586.5000      0.0000    754.5600      7.9369    105.5442
   586.7500      0.0000    759.5616      7.9423    115.1772
   587.0000      0.0000    762.3569      7.9498    125.8240
   587.2500      0.0000    762.4802      7.9715    135.6409
   587.5000      0.0000    761.1552      8.0056    142.9328
   587.7500      0.0000    760.1003      8.0406    146.2917
   588.0000      0.0000    759.9642      8.0626    145.7022
   588.2500      0.0000    759.6985      8.0631    143.0106
   588.5000      0.0000    757.6761      8.0489    140.5204
   588.7500      0.0000    753.5832      8.0407    139.2483
   589.0000      0.0000    748.9210      8.0577    138.7271
   589.2500      0.0000    745.7228      8.1017    138.1539
   589.5000      0.0000    745.1746      8.1551    137.3583
   589.7500      0.0000    747.2351      8.1960    136.6551
   590.0000      0.0000    750.8362      8.2141    135.9887
   590.2500      0.0000    754.2725      8.2078    134.6117
   590.5000      0.0000    755.9143      8.1715    131.8074
   590.7500      0.0000    755.0089      8.0974    127.8584
   591.0000      0.0000    752.0115      7.9924    124.1408
   591.2500      0.0000    748.1879      7.8872    122.1421
   591.5000      0.0000    744.7913      7.8199    122.2474
   591.7500      0.0000    742.4903      7.8111    123.2413
   592.0000      0.0000    741.4312      7.8527    122.8938
   592.2500      0.0000    741.6236      7.9179    119.5163
   592.5000      0.0000    743.0667      7.9802    113.6283
   592.7500      0.0000    745.4229      8.0227    108.1202
   593.0000      0.0000    747.6752      8.0405    106.0813
   593.2500      0.0000    748.5057      8.0422    108.0571
   593.5000      0.0000    747.3124      8.0457    111.6157
   593.7500      0.0000    744.7080      8.0634    113.5563
   594.0000      0.0000    741.5654      8.0907    112.3130
   594.2500      0.0000    737.5073      8.1141    108.7501
   594.5000      0.0000    730.2527      8.1310    105.3931
   594.7500      0.0000    717.0124      8.1492    104.5392
   595.0000      0.0000    698.3985      8.1571    106.3539
