~Version Information
VERS.                      2.0: CWLS Log ASCII Standard - VERSION 2.0
WRAP.                       NO: One line per depth step
~Well Information Block
STRT.FT               948.2500: 
STOP.FT              2134.5000: 
STEP.FT                 0.2500: 
NULL.                -999.2500: 
COMP.          Petrogulf Corporation: COMPANY
WELL.             Valejo 8-12R: WELL
FLD.           Purgatorie River: FIELD
LOC.           1351'' FNL & 1562' FWL: LOCATION
CNTY.               Las Animas: COUNTY
SRVC.                         : SERVICE COMPANY
DATE.          Wed Apr 28 02:30:32 2004: LOG DATE
UWI.           05 071 08038 00: UNIQUE WELL ID
STAT.                 Colorado: STATE
~Curve Information Block
DEPT.FT            0 000 00 00: Depth
SP.mV                         : DIL Spontaneous Potential
RILD.Ohm-m                    : DIL Deep Resistivity
RILM.Ohm-m                    : DIL Medium Resistivity
RLL3.Ohm-m                    : DIL Shallow Resistivity
GR.GAPI                       : Gamma Ray
~Parameter Information Block
~A  Depth        SP         RILD        RILM        RLL3         GR     
# ...
  1508.2500    105.0332      6.9434      7.5607      8.1336    136.3786
  1508.5000    105.1491      6.8652      7.4473      7.5830    136.4127
  1508.7500    105.3255      6.8004      7.4317      7.2216    135.5539
  1509.0000    105.5148      6.7392      7.5038      7.3320    130.4878
  1509.2500    105.6760      6.6774      7.6390      8.3768    123.6077
  1509.5000    105.7792      6.6160      7.7987     10.8291    108.8876
  1509.7500    105.8073      6.5592      7.9368     14.7061     98.3261
  1510.0000    105.7629      6.5118      8.0139     19.0766     86.3843
  1510.2500    105.6707      6.4766      8.0112     22.1868     83.3576
  1510.5000    105.5640      6.4544      7.9356     22.5091     87.4847
  1510.7500    105.4626      6.4430      7.8129     19.9291     94.9944
  1511.0000    105.3618      6.4375      7.6745     15.8388    109.5108
  1511.2500    105.2440      6.4291      7.5450     12.0267    118.7285
  1511.5000    105.1018      6.4068      7.4350      9.5368    128.5896
  1511.7500    104.9494      6.3607      7.3399      8.4199    131.9553
  1512.0000    104.8118      6.2871      7.2438      8.1808    133.4096
  1512.2500    104.7041      6.1908      7.1272      8.2696    133.3220
  1512.5000    104.6178      6.0845      6.9768      8.3113    133.4748
  1512.7500    104.5224      5.9832      6.7916      8.1261    134.0671
  1513.0000    104.3850      5.8997      6.5843      7.6758    134.7437
  1513.2500    104.2003      5.8414      6.3766      7.0231    134.0600
  1513.5000    104.0070      5.8089      6.1922      6.3146    130.2592
  1513.7500    103.8782      5.7961      6.0515      5.7396    126.3215
  1514.0000    103.9017      5.7924      5.9668      5.4500    120.7380
  1514.2500    104.1585      5.7862      5.9420      5.4900    118.4938
  1514.5000    104.6947      5.7706      5.9723      5.7936    117.4296
  1514.7500    105.4822      5.7460      6.0469      6.2483    117.4150
  1515.0000    106.4043      5.7185      6.1504      6.7677    117.3619
  1515.2500    107.2967      5.6955      6.2663      7.3122    117.2427
  1515.5000    108.0256      5.6822      6.3788      7.8620    117.0412
  1515.7500    108.5411      5.6806      6.4762      8.3859    116.8731
  1516.0000    108.8692      5.6910      6.5511      8.8253    116.8556
  1516.2500    109.0658      5.7118      6.6013      9.0833    117.4731
  1516.5000    109.1748      5.7408      6.6284      9.0469    120.0224
  1516.7500    109.2164      5.7743      6.6362      8.6647    122.6568
  1517.0000    109.1974      5.8075      6.6301      8.0136    126.6608
  1517.2500    109.1258      5.8352      6.6155      7.2704    128.3215
  1517.5000    109.0156      5.8527      6.5964      6.6180    128.1988
  1517.7500    108.8820      5.8568      6.5742      6.1827    126.5041
  1518.0000    108.7404      5.8468      6.5475      6.0170    122.7288
  1518.2500    108.6080      5.8243      6.5126      6.0874    120.0310
  1518.5000    108.5007      5.7938      6.4668      6.2771    115.9713
  1518.7500    108.4227      5.7614      6.4099      6.4405    113.1073
  1519.0000    108.3629      5.7339      6.3466      6.4807    108.6214
  1519.2500    108.3068      5.7175      6.2854      6.3892    105.8677
  1519.5000    108.2502      5.7167      6.2372      6.2344    102.9883
  1519.7500    108.1975      5.7346      6.2127      6.1167    102.3859
  1520.0000    108.1512      5.7740      6.2202      6.1198    103.8366
  1520.2500    108.1070      5.8373      6.2646      6.2821    105.9980
  1520.5000    108.0577      5.9265      6.3470      6.5976    109.2392
  1520.7500    107.9981      6.0432      6.4656      7.0246    110.2500
  1521.0000    107.9285      6.1885      6.6184      7.4917    109.3186
  1521.2500    107.8560      6.3629      6.8051      7.9314    107.5501
  1521.5000    107.7980      6.5667      7.0312      8.3605    104.6047
  1521.7500    107.7809      6.8008      7.3077      8.9440    103.1145
  1522.0000    107.8323      7.0653      7.6487      9.9293    102.3127
  1522.2500    107.9640      7.3600      8.0664     11.4470    103.0447
  1522.5000    108.1518      7.6837      8.5657     13.3719    106.2625
  1522.7500    108.3276      8.0361      9.1423     15.4277    109.5113
  1523.0000    108.4020      8.4181      9.7856     17.4108    114.6416
  1523.2500    108.3077      8.8320     10.4838     19.2395    117.3120
  1523.5000    108.0360      9.2782     11.2319     20.8295    119.5032
  1523.7500    107.6456      9.7521     12.0364     22.0782    120.0463
  1524.0000    107.2417     10.2425     12.9170     23.0575    120.2430
  1524.2500    106.9288     10.7309     13.8983     24.2153    119.9279
  1524.5000    106.7629     11.1945     14.9955     26.4532    117.8577
  1524.7500    106.7399     11.6079     16.1957     31.1540    114.9509
  1525.0000    106.8256     11.9478     17.4387     40.0633    108.5605
  1525.2500    106.9912     12.1968     18.6022     54.4672    103.7014
  1525.5000    107.2244     12.3475     19.5080     73.3720     97.2781
  1525.7500    107.5169     12.4027     19.9684     91.9401     94.6267
  1526.0000    107.8503     12.3705     19.8748    102.6477     94.7444
  1526.2500    108.1954     12.2590     19.2704     99.8059     98.2691
  1526.5000    108.5219     12.0754     18.3296     84.0198    108.7551
  1526.7500    108.8120     11.8298     17.2586     62.0557    118.0588
  1527.0000    109.0664     11.5382     16.2071     42.0186    131.8671
  1527.2500    109.2980     11.2202     15.2414     28.5034    139.0092
  1527.5000    109.5143     10.8936     14.3668     21.5385    145.5452
  1527.7500    109.7061     10.5693     13.5648     18.6721    147.7812
  1528.0000    109.8535     10.2527     12.8228     17.3619    149.3376
  1528.2500    109.9407      9.9477     12.1450     16.1192    149.2750
  1528.5000    109.9605      9.6603     11.5451     14.5789    146.8949
  1528.7500    109.9086      9.3984     11.0334     13.0796    143.8278
  1529.0000    109.7843      9.1671     10.6099     12.0871    138.6453
  1529.2500    109.5996      8.9657     10.2670     11.7251    136.2068
  1529.5000    109.3847      8.7884      9.9975     11.6901    135.4650
  1529.7500    109.1810      8.6292      9.7986     11.5905    136.5280
  1530.0000    109.0311      8.4861      9.6699     11.3509    138.3891
  1530.2500    108.9708      8.3603      9.6079     11.2478    138.7639
  1530.5000    109.0219      8.2523      9.5996     11.5698    137.8434
  1530.7500    109.1844      8.1581      9.6204     12.2995    136.9242
  1531.0000    109.4340      8.0698      9.6380     13.1313    136.3071
  1531.2500    109.7252      7.9797      9.6211     13.7258    136.6346
  1531.5000    110.0043      7.8840      9.5497     13.8934    137.9348
  1531.7500    110.2259      7.7831      9.4201     13.5947    139.1532
  1532.0000    110.3686      7.6797      9.2422     12.8985    141.5181
  1532.2500    110.4379      7.5760      9.0318     11.9855    143.4806
  1532.5000    110.4577      7.4732      8.8036     11.1123    146.7135
  1532.7500    110.4625      7.3724      8.5683     10.4737    148.7139
  1533.0000    110.4979      7.2770      8.3326     10.0835    150.9087
  1533.2500    110.6149      7.1924      8.1009      9.8076    151.6789
  1533.5000    110.8467      7.1259      7.8789      9.5045    151.9765
  1533.7500    111.1803      7.0848      7.6756      9.1139    151.8766
  1534.0000    111.5516      7.0747      7.5048      8.6338    151.7120
  1534.2500    111.8714      7.0978      7.3839      8.0780    151.7726
  1534.5000    112.0682      7.1531      7.3319      7.5108    152.2729
  1534.7500    112.1141      7.2376      7.3669      7.1324    152.6859
  1535.0000    112.0250      7.3479      7.5033      7.3020    152.2764
  1535.2500    111.8417      7.4825      7.7488      8.4189    150.4794
  1535.5000    111.6103      7.6407      8.1027     10.6737    145.0672
  1535.7500    111.3687      7.8233      8.5539     13.8369    140.3806
  1536.0000    111.1416      8.0311      9.0820     17.3196    133.8757
