~Version Information
VERS.                      2.0: CWLS Log ASCII Standard - VERSION 2.0
WRAP.                       NO: One line per depth step
~Well Information Block
STRT.FT               250.0000: 
STOP.FT              2600.7000: 
STEP.FT                 0.1000: 
NULL.                -999.2500: 
COMP.          Pioneer Natural Resources: COMPANY
WELL.              Quack 22-24: WELL
FLD.           Purgatoire River: FIELD
LOC.           2492' FNL & 2459' FWL--: LOCATION
PROV.                 Colorado: PROVINCE
CNTY.               Las Animas: COUNTRY
SRVC.                Patterson: SERVICE COMPANY
DATE.          Mon Jun 13 08:03:15 2005: LOG DATE
UWI.            05 071 0840200: UNIQUE WELL ID
~Curve Information Block
DEPT.FT            0 000 00 00: Depth
DCAL.in                       : CDL Caliper
RHOB.g/cc                     : CDL Bulk Density
RHOC.g/cc                     : CDL Density Correction
DPOR.pu                       : CDL Density Porosity
NPOR.pu                       : Neutron Porosity
GR.GAPI                       : Gamma Ray
~Parameter Information Block
~A  Depth       DCAL        RHOB        RHOC        DPOR        NPOR         GR     
# ...
   874.0000      8.2518      1.9792      0.5203     40.6529     16.8612    114.7659
   874.1000      8.2518      2.0772      0.5140     34.7143     17.6486    112.6314
   874.2000      8.2518      2.1495      0.5081     30.3322     18.5625    114.5205
   874.3000      8.4498      2.2211      0.4980     25.9950     19.6562    115.3757
   874.4000      8.4498      2.3187      0.5770     20.0781     20.4218    114.0092
   874.5000      8.6238      2.4339      0.6715     13.0984     20.8860    113.4034
   874.6000      8.6238      2.5272      0.6638      7.4431     21.7025    113.9204
   874.7000      8.6238      2.5653      0.6386      5.1331     22.8972    114.7332
   874.8000      8.7684      2.5449      0.5455      6.3698     23.8738    118.2658
   874.9000      8.7684      2.5024      0.4045      8.9464     24.1950    124.7341
   875.0000      8.9937      2.4846      0.3292     10.0213     23.6050    130.5825
   875.1000      8.9937      2.4988      0.3121      9.1609     22.2249    133.9618
   875.2000      8.9937      2.5111      0.3578      8.4175     20.7889    133.3428
   875.3000      9.2531      2.4836      0.3714     10.0843     19.8375    128.8344
   875.4000      9.2531      2.4093      0.3084     14.5886     19.4248    122.2404
   875.5000      9.2447      2.3105      0.2840     20.5765     19.2751    115.3323
   875.6000      9.2447      2.2136      0.2247     26.4508     19.0630    112.0673
   875.7000      9.2447      2.1376      0.2180     31.0520     18.9184    113.7109
   875.8000      8.8960      2.0858      0.2046     34.1918     19.1766    117.9323
   875.9000      8.8960      2.0587      0.1832     35.8338     19.8646    120.3072
   876.0000      8.6256      2.0817      0.1571     34.4429     20.7318    118.1299
   876.1000      8.6256      2.1845      0.2482     28.2131     21.5636    117.4703
   876.2000      8.6256      2.3433      0.4888     18.5863     22.4627    122.3832
   876.3000      8.6553      2.4800      0.5719     10.3059     23.2301    125.7152
   876.4000      8.6553      2.5250      0.6035      7.5746     23.4341    123.0388
   876.5000      8.8343      2.4638      0.5137     11.2824     23.4030    119.3774
   876.6000      8.8343      2.3488      0.3238     18.2554     23.9070    117.6434
   876.7000      8.8343      2.2612      0.2800     23.5624     24.7467    117.2365
   876.8000      8.9244      2.2419      0.2706     24.7333     25.0502    117.9043
   876.9000      8.9244      2.2775      0.3101     22.5746     24.8120    117.9094
   877.0000      8.8645      2.3403      0.3238     18.7672     24.5573    116.5294
   877.1000      8.8645      2.4116      0.3985     14.4511     24.1585    116.6135
   877.2000      8.8645      2.4608      0.4937     11.4679     23.5687    118.4000
   877.3000      8.7652      2.4566      0.4940     11.7213     23.3130    117.9605
   877.4000      8.7652      2.4055      0.4267     14.8154     23.4533    115.2288
   877.5000      8.6698      2.3306      0.3657     19.3591     23.8006    115.0949
   877.6000      8.6698      2.2340      0.3441     25.2151     24.3582    117.7915
   877.7000      8.6698      2.1305      0.2387     31.4866     25.1144    118.9933
   877.8000      8.5909      2.0763      0.2334     34.7692     25.9382    116.8807
   877.9000      8.5909      2.1172      0.2545     32.2889     26.5408    114.3453
   878.0000      8.5422      2.2382      0.3946     24.9593     26.9283    116.2020
   878.1000      8.5422      2.3777      0.5440     16.5059     27.2161    123.5413
   878.2000      8.5422      2.4883      0.5595      9.7999     27.2320    130.0157
   878.3000      8.4944      2.5609      0.5737      5.3974     27.0598    129.4372
   878.4000      8.4944      2.5941      0.5457      3.3889     27.2689    124.2684
   878.5000      8.4409      2.5895      0.4879      3.6662     27.9131    121.5183
   878.6000      8.4409      2.5542      0.4817      5.8058     28.6516    123.3119
   878.7000      8.4409      2.4846      0.4309     10.0256     29.4618    123.3623
   878.8000      8.4198      2.3931      0.3231     15.5705     30.1227    119.4127
   878.9000      8.4198      2.3313      0.2384     19.3178     30.3238    117.8631
   879.0000      8.4541      2.3390      0.3173     18.8459     30.5059    121.4099
   879.1000      8.4541      2.3963      0.3822     15.3754     31.0772    125.0287
   879.2000      8.4541      2.4584      0.4224     11.6150     31.5076    124.7442
   879.3000      8.5487      2.5092      0.4423      8.5346     31.3856    123.5956
   879.4000      8.5487      2.5554      0.5095      5.7317     30.9313    126.1525
   879.5000      8.6872      2.5876      0.5682      3.7837     30.2678    131.0422
   879.6000      8.6872      2.5770      0.5449      4.4227     29.4052    135.7652
   879.7000      8.6872      2.5063      0.4531      8.7116     28.3359    139.4886
   879.8000      8.9113      2.3849      0.3313     16.0656     26.7362    139.6317
   879.9000      8.9113      2.2281      0.2540     25.5690     24.2053    137.3648
   880.0000      9.2721      2.0395      0.1982     36.9999     21.2117    136.8422
   880.1000      9.2721      1.8368      0.1705     49.2864     18.5111    136.5621
   880.2000      9.2721      1.6940      0.0981     57.9408     16.0866    132.7000
   880.3000      9.6509      1.7137      0.1535     56.7443     14.0350    127.8770
   880.4000      9.6509      1.8821      0.3990     46.5396     12.7800    126.6263
   880.5000      9.9478      2.0323      0.5617     37.4388     12.4379    128.3365
   880.6000      9.9478      2.0325      0.6719     37.4252     12.8646    128.3255
   880.7000      9.9478      1.9256      0.5949     43.9059     13.9582    123.5770
   880.8000     10.2620      1.8497      0.5508     48.5011     15.9095    116.6580
   880.9000     10.2620      1.8772      0.5994     46.8386     18.7921    113.6850
   881.0000     10.6018      1.9772      0.6356     40.7754     22.0508    117.7311
   881.1000     10.6018      2.0992      0.6611     33.3846     24.9325    124.4005
   881.2000     10.6018      2.2089      0.6926     26.7355     26.8243    126.1097
   881.3000     10.6347      2.2817      0.6771     22.3190     27.4485    120.2501
   881.4000     10.6347      2.3222      0.6396     19.8648     26.9569    112.2239
   881.5000     10.0106      2.3595      0.5277     17.6057     25.8048    109.6570
   881.6000     10.0106      2.4078      0.4894     14.6795     24.5235    112.4007
   881.7000     10.0106      2.4497      0.4553     12.1399     23.4178    115.5150
   881.8000      8.9946      2.4632      0.3292     11.3236     22.7757    119.5179
   881.9000      8.9946      2.4423      0.2767     12.5858     22.7075    126.1986
   882.0000      8.3954      2.3897      0.2148     15.7769     22.5917    131.3581
   882.1000      8.3954      2.3148      0.0907     20.3170     22.0326    131.9296
   882.2000      8.3954      2.2377      0.0874     24.9899     21.3601    130.5365
   882.3000      8.2970      2.1857      0.0297     28.1404     20.6442    131.4118
   882.4000      8.2970      2.1653      0.1821     29.3756     19.7237    135.3073
   882.5000      8.3684      2.1366      0.1670     31.1154     18.5022    137.7925
   882.6000      8.3684      2.0672      0.0945     35.3199     17.2402    136.8884
   882.7000      8.3684      1.9932     -0.0136     39.8048     16.6810    136.3383
   882.8000      8.4688      1.9891      0.0231     40.0554     16.7096    137.8014
   882.9000      8.4688      2.0819      0.1649     34.4287     16.4315    137.4253
   883.0000      8.5831      2.2239      0.3460     25.8253     15.7663    131.6003
   883.1000      8.5831      2.3472      0.3988     18.3492     15.1514    123.8934
   883.2000      8.5831      2.4074      0.4922     14.7008     14.7945    120.9703
   883.3000      8.7410      2.3711      0.4706     16.9009     14.6252    123.1156
   883.4000      8.7410      2.2358      0.3854     25.1026     14.4070    126.6616
   883.5000      8.9636      2.0706      0.1554     35.1155     14.2605    127.9371
