~Version Information
 VERS.                                  2.0 : CWLS LAS VERSION
 WRAP.                                   NO : WRAPING MODE
 SWARE .                 MController 2.5.0E : SOFTWARE VERSION
~Well Information
 WELL.                          SUNSET 24-3 : WELL
 COMP.                            EVERGREEN : COMPANY
 FLD.                      PURGATOIRE RIVER : FIELD
 LOC.                  SE/SW SEC3 T33S R65W : LOCATION
 DATE.                             09/22/04 : DATE(S) LOGGED
 SRVC.       BLANCO GEOLOGICAL SERVICES LLC : SERVICE COMPANY
 STAT.                             COLORADO : STATE
 CNTY.                           LAS ANIMAS : COUNTY
 CTRY.                                  USA : COUNTRY
 API.                       05-071-08158-00 : API NUMBER
 STRT.FT                             506.00 : START DEPTH
 STOP.FT                            1050.00 : STOP DEPTH
 STEP.FT                               1.00 : DEPTH INCREMENT
 NULL.                                -9999 : NULL VALUE
~Curve information
 DEPTH.FT                                   :
 ROP.MIN/FT                                 :
 GAS.UNITS                                  :
~ASCII Log data
# ...
      706.00        0.200         56.7 
      707.00        0.167         57.3 
      708.00        0.167         57.5 
      709.00        0.167         58.2 
      710.00        0.167         58.4 
      711.00        0.167         57.8 
      712.00        0.200         56.2 
      713.00        0.167         54.2 
      714.00        0.167         52.3 
      715.00        0.167         51.2 
      716.00        1.883        153.1 
      717.00        0.333        157.3 
      718.00        0.233        153.7 
      719.00        0.233        142.8 
      720.00        0.233        127.7 
      721.00        0.167        112.6 
      722.00        0.200        100.8 
      723.00        0.167         88.4 
      724.00        0.200         79.4 
      725.00        0.167         69.9 
      726.00        0.100         63.3 
      727.00        0.167         60.4 
      728.00        0.167         56.7 
      729.00        0.167         54.3 
      730.00        0.167         51.8 
      731.00        0.217         50.3 
      732.00        0.200         48.1 
      733.00        0.233         46.2 
      734.00        0.167         42.7 
      735.00        0.100         40.4 
      736.00        0.167         39.7 
      737.00        0.167         38.0 
      738.00        0.133         37.0 
      739.00        0.200         36.3 
      740.00        0.233         36.3 
      741.00        0.200         35.4 
      742.00        0.133         34.1 
      743.00        0.167         33.3 
      744.00        0.167         32.9 
      745.00        0.167         32.1 
      746.00        1.517        169.1 
      747.00        0.200        222.8 
      748.00        0.167        256.2 
      749.00        0.233        274.4 
      750.00        0.100        274.3 
      751.00        0.100        272.1 
      752.00        0.233        265.7 
      753.00        0.200        238.3 
      754.00        0.100        208.6 
      755.00        0.167        194.4 
      756.00        0.133        173.7 
      757.00        0.133        159.3 
      758.00        0.167        146.3 
      759.00        0.167        131.6 
      760.00        0.167        117.9 
      761.00        0.133        107.7 
      762.00        0.167        100.3 
      763.00        0.183         92.8 
      764.00        0.133         84.7 
      765.00        0.167         79.2 
      766.00        0.133         72.1 
      767.00        0.167         68.0 
      768.00        0.133         65.1 
      769.00        0.100         63.3 
      770.00        0.100         62.0 
      771.00        0.133         60.8 
      772.00        0.133         59.2 
      773.00        0.133         58.0 
      774.00        0.067         57.3 
      775.00        0.200         56.8 
      776.00        2.317        348.7 
      777.00        0.233        338.0 
      778.00        0.200        303.6 
      779.00        0.200        268.8 
      780.00        0.167        234.0 
      781.00        0.167        212.6 
      782.00        0.133        188.6 
      783.00        0.200        171.9 
      784.00        0.167        150.0 
      785.00        0.233        135.2 
      786.00        0.200        119.1 
      787.00        0.233        108.6 
      788.00        0.200         98.6 
      789.00        0.233         91.7 
      790.00        0.250         84.8 
      791.00        0.133         79.5 
      792.00        0.167         78.2 
      793.00        0.167         75.6 
      794.00        0.200         73.0 
      795.00        0.200         69.8 
      796.00        0.200         66.5 
      797.00        0.200         63.4 
      798.00        0.233         62.2 
      799.00        0.200         63.2 
      800.00        0.167         63.1 
      801.00        0.167         60.7 
      802.00        0.167         57.2 
      803.00        0.167         54.0 
      804.00        0.167         51.7 
      805.00        0.167         50.1 
      806.00        1.483        126.0 
      807.00        0.267        154.4 
      808.00        0.133        162.3 
      809.00        0.167        165.8 
      810.00        0.200        166.0 
      811.00        0.200        162.2 
      812.00        0.133        155.3 
      813.00        0.100        152.0 
      814.00        0.100        150.4 
      815.00        0.200        151.0 
      816.00        0.200        153.3 
      817.00        0.233        153.1 
      818.00        0.167        151.2 
      819.00        0.200        153.4 
      820.00        0.183        153.4 
      821.00        0.167        150.5 
      822.00        0.167        145.5 
      823.00        0.200        138.1 
      824.00        0.167        129.7 
      825.00        0.100        122.4 
      826.00        0.100        118.3 
      827.00        0.100        112.5 
      828.00        0.133        105.5 
      829.00        0.133         96.1 
      830.00        0.133         88.1 
      831.00        0.200         83.2 
      832.00        0.133         76.1 
      833.00        0.167         73.0 
      834.00        0.133         70.6 
      835.00        0.100         69.8 
      836.00        1.350         70.2 
      837.00        0.200         59.6 
      838.00        0.233         56.4 
      839.00        0.233         60.7 
      840.00        0.167         65.9 
      841.00        0.167         71.1 
      842.00        0.133         74.0 
      843.00        0.133         78.0 
      844.00        0.200         83.6 
      845.00        0.233         89.1 
      846.00        0.133         91.9 
      847.00        0.167         96.2 
      848.00        0.100         99.1 
      849.00        0.100        102.3 
      850.00        0.100        105.8 
      851.00        0.133        110.2 
      852.00        0.133        113.4 
      853.00        0.167        116.0 
      854.00        0.167        118.7 
      855.00        0.200        121.6 
      856.00        0.217        122.0 
      857.00        0.167        121.1 
      858.00        0.233        118.3 
      859.00        0.167        111.2 
      860.00        0.200        105.8 
      861.00        0.167        100.6 
      862.00        0.200         95.1 
      863.00        0.200         87.8 
      864.00        0.200         82.2 
      865.00        0.267         76.6 
      866.00        1.683         70.9 
      867.00        0.233         32.6 
      868.00        0.233         29.2 
      869.00        0.233         28.2 
      870.00        0.233         26.4 
      871.00        0.233         25.8 
      872.00        0.200         25.3 
      873.00        0.200         25.1 
      874.00        0.133         25.3 
      875.00        0.200         25.7 
      876.00        0.167         26.1 
      877.00        0.133         26.5 
      878.00        0.167         26.1 
      879.00        0.167         26.4 
      880.00        0.167         26.3 
      881.00        0.167         26.7 
      882.00        0.183         26.8 
      883.00        0.167         26.6 
      884.00        0.167         25.9 
      885.00        0.133         26.4 
      886.00        0.167         26.2 
      887.00        0.167         26.6 
      888.00        0.167         26.3 
      889.00        0.167         25.8 
      890.00        0.167         25.6 
      891.00        0.133         25.9 
      892.00        0.167         25.8 
      893.00        0.133         25.3 
      894.00        0.167         25.3 
      895.00        0.133         25.1 
      896.00        2.250         25.1 
      897.00        0.133         22.6 
      898.00        0.167         22.5 
      899.00        0.233         21.9 
      900.00        0.167         22.4 
      901.00        0.200         27.7 
      902.00        0.200         31.4 
      903.00        0.200         31.1 
      904.00        0.167         28.7 
      905.00        0.233         27.0 
