~Version Information
 VERS.                                  2.0 : CWLS LAS VERSION
 WRAP.                                   NO : WRAPING MODE
 SWARE .                 MController 2.5.0E : SOFTWARE VERSION
~Well Information
 WELL.                          Patten 22-2 : WELL
 COMP.           Pionneer Natural Resources : COMPANY
 FLD.                      Purgatoire River : FIELD
 LOC.                 SE/NW Sec 2 T35S R65W : LOCATION
 DATE.                             12/09/04 : DATE(S) LOGGED
 SRVC.                Blanco Geological LLC : SERVICE COMPANY
 STAT.                                   CO : STATE
 CNTY.                           Las Aminas : COUNTY
 CTRY.                                  USA : COUNTRY
 API.                          05-071-08168 : API NUMBER
 STRT.FT                             276.00 : START DEPTH
 STOP.FT                            1707.00 : STOP DEPTH
 STEP.FT                               1.00 : DEPTH INCREMENT
 NULL.                                -9999 : NULL VALUE
~Curve information
 DEPTH.FT                                   :
 ROP.MIN/FT                                 :
 GAS.UNITS                                  :
~ASCII Log data
# ...
     1276.00        0.133          1.3 
     1277.00        0.167          2.1 
     1278.00        0.233          2.0 
     1279.00        0.200          2.5 
     1280.00        0.233          3.1 
     1281.00        0.200          3.8 
     1282.00        0.200          4.9 
     1283.00        0.233          5.4 
     1284.00        0.367          4.8 
     1285.00        0.400          3.0 
     1286.00        3.350          5.5 
     1287.00        0.283          7.5 
     1288.00        0.167          7.2 
     1289.00        0.267          6.8 
     1290.00        0.167          6.4 
     1291.00        0.167          5.8 
     1292.00        0.133          4.7 
     1293.00        0.200          4.4 
     1294.00        0.100          3.2 
     1295.00        0.133          3.2 
     1296.00        0.100          2.8 
     1297.00        0.100          2.9 
     1298.00        0.133          2.2 
     1299.00        0.167          2.3 
     1300.00        0.200          2.4 
     1301.00        0.167          1.7 
     1302.00        0.167          2.2 
     1303.00        0.167          2.2 
     1304.00        0.200          1.7 
     1305.00        0.200          1.7 
     1306.00        0.250          1.9 
     1307.00        0.200          1.8 
     1308.00        0.200          1.2 
     1309.00        0.200          1.6 
     1310.00        0.200          1.8 
     1311.00        0.167          2.6 
     1312.00        0.200          2.4 
     1313.00        0.200          1.9 
     1314.00        0.133          1.5 
     1315.00        0.267          1.5 
     1316.00        3.083          4.2 
     1317.00        0.300          5.4 
     1318.00        0.300          6.5 
     1319.00        0.367          6.6 
     1320.00        0.300          6.0 
     1321.00        0.250          4.7 
     1322.00        0.233          4.2 
     1323.00        0.233          3.9 
     1324.00        0.200          3.3 
     1325.00        0.200          3.0 
     1326.00        0.200          2.5 
     1327.00        0.200          2.4 
     1328.00        0.167          2.0 
     1329.00        0.200          2.0 
     1330.00        0.167          2.0 
     1331.00        0.167          1.6 
     1332.00        0.167          1.8 
     1333.00        0.200          1.9 
     1334.00        0.200          2.2 
     1335.00        0.200          2.0 
     1336.00        0.200          2.0 
     1337.00        0.283          2.2 
     1338.00        0.167          1.9 
     1339.00        0.167          1.8 
     1340.00        0.133          2.0 
     1341.00        0.200          2.7 
     1342.00        0.167          2.6 
     1343.00        0.167          2.2 
     1344.00        0.167          1.7 
     1345.00        0.133          1.5 
     1346.00        2.983          2.2 
     1347.00        0.333          4.3 
     1348.00        0.267          5.8 
     1349.00        0.367          7.4 
     1350.00        0.333          7.0 
     1351.00        0.450          6.5 
     1352.00        0.267          4.7 
     1353.00        0.267          4.6 
     1354.00        0.300          3.8 
     1355.00        0.267          3.1 
     1356.00        0.200          2.7 
     1357.00        0.267          2.6 
     1358.00        0.267          2.2 
     1359.00        0.233          2.4 
     1360.00        0.233          1.6 
     1361.00        0.233          1.9 
     1362.00        0.233          2.0 
     1363.00        0.300          1.8 
     1364.00        0.250          1.7 
     1365.00        0.200          1.9 
     1366.00        0.233          1.9 
     1367.00        0.233          1.7 
     1368.00        0.233          1.9 
     1369.00        0.233          1.7 
     1370.00        0.233          1.6 
     1371.00        0.200          1.6 
     1372.00        0.200          1.5 
     1373.00        0.233          1.7 
     1374.00        0.233          1.6 
     1375.00        0.233          1.4 
     1376.00        4.300          3.9 
     1377.00        0.433          6.3 
     1378.00        0.367          6.9 
     1379.00        0.300          6.7 
     1380.00        0.267          5.6 
     1381.00        0.267          4.8 
     1382.00        0.267          4.1 
     1383.00        0.250          3.1 
     1384.00        0.200          2.7 
     1385.00        0.233          2.3 
     1386.00        0.233          2.4 
     1387.00        0.233          1.7 
     1388.00        0.200          1.8 
     1389.00        0.200          1.6 
     1390.00        0.233          1.6 
     1391.00        0.200          1.5 
     1392.00        0.200          1.2 
     1393.00        0.200          1.3 
     1394.00        0.167          1.4 
     1395.00        0.200          0.9 
     1396.00        0.200          0.9 
     1397.00        0.217          1.0 
     1398.00        0.200          1.0 
     1399.00        0.233          1.2 
     1400.00        0.200          1.1 
     1401.00        0.233          1.1 
     1402.00        0.233          1.4 
     1403.00        0.233          1.4 
     1404.00        0.167          0.9 
     1405.00        0.133          1.2 
     1406.00        4.867          6.7 
     1407.00        0.300          9.2 
     1408.00        0.400         10.3 
     1409.00        0.367          9.8 
     1410.00        0.267          7.8 
     1411.00        0.167          5.4 
     1412.00        0.233          4.9 
     1413.00        0.233          3.8 
     1414.00        0.233          3.3 
     1415.00        0.200          3.0 
     1416.00        0.217          2.9 
     1417.00        0.233          2.5 
     1418.00        0.200          2.3 
     1419.00        0.167          2.4 
     1420.00        0.133          2.3 
     1421.00        0.133          1.9 
     1422.00        0.167          2.4 
     1423.00        0.200          2.1 
     1424.00        0.233          2.1 
     1425.00        0.233          1.8 
     1426.00        0.300          2.3 
     1427.00        0.267          2.3 
     1428.00        0.333          2.2 
     1429.00        0.233          2.4 
     1430.00        0.350          2.2 
     1431.00        0.267          2.0 
     1432.00        0.267          2.2 
     1433.00        0.267          2.3 
     1434.00        0.233          2.7 
     1435.00        0.300          2.4 
     1436.00        3.650          2.7 
     1437.00        0.400          4.5 
     1438.00        0.467          6.7 
     1439.00        0.367          6.8 
     1440.00        0.383          6.0 
     1441.00        0.300          5.0 
     1442.00        0.333          4.7 
     1443.00        0.333          3.9 
     1444.00        0.300          3.1 
     1445.00        0.300          2.7 
     1446.00        0.300          2.6 
     1447.00        0.333          2.3 
     1448.00        0.300          2.4 
     1449.00        0.317          2.4 
     1450.00        0.333          2.2 
     1451.00        0.233          2.1 
     1452.00        0.233          2.0 
     1453.00        0.200          1.9 
     1454.00        0.233          2.1 
     1455.00        0.267          1.9 
     1456.00        0.267          1.7 
     1457.00        0.233          1.8 
     1458.00        0.233          2.0 
     1459.00        0.233          2.5 
     1460.00        0.233          1.9 
     1461.00        0.267          1.9 
     1462.00        0.317          2.3 
     1463.00        0.233          2.3 
     1464.00        0.267          2.6 
     1465.00        0.300          2.6 
     1466.00        5.300         10.8 
     1467.00        0.367          9.4 
     1468.00        0.400          5.8 
     1469.00        0.400          2.0 
     1470.00        0.300          2.2 
     1471.00        0.233          1.9 
     1472.00        0.233          2.0 
     1473.00        0.200          1.9 
     1474.00        0.200          1.9 
     1475.00        0.167          1.5 
