~Version Information
 VERS.                2.0:  CWLS LOG ASCII STANDARD -VERSION 2.0
 WRAP.                 NO:  ONE LINE PER DEPTH STEP
~WELL INFORMATION BLOCK
#MNEM.UNIT       DATA		            DESCRIPTION OF MNEMONIC
#---------    -------------            ------------------------
 STRT.FT  0.500                          :START DEPTH
 STOP.FT  1808.700                       :STOP DEPTH
 STEP.FT  0.100                          :STEP    UP_HOLE  
 NULL.    -999.25                        :NULL VALUE
 COMP.              EL PASO PRODUCTIONS  :COMPANY
 WELL.                     COREHOLE #38  :WELL
 FLD .                 PURGATOIRE RIVER  :FIELD
 LOC .      15   35S   65W               :LOCATION
 CNTY.                           COLFAX  :COUNTY
 STAT.                     NM            :STATE
 CTRY.                                   :
 SRVC.     O'DRISCOLL                    :SERVICE COMPANY
 DATE.   04/28/05                        :LOG DATE
 API .                                   :API NUMBER
 LIC .                                   :LICENSE NUMBER
~Curve Information Block
#MNEM.UNIT      API CODE     Curve Description
#---------    -------------  ------------------------
 DEPT     .FT        00 001 00 00          :  1  DEPTH   
 GAMMA    .API-GR    00 310 00 00          :  2                GAMMA
 VOLTAGE  .MV        00 000 00 00          :  3              VOLTAGE
 CALIPER  .INCH      00 280 00 00          :  4              CALIPER
 DEN(LS)  .G/CC      00 350 00 00          :  5              DEN(LS)
 DEN(SS)  .G/CC      00 350 00 00          :  6              DEN(SS)
 CURRENT  .UA        00 000 00 00          :  7              CURRENT
 RES(SG)  .OHM-M     00 220 00 00          :  8              RES(SG)
 POR(DEN) .PERCENT   00 890 00 00          :  9             POR(DEN)
 DEN(LS)  .CPS       00 350 00 00          : 10              DEN(LS)
 DEN(SS)  .CPS       00 350 00 00          : 11              DEN(SS)
 COMP     .G/CC      00 356 00 00          : 12                 COMP
 DEN(CDL) .G/CC      00 350 00 00          : 13             DEN(CDL)
 TEMP     .DEG F     00 660 00 00          : 14                 TEMP
 DEL_TEMP .DEG F     00 000 00 00          : 15             DEL_TEMP
 TIME     .MINUTES   00 000 00 00          : 16                 TIME
~Parameter Information Block
#MNEM.UNIT   Information     Description
#---------- ---------------  ------------------------
 FILE.      ORIGINAL           :File Type
 FIID.      9139A              :File Type Identifier
 VERS.      3.58G              :System Version
 SER .      1                  :System Serial Number
 TRUK.      .498775            :Truck Calibration Number
 TOOL.        1245             :Tool Serial Number
 TIME.      1507               :Time    HrHrMinMin
 LAT .       36 59'            :Latitude
 LON .       104 39'           :Longitude
 LMF .            GL           :Log Measured From
 DMF .            GL           :Driller Measured From
 PD  .            GL           :Permanent Data
 PDEV.                         :Elevation Permanent Data
 EKB .M                        :Elevation Kelly Bushing
 ELEV.DF                       :Elevation DF
 EGL .M        7777            :Elevation Ground Level
 DRDP.          1825           :Driller's Depth
 CASD.       10.               :Casing Diameter
 CASB.           300           :Casing Bottom
 CASX.         STEEL           :Casing Type
 CAST.                         :Casing Thickness
 TNOC.                         :Time Circulation Stopped
 LOGU.        108              :Logging Unit
 RECB.           R.SIPES       :Recorded By
 OSR1.          9057           :Other Services
 OSR2.                         :Other Services
 OSR3.                         :Other Services
 BS  .MM         3.5           :Bit Size
 MST .                         :Mean Surface Temperature
 TGRD.                         :Temperature Gradiant
 MAGN.            12           :Magnetic Declination
 MDEN.       2.7               :Density Matrix
 MATR.      SANDSTONE          :Neutron Matrix
 DTMT.            54           :Delta T Matrix
 DTFL.                         :Delta T Fluid
 MUDS.                         :Mud Sample Source
 MRS .                         :Mud Resistivity
 MTP .                         :Mud Temperature
 MFRS.                         :Resistivity Mud Filtrate
 MFTP.                         :Temperature Mud Filtrate
 MCRS.                         :Resistivity Mud Cake
 MCTP.                         :Temperature Mud Cake
 FTYP.                         :Fluid Type
 FD  .K/M3                     :Fluid Density
 DFV .S                        :Fluid Viscosity
 FPH .                         :Fuild PH
 ELCO.       50000             :Electron Cutoff
~Other Information
#MNEM.UNIT  Information      Description
#---------- ---------------  ------------------------
# -------------------------- 
~A DEPTH  GAMMA    VOLTAGE  CALIPER DEN(LS) DEN(SS) CURRENT  RES(SG)  POR(DEN) DEN(LS) DEN(SS) COMP  DEN(CDL) TEMP  DEL_TEMP TIME    
# ...
 362.000     76.6      9.4   3.0  2.77 3.05   146.7      4.6  31.1  405.49 3353.40 -0.597 2.33 33.3  0.00 0.20000 
 362.100     83.2      9.3   3.0  2.90 3.09   157.7      4.2   9.9  310.29 3236.19 -0.367 2.20 33.3  0.00 0.10000 
 362.200     80.3      9.0   3.0  2.74 3.04   155.2      4.1  34.6  425.56 3384.01 -0.633 2.28 33.3  0.00 0.20000 
 362.300     75.6      9.1   3.0  2.79 3.13   139.4      4.7  37.4  385.45 3139.29 -0.729 2.27 33.3  0.00 0.20000 
 362.400     77.5      9.6   3.0  2.88 3.07   138.8      4.9  10.8  320.32 3287.12 -0.367 2.29 33.3  0.00 0.20000 
 362.500     86.0      9.3   3.0  2.80 3.10   137.5      4.8  32.4  380.43 3200.46 -0.650 2.36 33.3  0.00 0.20000 
 362.600     90.7      9.1   3.0  2.84 2.98   137.7      4.7   6.7  350.37 3588.26 -0.251 2.41 33.3  0.00 0.20000 
 362.700    100.2      9.6   3.0  2.89 3.09   140.6      4.9  11.3  315.30 3241.26 -0.383 2.32 33.3  0.00 0.20000 
 362.800     96.4      9.3   3.0  2.87 3.16   139.5      4.8  24.5  325.32 3052.70 -0.590 2.34 33.3  0.00 0.20000 
 362.900     99.2      9.3   3.0  2.81 3.15   138.2      4.8  37.8  370.41 3062.89 -0.754 2.28 33.3  0.00 0.10000 
 363.000     93.6      9.6   3.0  2.87 3.15   137.8      4.9  24.8  330.36 3078.20 -0.588 2.25 33.3  0.00 0.20000 
 363.100     93.6      9.6   3.0  2.80 3.07   137.0      5.0  26.5  380.44 3312.60 -0.550 2.30 33.3  0.00 0.20000 
 363.200     85.1      9.3   3.0  2.77 2.96   135.1      4.9  17.8  405.51 3634.25 -0.370 2.37 33.3  0.00 0.20000 
 363.300     96.4      9.2   3.0  2.88 3.08   136.5      4.8  11.3  320.31 3276.94 -0.374 2.36 33.3  0.00 0.20000 
 363.400     87.9      9.6   3.0  2.81 3.02   125.4      5.4  18.0  375.42 3460.58 -0.412 2.36 33.3  0.00 0.20000 
 363.500     91.7      8.8   3.0  2.74 2.99   113.5      5.6  26.6  425.54 3542.25 -0.496 2.37 33.3  0.00 0.20000 
 363.600    103.0      8.1   3.0  2.75 3.00   106.1      5.5  27.2  420.53 3506.51 -0.513 2.29 33.3  0.00 0.10000 
 363.700    111.5      7.6   3.0  2.78 2.96    93.7      5.8  14.9  395.47 3644.42 -0.334 2.20 33.3  0.00 0.20000 
 363.800    115.3      6.4   3.0  2.69 2.97    83.7      5.4  34.5  475.68 3598.43 -0.581 2.12 33.3  0.00 0.20000 
 363.900    132.3      6.3   3.0  2.66 3.00    82.4      5.5  45.0  505.77 3521.90 -0.729 2.11 33.3  0.00 0.20000 
 364.000    137.9      6.8   3.0  2.67 3.04    80.3      6.0  49.7  495.75 3399.32 -0.819 2.05 33.3  0.00 0.20000 
 364.100    130.4      5.7   3.0  2.71 2.97    76.3      5.4  29.5  455.62 3613.78 -0.516 2.06 33.3  0.00 0.20000 
 364.200    140.8      6.1   3.0  2.69 2.96    77.7      5.6  33.6  480.69 3639.30 -0.560 2.10 33.3  0.00 0.20000 
 364.300    143.6      5.6   3.0  2.72 2.98    73.6      5.4  29.9  450.61 3583.11 -0.528 2.16 33.3  0.00 0.20000 
 364.400    148.3      5.4   3.0  2.76 3.06    71.3      5.4  33.3  410.50 3338.11 -0.627 2.12 33.3  0.00 0.10000 
 364.500    146.4      4.0   3.0  2.71 2.99    71.3      4.0  33.2  455.62 3537.14 -0.578 1.98 33.3  0.00 0.20000 
 364.600    142.7      5.1   3.0  2.67 2.99    71.6      5.1  40.9  495.74 3557.57 -0.670 1.81 33.3  0.00 0.20000 
 364.700    127.6      5.1   3.0  2.58 3.04    70.1      5.1  73.1  601.08 3404.43 -1.120 1.63 33.3  0.00 0.20000 
 364.800    117.2      5.6   3.0  2.50 2.97    74.3      5.4  80.0  701.53 3613.86 -1.159 1.47 33.3  0.00 0.20000 
 364.900    117.2      5.2   3.0  2.41 2.88    79.8      4.7  86.5  847.16 3900.15 -1.178 1.40 33.3  0.00 0.20000 
 365.000    113.4      5.5   3.0  2.36 2.80    85.7      4.6  81.6  932.61 4207.49 -1.047 1.43 33.3  0.00 0.20000 
 365.100    113.4      5.4   2.9  2.31 2.62    90.6      4.2  62.2  1023.18 4860.18 -0.671 1.53 33.3  0.00 0.20000 
 365.200    115.3      5.1   2.9  2.22 2.50    91.3      4.0  62.5  1234.56 5401.22 -0.582 1.46 33.3  0.00 0.20000 
 365.300    114.3      4.3   2.9  2.23 2.44    89.9      3.4  52.5  1214.41 5659.49 -0.420 1.27 33.3  0.00 0.10000 
 365.400    101.1      5.1   2.9  2.00 2.46    92.3      3.9  106.7 1875.51 5587.10 -1.115 1.07 33.3  0.00 0.20000 
 365.500     93.6      4.8   2.9  1.94 2.52   145.3      2.4  135.3 2098.12 5313.37 -1.543 0.86 33.3  0.00 0.20000 
 365.600     93.6      5.3   2.9  1.93 2.45   274.9      1.4  123.6 2138.64 5612.97 -1.335 0.71 33.3  0.00 0.20000 
 365.700     89.8      5.3   2.9  1.90 2.42   294.3      1.3  124.1 2255.19 5773.41 -1.314 0.83 33.3  0.00 0.20000 
 365.800     79.4      5.0   2.9  1.97 2.36   269.1      1.3  95.6  1997.05 6058.35 -0.894 1.06 33.3  0.00 0.20000 
 365.900     86.0      4.7   2.9  2.04 2.31   184.0      1.8  70.9  1739.03 6296.86 -0.548 1.21 33.3  0.00 0.20000 
 366.000     89.8      5.6   2.9  2.19 2.49   151.9      2.6  67.3  1305.09 5442.85 -0.635 1.23 33.3  0.00 0.20000 
 366.100     82.2      4.9   3.0  2.18 2.56   223.0      1.6  80.8  1325.25 5138.12 -0.856 1.25 33.3  0.00 0.10000 
 366.200     74.7      4.5   3.0  2.23 2.80   253.5      1.3  117.2 1199.31 4176.70 -1.526 1.25 33.3  0.00 0.20000 
 366.300     97.3      4.9   2.9  2.35 2.82   291.2      1.2  89.9  952.73 4110.06 -1.176 1.22 33.3  0.00 0.19900 
 366.400     87.9      4.8   3.0  2.49 2.91   339.8      1.0  70.7  716.55 3813.13 -0.991 1.38 33.3  0.00 0.20100 
 366.500     86.0      5.2   2.9  2.56 3.04   335.1      1.1  77.1  621.16 3399.33 -1.175 1.65 33.3  0.00 0.20000 
 366.600     88.8      5.4   2.9  2.75 3.03   182.4      2.1  32.2  420.53 3409.53 -0.597 1.87 33.3  0.00 0.20000 
 366.700     92.6      4.5   3.0  2.72 3.04    91.9      3.5  38.5  445.63 3394.24 -0.679 2.04 33.3  0.00 0.20000 
 366.800     83.2      5.3   3.0  2.76 3.00    91.0      4.1  24.4  410.51 3511.67 -0.477 2.29 33.3  0.00 0.19900 
 366.900     85.1      4.9   3.0  2.76 2.97    91.3      3.8  20.5  410.50 3598.47 -0.411 2.32 33.3  0.00 0.10100 
 367.000     84.1      4.6   3.0  2.81 2.91    99.2      3.3   3.7  370.41 3797.78 -0.174 2.41 33.3  0.00 0.19900 
 367.100     85.1      4.2   3.0  2.80 3.05    96.8      3.1  23.4  380.44 3373.81 -0.498 2.40 33.3  0.00 0.20000 
 367.200     82.2      5.4   3.0  2.71 2.84    97.8      4.0  12.9  455.63 4028.15 -0.234 2.45 33.3  0.00 0.20100 
 367.300     80.3      5.6   3.0  2.68 2.91    96.9      4.1  28.6  490.73 3797.78 -0.466 2.45 33.3  0.00 0.20000 
 367.400     88.8      5.6   3.0  2.74 2.81    95.7      4.2   3.8  425.54 4156.24 -0.108 2.40 33.3  0.00 0.20000 
 367.500     89.8      5.0   3.0  2.76 2.85    99.1      3.6   4.8  410.55 4023.07 -0.144 2.20 33.3  0.00 0.19900 
 367.600     92.6      5.6   3.0  2.64 2.93   111.4      3.6  39.3  530.87 3746.75 -0.608 2.24 33.3  0.00 0.20000 
 367.700    105.8      5.9   3.0  2.49 2.91   110.9      3.8  70.8  711.52 3797.84 -0.996 2.17 33.3  0.00 0.10000 
 367.800     99.2      5.5   3.0  2.74 2.92   111.6      3.5  16.6  425.55 3777.33 -0.327 2.09 33.3  0.00 0.20000 
 367.900    103.0      5.2   3.0  2.74 2.96   112.2      3.3  23.2  430.56 3639.30 -0.434 2.14 33.3  0.00 0.20000 
 368.000    112.4      5.9   3.0  2.67 2.91   112.1      3.7  28.8  495.75 3818.29 -0.463 2.33 33.3  0.00 0.20100 
 368.100    111.5      5.4   3.0  2.71 2.94   112.3      3.4  26.6  460.64 3700.95 -0.462 2.32 33.3  0.00 0.20000 
 368.200    104.9      6.2   3.0  2.74 2.90   120.4      3.6  14.7  425.54 3828.57 -0.294 2.31 33.3  0.00 0.19900 
 368.300    109.6      6.2   3.0  2.70 2.86   122.4      3.6  17.2  465.65 3961.58 -0.296 2.37 33.3  0.00 0.20000 
 368.400    104.9      6.8   3.0  2.70 2.93   127.1      3.8  27.1  470.66 3736.44 -0.461 2.38 33.3  0.00 0.10100 
 368.500    102.1      5.9   3.0  2.73 2.87   126.2      3.4  12.8  435.57 3930.82 -0.251 2.37 33.3  0.00 0.19900 
 368.600    103.0      6.9   3.0  2.69 2.89   131.4      3.8  23.4  480.69 3874.52 -0.388 2.34 33.3  0.00 0.20000 
 368.700    105.8      6.6   3.0  2.70 2.85   133.8      3.5  16.0  470.66 4017.91 -0.272 2.25 33.3  0.00 0.20000 
 368.800    106.8      6.4   3.0  2.68 2.90   138.5      3.3  26.7  490.74 3843.87 -0.433 2.20 33.3  0.00 0.20100 
 368.900    106.8      7.1   3.0  2.56 2.90   136.8      3.7  52.0  621.17 3833.59 -0.748 2.16 33.3  0.00 0.19900 
