~Version Information
VERS.                      2.0: CWLS Log ASCII Standard - VERSION 2.0
WRAP.                       NO: One line per depth step
~Well Information Block
STRT.FT                -3.0000: 
STOP.FT              1828.0000: 
STEP.FT                 0.2500: 
NULL.                -999.2500: 
COMP.          Pioneer Natural Resources: COMPANY
WELL.           Guajardo 24-16: WELL
FLD.           Purgatorie River: FIELD
LOC.           883' FSL & 2147' FWL--: LOCATION
PROV.                       CO: PROVINCE
CNTY.               Las Animas: COUNTRY
SRVC.          Patterson Wireline: SERVICE COMPANY
DATE.          Wed Aug 10 11:02:25 2005: LOG DATE
UWI.           05 071 08377 00: UNIQUE WELL ID
~Curve Information Block
DEPT.FT            0 000 00 00: Depth
CCL.                          : Casing Collar Locator
TT3.usec                      : CBL 3' Travel Time
AMP3.mV                       : CBL 3' Amplitude
GR.GAPI                       : Gamma Ray
~Parameter Information Block
~A  Depth       CCL         TT3         AMP3         GR     
# ...
   734.0000      0.0000    796.1103     11.5672    141.2033
   734.2500      0.0000    802.6169     11.4355    130.3747
   734.5000      0.0000    810.3246     11.2936    118.6287
   734.7500      0.0000    815.7375     11.2124    109.2313
   735.0000      0.0000    820.5307     11.1868    104.4324
   735.2500      0.0000    826.8159     11.1880    103.9259
   735.5000      0.0000    834.0988     11.1949    105.5028
   735.7500      0.0000    840.3422     11.1992    106.8023
   736.0000      0.0000    844.2739     11.1988    106.4144
   736.2500      0.0000    846.1012     11.1901    104.0017
   736.5000      0.0000    846.6544     11.1687    100.1329
   736.7500      0.0000    846.3754     11.1370     96.1519
   737.0000      0.0000    844.8356     11.1085     93.7073
   737.2500      0.0000    840.7161     11.0988     93.8118
   737.5000      0.0000    832.4355     11.1101     96.2385
   737.7500      0.0000    819.6680     11.1297     99.8956
   738.0000      0.0000    804.9687     11.1419    103.5098
   738.2500      0.0000    793.6619     11.1385    105.8867
   738.5000      0.0000    790.9393     11.1184    106.2156
   738.7500      0.0000    797.9435     11.0801    104.6892
   739.0000      0.0000    810.3303     11.0172    102.3715
   739.2500      0.0000    820.8544     10.9169    100.0657
   739.5000      0.0000    823.8300     10.7651     97.6346
   739.7500      0.0000    817.9970     10.5583     94.5871
   740.0000      0.0000    806.2984     10.3155     90.9397
   740.2500      0.0000    793.5254     10.0733     87.3777
   740.5000      0.0000    783.7676      9.8644     84.9554
   740.7500      0.0000    779.0573      9.6971     84.6566
   741.0000      0.0000    779.0641      9.5553     86.8188
   741.2500      0.0000    781.3510      9.4156     90.8696
   741.5000      0.0000    782.7787      9.2652     95.7794
   741.7500      0.0000    781.9119      9.1059    100.6114
   742.0000      0.0000    780.0571      8.9425    104.5583
   742.2500      0.0000    779.4476      8.7645    106.9388
   742.5000      0.0000    780.8364      8.5414    107.6046
   742.7500      0.0000    783.4699      8.2428    107.0922
   743.0000      0.0000    786.7610      7.8660    105.8616
   743.2500      0.0000    790.9696      7.4419    103.3781
   743.5000      0.0000    796.5616      7.0080     98.4370
   743.7500      0.0000    803.6036      6.5811     90.6313
   744.0000      0.0000    811.3524      6.1598     81.1389
   744.2500      0.0000    817.8718      5.7480     71.9205
   744.5000      0.0000    820.6744      5.3699     64.5712
   744.7500      0.0000    819.0778      5.0655     59.9449
   745.0000      0.0000    816.2230      4.8758     58.0730
   745.2500      0.0000    817.2844      4.8288     58.0404
   745.5000      0.0000    824.0259      4.9313     58.4402
   745.7500      0.0000    832.0522      5.1759     58.3902
   746.0000      0.0000    835.5214      5.5562     58.1911
   746.2500      0.0000    833.6846      6.0753     59.1684
   746.5000      0.0000    830.4927      6.7394     62.8515
   746.7500      0.0000    828.8657      7.5489     69.7591
   747.0000      0.0000    828.0552      8.4948     78.7958
   747.2500      0.0000    826.2855      9.5584     88.0970
   747.5000      0.0000    823.5580     10.7050     96.4121
   747.7500      0.0000    821.1882     11.8731    103.3984
   748.0000      0.0000    819.9287     12.9645    108.9624
   748.2500      0.0000    819.4113     13.8570    112.9993
   748.5000      0.0000    818.7740     14.4490    115.7677
   748.7500      0.0000    817.2750     14.7097    118.0090
   749.0000      0.0000    814.7106     14.6926    120.4915
   749.2500      0.0000    811.6470     14.4961    123.4520
   749.5000      0.0000    809.0005     14.2110    126.3839
   749.7500      0.0000    807.2943     13.8968    128.2682
   750.0000      0.0000    806.4249     13.5885    128.3757
   750.2500      0.0000    805.9577     13.3088    127.2273
   750.5000      0.0000    805.3532     13.0707    126.5423
   750.7500      0.0000    803.8832     12.8768    127.7274
   751.0000      0.0000    800.5676     12.7225    130.4521
   751.2500      0.0000    794.5742     12.6002    132.9359
   751.5000      0.0000    786.0521     12.5014    133.3315
   751.7500      0.0000    776.6071     12.4173    130.6167
   752.0000      0.0000    768.6284     12.3384    124.8068
   752.2500      0.0000    764.0190     12.2554    117.3178
   752.5000      0.0000    763.5977     12.1622    111.2456
   752.7500      0.0000    767.4150     12.0577    110.1703
   753.0000      0.0000    775.1149     11.9457    115.4624
   753.2500      0.0000    785.7706     11.8299    124.7997
   753.5000      0.0000    797.3672     11.7120    134.0416
   753.7500      0.0000    806.6323     11.5933    140.3280
   754.0000      0.0000    809.9913     11.4752    142.9371
   754.2500      0.0000    805.3146     11.3594    142.0525
   754.5000      0.0000    792.9836     11.2484    138.2059
   754.7500      0.0000    775.6940     11.1486    132.7786
   755.0000      0.0000    757.5516     11.0666    127.5115
   755.2500      0.0000    742.6539     11.0024    122.9360
   755.5000      0.0000    733.5928     10.9481    118.0202
   755.7500      0.0000    731.1664     10.8948    111.7699
   756.0000      0.0000    735.2928     10.8377    104.8065
   756.2500      0.0000    745.2241     10.7764     99.2722
   756.5000      0.0000    758.4979     10.7149     97.4778
   756.7500      0.0000    771.0995     10.6615    100.5641
   757.0000      0.0000    780.2890     10.6248    107.8569
   757.2500      0.0000    786.9050     10.6080    117.2337
   757.5000      0.0000    793.6674     10.6092    126.2389
   757.7500      0.0000    801.5174     10.6230    132.8099
   758.0000      0.0000    808.6249     10.6425    135.2707
   758.2500      0.0000    812.8483     10.6619    132.8521
   758.5000      0.0000    814.4771     10.6797    126.9238
   758.7500      0.0000    815.9803     10.6995    120.7780
   759.0000      0.0000    818.7487     10.7277    117.1309
   759.2500      0.0000    820.8433     10.7685    116.0582
   759.5000      0.0000    818.7219     10.8197    115.7345
   759.7500      0.0000    810.5533     10.8745    114.7590
   760.0000      0.0000    797.3142     10.9265    113.3850
   760.2500      0.0000    781.8239     10.9736    112.7808
   760.5000      0.0000    767.7164     11.0168    113.6839
   760.7500      0.0000    758.5469     11.0562    115.9593
   761.0000      0.0000    756.6135     11.0901    119.0259
   761.2500      0.0000    762.1047     11.1156    122.2518
   761.5000      0.0000    773.2283     11.1352    124.9738
   761.7500      0.0000    787.1094     11.1593    126.2924
   762.0000      0.0000    800.8082     11.1996    124.9104
   762.2500      0.0000    811.6785     11.2586    119.6016
   762.5000      0.0000    817.1533     11.3291    110.2577
   762.7500      0.0000    814.9321     11.4023     98.3114
   763.0000      0.0000    804.1403     11.4745     86.0427
   763.2500      0.0000    787.0035     11.5454     75.7923
   763.5000      0.0000    769.7709     11.6143     69.5262
   763.7500      0.0000    760.6901     11.6764     68.2027
   764.0000      0.0000    764.2675     11.7203     71.3018
   764.2500      0.0000    776.5236     11.7297     77.2991
   764.5000      0.0000    787.5598     11.6943     84.5195
   764.7500      0.0000    789.9727     11.6196     91.4841
   765.0000      0.0000    784.3368     11.5282     97.1431
   765.2500      0.0000    776.7315     11.4484    101.4237
   765.5000      0.0000    772.6071     11.3987    105.2631
   765.7500      0.0000    773.7354     11.3780    109.6791
   766.0000      0.0000    779.1387     11.3679    114.9220
   766.2500      0.0000    786.6868     11.3456    120.6404
   766.5000      0.0000    794.0239     11.2982    126.4143
   766.7500      0.0000    799.4741     11.2269    131.6714
   767.0000      0.0000    802.6686     11.1410    135.3059
   767.2500      0.0000    804.2139     11.0507    135.8643
