~Version Information
VERS.                      2.0: CWLS Log ASCII Standard - VERSION 2.0
WRAP.                       NO: One line per depth step
~Well Information Block
STRT.FT               362.0000: 
STOP.FT               983.0000: 
STEP.FT                 0.1000: 
NULL.                -999.2500: 
COMP.          Pioneer Natural Resources: COMPANY
WELL.             Tomcat 32-10: WELL
FLD.           Purgatoire River: FIELD
LOC.           2286' FNL & 2463' FEL: LOCATION
PROV.                 Colorado: PROVINCE
CNTY.               Las Animas: COUNTRY
SRVC.                Patterson: SERVICE COMPANY
DATE.          Tue Mar 22 11:24:45 2005: LOG DATE
UWI.           05 071 08301 00: UNIQUE WELL ID
~Curve Information Block
DEPT.FT            0 000 00 00: Depth
DCAL.in                       : CDL Caliper
RHOB.g/cc                     : CDL Bulk Density
RHOC.g/cc                     : CDL Density Correction
DPOR.pu                       : CDL Density Porosity
GR.GAPI                       : Gamma Ray
NPOR.pu                       : Neutron Porosity
~Parameter Information Block
~A  Depth       DCAL        RHOB        RHOC        DPOR         GR         NPOR    
# ...
   563.6000      7.8784      2.5370      0.0028      6.8492     89.3047     25.0896
   563.7000      7.8784      2.5122     -0.0253      8.3487     88.1480     25.4213
   563.8000      7.8788      2.4985     -0.0194      9.1805     87.7068     25.4253
   563.9000      7.8788      2.4834     -0.0369     10.0973     85.7566     25.0353
   564.0000      7.8898      2.4667     -0.0368     11.1103     83.4589     24.6726
   564.1000      7.8898      2.4600     -0.0505     11.5135     86.3391     24.6738
   564.2000      7.8898      2.4728     -0.0625     10.7416     92.8310     24.7451
   564.3000      7.9156      2.5043     -0.0357      8.8322     95.0667     24.6000
   564.4000      7.9156      2.5396      0.0353      6.6922     89.3670     24.4330
   564.5000      7.9021      2.5659      0.0896      5.0986     81.6192     24.4488
   564.6000      7.9021      2.5876      0.0686      3.7818     80.9665     24.5983
   564.7000      7.9021      2.6165      0.1148      2.0278     87.4932     24.7260
   564.8000      7.9231      2.6472      0.1483      0.1712     93.4008     24.5492
   564.9000      7.9231      2.6623      0.1722     -0.7452     95.1836     24.1505
   565.0000      7.8883      2.6586      0.1664     -0.5204     94.6581     24.0765
   565.1000      7.8883      2.6464      0.1483      0.2161     91.8019     24.4183
   565.2000      7.8883      2.6324      0.1228      1.0662     87.5695     24.7042
   565.3000      7.8565      2.6107      0.1136      2.3838     83.8178     24.7035
   565.4000      7.8565      2.5765      0.0922      4.4534     80.7141     24.3925
   565.5000      7.8456      2.5407      0.0654      6.6264     78.8168     23.9682
   565.6000      7.8456      2.5178      0.0236      8.0107     79.8546     23.7993
   565.7000      7.8456      2.5166      0.0052      8.0826     84.5667     24.0109
   565.8000      7.8614      2.5312      0.0073      7.2028     91.1212     24.4613
   565.9000      7.8614      2.5410      0.0281      6.6062     97.3570     24.9475
   566.0000      7.9082      2.5342      0.0599      7.0188    101.4227     25.4768
   566.1000      7.9082      2.5243      0.0296      7.6182    105.4970     26.0723
   566.2000      7.9082      2.5303      0.0745      7.2553    113.1241     26.5226
   566.3000      7.9098      2.5482      0.0932      6.1680    118.8798     26.6064
   566.4000      7.9098      2.5663      0.0937      5.0737    117.6317     26.5403
   566.5000      7.9031      2.5873      0.0448      3.8004    115.4905     26.7216
   566.6000      7.9031      2.6102      0.1283      2.4136    116.2589     27.0333
   566.7000      7.9031      2.6178      0.1206      1.9511    115.8779     27.0743
   566.8000      7.8815      2.6021      0.1411      2.9020    114.3163     26.9031
   566.9000      7.8815      2.5757      0.1033      4.5015    116.3606     26.8270
   567.0000      7.8784      2.5580      0.0922      5.5759    121.7383     26.8141
   567.1000      7.8784      2.5545      0.0547      5.7888    124.7585     26.6515
   567.2000      7.8784      2.5550      0.0853      5.7575    123.1333     26.5020
   567.3000      7.8806      2.5510      0.0954      6.0019    118.3795     26.5417
   567.4000      7.8806      2.5485      0.0490      6.1490    115.2596     26.4829
   567.5000      7.8857      2.5551      0.0861      5.7544    120.9024     26.2369
   567.6000      7.8857      2.5646      0.1288      5.1749    129.1572     26.1258
   567.7000      7.8857      2.5723      0.1046      4.7066    129.5043     26.2828
   567.8000      7.9000      2.5777      0.1246      4.3826    123.8132     26.3978
   567.9000      7.9000      2.5736      0.0960      4.6299    116.4748     26.2192
   568.0000      7.8891      2.5658      0.0614      5.1033    111.1974     26.0652
   568.1000      7.8891      2.5697      0.0708      4.8678    112.5069     26.3128
   568.2000      7.8891      2.5813      0.0519      4.1630    118.5158     26.7715
   568.3000      7.8801      2.5853      0.0397      3.9237    121.8494     27.0983
   568.4000      7.8801      2.5727      0.1230      4.6833    120.8279     27.2263
   568.5000      7.8981      2.5573     -0.0039      5.6185    119.5020     27.0381
   568.6000      7.8981      2.5599      0.0736      5.4580    118.4771     26.6266
   568.7000      7.8981      2.5704      0.0750      4.8267    118.2270     26.4131
   568.8000      7.9380      2.5756      0.0288      4.5117    119.8751     26.4009
   568.9000      7.9380      2.5701      0.0543      4.8432    119.5038     26.2998
   569.0000      7.9377      2.5421      0.0100      6.5379    114.8523     26.1867
   569.1000      7.9377      2.5061     -0.0446      8.7226    111.0620     26.0975
   569.2000      7.9377      2.4891     -0.0265      9.7505    113.0749     25.8413
   569.3000      7.9511      2.4878     -0.0054      9.8304    117.2159     25.5914
   569.4000      7.9511      2.4874     -0.0407      9.8569    118.4358     25.7066
   569.5000      7.9814      2.4864     -0.0182      9.9140    118.6620     26.1516
   569.6000      7.9814      2.4834     -0.0148     10.0994    120.4029     26.5505
   569.7000      7.9814      2.4756     -0.0162     10.5706    120.3295     26.6291
   569.8000      7.9786      2.4685      0.0014     11.0025    117.4113     26.4582
   569.9000      7.9786      2.4680     -0.0274     11.0319    117.3831     26.2577
   570.0000      7.9902      2.4703     -0.0129     10.8899    120.9797     26.1889
   570.1000      7.9902      2.4720     -0.0164     10.7877    122.2427     26.2258
   570.2000      7.9902      2.4816      0.0044     10.2034    118.6398     26.2814
   570.3000      7.9996      2.5092     -0.0146      8.5356    111.0760     26.2020
   570.4000      7.9996      2.5490      0.0386      6.1234    104.5907     26.0726
   570.5000      7.9745      2.5746      0.0992      4.5726    103.6743     26.2130
   570.6000      7.9745      2.5711      0.0325      4.7820    105.0095     26.5654
   570.7000      7.9745      2.5592      0.0453      5.5017    103.8530     26.7173
   570.8000      7.9537      2.5590      0.1041      5.5136    100.8296     26.4641
   570.9000      7.9537      2.5703      0.0878      4.8309     99.3112     26.0382
   571.0000      7.9141      2.5868      0.0824      3.8292    100.4257     25.7982
   571.1000      7.9141      2.5944      0.1160      3.3682    101.3947     25.8098
   571.2000      7.9141      2.5841      0.0647      3.9954     97.5446     25.8829
   571.3000      7.8903      2.5631      0.0849      5.2639     89.8981     26.0009
   571.4000      7.8903      2.5409      0.0523      6.6095     83.7948     25.9074
   571.5000      7.8948      2.5333      0.0220      7.0744     82.8444     25.2646
   571.6000      7.8948      2.5493      0.1045      6.1048     87.0607     24.6040
   571.7000      7.8948      2.5734      0.1098      4.6444     91.6381     24.7293
   571.8000      7.8849      2.5928      0.0859      3.4685     93.3008     25.4226
   571.9000      7.8849      2.6097      0.1180      2.4399     93.1673     25.7789
   572.0000      7.8663      2.6230      0.1444      1.6370     91.6936     25.3934
   572.1000      7.8663      2.6285      0.1224      1.3055     90.5419     24.5362
   572.2000      7.8663      2.6203      0.1429      1.7994     92.3396     23.7261
   572.3000      7.8520      2.5915      0.1435      3.5442     94.5671     23.1997
   572.4000      7.8520      2.5507      0.0930      6.0155     95.4693     22.9433
   572.5000      7.8679      2.5178      0.0712      8.0096    100.7302     22.9294
   572.6000      7.8679      2.4973      0.0526      9.2517    112.9372     23.0247
   572.7000      7.8679      2.4776      0.0569     10.4469    126.3136     23.0245
   572.8000      7.8980      2.4487      0.0967     12.1980    135.7555     22.8748
   572.9000      7.8980      2.4117      0.0689     14.4447    140.0891     22.8078
   573.0000      7.9060      2.3763      0.1137     16.5867    141.0981     23.1321
   573.1000      7.9060      2.3445      0.1081     18.5182    144.5104     23.8706
