~Version Information
 VERS.                                  2.0 : CWLS LAS VERSION
 WRAP.                                   NO : WRAPING MODE
 SWARE .                 MController 2.5.0J : SOFTWARE VERSION
~Well Information
 WELL.                         Hill 33-22Tr : WELL
 COMP.    Pioneer Natural Resources USA Inc : COMPANY
 FLD.                      Purgatoire River : FIELD
 LOC.                 NW/SE Sec22 T32S R66W : LOCATION
 DATE.                           4/13-14/05 : DATE(S) LOGGED
 SRVC.       Blanco Geological Services LLC : SERVICE COMPANY
 STAT.                                   CO : STATE
 CNTY.                           Las Animas : COUNTY
 CTRY.                                  USA : COUNTRY
 API.                       05-071-08316-00 : API NUMBER
 STRT.FT                             642.00 : START DEPTH
 STOP.FT                            1810.00 : STOP DEPTH
 STEP.FT                               1.00 : DEPTH INCREMENT
 NULL.                                -9999 : NULL VALUE
~Curve information
 DEPTH.FT                                   :
 ROP.MIN/FT                                 :
 GAS.UNITS                                  :
~ASCII Log data
# ...
      1642.0         0.30         73.3 
      1643.0         0.22         62.7 
      1644.0         0.23         64.4 
      1645.0         0.67         89.6 
      1646.0         3.18        421.3 
      1647.0         0.13        260.0 
      1648.0         0.10        260.0 
      1649.0         0.40        253.2 
      1650.0         0.30        235.5 
      1651.0         0.30        209.8 
      1652.0         0.23        188.0 
      1653.0         0.20        169.0 
      1654.0         0.20        151.3 
      1655.0         0.23        146.4 
      1656.0         0.20        153.1 
      1657.0         0.22        153.1 
      1658.0         0.20        161.9 
      1659.0         0.17        165.1 
      1660.0         0.17        164.7 
      1661.0         0.23        164.7 
      1662.0         0.27        163.6 
      1663.0         0.23        153.9 
      1664.0         0.27        143.9 
      1665.0         0.23        136.0 
      1666.0         0.30        135.5 
      1667.0         0.23        131.3 
      1668.0         0.20        129.4 
      1669.0         0.33        126.9 
      1670.0         0.37        126.7 
      1671.0         0.35        117.2 
      1672.0         0.30        108.3 
      1673.0         0.27         96.1 
      1674.0         0.20         92.7 
      1675.0         0.57         91.6 
      1676.0         2.95        424.3 
      1677.0         0.30        346.1 
      1678.0         0.10        316.6 
      1679.0         0.13        303.3 
      1680.0         0.37        274.8 
      1681.0         0.33        221.1 
      1682.0         0.30        185.3 
      1683.0         0.27        176.1 
      1684.0         0.33        158.8 
      1685.0         0.35        165.7 
      1686.0         0.30        167.1 
      1687.0         0.40        166.8 
      1688.0         0.37        157.7 
      1689.0         0.23        141.5 
      1690.0         0.37        138.2 
      1691.0         0.40        130.4 
      1692.0         0.33        121.3 
      1693.0         0.37        121.1 
      1694.0         0.32        114.9 
      1695.0         0.40        114.0 
      1696.0         0.33        111.6 
      1697.0         0.17        110.4 
      1698.0         0.20        110.4 
      1699.0         0.30        106.4 
      1700.0         0.37        102.6 
      1701.0         0.27         91.5 
      1702.0         0.23         72.3 
      1703.0         0.23         61.2 
      1704.0         0.17         61.5 
      1705.0         0.17         67.8 
      1706.0         3.28       1197.5 
      1707.0         0.78       1085.3 
      1708.0         0.13        859.6 
      1709.0         0.13        772.2 
      1710.0         0.27        759.5 
      1711.0         0.13        592.3 
      1712.0         0.23        570.4 
      1713.0         0.30        504.3 
      1714.0         0.30        446.1 
      1715.0         0.30        163.6 
      1716.0         0.20        160.6 
      1717.0         0.30        168.4 
      1718.0         0.50        171.7 
      1719.0         0.32        161.4 
      1720.0         0.27        155.2 
      1721.0         0.23        149.9 
      1722.0         0.27        148.0 
      1723.0         0.30        139.6 
      1724.0         0.30        131.9 
      1725.0         0.27        122.5 
      1726.0         0.23        119.7 
      1727.0         0.23        119.5 
      1728.0         0.27        115.0 
      1729.0         0.37        114.6 
      1730.0         0.37        112.8 
      1731.0         0.38        111.8 
      1732.0         0.27        110.7 
      1733.0         0.30        105.3 
      1734.0         0.37         81.6 
      1735.0         0.30         59.6 
      1736.0         4.68       1679.1 
      1737.0         0.10        783.4 
      1738.0         0.52        737.9 
      1739.0         0.37        569.1 
      1740.0         0.33        489.6 
      1741.0         0.27        440.0 
      1742.0         0.23        160.4 
      1743.0         0.27        153.2 
      1744.0         0.23        154.3 
      1745.0         0.27        156.3 
      1746.0         0.30        156.3 
      1747.0         0.40        154.5 
      1748.0         0.33        149.9 
      1749.0         0.35        144.6 
      1750.0         0.30        137.4 
      1751.0         0.30        131.9 
      1752.0         0.33        128.2 
      1753.0         0.30        126.0 
      1754.0         0.30        123.0 
      1755.0         0.30        117.2 
      1756.0         0.33        116.4 
      1757.0         0.33        108.7 
      1758.0         0.47        104.3 
      1759.0         0.48         98.6 
      1760.0         0.43         96.9 
      1761.0         0.33         95.7 
      1762.0         0.40         95.1 
      1763.0         0.43         54.2 
      1764.0         0.43         43.9 
      1765.0         0.77         69.6 
      1766.0         3.93       1752.0 
      1767.0         0.33        777.1 
      1768.0         0.53        669.5 
      1769.0         0.40        527.8 
      1770.0         0.30        440.0 
      1771.0         0.33        161.3 
      1772.0         0.30        143.4 
      1773.0         0.27        137.1 
      1774.0         0.42        141.6 
      1775.0         0.37        147.6 
      1776.0         0.37        147.5 
      1777.0         0.40        141.4 
      1778.0         0.40        129.2 
      1779.0         0.47        128.1 
      1780.0         0.37        100.8 
      1781.0         0.27         95.2 
      1782.0         0.23         92.9 
      1783.0         0.25         92.9 
      1784.0         0.20         96.2 
      1785.0         0.23         96.3 
      1786.0         0.23         97.0 
      1787.0         0.23        104.3 
      1788.0         0.23        111.6 
      1789.0         0.30        112.3 
      1790.0         0.30        102.6 
      1791.0         0.37        104.2 
      1792.0         0.27         99.9 
      1793.0         0.30         85.1 
      1794.0         0.23         78.2 
      1795.0         0.27         79.6 
      1796.0         3.90        320.0 
      1797.0         0.33        282.9 
      1798.0         0.30        246.1 
      1799.0         0.23        246.8 
      1800.0         0.23        240.3 
      1801.0         0.30        236.7 
      1802.0         0.40        201.1 
      1803.0         0.40        173.9 
      1804.0         0.33        151.6 
      1805.0         0.37        155.3 
      1806.0         0.35        155.0 
      1807.0         0.47        144.1 
      1808.0         0.33        123.5 
      1809.0         0.27         79.6 
      1810.0         0.23         79.6 
