~Version Information
VERS.                      2.0: CWLS Log ASCII Standard - VERSION 2.0
WRAP.                       NO: One line per depth step
~Well Information Block
STRT.FT               -12.3000: 
STOP.FT              1768.7000: 
STEP.FT                 0.1000: 
NULL.                -999.2500: 
COMP.          Petrogulf Corporation: COMPANY
WELL.          Alexander 9-43R: WELL
FLD.           Purgatorie River: FIELD
LOC.           1652' FSL & 1049' FEL--: LOCATION
CNTY.               Las Animas: COUNTY
SRVC.                         : SERVICE COMPANY
DATE.          Tue Sep 28 14:27:54 2004: LOG DATE
UWI.                          : UNIQUE WELL ID
STAT.                       CO: STATE
~Curve Information Block
DEPT.FT            0 000 00 00: Depth
GR.GAPI                       : Gamma Ray
CCL.                          : Casing Collar Locator
TT3.usec                      : CBL 3' Travel Time
AMP3.mV                       : CBL 3' Amplitude
~Parameter Information Block
~A  Depth        GR         CCL         TT3         AMP3    
# ...
   108.3000     86.2163      0.0000    298.8052     33.2146
   108.4000     86.2163      0.0000    298.8052     33.2146
   108.5000     89.8842      0.0000    298.7353     33.7143
   108.6000     89.8842      0.0000    298.7353     33.7143
   108.7000     89.8842      0.0000    298.7353     33.7143
   108.8000     93.4109      0.0000    298.6861     34.3912
   108.9000     93.4109      0.0000    298.6861     34.3912
   109.0000     95.3510      0.0000    298.6709     35.1919
   109.1000     95.3510      0.0000    298.6709     35.1919
   109.2000     95.3510      0.0000    298.6709     35.1919
   109.3000     95.2401      0.0000    298.6895     35.9707
   109.4000     95.2401      0.0000    298.6895     35.9707
   109.5000     93.4830      0.0000    298.7288     36.5479
   109.6000     93.4830      0.0000    298.7288     36.5479
   109.7000     93.4830      0.0000    298.7288     36.5479
   109.8000     90.9095      0.0000    298.7704     36.8006
   109.9000     90.9095      0.0000    298.7704     36.8006
   110.0000     88.3922      0.0000    298.7999     36.7087
   110.1000     88.3922      0.0000    298.7999     36.7087
   110.2000     88.3922      0.0000    298.7999     36.7087
   110.3000     86.6489      0.0000    298.8116     36.3267
   110.4000     86.6489      0.0000    298.8116     36.3267
   110.5000     86.1082      0.0000    298.8127     35.7354
   110.6000     86.1082      0.0000    298.8127     35.7354
   110.7000     86.1082      0.0000    298.8127     35.7354
   110.8000     86.4577      0.0000    298.8192     35.0307
   110.9000     86.4577      0.0000    298.8192     35.0307
   111.0000     86.3337      0.0000    298.8458     34.3247
   111.1000     86.3337      0.0000    298.8458     34.3247
   111.2000     86.3337      0.0000    298.8458     34.3247
   111.3000     84.2406      0.0000    298.8987     33.7203
   111.4000     84.2406      0.0000    298.8987     33.7203
   111.5000     80.0962      0.0000    298.9741     33.2815
   111.6000     80.0962      0.0000    298.9741     33.2815
   111.7000     80.0962      0.0000    298.9741     33.2815
   111.8000     75.2881      0.0000    299.0580     33.0354
   111.9000     75.2881      0.0000    299.0580     33.0354
   112.0000     71.1446      0.0000    299.1301     32.9826
   112.1000     71.1446      0.0000    299.1301     32.9826
   112.2000     71.1446      0.0000    299.1301     32.9826
   112.3000     67.9177      0.0000    299.1776     33.0910
   112.4000     67.9177      0.0000    299.1776     33.0910
   112.5000     65.0886      0.0000    299.2040     33.3006
   112.6000     65.0886      0.0000    299.2040     33.3006
   112.7000     65.0886      0.0000    299.2040     33.3006
   112.8000     62.1394      0.0000    299.2190     33.5575
   112.9000     62.1394      0.0000    299.2190     33.5575
   113.0000     59.1571      0.0000    299.2174     33.8402
   113.1000     59.1571      0.0000    299.2174     33.8402
   113.2000     59.1571      0.0000    299.2174     33.8402
   113.3000     56.9787      0.0000    299.1819     34.1448
   113.4000     56.9787      0.0000    299.1819     34.1448
   113.5000     56.5724      0.0000    299.1052     34.4459
   113.6000     56.5724      0.0000    299.1052     34.4459
   113.7000     56.5724      0.0000    299.1052     34.4459
   113.8000     58.0744      0.0000    299.0052     34.6802
   113.9000     58.0744      0.0000    299.0052     34.6802
   114.0000     60.5905      0.0000    298.9131     34.7843
   114.1000     60.5905      0.0000    298.9131     34.7843
   114.2000     60.5905      0.0000    298.9131     34.7843
   114.3000     62.9509      0.0000    298.8530     34.7534
   114.4000     62.9509      0.0000    298.8530     34.7534
   114.5000     64.3201      0.0000    298.8338     34.6429
   114.6000     64.3201      0.0000    298.8338     34.6429
   114.7000     64.3201      0.0000    298.8338     34.6429
   114.8000     64.2072      0.0000    298.8541     34.4951
   114.9000     64.2072      0.0000    298.8541     34.4951
   115.0000     62.6999      0.0000    298.9103     34.2712
   115.1000     62.6999      0.0000    298.9103     34.2712
   115.2000     62.6999      0.0000    298.9103     34.2712
   115.3000     60.8192      0.0000    298.9994     33.8782
   115.4000     60.8192      0.0000    298.9994     33.8782
   115.5000     59.8749      0.0000    299.1176     33.2700
   115.6000     59.8749      0.0000    299.1176     33.2700
   115.7000     59.8749      0.0000    299.1176     33.2700
   115.8000     60.1799      0.0000    299.2573     32.5079
   115.9000     60.1799      0.0000    299.2573     32.5079
   116.0000     60.7696      0.0000    299.4061     31.7196
   116.1000     60.7696      0.0000    299.4061     31.7196
   116.2000     60.7696      0.0000    299.4061     31.7196
   116.3000     60.3681      0.0000    299.5453     31.0090
   116.4000     60.3681      0.0000    299.5453     31.0090
   116.5000     58.4121      0.0000    299.6555     30.3991
   116.6000     58.4121      0.0000    299.6555     30.3991
   116.7000     58.4121      0.0000    299.6555     30.3991
   116.8000     55.3029      0.0000    299.7289     29.8335
   116.9000     55.3029      0.0000    299.7289     29.8335
   117.0000     51.8819      0.0000    299.7777     29.2242
   117.1000     51.8819      0.0000    299.7777     29.2242
   117.2000     51.8819      0.0000    299.7777     29.2242
   117.3000     48.6905      0.0000    299.8211     28.5219
   117.4000     48.6905      0.0000    299.8211     28.5219
   117.5000     45.8260      0.0000    299.8654     27.7569
   117.6000     45.8260      0.0000    299.8654     27.7569
   117.7000     45.8260      0.0000    299.8654     27.7569
   117.8000     43.4816      0.0000    299.9044     27.0095
   117.9000     43.4816      0.0000    299.9044     27.0095
   118.0000     42.3272      0.0000    299.9398     26.3436
   118.1000     42.3272      0.0000    299.9398     26.3436
   118.2000     42.3272      0.0000    299.9398     26.3436
   118.3000     43.1802      0.0000    299.9913     25.7778
   118.4000     43.1802      0.0000    299.9913     25.7778
   118.5000     46.4424      0.0000    300.0794     25.3200
   118.6000     46.4424      0.0000    300.0794     25.3200
   118.7000     46.4424      0.0000    300.0794     25.3200
   118.8000     51.8935      0.0000    300.1936     25.0071
   118.9000     51.8935      0.0000    300.1936     25.0071
   119.0000     58.8349      0.0000    300.2827     24.8761
   119.1000     58.8349      0.0000    300.2827     24.8761
   119.2000     58.8349      0.0000    300.2827     24.8761
   119.3000     66.3138      0.0000    300.2893     24.8849
   119.4000     66.3138      0.0000    300.2893     24.8849
   119.5000     73.4060      0.0000    300.1994     24.8932
   119.6000     73.4060      0.0000    300.1994     24.8932
   119.7000     73.4060      0.0000    300.1994     24.8932
   119.8000     79.5918      0.0000    300.0557     24.7575
   119.9000     79.5918      0.0000    300.0557     24.7575
   120.0000     84.8440      0.0000    299.9184     24.4440
   120.1000     84.8440      0.0000    299.9184     24.4440
   120.2000     84.8440      0.0000    299.9184     24.4440
   120.3000     89.2335      0.0000    299.8199     24.0329
   120.4000     89.2335      0.0000    299.8199     24.0329
   120.5000     92.5953      0.0000    299.7552     23.6385
   120.6000     92.5953      0.0000    299.7552     23.6385
   120.7000     92.5953      0.0000    299.7552     23.6385
   120.8000     94.6883      0.0000    299.7054     23.3484
   120.9000     94.6883      0.0000    299.7054     23.3484
   121.0000     95.4608      0.0000    299.6601     23.2133
   121.1000     95.4608      0.0000    299.6601     23.2133
   121.2000     95.4608      0.0000    299.6601     23.2133
   121.3000     95.0968      0.0000    299.6236     23.2523
   121.4000     95.0968      0.0000    299.6236     23.2523
   121.5000     94.0125      0.0000    299.6065     23.4496
   121.6000     94.0125      0.0000    299.6065     23.4496
