~Version Information
VERS.                      2.0: CWLS Log ASCII Standard - VERSION 2.0
WRAP.                       NO: One line per depth step
~Well Information Block
STRT.FT               748.2500: 
STOP.FT              2498.5000: 
STEP.FT                 0.2500: 
NULL.                -999.2500: 
COMP.          Petrogulf Corporation: COMPANY
WELL.           Montoya 13-41V: WELL
FLD.           Purgatorie River: FIELD
LOC.           449' FNL & 891' FEL: LOCATION
CNTY.               Las Animas: COUNTY
SRVC.                         : SERVICE COMPANY
DATE.          Tue Aug 17 13:22:31 2004: LOG DATE
UWI.           05 071 08021 00: UNIQUE WELL ID
STAT.                 Colorado: STATE
~Curve Information Block
DEPT.FT            0 000 00 00: Depth
SP.mV                         : DIL Spontaneous Potential
RILD.Ohm-m                    : DIL Deep Resistivity
RILM.Ohm-m                    : DIL Medium Resistivity
RLL3.Ohm-m                    : DIL Shallow Resistivity
GR.GAPI                       : Gamma Ray
~Parameter Information Block
~A  Depth        SP         RILD        RILM        RLL3         GR     
# ...
  1112.2500     36.9116     36.6664     63.8178    691.9804     39.5058
  1112.5000     36.6780     36.1489     61.1201    553.8729     47.8432
  1112.7500     36.3898     35.5996     59.2200    405.7777     55.5592
  1113.0000     36.1511     34.8400     58.1304    277.5732     67.8377
  1113.2500     36.0700     33.7165     57.7422    192.6093     74.5235
  1113.5000     36.2123     32.2058     57.8487    161.3409     79.5423
  1113.7500     36.5711     30.4471     58.1460    183.7501     78.9381
  1114.0000     37.0748     28.6725     58.2479    252.6661     73.0771
  1114.2500     37.6277     27.0997     57.7498    352.3589     67.3903
  1114.5000     38.1618     25.8606     56.3420    455.6928     59.6629
  1114.7500     38.6704     24.9905     53.9383    528.1511     56.9917
  1115.0000     39.2080     24.4528     50.7151    541.6444     58.9021
  1115.2500     39.8556     24.1781     47.0327    489.6695     64.4697
  1115.5000     40.6753     24.0968     43.2862    390.9669     78.4969
  1115.7500     41.6765     24.1612     39.7896    277.9653     90.7885
  1116.0000     42.8035     24.3445     36.7333    179.1818    111.9962
  1116.2500     43.9427     24.6257     34.1972    108.4951    126.7901
  1116.5000     44.9561     24.9670     32.1860     65.6617    147.2344
  1116.7500     45.7133     25.3019     30.6633     43.2127    158.0222
  1117.0000     46.1250     25.5471     29.5755     32.9448    168.1478
  1117.2500     46.1638     25.6378     28.8659     28.9700    170.7974
  1117.5000     45.8672     25.5713     28.4851     27.9710    169.7965
  1117.7500     45.3195     25.4249     28.3976     28.3798    166.8391
  1118.0000     44.6207     25.3387     28.5854     29.5944    160.9564
  1118.2500     43.8527     25.4768     29.0505     31.4267    157.2274
  1118.5000     43.0571     25.9962     29.8127     33.9722    153.2102
  1118.7500     42.2303     27.0337     30.9058     37.4539    151.5251
  1119.0000     41.3464     28.7024     32.3698     42.1166    149.1262
  1119.2500     40.3839     31.0866     34.2416     48.1027    146.7698
  1119.5000     39.3502     34.2302     36.5426     55.3070    141.8505
  1119.7500     38.2878     38.1231     39.2669     63.2504    138.1845
  1120.0000     37.2550     42.7056     42.3694     71.0665    133.0954
  1120.2500     36.3020     47.9034     45.7655     77.7097    130.2683
  1120.5000     35.4536     53.6802     49.3374     82.3741    127.3238
  1120.7500     34.7087     60.0335     52.9590     84.9118    126.5328
  1121.0000     34.0562     66.8811     56.5191     85.9794    126.7869
  1121.2500     33.4975     73.8439     59.9453     86.7889    126.8925
  1121.5000     33.0522     80.0829     63.2030     88.5953    124.7614
  1121.7500     32.7467     84.5299     66.2892     92.1924    121.2086
  1122.0000     32.5911     86.6057     69.2255     97.6483    113.3963
  1122.2500     32.5495     86.8161     72.0611    104.3832    107.5831
  1122.5000     32.5302     86.5258     74.8754    111.5370     99.6947
  1122.7500     32.4001     87.2025     77.7784    118.4232     95.3953
  1123.0000     32.0251     89.9013     80.8781    124.8132     89.7175
  1123.2500     31.3162     95.0691     84.2504    130.9257     85.8563
  1123.5000     30.2707    102.3512     87.8923    137.2129     80.2085
  1123.7500     28.9790    110.2204     91.6990    144.1461     77.4595
  1124.0000     27.5990    115.8251     95.4832    152.0998     75.9905
  1124.2500     26.3133    116.1059     99.0340    161.2456     76.4194
  1124.5000     25.2835    110.0538    102.2020    171.3278     77.3378
  1124.7500     24.6174     99.5663    104.9563    181.3641     77.2011
  1125.0000     24.3666     87.6784    107.3582    189.5446     75.3811
  1125.2500     24.5320     76.6256    109.4987    193.6199     73.3944
  1125.5000     25.0775     67.4017    111.3969    191.7729     70.4162
  1125.7500     25.9399     60.2048    112.9315    183.5427     69.3295
  1126.0000     27.0363     54.8996    113.8356    170.2113     70.4406
  1126.2500     28.2760     51.2494    113.7664    154.3618     73.3157
  1126.5000     29.5705     48.9880    112.4310    138.8598     79.9705
  1126.7500     30.8448     47.8142    109.7298    125.8394     84.7827
  1127.0000     32.0381     47.3699    105.8303    116.1816     90.3662
  1127.2500     33.1074     47.2528    101.1417    109.6001     92.3219
  1127.5000     34.0205     47.1066     96.1918    105.1220     93.0359
  1127.7500     34.7542     46.7577     91.5014    101.6536     92.8729
  1128.0000     35.2988     46.3006     87.4737     98.4164     93.0101
  1128.2500     35.6552     46.0406     84.3694     95.1539     93.7554
  1128.5000     35.8275     46.3395     82.3014     92.0862     95.8938
  1128.7500     35.8099     47.4675     81.2641     89.6620     97.6733
  1129.0000     35.5862     49.5057     81.1488     88.2384     99.7458
  1129.2500     35.1404     52.2848     81.7581     87.8633    100.0649
  1129.5000     34.4858     55.3436     82.8294     88.2620     98.8166
  1129.7500     33.6923     57.9962     84.0630     88.9919     97.2892
  1130.0000     32.8914     59.5523     85.1810     89.6442     94.2502
  1130.2500     32.2513     59.6440     85.9853     89.9870     91.2191
  1130.5000     31.9272     58.4038     86.3956     90.0065     84.2578
  1130.7500     32.0062     56.3847     86.4502     89.8545     78.2335
  1131.0000     32.4788     54.3011     86.2701     89.7374     68.8518
  1131.2500     33.2370     52.8159     86.0205     89.8031     63.5220
  1131.5000     34.1036     52.4445     85.8668     90.0763     57.9509
  1131.7500     34.8854     53.5737     85.9445     90.4605     55.6991
  1132.0000     35.4286     56.4941     86.3408     90.7903     53.5467
  1132.2500     35.6621     61.3538     87.0701     90.9015     52.5076
  1132.5000     35.6130     67.9210     88.0612     90.6962     51.5339
  1132.7500     35.3967     75.1185     89.1535     90.1817     51.4519
  1133.0000     35.1739     80.7608     90.1279     89.4758     52.2673
  1133.2500     35.0954     82.5500     90.7799     88.7740     53.3446
  1133.5000     35.2490     80.1387     90.9856     88.3009     55.4346
  1133.7500     35.6335     75.5637     90.7742     88.2718     56.7490
  1134.0000     36.1591     71.3568     90.3116     88.8797     57.5925
  1134.2500     36.6807     69.0870     89.8447     90.3069     57.0142
  1134.5000     37.0400     69.2992     89.6030     92.7514     54.9165
  1134.7500     37.1108     71.8606     89.7207     96.4545     53.5226
  1135.0000     36.8309     76.0728     90.1701    101.6876     52.5459
  1135.2500     36.2128     80.6449     90.7388    108.6340     52.6293
  1135.5000     35.3422     83.9551     91.0422    117.1433     53.1371
  1135.7500     34.3481     84.8347     90.6053    126.4683     53.5157
  1136.0000     33.3762     83.2748     89.0174    135.2187     54.6943
  1136.2500     32.5532     80.2477     86.1204    141.7049     56.4858
  1136.5000     31.9658     76.9088     82.0926    144.5617     61.1826
  1136.7500     31.6511     74.0230     77.3849    143.2622     65.3628
  1137.0000     31.6028     71.8386     72.5438    138.1649     72.2910
  1137.2500     31.7870     70.1940     68.0306    130.1155     77.1340
  1137.5000     32.1559     68.6598     64.1463    119.9936     85.2593
  1137.7500     32.6556     66.7349     61.0158    108.5853     91.8118
  1138.0000     33.2258     64.0755     58.6275     96.7926    103.8211
  1138.2500     33.7993     60.6776     56.8563     85.8326    112.7226
  1138.5000     34.3172     56.8392     55.4940     77.0794    124.7763
  1138.7500     34.7477     52.9590     54.2806     71.5518    130.2620
  1139.0000     35.1073     49.3415     52.9410     69.4140    133.6932
  1139.2500     35.4613     46.1425     51.2594     69.8920    133.4244
  1139.5000     35.8985     43.4072     49.1379     71.6580    130.5568
  1139.7500     36.4941     41.1181     46.6264     73.3521    127.4564
  1140.0000     37.2681     39.2216     43.8876     73.8838    122.3970
