~Version Information
VERS.                      2.0: CWLS Log ASCII Standard - VERSION 2.0
WRAP.                       NO: One line per depth step
~Well Information Block
STRT.FT               770.0000: 
STOP.FT              1718.7000: 
STEP.FT                 0.1000: 
NULL.                -999.2500: 
COMP.          Pioneer Natural Resources: COMPANY
WELL.            Salty 42-6 Tr: WELL
FLD.           Purgatoire River: FIELD
LOC.           2409' FNL & 599' FEL: LOCATION
PROV.                 Colorado: PROVINCE
CNTY.               Las Animas: COUNTRY
SRVC.                Patterson: SERVICE COMPANY
DATE.          Thu Dec 16 09:30:36 2004: LOG DATE
UWI.           05 071 08238 00: UNIQUE WELL ID
~Curve Information Block
DEPT.FT            0 000 00 00: Depth
DCAL.in                       : CDL Caliper
RHOB.g/cc                     : CDL Bulk Density
RHOC.g/cc                     : CDL Density Correction
DPOR.pu                       : CDL Density Porosity
NPOR.pu                       : Neutron Porosity
GR.GAPI                       : Gamma Ray
~Parameter Information Block
~A  Depth       DCAL        RHOB        RHOC        DPOR        NPOR         GR     
# ...
   952.4000      7.9990      2.6966      0.1759     -2.8227     27.1901     99.9516
   952.5000      8.0045      2.7216      0.1897     -4.3398     28.0585     97.3000
   952.6000      8.0045      2.7302      0.1281     -4.8620     29.0460     96.0659
   952.7000      8.0045      2.7236      0.1655     -4.4600     29.8803     97.6112
   952.8000      8.0053      2.7011      0.1168     -3.0958     30.7120    101.2965
   952.9000      8.0053      2.6630      0.0960     -0.7892     31.4031    105.9216
   953.0000      8.0032      2.6152      0.0424      2.1100     31.5783    110.9153
   953.1000      8.0032      2.5755     -0.0566      4.5158     31.2804    113.2797
   953.2000      8.0032      2.5599     -0.0555      5.4589     30.8680    112.4975
   953.3000      8.0013      2.5629     -0.0557      5.2762     30.4593    112.6318
   953.4000      8.0013      2.5724      0.0091      4.7023     30.0035    114.7537
   953.5000      8.0001      2.5843      0.0143      3.9835     29.4243    116.5491
   953.6000      8.0001      2.6049      0.0233      2.7313     28.5495    118.2880
   953.7000      8.0001      2.6350      0.1405      0.9081     27.6379    121.3670
   953.8000      7.9986      2.6585      0.1517     -0.5178     27.2159    120.8146
   953.9000      7.9986      2.6637      0.1846     -0.8302     27.4496    114.3117
   954.0000      8.0009      2.6513      0.1159     -0.0781     27.9700    109.4070
   954.1000      8.0009      2.6326      0.0683      1.0524     28.2369    110.8323
   954.2000      8.0009      2.6147      0.0642      2.1367     27.9757    114.2891
   954.3000      8.0059      2.5976      0.0651      3.1765     27.5056    116.7745
   954.4000      8.0059      2.5906      0.0050      3.5980     27.4354    120.3064
   954.5000      8.0093      2.5989      0.0699      3.0950     27.8187    123.1795
   954.6000      8.0093      2.6030      0.0590      2.8461     28.0706    123.1278
   954.7000      8.0093      2.5839      0.0530      4.0034     27.8002    122.0540
   954.8000      8.0126      2.5484      0.0127      6.1588     27.2335    122.0005
   954.9000      8.0126      2.5153     -0.0108      8.1658     26.9233    124.1571
   955.0000      8.0104      2.4947     -0.0091      9.4127     26.9332    128.6873
   955.1000      8.0104      2.4943      0.0051      9.4348     26.6460    134.2124
   955.2000      8.0104      2.5189      0.0090      7.9462     26.0326    140.1214
   955.3000      7.9929      2.5523      0.0398      5.9186     25.6031    143.6041
   955.4000      7.9929      2.5683      0.0550      4.9518     25.4637    140.4159
   955.5000      7.9794      2.5674      0.0218      5.0042     25.4407    133.3111
   955.6000      7.9794      2.5723      0.0486      4.7066     25.3249    129.3092
   955.7000      7.9794      2.5824      0.0694      4.0993     25.0380    130.7875
   955.8000      7.9712      2.5815      0.0696      4.1498     24.8072    133.2738
   955.9000      7.9712      2.5727      0.0057      4.6851     24.8072    130.2767
   956.0000      7.9571      2.5639      0.0288      5.2200     24.9050    123.4010
   956.1000      7.9571      2.5466      0.0638      6.2660     24.8374    120.9937
   956.2000      7.9571      2.5193     -0.0082      7.9236     24.5798    124.8083
   956.3000      7.9478      2.5009      0.0207      9.0385     24.1989    130.5986
   956.4000      7.9478      2.5036      0.0035      8.8700     23.8420    135.9150
   956.5000      7.9462      2.5227      0.0855      7.7133     23.9250    138.2423
   956.6000      7.9462      2.5473      0.0625      6.2264     24.5011    134.1070
   956.7000      7.9462      2.5711      0.0774      4.7830     25.2730    125.6128
   956.8000      7.9459      2.5927      0.0914      3.4738     25.9117    119.8705
   956.9000      7.9459      2.6088      0.1202      2.4961     26.2453    118.6909
   957.0000      7.9437      2.6180      0.0463      1.9403     26.4183    116.1798
   957.1000      7.9437      2.6180      0.0829      1.9400     26.6406    111.8077
   957.2000      7.9437      2.6039      0.0324      2.7968     27.0106    112.8188
   957.3000      7.9430      2.5832      0.0434      4.0460     27.4135    120.1019
   957.4000      7.9430      2.5707      0.0201      4.8060     27.6699    126.0480
   957.5000      7.9448      2.5684      0.0285      4.9444     27.6906    126.0494
   957.6000      7.9448      2.5575      0.0446      5.6054     27.4828    123.3483
   957.7000      7.9448      2.5302     -0.0417      7.2619     27.2331    120.5816
   957.8000      7.9447      2.5105     -0.0382      8.4550     27.1856    118.5679
   957.9000      7.9447      2.5148      0.0026      8.1935     27.3772    116.7585
   958.0000      7.9410      2.5319      0.0256      7.1590     27.6337    115.0645
   958.1000      7.9410      2.5397      0.0430      6.6856     27.6961    116.5784
   958.2000      7.9410      2.5245      0.0439      7.6057     27.2783    120.2473
   958.3000      7.9388      2.4921      0.0140      9.5673     26.4556    120.9206
   958.4000      7.9388      2.4650     -0.0169     11.2141     25.6893    119.1174
   958.5000      7.9424      2.4610      0.0244     11.4515     24.9966    118.1859
   958.6000      7.9424      2.4785     -0.0116     10.3914     24.2217    116.8831
   958.7000      7.9424      2.4989      0.0321      9.1553     23.6261    114.9809
   958.8000      7.9477      2.4985      0.0422      9.1840     23.4721    114.5847
   958.9000      7.9477      2.4753      0.0259     10.5892     23.9528    116.9805
   959.0000      7.9555      2.4540      0.0107     11.8789     24.8904    121.8789
   959.1000      7.9555      2.4514      0.0038     12.0376     25.6247    125.9928
   959.2000      7.9555      2.4586      0.0119     11.6014     25.9210    125.7277
   959.3000      7.9611      2.4634      0.0010     11.3066     25.9995    119.2744
   959.4000      7.9611      2.4696      0.0055     10.9305     26.2102    108.9004
   959.5000      7.9532      2.4827      0.0075     10.1407     27.0801    100.2762
   959.6000      7.9532      2.4996      0.0531      9.1128     28.7099     96.3180
   959.7000      7.9532      2.5145      0.0533      8.2140     30.4466     96.3001
   959.8000      7.9458      2.5188      0.0811      7.9518     31.3898     96.5014
   959.9000      7.9458      2.5116      0.0935      8.3881     31.3510     93.2410
   960.0000      7.9450      2.5056      0.1074      8.7538     31.0054     87.8238
   960.1000      7.9450      2.5113      0.0888      8.4070     30.5763     84.8909
   960.2000      7.9450      2.5280      0.0985      7.3965     29.7547     88.5416
   960.3000      7.9449      2.5476      0.1107      6.2058     28.7687     94.9128
   960.4000      7.9449      2.5651      0.0779      5.1438     27.8175     96.9641
   960.5000      7.9480      2.5832      0.0799      4.0479     26.7723     97.8975
   960.6000      7.9480      2.6069      0.0951      2.6091     25.8196     99.0867
   960.7000      7.9480      2.6375      0.1614      0.7586     25.3370     96.6606
   960.8000      7.9572      2.6702      0.1156     -1.2225     25.5868     93.8893
   960.9000      7.9572      2.7006      0.1283     -3.0688     26.2909     95.0936
   961.0000      7.9691      2.7183      0.1523     -4.1394     26.6805     97.8600
   961.1000      7.9691      2.7108      0.1627     -3.6868     26.4277     97.8042
   961.2000      7.9691      2.6875      0.0598     -2.2707     26.2251     94.5034
   961.3000      7.9754      2.6711      0.0857     -1.2769     26.5454     92.2909
   961.4000      7.9754      2.6678      0.0359     -1.0760     26.8188     93.4613
   961.5000      7.9724      2.6707      0.0800     -1.2565     26.4748     97.1981
   961.6000      7.9724      2.6682      0.0480     -1.1016     25.8815    101.8944
   961.7000      7.9724      2.6527      0.0622     -0.1646     25.7920    103.1929
   961.8000      7.9628      2.6339      0.0045      0.9786     26.1648    101.3984
   961.9000      7.9628      2.6226      0.0187      1.6621     26.4929    101.9137
