~Version Information
 VERS.                                  2.0 : CWLS LAS VERSION
 WRAP.                                   NO : WRAPING MODE
 SWARE .                 MController 2.5.0J : SOFTWARE VERSION
~Well Information
 WELL.                        Montoya 6-14R : WELL
 COMP.                       Petrogulf Corp : COMPANY
 FLD.                      Purgatoire River : FIELD
 LOC.                 SW/SW Sec 6 T33S R67W : LOCATION
 DATE.                             11/13/04 : DATE(S) LOGGED
 SRVC.       Blanco Geological Services LLC : SERVICE COMPANY
 STAT.                                   CO : STATE
 CNTY.                           Las Animas : COUNTY
 CTRY.                                  USA : COUNTRY
 API.                       05-071-08242-00 : API NUMBER
 STRT.FT                             484.00 : START DEPTH
 STOP.FT                            2180.00 : STOP DEPTH
 STEP.FT                               1.00 : DEPTH INCREMENT
 NULL.                                -9999 : NULL VALUE
~Curve information
 DEPTH.FT                                   :
 ROP.MIN/FT                                 :
 GAS.UNITS                                  :
~ASCII Log data
       484.0     -9999.00         11.9 
       485.0         1.25         13.0 
       486.0         0.33         12.4 
       487.0         0.10         12.2 
       488.0         0.10         12.0 
       489.0         0.07         12.2 
       490.0         0.10         12.2 
       491.0         0.07         12.5 
       492.0         0.10         12.5 
       493.0         0.13         12.0 
       494.0         0.23         12.7 
       495.0         0.10         12.0 
       496.0         1.42         11.9 
       497.0         0.07         11.7 
       498.0         0.10         11.2 
       499.0         0.10         11.2 
       500.0         0.10         11.4 
       501.0         0.20         12.4 
       502.0         0.10         12.2 
       503.0         0.10         10.9 
       504.0         0.10         10.0 
       505.0         0.07         10.0 
       506.0         0.10          9.4 
       507.0         0.07          9.5 
       508.0         0.13         10.1 
       509.0         0.10         10.1 
       510.0         0.17         10.6 
       511.0         1.27         11.7 
       512.0         0.13         11.8 
       513.0         0.07         11.9 
       514.0         0.15         11.9 
       515.0         0.10         12.5 
       516.0         0.37         11.6 
       517.0         0.23         12.2 
       518.0         0.80         11.9 
       519.0         0.13         11.5 
       520.0         1.47         12.1 
       521.0         0.18         11.7 
       522.0         0.53          9.9 
       523.0         0.90         10.7 
       524.0         0.27         11.5 
       525.0         0.77         11.5 
       526.0         0.17         11.3 
       527.0         0.68         12.1 
       528.0         0.83         12.1 
       529.0         0.13         11.7 
       530.0         0.30         11.5 
       531.0         0.90         12.5 
       532.0         0.17         11.1 
       533.0         0.27         11.7 
       534.0         0.63         12.1 
       535.0         0.22         12.1 
       536.0         0.27         12.2 
       537.0         0.90         12.7 
       538.0         0.30         12.4 
       539.0         0.90         12.2 
       540.0         0.33         12.8 
       541.0         0.92         12.6 
       542.0         0.33         11.8 
       543.0         0.90         12.2 
       544.0         0.27         12.8 
       545.0         0.10         12.2 
       546.0         1.03         12.2 
       547.0         0.38         11.8 
       548.0         1.03         12.0 
       549.0         2.03         12.5 
       550.0         0.10         11.9 
       551.0         0.07         12.3 
       552.0         0.12         12.4 
       553.0         0.10         12.2 
       554.0         0.07         12.4 
       555.0         0.10         13.0 
       556.0         0.07         12.1 
       557.0         0.10         12.4 
       558.0         0.10         12.2 
       559.0         0.07         12.2 
       560.0         0.10         12.3 
       561.0         0.10         12.3 
       562.0         0.10         11.9 
       563.0         0.07         12.2 
       564.0         0.13         11.7 
       565.0         0.10         11.5 
       566.0         0.13         12.0 
       567.0         0.10         12.0 
       568.0         0.07         12.2 
       569.0         0.23         12.5 
       570.0         0.13         12.3 
       571.0         0.10         12.2 
       572.0         1.23         12.7 
       573.0         0.58         12.5 
       574.0         0.77         12.5 
       575.0         0.47         12.1 
       576.0         0.17         12.1 
       577.0         0.10         12.2 
       578.0         0.10         12.6 
       579.0         0.10         12.6 
       580.0         0.07         12.6 
       581.0         0.07         12.6 
       582.0         0.10         12.5 
       583.0         0.10         12.4 
       584.0         0.10         12.6 
       585.0         0.10         12.1 
       586.0         0.10         12.1 
       587.0         0.10         12.2 
       588.0         0.07         11.9 
       589.0         0.13         12.2 
       590.0         0.10         11.8 
       591.0         0.12         11.8 
       592.0         0.13         11.8 
       593.0         0.37         12.6 
       594.0         0.77         12.6 
       595.0         0.43         12.2 
       596.0         0.43         12.8 
       597.0         0.07         12.8 
       598.0         0.07         12.7 
       599.0         1.12         11.9 
       600.0         1.10         12.7 
       601.0         0.57         12.6 
       602.0         0.10         12.3 
       603.0         0.10         12.5 
       604.0         0.10         10.8 
       605.0         0.10         13.8 
       606.0         0.10         42.3 
       607.0         0.10         66.4 
       608.0         0.13         78.6 
       609.0         0.13         78.6 
       610.0         0.13         66.1 
       611.0         0.37         53.7 
       612.0         0.32         34.4 
       613.0         0.13         18.5 
       614.0         0.07         15.5 
       615.0         0.27         14.3 
       616.0         0.10         10.5 
       617.0         0.10         10.7 
       618.0         0.10          9.1 
       619.0         0.10          8.9 
       620.0         0.10          9.6 
       621.0         0.13          9.7 
       622.0         0.13          8.8 
       623.0         0.13          8.0 
       624.0         0.07         12.4 
       625.0         0.10         11.4 
       626.0         0.23         11.0 
       627.0         0.23         11.3 
       628.0         0.12         11.0 
       629.0         0.07         11.0 
       630.0         0.13         11.0 
       631.0         0.17         11.2 
       632.0         0.13         11.2 
       633.0         0.13         11.9 
       634.0         0.17         11.7 
       635.0         0.23         11.5 
       636.0         0.20         11.5 
       637.0         0.20         12.0 
       638.0         0.20         12.0 
       639.0         0.20         12.0 
       640.0         0.20         11.1 
       641.0         0.20         11.1 
       642.0         0.20         11.3 
       643.0         0.20         11.2 
       644.0         0.20         11.5 
       645.0         0.17         11.8 
       646.0         0.17         11.0 
       647.0         0.22         11.2 
       648.0         0.17         10.9 
       649.0         0.13         10.7 
       650.0         0.10         10.9 
       651.0         0.20         10.9 
       652.0         0.17         11.3 
       653.0         0.20         11.2 
       654.0         0.20         10.7 
       655.0         0.17         10.8 
       656.0         0.20         12.2 
       657.0         0.20         11.7 
       658.0         0.37         11.6 
       659.0         0.40         11.7 
       660.0         0.37         11.6 
       661.0         0.30         12.0 
       662.0         0.28         11.5 
       663.0         0.27         11.8 
       664.0         0.27         11.4 
       665.0         0.27         11.5 
       666.0         0.30         11.6 
       667.0         0.30         11.2 
       668.0         0.23         11.9 
       669.0         0.23         10.9 
       670.0         0.17         11.2 
       671.0         0.17         11.3 
       672.0         0.20         11.7 
       673.0         0.20         11.6 
       674.0         0.17         11.5 
       675.0         0.20         11.8 
       676.0         0.20         12.7 
       677.0         0.25         12.5 
       678.0         0.20         12.0 
       679.0         0.33         11.8 
       680.0         0.23         11.1 
       681.0         0.20         11.2 
       682.0         0.23         11.5 
       683.0         0.20         12.0 
