~Version Information
VERS.                      2.0: CWLS Log ASCII Standard - VERSION 2.0
WRAP.                       NO: One line per depth step
~Well Information Block
STRT.FT               902.0000: 
STOP.FT              2428.2000: 
STEP.FT                 0.1000: 
NULL.                -999.2500: 
COMP.          Pioneer Natural Resources: COMPANY
WELL.            Victory 12-14: WELL
FLD.           Purgatoire River: FIELD
LOC.           2434' FNL & 188' FWL: LOCATION
PROV.                 Colorado: PROVINCE
CNTY.               Las Animas: COUNTRY
SRVC.                Patterson: SERVICE COMPANY
DATE.          Mon Apr 18 07:24:17 2005: LOG DATE
UWI.           05 071 08332 00: UNIQUE WELL ID
~Curve Information Block
DEPT.FT            0 000 00 00: Depth
DCAL.in                       : CDL Caliper
RHOB.g/cc                     : CDL Bulk Density
RHOC.g/cc                     : CDL Density Correction
DPOR.pu                       : CDL Density Porosity
GR.GAPI                       : Gamma Ray
NPOR.pu                       : Neutron Porosity
~Parameter Information Block
~A  Depth       DCAL        RHOB        RHOC        DPOR         GR         NPOR    
# ...
  1305.2000      7.9972      2.5188      0.0230      7.9503    151.5689     23.0791
  1305.3000      8.0205      2.4910      0.0156      9.6359    149.9154     22.3277
  1305.4000      8.0205      2.4754      0.0462     10.5807    152.4476     22.3542
  1305.5000      8.0291      2.4631      0.0089     11.3276    153.8800     22.6431
  1305.6000      8.0291      2.4550      0.0287     11.8160    149.9315     22.9049
  1305.7000      8.0291      2.4533      0.0393     11.9241    145.0494     23.4365
  1305.8000      8.0330      2.4597      0.0317     11.5319    144.8796     24.1898
  1305.9000      8.0330      2.4785      0.0443     10.3954    150.0558     24.7518
  1306.0000      8.0679      2.5036      0.0847      8.8702    155.0793     24.9220
  1306.1000      8.0679      2.5135      0.1627      8.2698    155.3385     24.6182
  1306.2000      8.0679      2.4885      0.1617      9.7898    155.2752     24.0506
  1306.3000      8.0601      2.4202      0.1785     13.9249    158.6240     23.7393
  1306.4000      8.0601      2.3054      0.1371     20.8859    160.1980     23.7505
  1306.5000      8.0387      2.1555      0.0059     29.9701    159.3522     23.7048
  1306.6000      8.0387      2.0007     -0.0590     39.3530    160.1896     23.3846
  1306.7000      8.0387      1.8737     -0.0835     47.0496    162.9695     22.6970
  1306.8000      8.0295      1.7947     -0.0819     51.8339    163.8835     21.8399
  1306.9000      8.0295      1.7577     -0.0282     54.0783    160.0822     21.3020
  1307.0000      8.0711      1.7659     -0.0738     53.5815    157.0502     21.2318
  1307.1000      8.0711      1.8659      0.0265     47.5209    161.4105     21.4551
  1307.2000      8.0711      2.0776      0.2876     34.6920    168.3669     21.8754
  1307.3000      8.0710      2.3237      0.6440     19.7732    169.4331     22.2462
  1307.4000      8.0710      2.5036      0.6765      8.8743    162.5099     22.2634
  1307.5000      8.0722      2.5919      0.6566      3.5183    152.6147     21.9550
  1307.6000      8.0722      2.6060      0.5371      2.6658    147.7163     21.4844
  1307.7000      8.0722      2.5612      0.4234      5.3815    149.2345     21.1174
  1307.8000      8.1228      2.4865      0.2925      9.9072    152.1061     21.0763
  1307.9000      8.1228      2.4230      0.1643     13.7605    154.3728     21.3130
  1308.0000      8.2022      2.3944      0.1136     15.4896    154.3543     21.7757
  1308.1000      8.2022      2.3862      0.1915     15.9889    147.8716     22.3516
  1308.2000      8.2022      2.3683      0.1588     17.0744    139.3682     22.7893
  1308.3000      8.2361      2.3431      0.1137     18.6001    135.8635     22.8464
  1308.4000      8.2361      2.3335      0.1169     19.1837    134.6721     22.5643
  1308.5000      8.1684      2.3400      0.1732     18.7882    129.6917     22.4122
  1308.6000      8.1684      2.3417      0.2024     18.6858    119.2482     22.9460
  1308.7000      8.1684      2.3256      0.2842     19.6604    106.0524     24.0249
  1308.8000      8.2507      2.3004      0.2551     21.1908     98.4766     25.0357
  1308.9000      8.2507      2.2908      0.1950     21.7700     98.9305     25.6017
  1309.0000      8.1980      2.3130      0.2764     20.4237     96.8744     25.9572
  1309.1000      8.1980      2.3658      0.1922     17.2246     86.9938     26.7015
  1309.2000      8.1980      2.4445      0.2103     12.4554     75.1556     27.6652
  1309.3000      8.1116      2.5271      0.2933      7.4489     66.3150     28.1700
  1309.4000      8.1116      2.5827      0.3434      4.0774     62.2740     27.9408
  1309.5000      7.9853      2.6011      0.2959      2.9627     62.4423     27.0107
  1309.6000      7.9853      2.5885      0.3046      3.7273     63.5433     25.5145
  1309.7000      7.9853      2.5437      0.2593      6.4439     64.1860     23.9862
  1309.8000      7.8522      2.4631      0.1644     11.3273     65.4277     23.0315
  1309.9000      7.8522      2.3691     -0.0225     17.0271     67.1767     22.4322
  1310.0000      7.8234      2.3052     -0.0567     20.8995     68.1824     21.6725
  1310.1000      7.8234      2.2915     -0.0845     21.7245     68.0433     21.0192
  1310.2000      7.8234      2.3085     -0.0522     20.6961     69.0012     20.9443
  1310.3000      7.8873      2.3187     -0.0376     20.0784     72.0051     21.1104
  1310.4000      7.8873      2.2894      0.0709     21.8574     73.2756     20.7267
  1310.5000      7.9321      2.2086      0.0369     26.7538     73.7223     19.8035
  1310.6000      7.9321      2.0972      0.0578     33.5022     76.7748     19.0910
  1310.7000      7.9321      1.9868      0.0694     40.1932     81.8244     19.0029
  1310.8000      7.9697      1.9000      0.0443     45.4524     88.3716     19.4119
  1310.9000      7.9697      1.8543      0.0035     48.2258     96.3413     20.1941
  1311.0000      7.8840      1.8563     -0.0105     48.1033    103.7776     21.1977
  1311.1000      7.8840      1.8991     -0.0694     45.5070    109.0804     22.0526
  1311.2000      7.8840      1.9737     -0.0476     40.9874    114.1996     22.6915
  1311.3000      7.8841      2.0724      0.0369     35.0084    119.3189     23.5633
  1311.4000      7.8841      2.1848      0.1381     28.1938    120.1778     24.8081
  1311.5000      8.0008      2.2955      0.1873     21.4842    117.9114     25.8623
  1311.6000      8.0008      2.3847      0.2657     16.0777    119.5225     26.0910
  1311.7000      8.0008      2.4396      0.2585     12.7531    127.8354     25.8001
  1311.8000      7.9938      2.4648      0.2171     11.2259    135.7637     25.7265
  1311.9000      7.9938      2.4747      0.1803     10.6241    136.0351     25.9718
  1312.0000      7.9487      2.4740      0.1439     10.6693    131.7394     26.2846
  1312.1000      7.9487      2.4574      0.0695     11.6701    127.9503     26.6653
  1312.2000      7.9487      2.4333      0.0390     13.1361    126.5628     27.2277
  1312.3000      7.9529      2.4217      0.0358     13.8338    128.3581     27.7219
  1312.4000      7.9529      2.4289      0.0413     13.4009    130.8639     28.1313
  1312.5000      7.9824      2.4465      0.0398     12.3303    129.1647     28.6928
  1312.6000      7.9824      2.4779      0.0378     10.4286    122.8839     29.0119
  1312.7000      7.9824      2.5194      0.1510      7.9127    113.3722     28.6722
  1312.8000      8.0029      2.5429      0.1670      6.4913    100.6605     28.0378
  1312.9000      8.0029      2.5284      0.1739      7.3704     89.1336     27.6143
  1313.0000      7.9980      2.4788      0.1018     10.3737     81.6327     27.3696
  1313.1000      7.9980      2.4120      0.0220     14.4231     74.3239     27.0983
  1313.2000      7.9980      2.3590     -0.0069     17.6384     66.9795     26.5543
  1313.3000      7.9372      2.3514     -0.0275     18.0971     61.5113     25.6067
  1313.4000      7.9372      2.3875      0.0675     15.9114     56.6615     24.7569
  1313.5000      7.9216      2.4306      0.0929     13.2967     53.4298     24.4395
  1313.6000      7.9216      2.4737      0.0613     10.6868     55.2022     24.3753
  1313.7000      7.9216      2.5389      0.2021      6.7319     59.3481     24.1666
  1313.8000      7.9133      2.6103      0.3417      2.4055     58.9431     23.7354
  1313.9000      7.9133      2.6518      0.2837     -0.1108     54.4122     23.1839
  1314.0000      7.9068      2.6613      0.2524     -0.6819     52.2941     22.4975
  1314.1000      7.9068      2.6582      0.2074     -0.4971     53.6913     21.6053
  1314.2000      7.9068      2.6535      0.2129     -0.2130     56.3077     20.8074
  1314.3000      7.9092      2.6451      0.1600      0.2966     61.8918     20.3284
  1314.4000      7.9092      2.6244      0.1391      1.5520     70.6687     19.9821
  1314.5000      7.9117      2.5718      0.1047      4.7423     77.9550     19.5784
  1314.6000      7.9117      2.4852      0.0512      9.9895     80.7816     19.0394
  1314.7000      7.9117      2.4023      0.0140     15.0131     81.5938     18.2675
