~Version Information
VERS.                      2.0: CWLS Log ASCII Standard - VERSION 2.0
WRAP.                       NO: One line per depth step
~Well Information Block
STRT.FT               965.2500: 
STOP.FT              2602.5000: 
STEP.FT                 0.2500: 
NULL.                -999.2500: 
COMP.          Petrogulf Corporation: COMPANY
WELL.             Valejo 8-12V: WELL
FLD.           Purgatorie River: FIELD
LOC.           1510' FNL & 1460' FWL: LOCATION
CNTY.               Las Animas: COUNTY
SRVC.                         : SERVICE COMPANY
DATE.          Fri Nov 14 05:32:33 2003: LOG DATE
UWI.                          : UNIQUE WELL ID
STAT.                 Colorado: STATE
~Curve Information Block
DEPT.FT            0 000 00 00: Depth
RILD.Ohm-m                    : DIL Deep Resistivity
RILM.Ohm-m                    : DIL Medium Resistivity
RLL3.Ohm-m                    : DIL Shallow Resistivity
SP.mV                         : DIL Spontaneous Potential
GR.GAPI                       : Gamma Ray
~Parameter Information Block
~A  Depth       RILD        RILM        RLL3         SP          GR     
# ...
  1497.2500      6.9740      7.8668     11.6773    -21.9279    107.9171
  1497.5000      7.0509      7.8713     11.7906    -21.7073    113.1653
  1497.7500      7.1491      7.8726     11.5991    -21.5184    115.8489
  1498.0000      7.2720      7.8919     11.2200    -21.3759    119.2387
  1498.2500      7.4192      7.9527     10.8868    -21.2776    121.1178
  1498.5000      7.5855      8.0783     10.8164    -21.2117    123.1663
  1498.7500      7.7616      8.2876     11.0837    -21.1630    123.9772
  1499.0000      7.9370      8.5921     11.6056    -21.1208    124.2900
  1499.2500      8.1044      8.9975     12.2634    -21.0846    123.6802
  1499.5000      8.2627      9.5054     13.0610    -21.0652    121.0335
  1499.7500      8.4161     10.1119     14.1670    -21.0779    117.9876
  1500.0000      8.5679     10.7992     15.8063    -21.1304    111.7101
  1500.2500      8.7129     11.5239     18.1337    -21.2145    106.6657
  1500.5000      8.8345     12.2117     21.1876    -21.3057     98.5877
  1500.7500      8.9089     12.7638     24.8423    -21.3706     93.5491
  1501.0000      8.9192     13.0755     28.6322    -21.3802     87.7417
  1501.2500      8.8681     13.0674     31.6045    -21.3235     85.5107
  1501.5000      8.7811     12.7236     32.5739    -21.2188     85.0067
  1501.7500      8.6943     12.1139     30.8493    -21.1125     86.6343
  1502.0000      8.6380     11.3714     26.8441    -21.0569     91.6336
  1502.2500      8.6268     10.6352     21.8982    -21.0717     96.0026
  1502.5000      8.6581     10.0036     17.4330    -21.1247    102.6461
  1502.7500      8.7180      9.5242     14.2352    -21.1540    106.6095
  1503.0000      8.7883      9.2077     12.3727    -21.1098    111.9686
  1503.2500      8.8545      9.0458     11.5483    -20.9796    115.4886
  1503.5000      8.9112      9.0233     11.4496    -20.7846    120.5549
  1503.7500      8.9641      9.1249     11.8943    -20.5636    122.9905
  1504.0000      9.0293      9.3375     12.8231    -20.3593    123.4719
  1504.2500      9.1288      9.6517     14.2176    -20.2108    121.2560
  1504.5000      9.2858     10.0636     15.9581    -20.1472    115.1486
  1504.7500      9.5202     10.5769     17.7142    -20.1801    110.4179
  1505.0000      9.8470     11.2055     19.1084    -20.2965    103.9910
  1505.2500     10.2756     11.9759     20.2140    -20.4601    100.4561
  1505.5000     10.8116     12.9309     21.9695    -20.6270     95.8363
  1505.7500     11.4562     14.1286     25.9404    -20.7698     92.6889
  1506.0000     12.2032     15.6330     33.3490    -20.8914     86.9363
  1506.2500     13.0312     17.4889     43.9554    -21.0132     82.1401
  1506.5000     13.8967     19.6788     55.7122    -21.1478     74.1202
  1506.7500     14.7341     22.0782     65.7242    -21.2862     69.1967
  1507.0000     15.4706     24.4486     71.9068    -21.4147     64.2420
  1507.2500     16.0506     26.5046     73.8745    -21.5354     63.1358
  1507.5000     16.4486     28.0249     72.3438    -21.6654     64.6931
  1507.7500     16.6587     28.9112     68.0277    -21.8201     67.3980
  1508.0000     16.6732     29.1622     61.3696    -22.0054     72.9226
  1508.2500     16.4724     28.8229     53.0645    -22.2200     77.1188
  1508.5000     16.0371     27.9641     44.3211    -22.4587     83.6466
  1508.7500     15.3751     26.6769     36.4789    -22.7080     87.7140
  1509.0000     14.5393     25.0552     30.5316    -22.9427     92.1295
  1509.2500     13.6213     23.1824     26.9713    -23.1320     93.2045
  1509.5000     12.7179     21.1404     25.7391    -23.2519     91.5478
  1509.7500     11.8961     19.0312     26.0615    -23.2947     88.7406
  1510.0000     11.1765     16.9765     26.4981    -23.2696     84.1856
  1510.2500     10.5441     15.0881     25.6248    -23.1962     82.6624
  1510.5000      9.9710     13.4381     22.9903    -23.0994     84.7410
  1510.7500      9.4382     12.0503     19.3592    -23.0038     88.9295
  1511.0000      8.9431     10.9135     15.9419    -22.9285     97.2329
  1511.2500      8.4953      9.9991     13.4662    -22.8820    102.6350
  1511.5000      8.1074      9.2734     11.9466    -22.8599    109.0762
  1511.7500      7.7871      8.7032     11.0533    -22.8465    112.1385
  1512.0000      7.5338      8.2593     10.4886    -22.8220    115.3260
  1512.2500      7.3382      7.9184     10.0964    -22.7718    116.7775
  1512.5000      7.1862      7.6645      9.8242    -22.6911    118.0199
  1512.7500      7.0643      7.4879      9.6954    -22.5830    118.1282
  1513.0000      6.9643      7.3803      9.8008    -22.4563    117.0731
  1513.2500      6.8836      7.3299     10.2441    -22.3272    115.4660
  1513.5000      6.8218      7.3192     11.0145    -22.2199    111.4364
  1513.7500      6.7767      7.3269     11.8781    -22.1576    107.7227
  1514.0000      6.7421      7.3354     12.4373    -22.1471    101.6905
  1514.2500      6.7107      7.3364     12.3936    -22.1715     98.5552
  1514.5000      6.6774      7.3324     11.7970    -22.1979     97.2334
  1514.7500      6.6418      7.3308     11.0132    -22.1951     99.0417
  1515.0000      6.6065      7.3368     10.4376    -22.1499    104.4118
  1515.2500      6.5733      7.3469     10.2502    -22.0707    108.2394
  1515.5000      6.5402      7.3476     10.3964    -21.9801    112.7105
  1515.7500      6.5024      7.3185     10.7060    -21.9002    114.9478
  1516.0000      6.4560      7.2402     10.9962    -21.8425    117.5372
  1516.2500      6.4016      7.1042     11.1135    -21.8053    118.1383
  1516.5000      6.3447      6.9190     10.9517    -21.7822    115.8660
  1516.7500      6.2929      6.7080     10.4763    -21.7716    112.3067
  1517.0000      6.2516      6.5026      9.7477    -21.7812    105.8107
  1517.2500      6.2216      6.3335      8.9208    -21.8254    101.8125
  1517.5000      6.1996      6.2244      8.2001    -21.9195     96.8990
  1517.7500      6.1807      6.1884      7.7612    -22.0704     94.2309
  1518.0000      6.1605      6.2268      7.6867    -22.2688     91.1117
  1518.2500      6.1358      6.3279      7.9525    -22.4862     89.7214
  1518.5000      6.1043      6.4669      8.4561    -22.6819     88.6840
  1518.7500      6.0654      6.6087      9.0562    -22.8175     88.5795
  1519.0000      6.0206      6.7168      9.6069    -22.8698     89.1326
  1519.2500      5.9737      6.7666      9.9907    -22.8383     89.9278
  1519.5000      5.9296      6.7547     10.1519    -22.7467     91.7583
  1519.7500      5.8926      6.6979     10.1096    -22.6365     93.3994
  1520.0000      5.8646      6.6209      9.9366    -22.5478     96.2197
  1520.2500      5.8459      6.5441      9.7204    -22.4931     97.8591
  1520.5000      5.8365      6.4775      9.5333    -22.4476     98.8595
  1520.7500      5.8388      6.4211      9.4133    -22.3662     98.3005
  1521.0000      5.8579      6.3699      9.3503    -22.2121     96.5386
  1521.2500      5.8970      6.3203      9.2925    -21.9717     95.7496
  1521.5000      5.9524      6.2730      9.1823    -21.6519     96.1002
  1521.7500      6.0132      6.2327      8.9969    -21.2728     96.8366
  1522.0000      6.0676      6.2067      8.7672    -20.8642     96.6132
  1522.2500      6.1112      6.2022      8.5661    -20.4630     94.8649
  1522.5000      6.1506      6.2255      8.4738    -20.1053     90.8861
  1522.7500      6.1989      6.2804      8.5454    -19.8138     88.6584
  1523.0000      6.2697      6.3685      8.7968    -19.5887     87.1472
  1523.2500      6.3737      6.4900      9.2048    -19.4119     86.9659
  1523.5000      6.5178      6.6460      9.7021    -19.2613     86.6498
  1523.7500      6.7058      6.8411     10.1894    -19.1257     86.1465
  1524.0000      6.9394      7.0863     10.6035    -19.0096     85.5358
  1524.2500      7.2183      7.3994     11.0254    -18.9246     85.7344
  1524.5000      7.5416      7.8019     11.7213    -18.8771     87.3799
  1524.7500      7.9088      8.3126     13.0093    -18.8618     89.1713
  1525.0000      8.3205      8.9413     14.9970    -18.8666     91.7689
