~Version Information
 VERS.                                  2.0 : CWLS LAS VERSION
 WRAP.                                   NO : WRAPING MODE
 SWARE .                 MController 2.5.0J : SOFTWARE VERSION
~Well Information
 WELL.                         Sliva 01-43V : WELL
 COMP.                Petrogulf Corporation : COMPANY
 FLD.                      Purgatoire River : FIELD
 LOC.                 NE/SE Sec 1 T33S R68W : LOCATION
 DATE.                          08/26-27/05 : DATE(S) LOGGED
 SRVC.       BLANCO Geological Services LLC : SERVICE COMPANY
 STAT.                                   CO : STATE
 CNTY.                           Las Animas : COUNTY
 CTRY.                                  USA : COUNTRY
 API.                       05-071-08371-00 : API NUMBER
 STRT.FT                             503.00 : START DEPTH
 STOP.FT                            2764.00 : STOP DEPTH
 STEP.FT                               1.00 : DEPTH INCREMENT
 NULL.                                -9999 : NULL VALUE
~Curve information
 DEPTH.FT                                   :
 ROP.MIN/FT                                 :
 GAS.UNITS                                  :
~ASCII Log data
       503.0     -9999.00          8.7 
       504.0        19.63          8.7 
       505.0         0.37          4.5 
       506.0         0.27          4.6 
       507.0         0.27          4.4 
       508.0         0.33          4.4 
       509.0         0.37          4.3 
       510.0         0.15          4.4 
       511.0         0.07          4.1 
       512.0         0.17          3.9 
       513.0         0.07          4.3 
       514.0         0.10          4.0 
       515.0         0.10          4.4 
       516.0         0.10          4.0 
       517.0         0.07          4.2 
       518.0         0.13          4.4 
       519.0         0.10          4.2 
       520.0         0.10          4.3 
       521.0         0.13          4.0 
       522.0         0.13          4.3 
       523.0         0.13          4.2 
       524.0         0.13          4.4 
       525.0         0.13          4.5 
       526.0         0.13          4.2 
       527.0         0.17          4.0 
       528.0         0.17          3.9 
       529.0         0.17          4.3 
       530.0         0.17          4.0 
       531.0         0.23          4.3 
       532.0         0.23          3.8 
       533.0         0.25          3.9 
       534.0         0.23          4.3 
       535.0         0.93          4.2 
       536.0         0.23          4.0 
       537.0         0.27          4.0 
       538.0         0.30          3.7 
       539.0         0.20          4.0 
       540.0         0.30          3.6 
       541.0         0.20          3.8 
       542.0         0.17          3.6 
       543.0         0.13          4.0 
       544.0         0.17          3.8 
       545.0         0.15          3.8 
       546.0         0.13          3.7 
       547.0         0.17          3.8 
       548.0         0.13          4.0 
       549.0         0.13          3.7 
       550.0         0.13          4.0 
       551.0         0.13          3.8 
       552.0         0.13          3.7 
       553.0         0.13          3.7 
       554.0         0.13          3.6 
       555.0         0.10          3.2 
       556.0         0.10          3.5 
       557.0         0.10          3.8 
       558.0         0.13          3.9 
       559.0         0.13          4.9 
       560.0         0.10          4.3 
       561.0         0.10          5.0 
       562.0         0.10          4.2 
       563.0         0.10          4.6 
       564.0         0.10          4.3 
       565.0         0.10          4.7 
       566.0         3.15        137.8 
       567.0         0.23         32.4 
       568.0         0.27         19.1 
       569.0         0.25         12.1 
       570.0         0.23          8.5 
       571.0         0.20          6.9 
       572.0         0.17          6.4 
       573.0         0.20          6.4 
       574.0         0.17          6.0 
       575.0         0.20          6.0 
       576.0         0.17          6.2 
       577.0         0.20          6.7 
       578.0         0.20          7.1 
       579.0         0.17          7.5 
       580.0         0.20          6.9 
       581.0         0.17          7.5 
       582.0         0.17          7.2 
       583.0         0.17          7.9 
       584.0         0.20          7.9 
       585.0         0.17          7.6 
       586.0         0.22          7.7 
       587.0         0.17          8.1 
       588.0         0.20          8.0 
       589.0         0.17          7.8 
       590.0         0.20          8.4 
       591.0         0.27          7.9 
       592.0         0.20          8.1 
       593.0         0.23          8.6 
       594.0         0.20          8.1 
       595.0         0.20          8.6 
       596.0         1.65          8.9 
       597.0         0.30          8.6 
       598.0         0.27          9.0 
       599.0         0.20          8.6 
       600.0         0.20          9.1 
       601.0         0.20          9.2 
       602.0         0.17          8.7 
       603.0         0.17          9.0 
       604.0         0.17          9.0 
       605.0         0.20          9.0 
       606.0         0.27          9.2 
       607.0         0.20          8.6 
       608.0         0.17          9.1 
       609.0         0.25          9.0 
       610.0         0.27          9.0 
       611.0         0.27          9.2 
       612.0         0.20          9.2 
       613.0         0.20          8.8 
       614.0         0.17          9.4 
       615.0         0.17          9.0 
       616.0         0.17          9.4 
       617.0         0.13          9.3 
       618.0         0.20          8.8 
       619.0         0.17          9.1 
       620.0         0.17          9.1 
       621.0         0.17          8.8 
       622.0         0.17          9.0 
       623.0         0.17          8.7 
       624.0         0.20          9.4 
       625.0         0.17          8.8 
       626.0         1.65          9.3 
       627.0         0.20          9.2 
       628.0         0.20          8.8 
       629.0         0.23          9.0 
       630.0         0.20          9.1 
       631.0         0.17          9.0 
       632.0         0.17          9.2 
       633.0         0.13          8.7 
       634.0         0.20          8.8 
       635.0         0.17          9.0 
       636.0         0.20          8.6 
       637.0         0.15          9.1 
       638.0         0.13          9.4 
       639.0         0.23          9.2 
       640.0         0.27          9.2 
       641.0         0.20          9.0 
       642.0         0.17          9.5 
       643.0         0.17          9.0 
       644.0         0.17          8.9 
       645.0         0.13          8.8 
       646.0         0.17          9.7 
       647.0         0.20          8.9 
       648.0         0.17          9.4 
       649.0         0.17          9.4 
       650.0         0.17          9.2 
       651.0         0.13          9.5 
       652.0         0.13          9.0 
       653.0         0.13          9.6 
       654.0         0.13          9.2 
       655.0         0.23          9.9 
       656.0         2.85          9.7 
       657.0         0.23          9.2 
       658.0         0.38          9.2 
       659.0         0.50          9.4 
       660.0         0.33          8.9 
       661.0         0.33          9.2 
       662.0         0.23          9.0 
       663.0         0.20          9.2 
       664.0         0.27          9.2 
       665.0         0.27          9.1 
       666.0         0.27          8.9 
       667.0         0.10          8.3 
       668.0         0.17          8.7 
       669.0         0.17          8.7 
       670.0         0.17          9.1 
       671.0         0.20          8.2 
       672.0         0.22          8.5 
       673.0         0.17          8.7 
       674.0         0.13          8.6 
       675.0         0.13          9.1 
       676.0         0.13          8.5 
       677.0         0.17          8.6 
       678.0         0.20          9.0 
       679.0         0.20          8.4 
       680.0         0.17          8.9 
       681.0         0.17          8.9 
       682.0         0.17          8.7 
       683.0         0.13          9.2 
       684.0         0.13         13.2 
       685.0         0.13         17.0 
       686.0         1.95         19.6 
       687.0         0.13          8.6 
       688.0         0.23          8.3 
       689.0         0.27          8.6 
       690.0         0.23          8.1 
       691.0         0.20          8.6 
       692.0         0.20          8.5 
       693.0         0.20          8.7 
       694.0         0.23          8.4 
       695.0         0.27          8.7 
       696.0         0.23          8.8 
       697.0         0.25          8.7 
       698.0         0.20          8.7 
       699.0         0.27          8.9 
       700.0         0.20          8.4 
       701.0         0.27          8.7 
       702.0         0.27          8.4 
