~Version Information
VERS.                      2.0: CWLS Log ASCII Standard - VERSION 2.0
WRAP.                       NO: One line per depth step
~Well Information Block
STRT.FT               480.0000: 
STOP.FT              1994.2000: 
STEP.FT                 0.1000: 
NULL.                -999.2500: 
COMP.          Evergreen Operating Corporation: COMPANY
WELL.          McCullough 34-32 Tr: WELL
FLD.           Purgatoire River: FIELD
LOC.           394' FSL & 2077' FEL: LOCATION
PROV.                 Colorado: PROVINCE
CNTY.               Las Animas: COUNTRY
SRVC.                Patterson: SERVICE COMPANY
DATE.          Mon Sep 20 07:30:00 2004: LOG DATE
UWI.           05 071 08157 00: UNIQUE WELL ID
~Curve Information Block
DEPT.FT            0 000 00 00: Depth
DCAL.in                       : CDL Caliper
RHOB.g/cc                     : CDL Bulk Density
RHOC.g/cc                     : CDL Density Correction
DPOR.pu                       : CDL Density Porosity
NPOR.pu                       : Neutron Porosity
GR.GAPI                       : Gamma Ray
~Parameter Information Block
~A  Depth       DCAL        RHOB        RHOC        DPOR        NPOR         GR     
# ...
  1171.2000      8.1152      2.5354      0.0730      6.9461     26.5392     98.6324
  1171.3000      8.1390      2.5268      0.0292      7.4666     26.6879    105.9236
  1171.4000      8.1390      2.5242      0.0406      7.6261     27.0008    111.7349
  1171.5000      8.1478      2.5265      0.0667      7.4834     27.5074    119.5982
  1171.6000      8.1478      2.5275      0.0465      7.4237     27.9777    129.3011
  1171.7000      8.1478      2.5209      0.0505      7.8224     28.5173    133.3700
  1171.8000      8.1471      2.5047      0.0392      8.8081     29.3376    131.1338
  1171.9000      8.1471      2.4894      0.0040      9.7318     30.0918    127.9903
  1172.0000      8.1616      2.4836      0.0330     10.0820     30.2907    123.6376
  1172.1000      8.1616      2.4759      0.0651     10.5528     30.0586    118.2343
  1172.2000      8.1616      2.4565      0.0097     11.7293     30.0855    116.6571
  1172.3000      8.1913      2.4355     -0.0150     13.0017     30.6495    118.8320
  1172.4000      8.1913      2.4098      0.0130     14.5579     31.2163    118.6940
  1172.5000      8.2150      2.3459      0.0258     18.4288     31.4153    116.3074
  1172.6000      8.2150      2.2328     -0.0533     25.2833     31.7424    119.6161
  1172.7000      8.2150      2.1010     -0.1339     33.2736     32.6944    125.0890
  1172.8000      8.2238      1.9661     -0.1143     41.4513     33.8629    121.0479
  1172.9000      8.2238      1.8175     -0.1442     50.4546     34.8522    106.9139
  1173.0000      8.2257      1.6666     -0.2409     59.5985     35.5537     90.4221
  1173.1000      8.2257      1.5375     -0.2354     67.4226     35.6365     79.5947
  1173.2000      8.2257      1.4286     -0.1828     74.0236     35.3276     74.2300
  1173.3000      8.2496      1.3396     -0.2154     79.4184     35.1725     68.3248
  1173.4000      8.2496      1.2961     -0.2054     82.0528     35.3015     61.7092
  1173.5000      8.3706      1.3070     -0.0614     81.3966     35.6532     56.7608
  1173.6000      8.3706      1.3417      0.0593     79.2938     36.0532     54.0853
  1173.7000      8.3706      1.3735      0.0618     77.3622     36.2857     53.2206
  1173.8000      8.6236      1.4061      0.0811     75.3883     36.4203     52.3117
  1173.9000      8.6236      1.4506      0.0624     72.6910     36.5184     50.7021
  1174.0000      8.9393      1.5036      0.1238     69.4772     36.4379     51.2594
  1174.1000      8.9393      1.5565      0.1124     66.2745     36.0587     56.3728
  1174.2000      8.9393      1.6122      0.1209     62.8996     35.3559     63.5227
  1174.3000      9.2734      1.6781      0.0849     58.9006     34.3131     67.9987
  1174.4000      9.2734      1.7638      0.1065     53.7117     33.1270     68.6287
  1174.5000      9.4503      1.8817      0.1547     46.5607     32.4718     70.4904
  1174.6000      9.4503      2.0285      0.2201     37.6695     32.3023     76.1823
  1174.7000      9.4503      2.1720      0.2956     28.9723     31.6512     81.5613
  1174.8000      9.1581      2.2786      0.2792     22.5073     30.5613     85.5156
  1174.9000      9.1581      2.3455      0.2178     18.4572     29.5109     89.3004
  1175.0000      8.5437      2.3914      0.2094     15.6712     27.8778     92.5422
  1175.1000      8.5437      2.4299      0.1899     13.3382     26.0784     93.5178
  1175.2000      8.5437      2.4673      0.1534     11.0754     25.5546     92.1374
  1175.3000      8.1743      2.5097      0.1100      8.5011     25.9791     89.8968
  1175.4000      8.1743      2.5506      0.1375      6.0253     25.9649     87.2168
  1175.5000      8.0964      2.5699      0.1364      4.8543     25.2439     85.7243
  1175.6000      8.0964      2.5661      0.0569      5.0867     24.6960     87.4408
  1175.7000      8.0964      2.5593      0.0651      5.4999     24.7935     91.1699
  1175.8000      8.0914      2.5580      0.0654      5.5731     25.2178     96.7335
  1175.9000      8.0914      2.5608      0.0276      5.4057     25.6123    107.7779
  1176.0000      8.0914      2.5708      0.0641      4.7999     25.5248    117.6118
  1176.1000      8.0914      2.5885      0.0438      3.7243     24.9336    114.5757
  1176.2000      8.0914      2.6071      0.0793      2.5983     24.7447    103.4497
  1176.3000      8.0927      2.6168      0.0788      2.0121     25.3072     94.5658
  1176.4000      8.0927      2.6188      0.0701      1.8899     25.9207     91.3641
  1176.5000      8.0969      2.6154      0.0737      2.0950     26.0106     97.4319
  1176.6000      8.0969      2.6005      0.0485      2.9995     25.9607    110.6601
  1176.7000      8.0969      2.5783      0.0573      4.3444     26.4907    116.2572
  1176.8000      8.1069      2.5606      0.0223      5.4196     27.0068    107.5571
  1176.9000      8.1069      2.5486      0.0279      6.1463     26.8957     98.3232
  1177.0000      8.1137      2.5384      0.0178      6.7622     26.7943     98.7976
  1177.1000      8.1137      2.5375     -0.0026      6.8171     27.0561    102.4416
  1177.2000      8.1137      2.5465      0.0634      6.2742     27.1783    102.2900
  1177.3000      8.1036      2.5489      0.0326      6.1270     26.8571    102.0539
  1177.4000      8.1036      2.5414      0.0308      6.5831     26.4275    104.2879
  1177.5000      8.0937      2.5364      0.0100      6.8845     26.4270    104.2787
  1177.6000      8.0937      2.5453      0.0308      6.3461     26.8049    100.9633
  1177.7000      8.0937      2.5691      0.0456      4.9049     27.0495    100.4332
  1177.8000      8.0929      2.5961      0.0678      3.2678     27.1110    106.9875
  1177.9000      8.0929      2.6158      0.0620      2.0715     26.9324    116.6009
  1178.0000      8.0926      2.6320      0.0646      1.0887     26.6267    123.8818
  1178.1000      8.0926      2.6477      0.0825      0.1368     26.9100    126.0314
  1178.2000      8.0926      2.6503      0.0718     -0.0152     27.6136    122.5058
  1178.3000      8.0875      2.6346      0.0354      0.9310     27.7666    115.4298
  1178.4000      8.0875      2.6160      0.0322      2.0601     27.1149    109.5918
  1178.5000      8.0795      2.6042      0.0283      2.7772     26.3032    107.0030
  1178.6000      8.0795      2.5851      0.0321      3.9314     25.7983    106.9842
  1178.7000      8.0795      2.5467     -0.0224      6.2625     25.4286    107.1785
  1178.8000      8.0728      2.5133     -0.0893      8.2865     25.2954    105.0298
  1178.9000      8.0728      2.5135     -0.0654      8.2708     25.6466    102.2858
  1179.0000      8.0675      2.5426     -0.0350      6.5097     26.1133     99.6841
  1179.1000      8.0675      2.5774      0.0077      4.4005     26.2085     95.5249
  1179.2000      8.0675      2.6016      0.0553      2.9310     25.8992     93.5755
  1179.3000      8.0656      2.6160      0.0879      2.0607     25.5285     95.8498
  1179.4000      8.0656      2.6291      0.0753      1.2660     25.3922     97.1758
  1179.5000      8.0659      2.6399      0.1286      0.6141     25.3383     97.4415
  1179.6000      8.0659      2.6374      0.0979      0.7607     25.0100     98.6999
  1179.7000      8.0659      2.6247      0.1078      1.5323     24.6694     97.1104
  1179.8000      8.0704      2.6139      0.0894      2.1874     24.8185     91.9142
  1179.9000      8.0704      2.6080      0.1004      2.5477     25.1051     86.6271
  1180.0000      8.0784      2.6073      0.0391      2.5891     24.9512     84.8636
  1180.1000      8.0784      2.6141      0.0829      2.1753     24.7390     86.9301
  1180.2000      8.0784      2.6187      0.0817      1.8991     24.9809     89.1231
  1180.3000      8.0854      2.6086      0.0520      2.5072     25.1286     90.5808
  1180.4000      8.0854      2.5863      0.0416      3.8597     24.6490     93.6387
  1180.5000      8.0916      2.5587      0.0598      5.5356     24.0243     97.7287
  1180.6000      8.0916      2.5285      0.0430      7.3640     23.7568     99.6646
  1180.7000      8.0916      2.5047      0.0056      8.8080     23.9406     98.8289
