~Version Information
VERS.                      2.0: CWLS Log ASCII Standard - VERSION 2.0
WRAP.                       NO: One line per depth step
~Well Information Block
STRT.FT               870.0000: 
STOP.FT              2517.5000: 
STEP.FT                 0.1000: 
NULL.                -999.2500: 
COMP.          Pioneer Natural Resources: COMPANY
WELL.              Tiaga 23-14: WELL
FLD.           Purgatoire River: FIELD
LOC.           2168' FSL & 2030' FWL: LOCATION
PROV.                 Colorado: PROVINCE
CNTY.               Las Animas: COUNTRY
SRVC.                         : SERVICE COMPANY
DATE.          Sat May 07 09:09:05 2005: LOG DATE
UWI.           05 071 08329 00: UNIQUE WELL ID
~Curve Information Block
DEPT.FT            0 000 00 00: Depth
LTEN.lb                       : Surface Line Tension
DCAL.in                       : CDL Caliper
RHOC.g/cc                     : CDL Density Correction
DPOR.pu                       : CDL Density Porosity
GR.GAPI                       : Gamma Ray
NPOR.pu                       : Neutron Porosity
~Parameter Information Block
~A  Depth       LTEN        DCAL        RHOC        DPOR         GR         NPOR    
# ...
  1302.0000    904.3389      8.0228      0.1257      2.0657     92.5741     22.7541
  1302.1000    904.3389      8.0228      0.1424      1.5902     98.7628     23.6020
  1302.2000    904.3389      8.0228      0.1302      1.3659    105.4617     24.8478
  1302.3000    919.7383      8.0736      0.0614      1.5730    109.0046     25.8250
  1302.4000    919.7383      8.0736      0.1023      3.0612    109.6504     26.6801
  1302.5000    934.7267      8.0787      0.0606      7.6229    110.8729     27.7461
  1302.6000    934.7267      8.0787      0.0160     14.5876    113.6611     28.5728
  1302.7000    934.7267      8.0787     -0.0007     20.1799    117.0710     28.5360
  1302.8000    902.1898      8.1006      0.0117     22.1208    120.6472     28.0743
  1302.9000    902.1898      8.1006      0.0558     21.4641    122.9072     28.0335
  1303.0000    930.2796      8.1690      0.0142     20.1049    121.9379     28.1137
  1303.1000    930.2796      8.1690      0.0420     18.6045    119.5843     27.7016
  1303.2000    930.2796      8.1690      0.0754     16.7560    120.1413     27.5974
  1303.3000    915.6323      8.2437      0.1879     14.8425    124.1204     28.4160
  1303.4000    915.6323      8.2437      0.2347     13.9611    130.1789     29.4657
  1303.5000    904.2784      8.3169      0.2376     14.5601    136.3992     29.9743
  1303.6000    904.2784      8.3169      0.2417     15.9219    139.0426     30.1681
  1303.7000    904.2784      8.3169      0.1853     16.9901    136.0883     30.6901
  1303.8000    932.1542      8.2979      0.1466     16.7681    130.7188     31.4112
  1303.9000    932.1542      8.2979      0.1353     14.5275    126.2038     31.6271
  1304.0000    902.8407      8.3739      0.1645     10.2596    122.4226     30.8476
  1304.1000    902.8407      8.3739      0.2761      5.3969    118.3592     29.7267
  1304.2000    902.8407      8.3739      0.3487      2.4584    113.5357     29.3667
  1304.3000    918.1219      8.3334      0.2627      2.4440    106.9601     29.4994
  1304.4000    918.1219      8.3334      0.1845      3.4813    100.5286     29.4308
  1304.5000    906.4316      8.2094      0.1918      3.8938     99.0668     29.2019
  1304.6000    906.4316      8.2094      0.1571      4.3409    100.3658     28.8233
  1304.7000    906.4316      8.2094      0.0715      5.1465    101.1817     28.4672
  1304.8000    906.6139      8.2027      0.0452      4.9270    104.7358     28.5672
  1304.9000    906.6139      8.2027      0.0748      3.5433    111.1476     29.0264
  1305.0000    934.8403      8.1529      0.0331      2.7787    116.2541     29.2713
  1305.1000    934.8403      8.1529      0.0394      3.5377    117.0432     28.7783
  1305.2000    934.8403      8.1529     -0.0002      5.2991    115.6549     27.4779
  1305.3000    860.2163      8.1510     -0.0066      7.3099    115.8420     26.0338
  1305.4000    860.2163      8.1510     -0.0227      8.7559    117.5398     25.5679
  1305.5000    923.9768      8.1656      0.0030      9.5909    120.3612     26.2244
  1305.6000    923.9768      8.1656     -0.0135     10.9376    126.3000     27.3063
  1305.7000    923.9768      8.1656      0.0296     13.0908    134.9764     28.3399
  1305.8000    900.0292      8.1994      0.0107     14.9133    140.5205     29.1732
  1305.9000    900.0292      8.1994      0.0361     15.7396    139.2312     29.7948
  1306.0000    890.7125      8.2339      0.0568     16.2614    134.4108     29.6740
  1306.1000    890.7125      8.2339     -0.0616     16.4687    130.9206     28.8625
  1306.2000    890.7125      8.2339     -0.0189     15.1945    130.1570     28.6061
  1306.3000    844.6241      8.2376      0.0218     13.0269    129.2782     29.3082
  1306.4000    844.6241      8.2376      0.0510     11.5324    125.3431     30.1611
  1306.5000    915.4208      8.2516      0.1066     10.8256    118.1205     30.3391
  1306.6000    915.4208      8.2516      0.1165     10.2760    112.3927     29.4689
  1306.7000    915.4208      8.2516      0.1589      9.5460    113.1502     28.3029
  1306.8000    832.7288      8.2977      0.0496      8.1496    118.5483     27.5962
  1306.9000    832.7288      8.2977      0.0901      5.8565    120.8464     27.5859
  1307.0000    935.0015      8.2165      0.1165      3.9525    117.0273     28.2039
  1307.1000    935.0015      8.2165      0.0651      3.2786    112.8618     28.8473
  1307.2000    935.0015      8.2165      0.0545      3.0380    113.0917     28.8909
  1307.3000    902.2414      8.1549      0.0127      2.5845    117.1631     28.4663
  1307.4000    902.2414      8.1549      0.0446      2.0922    120.2865     28.4053
  1307.5000    901.7368      8.1358      0.0672      1.8053    119.3423     29.1385
  1307.6000    901.7368      8.1358      0.0042      1.6532    115.9967     29.9335
  1307.7000    901.7368      8.1358      0.0183      1.6759    112.7972     29.7732
  1307.8000    944.5065      8.1154      0.0278      2.2602    111.5589     28.6954
  1307.9000    944.5065      8.1154     -0.0312      3.5437    112.1147     27.6872
  1308.0000    934.0994      8.1327      0.0790      5.5282    113.1916     27.4744
  1308.1000    934.0994      8.1327      0.0282      7.8126    113.0775     28.0110
  1308.2000    934.0994      8.1327     -0.0009      8.8789    111.9797     28.8977
  1308.3000    958.8057      8.1260      0.1177      8.8858    111.5540     29.5989
  1308.4000    958.8057      8.1260      0.1244     10.1793    112.0018     29.5586
  1308.5000    938.3472      8.1240      0.1204     13.6000    110.8013     28.7096
  1308.6000    938.3472      8.1240      0.0698     17.5857    108.0832     27.6460
  1308.7000    938.3472      8.1240      0.0028     19.7276    108.2918     27.3086
  1308.8000    852.2172      8.1372      0.0639     19.3861    110.8458     28.0286
  1308.9000    852.2172      8.1372      0.0908     18.4019    110.8718     29.2318
  1309.0000    921.6745      8.1517      0.0666     17.6096    110.7748     30.3570
  1309.1000    921.6745      8.1517      0.1233     15.8173    114.1348     31.0177
  1309.2000    921.6745      8.1517      0.2535     13.1894    116.6349     30.8654
  1309.3000    897.4456      8.1749      0.2063     11.8245    117.0603     30.3828
  1309.4000    897.4456      8.1749      0.2010     12.4532    119.3475     30.6614
  1309.5000    833.8172      8.1824      0.1451     13.4869    124.5609     31.6635
  1309.6000    833.8172      8.1824      0.1160     13.6126    129.9283     31.7714
  1309.7000    833.8172      8.1824      0.1651     13.5910    133.0901     30.4265
  1309.8000    927.5632      8.1974      0.0960     14.4091    134.9157     29.1555
  1309.9000    927.5632      8.1974      0.0610     15.4573    136.0782     28.9494
  1310.0000    864.5547      8.1883      0.0683     16.0462    137.1174     29.4933
  1310.1000    864.5547      8.1883      0.0430     16.2302    137.0937     30.4125
  1310.2000    864.5547      8.1883      0.0838     16.1910    135.3779     31.1491
  1310.3000    883.4598      8.1925      0.1263     16.7834    133.9755     30.7249
  1310.4000    883.4598      8.1925      0.0100     18.2128    131.2222     29.2301
  1310.5000    934.4559      8.1363     -0.0089     18.8569    124.5449     27.9759
  1310.6000    934.4559      8.1363      0.0837     18.1730    116.4885     27.8334
  1310.7000    934.4559      8.1363      0.0209     16.9594    111.0694     28.5288
  1310.8000    827.7581      8.1128      0.0479     14.3858    109.5827     29.6322
  1310.9000    827.7581      8.1128      0.0638      9.0811    107.5863     30.8346
  1311.0000    896.9330      8.0856      0.1197      1.7774     98.7014     31.3754
  1311.1000    896.9330      8.0856      0.1900     -5.0828     85.5068     30.5292
  1311.2000    896.9330      8.0856      0.2390     -9.6264     76.2681     28.8761
  1311.3000    862.8572      8.0727      0.2276    -11.7324     72.4858     27.9055
  1311.4000    862.8572      8.0727      0.2094    -11.7550     70.3299     27.9905
  1311.5000    864.8192      8.0800      0.1833     -9.1282     69.1686     28.1235
