~Version Information
VERS.                      2.0: CWLS Log ASCII Standard - VERSION 2.0
WRAP.                       NO: One line per depth step
~Well Information Block
STRT.FT               899.1000: 
STOP.FT              2501.5000: 
STEP.FT                 0.1000: 
NULL.                -999.2500: 
COMP.          Petrogulf Corporation: COMPANY
WELL.           Deremer 17-21V: WELL
FLD.           Purgatorie River: FIELD
LOC.           851' FNL & 963' FWL: LOCATION
CNTY.               Las Animas: COUNTY
SRVC.                         : SERVICE COMPANY
DATE.          Tue Nov 18 09:12:06 2003: LOG DATE
UWI.                          : UNIQUE WELL ID
STAT.                 Colorado: STATE
~Curve Information Block
DEPT.FT            0 000 00 00: Depth
DPOR.pu                       : CDL Density Porosity
NEU.NAPI                      : Neutron
NPOR.pu                       : Neutron Porosity
RHOB.g/cc                     : CDL Bulk Density
RHOC.g/cc                     : CDL Density Correction
GR.GAPI                       : Gamma Ray
DCAL.in                       : CDL Caliper
~Parameter Information Block
~A  Depth       DPOR        NEU         NPOR        RHOB        RHOC         GR         DCAL    
# ...
  2394.3000      8.3082    204.3155     27.8391      2.5129      0.0873     82.9683      7.9555
  2394.4000      9.7497    195.4402     28.7383      2.4891      0.0781     87.5513      7.9555
  2394.5000     11.3843    188.3101     29.4643      2.4622      0.0244     84.5525      7.9617
  2394.6000     11.2778    190.1262     29.2791      2.4639     -0.0040     79.7931      7.9617
  2394.7000      9.6222    194.2727     28.8570      2.4912      0.1007     77.0893      7.9617
  2394.8000      8.6617    193.0442     28.9819      2.5071      0.0860     75.3270      7.9612
  2394.9000      9.4020    189.2201     29.3715      2.4949      0.0798     75.5768      7.9612
  2395.0000     10.8273    188.2696     29.4685      2.4713     -0.0035     80.8486      7.9564
  2395.1000     10.7841    191.4884     29.1403      2.4721      0.0195     86.8160      7.9564
  2395.2000      8.6051    195.5622     28.7259      2.5080      0.1220     87.8431      7.9564
  2395.3000      6.4605    197.1104     28.5687      2.5434      0.1507     87.0622      7.9528
  2395.4000      5.7982    195.6444     28.7176      2.5543      0.0363     86.8965      7.9528
  2395.5000      5.6293    191.6958     29.1192      2.5571      0.0846     85.5791      7.9512
  2395.6000      5.4472    187.7893     29.5175      2.5601      0.1352     84.0736      7.9512
  2395.7000      5.8942    189.8514     29.3071      2.5527      0.0747     84.2964      7.9512
  2395.8000      7.0337    196.6564     28.6148      2.5339      0.1033     86.4213      7.9530
  2395.9000      8.4069    197.0743     28.5723      2.5113      0.0456     89.8935      7.9530
  2396.0000      9.6182    187.4797     29.5491      2.4913      0.0437     91.3657      7.9567
  2396.1000     10.8573    177.8106     30.5386      2.4709      0.0346     85.8363      7.9567
  2396.2000     12.6919    174.7760     30.8501      2.4406      0.0129     76.3074      7.9567
  2396.3000     14.4636    174.4343     30.8852      2.4114     -0.0482     72.7168      7.9544
  2396.4000     15.0173    173.2458     31.0073      2.4022      0.0038     76.7640      7.9544
  2396.5000     14.8045    173.9228     30.9378      2.4057      0.0740     79.3788      7.9538
  2396.6000     14.7817    177.0189     30.6198      2.4061      0.0033     79.1633      7.9538
  2396.7000     14.8082    175.9122     30.7334      2.4057      0.0334     84.3691      7.9538
  2396.8000     14.3428    169.6072     31.3816      2.4133      0.0203     95.4857      7.9692
  2396.9000     13.5191    167.5128     31.5973      2.4269      0.0753    106.1486      7.9692
  2397.0000     13.2596    172.6078     31.0729      2.4312      0.0951    112.4949      7.9931
  2397.1000     13.8324    177.0021     30.6215      2.4218      0.0598    112.9493      7.9931
  2397.2000     14.9153    174.9288     30.8344      2.4039      0.1118    107.5714      7.9931
  2397.3000     16.4678    170.1548     31.3253      2.3783      0.0311    100.4067      8.0180
  2397.4000     17.8333    168.4025     31.5057      2.3558      0.0224     95.3253      8.0180
  2397.5000     18.4476    168.0591     31.5410      2.3456      0.0495     91.2321      8.0295
  2397.6000     18.6040    166.0400     31.7491      2.3430      0.0366     88.5201      8.0295
  2397.7000     18.4199    166.5431     31.6972      2.3461      0.0092     89.2738      8.0295
  2397.8000     17.9001    171.3791     31.1993      2.3546      0.0712     92.2157      8.0217
  2397.9000     18.1026    173.4186     30.9896      2.3513      0.1554     92.0457      8.0217
  2398.0000     19.8809    168.5984     31.4855      2.3220      0.1153     86.2177      8.0290
  2398.1000     22.0262    162.3234     32.1324      2.2866      0.0598     82.4686      8.0290
  2398.2000     23.1579    159.7459     32.3985      2.2679      0.0842     87.2122      8.0290
  2398.3000     23.7989    158.4958     32.5277      2.2573      0.0863     94.6316      8.0597
  2398.4000     25.5311    154.4394     32.9471      2.2287      0.1134     98.4230      8.0597
  2398.5000     29.0755    146.5279     33.7662      2.1703      0.0608     99.1516      8.0900
  2398.6000     33.3400    136.3137     34.8255      2.0999      0.0127     96.5541      8.0900
  2398.7000     37.2780    127.1632     35.7754      2.0349      0.0317     91.2598      8.0900
  2398.8000     41.4591    121.2709     36.3872      1.9659     -0.0126     86.4488      8.1117
  2398.9000     46.9042    117.3576     36.7935      1.8761     -0.0474     83.0716      8.1117
  2399.0000     53.8223    115.6590     36.9698      1.7619     -0.0222     80.3032      8.1467
  2399.1000     61.0790    117.7707     36.7506      1.6422     -0.0060     76.0624      8.1467
  2399.2000     66.9737    121.3811     36.3758      1.5449     -0.0153     69.4241      8.1467
  2399.3000     71.2630    123.1718     36.1898      1.4742     -0.0117     62.6772      8.1812
  2399.4000     74.6302    122.1797     36.2928      1.4186     -0.0486     55.0755      8.1812
  2399.5000     76.8122    119.7149     36.5487      1.3826     -0.0129     44.6331      8.1759
  2399.6000     77.2627    117.8949     36.7377      1.3752      0.0837     35.7993      8.1759
  2399.7000     76.5734    117.2429     36.8054      1.3865      0.0974     32.3740      8.1759
  2399.8000     76.1162    118.4092     36.6843      1.3941      0.1127     32.5129      8.1953
  2399.9000     76.6555    121.9247     36.3193      1.3852      0.0877     33.5449      8.1953
  2400.0000     77.8540    123.7782     36.1269      1.3654      0.0686     33.4497      8.4512
  2400.1000     79.4151    120.9034     36.4253      1.3397      0.0545     32.9293      8.4512
  2400.2000     81.4591    118.2772     36.6980      1.3059      0.0396     32.9322      8.4512
  2400.3000     83.5867    119.2911     36.5927      1.2708      0.0135     32.3061      8.8797
  2400.4000     85.0550    120.9232     36.4233      1.2466     -0.0160     30.6621      8.8797
  2400.5000     85.5719    121.1434     36.4004      1.2381     -0.0179     29.3539      8.9668
  2400.6000     85.2737    120.1527     36.5033      1.2430     -0.0426     30.4691      8.9668
  2400.7000     84.6767    116.5234     36.8800      1.2528      0.0215     32.2961      8.9668
  2400.8000     84.2005    112.0408     37.3452      1.2607     -0.0269     30.8292      8.6778
  2400.9000     83.4440    111.8856     37.3614      1.2732      0.0049     27.1186      8.6778
  2401.0000     82.2470    115.9348     36.9411      1.2929      0.0398     25.0526      8.4662
  2401.1000     81.2154    118.9319     36.6300      1.3099      0.0786     23.8594      8.4662
  2401.2000     80.6047    119.3734     36.5842      1.3200      0.0477     21.8993      8.4662
  2401.3000     80.2134    119.1300     36.6095      1.3265      0.0899     21.5647      8.4260
  2401.4000     79.9948    116.8208     36.8492      1.3301      0.0423     22.6696      8.4260
  2401.5000     79.8901    112.4203     37.3059      1.3318      0.0494     23.3048      8.4409
  2401.6000     79.9373    111.4799     37.4035      1.3310      0.0354     23.5171      8.4409
  2401.7000     80.2255    116.9272     36.8381      1.3263      0.0493     21.6294      8.4409
  2401.8000     80.5707    122.9341     36.2145      1.3206      0.0713     17.2968      8.3987
  2401.9000     80.6916    123.2739     36.1792      1.3186      0.0515     13.8514      8.3987
  2402.0000     80.2996    119.8583     36.5338      1.3251      0.0299     13.5247      8.3192
  2402.1000     79.3974    118.8305     36.6406      1.3399      0.0414     15.6261      8.3192
  2402.2000     78.5015    123.4103     36.1651      1.3547      0.0542     18.8193      8.3192
  2402.3000     77.8358    130.0910     35.4714      1.3657      0.0321     22.8485      8.5224
  2402.4000     77.1766    133.8442     35.0818      1.3766      0.0767     27.0334      8.5224
  2402.5000     76.3404    133.5239     35.1150      1.3904      0.0174     29.5148      8.9497
  2402.6000     75.2575    130.7300     35.4051      1.4083      0.0421     29.2499      8.9497
