~Version Information
VERS.                      2.0: CWLS Log ASCII Standard - VERSION 2.0
WRAP.                       NO: One line per depth step
~Well Information Block
STRT.FT               675.0000: 
STOP.FT              2373.5000: 
STEP.FT                 0.2500: 
NULL.                -999.2500: 
COMP.          Pioneer Natural Resources: COMPANY
WELL.            Harrier 44-33: WELL
FLD.           Purgatoire River: FIELD
LOC.           456' FSL & 930' FEL: LOCATION
PROV.                 Colorado: PROVINCE
CNTY.               Las Animas: COUNTRY
SRVC.                Patterson: SERVICE COMPANY
DATE.          Mon Jun 20 07:40:56 2005: LOG DATE
UWI.           05 071 08398 00: UNIQUE WELL ID
~Curve Information Block
DEPT.FT            0 000 00 00: Depth
SN.Ohm-m                      : IEL Short Normal
SP.mV                         : IEL Spontaneous Potential
DIR.Ohm-m                     : IEL Induction Resistivity
GR.GAPI                       : Gamma Ray
~Parameter Information Block
~A  Depth        SN          SP         DIR          GR     
# ...
  1680.0000     24.4494    216.7527     21.4952     76.7816
  1680.2500     25.2065    216.7169     21.8273     74.8183
  1680.5000     25.9381    216.5795     22.2412     70.9968
  1680.7500     26.7173    216.3522     22.7417     68.5597
  1681.0000     27.5462    216.0592     23.3067     66.1667
  1681.2500     28.4123    215.7271     23.8817     65.8376
  1681.5000     29.3210    215.3768     24.3919     67.3910
  1681.7500     30.2257    215.0195     24.7724     69.4140
  1682.0000     31.0088    214.6515     24.9996     72.5923
  1682.2500     31.5700    214.2523     25.0981     74.0278
  1682.5000     31.8700    213.8027     25.1167     74.7214
  1682.7500     31.9024    213.3150     25.0950     74.6147
  1683.0000     31.7135    212.8411     25.0448     74.7736
  1683.2500     31.4292    212.4341     24.9535     75.5748
  1683.5000     31.1272    212.1024     24.8007     77.8973
  1683.7500     30.6928    211.8051     24.5775     79.9600
  1684.0000     29.9600    211.4881     24.2956     83.3743
  1684.2500     28.9429    211.1233     23.9830     85.6121
  1684.5000     27.8353    210.7230     23.6703     88.4173
  1684.7500     26.8402    210.3291     23.3807     89.7146
  1685.0000     26.0074    209.9872     23.1260     91.0262
  1685.2500     25.2252    209.7248     22.9046     91.9083
  1685.5000     24.3798    209.5428     22.7027     93.7378
  1685.7500     23.5247    209.4172     22.4993     95.0602
  1686.0000     22.8630    209.3076     22.2766     96.0019
  1686.2500     22.5200    209.1736     22.0264     95.1975
  1686.5000     22.4301    208.9961     21.7483     91.4225
  1686.7500     22.4856    208.7850     21.4441     87.7222
  1687.0000     22.6175    208.5652     21.1124     82.2003
  1687.2500     22.7340    208.3631     20.7505     79.4541
  1687.5000     22.7873    208.2058     20.3580     77.2720
  1687.7500     22.8335    208.1231     19.9408     77.0187
  1688.0000     22.8947    208.1375     19.5116     78.2622
  1688.2500     22.8699    208.2485     19.0895     80.0223
  1688.5000     22.6311    208.4266     18.6984     83.5049
  1688.7500     22.1176    208.6302     18.3653     86.1513
  1689.0000     21.3204    208.8348     18.1150     91.0879
  1689.2500     20.2739    209.0486     17.9620     95.7694
  1689.5000     19.0921    209.2968     17.9042    105.7583
  1689.7500     17.9520    209.5945     17.9195    113.8958
  1690.0000     17.0277    209.9357     17.9675    125.3134
  1690.2500     16.3788    210.3006     17.9999    129.9985
  1690.5000     15.9157    210.6669     17.9786    129.3946
  1690.7500     15.5874    211.0194     17.8952    123.4829
  1691.0000     15.5106    211.3524     17.7787    108.7888
  1691.2500     15.8040    211.6665     17.6831     97.7817
  1691.5000     16.4306    211.9618     17.6613     83.7472
  1691.7500     17.2315    212.2360     17.7433     77.2141
  1692.0000     18.0070    212.4876     17.9283     71.0194
  1692.2500     18.6218    212.7195     18.1905     68.1570
  1692.5000     19.0703    212.9376     18.4938     64.3118
  1692.7500     19.4085    213.1451     18.8047     61.9012
  1693.0000     19.6553    213.3358     19.1001     58.9498
  1693.2500     19.7818    213.4944     19.3688     57.6333
  1693.5000     19.7880    213.6080     19.6071     56.6585
  1693.7500     19.7164    213.6809     19.8121     56.6032
  1694.0000     19.5863    213.7390     19.9768     57.2494
  1694.2500     19.4149    213.8183     20.0915     57.9866
  1694.5000     19.2672    213.9482     20.1516     59.1734
  1694.7500     19.1972    214.1407     20.1654     59.9691
  1695.0000     19.1958    214.3899     20.1532     61.6079
  1695.2500     19.2347    214.6806     20.1388     63.3182
  1695.5000     19.3204    214.9984     20.1403     66.7106
  1695.7500     19.4749    215.3349     20.1680     68.9514
  1696.0000     19.6693    215.6866     20.2295     71.1034
  1696.2500     19.8209    216.0501     20.3328     71.4996
  1696.5000     19.8607    216.4161     20.4815     71.3038
  1696.7500     19.8042    216.7642     20.6621     71.4042
  1697.0000     19.7639    217.0655     20.8370     72.6740
  1697.2500     19.8182    217.2929     20.9577     74.1109
  1697.5000     19.9124    217.4316     20.9911     76.1666
  1697.7500     19.9829    217.4847     20.9381     76.9448
  1698.0000     20.0432    217.4713     20.8264     77.0393
  1698.2500     20.1098    217.4162     20.6859     76.6316
  1698.5000     20.1602    217.3347     20.5313     75.8107
  1698.7500     20.1532    217.2233     20.3616     75.3672
  1699.0000     20.0759    217.0669     20.1705     75.3657
  1699.2500     19.9685    216.8546     19.9549     76.1233
  1699.5000     19.8790    216.5896     19.7199     78.6048
  1699.7500     19.8183    216.2854     19.4800     80.9831
  1700.0000     19.7264    215.9557     19.2578     85.1407
  1700.2500     19.4858    215.6096     19.0759     88.1819
  1700.5000     19.0614    215.2591     18.9420     93.3083
  1700.7500     18.5870    214.9297     18.8355     97.0288
  1701.0000     18.2020    214.6573     18.7070    101.7421
  1701.2500     17.9121    214.4713     18.4963    102.9412
  1701.5000     17.6766    214.3770     18.1620    100.1481
  1701.7500     17.4576    214.3534     17.7007     95.5720
  1702.0000     17.2085    214.3639     17.1439     87.5201
  1702.2500     16.9076    214.3722     16.5378     83.4904
  1702.5000     16.5258    214.3557     15.9253     82.2962
  1702.7500     16.0020    214.3139     15.3368     85.5848
  1703.0000     15.3587    214.2663     14.7869     96.5758
  1703.2500     14.7257    214.2351     14.2766    106.9824
  1703.5000     14.1741    214.2241     13.7968    124.2877
  1703.7500     13.6360    214.2097     13.3360    134.8936
  1704.0000     13.0347    214.1516     12.8864    146.2636
  1704.2500     12.4137    214.0158     12.4465    149.8918
  1704.5000     11.8706    213.7992     12.0215    150.3105
  1704.7500     11.4326    213.5341     11.6210    148.9182
  1705.0000     11.0812    213.2685     11.2582    147.1710
  1705.2500     10.8316    213.0378     10.9483    146.9886
  1705.5000     10.7172    212.8510     10.7064    148.2288
  1705.7500     10.7490    212.7009     10.5451    150.1254
  1706.0000     10.8882    212.5795     10.4722    155.0731
  1706.2500     11.0194    212.4817     10.4888    159.6010
  1706.5000     11.0296    212.4032     10.5884    166.0835
  1706.7500     10.9245    212.3413     10.7571    168.3159
  1707.0000     10.8151    212.2974     10.9767    166.0324
  1707.2500     10.8300    212.2743     11.2299    160.1940
  1707.5000     11.0169    212.2716     11.5051    145.3972
  1707.7500     11.3114    212.2877     11.7988    132.6104
  1708.0000     11.6709    212.3260     12.1145    112.5052
  1708.2500     12.1859    212.3987     12.4608    100.8534
  1708.5000     12.9723    212.5209     12.8490     88.8261
  1708.7500     13.9786    212.7008     13.2926     84.8074
  1709.0000     14.9830    212.9336     13.8053     83.5339
  1709.2500     15.7831    213.2024     14.3964     84.5783
  1709.5000     16.3162    213.4882     15.0622     86.9473
  1709.7500     16.6285    213.7774     15.7745     88.3791
  1710.0000     16.8001    214.0620     16.4782     89.8931
  1710.2500     16.8793    214.3347     17.1032     90.2682
  1710.5000     16.8740    214.5836     17.5919     89.3041
  1710.7500     16.8081    214.7919     17.9214     87.5119
  1711.0000     16.7426    214.9463     18.1068     83.7545
  1711.2500     16.7217    215.0467     18.1882     81.2421
  1711.5000     16.7417    215.1081     18.2140     78.3656
  1711.7500     16.7943    215.1497     18.2296     77.1064
  1712.0000     16.8973    215.1856     18.2704     75.7030
  1712.2500     17.0661    215.2245     18.3544     74.7789
  1712.5000     17.2561    215.2741     18.4801     73.2818
  1712.7500     17.3753    215.3374     18.6282     72.3344
  1713.0000     17.3941    215.4036     18.7724     71.2332
  1713.2500     17.3847    215.4466     18.8921     70.7779
