~Version Information
VERS.                      2.0: CWLS Log ASCII Standard - VERSION 2.0
WRAP.                       NO: One line per depth step
~Well Information Block
STRT.FT                -6.2500: 
STOP.FT              2316.0000: 
STEP.FT                 0.2500: 
NULL.                -999.2500: 
COMP.          Pioneer Natural Resources: COMPANY
WELL.             Trimax 44-23: WELL
FLD.           Purgatorie River: FIELD
LOC.           527' FSL & 1064' FEL------: LOCATION
PROV.                       CO: PROVINCE
CNTY.               Las Animas: COUNTRY
SRVC.          Patterson Wireline: SERVICE COMPANY
DATE.          Sat Mar 19 11:18:53 2005: LOG DATE
UWI.           05 071 08326 00: UNIQUE WELL ID
~Curve Information Block
DEPT.FT            0 000 00 00: Depth
CCL.                          : Casing Collar Locator
TT3.usec                      : CBL 3' Travel Time
AMP3.mV                       : CBL 3' Amplitude
GR.GAPI                       : Gamma Ray
~Parameter Information Block
~A  Depth       CCL         TT3         AMP3         GR     
# ...
   295.2500      0.0000    840.7523      7.2845     50.7975
   295.5000      0.0000    826.8987      7.2644     49.3360
   295.7500      0.0000    813.4571      7.2336     48.6899
   296.0000      0.0000    805.2123      7.1774     49.9058
   296.2500      0.0000    803.4686      7.0989     53.0556
   296.5000      0.0000    806.6439      7.0162     57.2680
   296.7500      0.0000    811.1192      6.9544     61.1414
   297.0000      0.0000    813.2794      6.9314     63.3331
   297.2500      0.0000    812.7585      6.9422     63.4309
   297.5000      0.0000    813.3593      6.9590     62.5650
   297.7500      0.0000    819.4652      6.9506     62.8889
   298.0000      0.0000    831.3846      6.9085     66.2166
   298.2500      0.0000    844.6343      6.8498     72.9479
   298.5000      0.0000    853.7747      6.7912     81.9416
   298.7500      0.0000    856.7872      6.7262     91.1515
   299.0000      0.0000    855.6956      6.6347     98.5352
   299.2500      0.0000    852.9292      6.5087    102.8190
   299.5000      0.0000    847.2839      6.3581    103.8201
   299.7500      0.0000    834.0680      6.1904    102.0750
   300.0000      0.0000    809.9164      5.9955     98.0248
   300.2500      0.0000    777.6462      5.7660     91.5637
   300.5000      0.0000    746.0804      5.5275     82.6141
   300.7500      0.0000    725.1320      5.3294     72.1285
   301.0000      0.0000    721.1996      5.2050     62.1463
   301.2500      0.0000    735.6630      5.1550     54.7050
   301.5000      0.0000    764.6765      5.1635     50.9040
   301.7500      0.0000    799.6489      5.2114     50.9998
   302.0000      0.0000    830.6298      5.2772     54.9023
   302.2500     -1.0000    851.4692      5.3466     62.0976
   302.5000     -1.0000    861.6829      5.4254     71.2329
   302.7500      0.0000    863.5764      5.5443     80.3218
   303.0000      0.0000    859.0856      5.7536     87.7088
   303.2500      0.0000    850.1447      6.0897     92.9204
   303.5000      0.0000    840.4872      6.5088     96.6497
   303.7500      0.0000    834.5390      6.8667     99.8809
   304.0000      0.0000    834.1677      7.0131    103.0156
   304.2500      0.0000    838.2444      6.9168    105.8095
   304.5000      0.0000    845.0659      6.6738    107.7626
   304.7500      0.0000    852.8032      6.4067    108.2395
   305.0000      0.0000    857.5961      6.1843    106.6808
   305.2500      0.0000    853.8820      6.0196    103.2133
   305.5000      0.0000    838.3121      5.9014     98.9162
   305.7500      0.0000    813.5284      5.8141     95.2889
   306.0000      0.0000    787.6342      5.7422     93.6206
   306.2500      0.0000    768.7329      5.6732     94.7014
   306.5000      0.0000    759.3221      5.6030     98.4421
   306.7500      0.0000    756.3028      5.5385    103.4203
   307.0000      0.0000    755.7351      5.4962    107.2746
   307.2500      0.0000    756.1456      5.4971    108.1734
   307.5000      0.0000    757.7010      5.5554    106.1027
   307.7500      0.0000    760.0812      5.6659    102.6616
   308.0000      0.0000    761.7335      5.8023     99.4880
   308.2500      0.0000    760.6432      5.9316     96.9649
   308.5000      0.0000    755.7551      6.0288     94.6950
   308.7500      0.0000    747.8420      6.0797     92.9480
   309.0000      0.0000    738.9272      6.0791     92.8236
   309.2500      0.0000    731.0126      6.0322     94.7289
   309.5000      0.0000    725.4830      5.9537     97.2853
   309.7500      0.0000    723.0984      5.8594     98.2729
   310.0000      0.0000    723.7468      5.7590     96.6509
   310.2500      0.0000    726.2985      5.6577     93.4925
   310.5000      0.0000    729.2782      5.5625     91.1228
   310.7500      0.0000    731.7924      5.4853     91.4779
   311.0000      0.0000    733.7932      5.4391     94.9351
   311.2500      0.0000    735.7857      5.4339    100.2273
   311.5000      0.0000    738.5284      5.4743    105.3521
   311.7500      0.0000    742.7211      5.5611    108.6720
   312.0000      0.0000    748.5457      5.6883    109.4911
   312.2500      0.0000    755.4330      5.8405    108.1410
   312.5000      0.0000    762.4203      5.9975    105.7234
   312.7500      0.0000    768.6933      6.1444    103.5402
   313.0000      0.0000    773.8572      6.2753    102.5654
   313.2500      0.0000    777.9345      6.3875    103.2215
   313.5000      0.0000    781.0875      6.4758    105.2618
   313.7500      0.0000    783.1491      6.5303    107.8408
   314.0000      0.0000    783.6072      6.5424    110.0302
   314.2500      0.0000    782.3245      6.5166    111.4516
   314.5000      0.0000    780.0532      6.4742    112.3382
   314.7500      0.0000    777.9424      6.4399    112.9939
   315.0000      0.0000    776.6717      6.4276    113.3856
   315.2500      0.0000    776.2103      6.4431    113.4091
   315.5000      0.0000    776.1672      6.4942    113.3869
   315.7500      0.0000    776.1736      6.5918    113.9667
   316.0000      0.0000    776.0361      6.7439    115.4801
   316.2500      0.0000    775.7327      6.9490    117.5331
   316.5000      0.0000    775.3605      7.1955    119.0730
   316.7500      0.0000    775.0569      7.4651    118.7774
   317.0000      0.0000    774.8823      7.7361    115.8541
   317.2500      0.0000    774.7061      7.9857    110.8989
   317.5000      0.0000    774.1865      8.1907    105.8094
   317.7500      0.0000    772.9199      8.3300    102.5670
   318.0000      0.0000    770.7738      8.3853    101.8870
   318.2500      0.0000    768.1246      8.3378    102.7752
   318.5000      0.0000    765.5908      8.1722    103.2471
   318.7500      0.0000    763.5760      7.8964    101.8015
   319.0000      0.0000    762.5571      7.5558     98.5416
   319.2500      0.0000    763.7485      7.2140     94.8240
   319.5000      0.0000    768.4294      6.9200     91.7760
   319.7500      0.0000    776.2724      6.7034     89.3674
   320.0000      0.0000    785.0661      6.5869     87.1270
   320.2500      0.0000    792.1379      6.5866     85.5436
   320.5000      0.0000    795.3608      6.6991     86.0721
   320.7500      0.0000    793.5377      6.8992     89.3936
   321.0000      0.0000    787.5419      7.1590     94.1341
   321.2500      0.0000    780.6934      7.4789     97.6873
   321.5000      0.0000    776.1928      7.8998     98.0915
   321.7500      0.0000    773.4065      8.4629     95.1322
   322.0000      0.0000    767.6796      9.1324     90.1558
   322.2500      0.0000    754.9139      9.7740     85.1535
   322.5000      0.0000    736.8267     10.2368     81.6922
   322.7500      0.0000    721.5894     10.4574     80.1682
   323.0000      0.0000    719.1426     10.4799     79.7410
   323.2500      0.0000    735.0334     10.3967     79.0533
   323.5000      0.0000    766.4016     10.2854     77.3992
   323.7500      0.0000    802.6043     10.1871     75.4825
   324.0000      0.0000    831.2632     10.1179     75.0218
   324.2500      0.0000    845.0022     10.0819     77.4100
   324.5000      0.0000    842.6779     10.0720     82.5536
   324.7500      0.0000    826.8162     10.0692     88.8617
   325.0000      0.0000    803.0320     10.0515     94.2463
   325.2500      0.0000    780.2607     10.0018     97.1736
   325.5000      0.0000    766.7417      9.9086     97.1794
   325.7500      0.0000    764.0973      9.7648     95.0205
   326.0000      0.0000    767.4249      9.5715     92.2955
   326.2500      0.0000    771.1861      9.3423     90.2532
   326.5000      0.0000    772.9554      9.1028     88.9136
   326.7500      0.0000    772.3328      8.8804     87.7237
   327.0000      0.0000    770.0540      8.6890     86.5131
   327.2500      0.0000    768.7612      8.5244     85.1021
   327.5000      0.0000    771.4790      8.3755     82.7686
   327.7500      0.0000    777.9698      8.2342     79.2501
   328.0000      0.0000    784.2646      8.0907     75.7524
   328.2500      0.0000    786.5967      7.9287     73.7811
   328.5000      0.0000    784.7209      7.7402     73.1710
