~Version Information
VERS.                      2.0: CWLS Log ASCII Standard - VERSION 2.0
WRAP.                       NO: One line per depth step
~Well Information Block
STRT.FT               954.0000: 
STOP.FT              2517.0000: 
STEP.FT                 0.2500: 
NULL.                -999.2500: 
COMP.          Petrogulf Corporation: COMPANY
WELL.             Royal 8-33 V: WELL
FLD.           Purgatoire River: FIELD
LOC.           2365' FSL & 2336' FEL: LOCATION
PROV.                 Colorado: PROVINCE
CNTY.               Las Animas: COUNTRY
SRVC.                Patterson: SERVICE COMPANY
DATE.          Fri Dec 05 04:39:41 2003: LOG DATE
UWI.                          : UNIQUE WELL ID
~Curve Information Block
DEPT.FT            0 000 00 00: Depth
SP.mV                         : DIL Spontaneous Potential
RILD.Ohm-m                    : DIL Deep Resistivity
RILM.Ohm-m                    : DIL Medium Resistivity
RLL3.Ohm-m                    : DIL Shallow Resistivity
GR.GAPI                       : Gamma Ray
~Parameter Information Block
~A  Depth        SP         RILD        RILM        RLL3         GR     
# ...
  2494.0000    -42.8511     14.6549     18.3610     27.5330   -999.2500
  2494.2500    -41.7166     14.3617     17.2078     24.0210   -999.2500
  2494.5000    -41.1514     14.0733     16.3600     20.4205   -999.2500
  2494.7500    -41.0323     13.7301     15.8289     17.8214   -999.2500
  2495.0000    -41.0860     13.2910     15.5590     17.0443   -999.2500
  2495.2500    -40.9987     12.7539     15.4378     18.4365   -999.2500
  2495.5000    -40.5467     12.1559     15.3139     21.7533   -999.2500
  2495.7500    -39.6816     11.5519     15.0418     26.0259   -999.2500
  2496.0000    -38.5233     10.9906     14.5456     29.6479   -999.2500
  2496.2500    -37.2662     10.5019     13.8600     30.9835   -999.2500
  2496.5000    -36.0667     10.0988     13.1053     29.3084   -999.2500
  2496.7500    -34.9921      9.7849     12.4168     25.3365   -999.2500
  2497.0000    -34.0447      9.5599     11.8894     20.7858   -999.2500
  2497.2500    -33.1933      9.4203     11.5610     17.3163   -999.2500
  2497.5000    -32.3736      9.3570     11.4223     15.6920   -999.2500
  2497.7500    -31.5000      9.3527     11.4338     15.6419   -999.2500
  2498.0000    -30.5264      9.3822     11.5469     16.2777   -999.2500
  2498.2500    -29.5102      9.4195     11.7239     16.7345   -999.2500
  2498.5000    -28.6129      9.4475     11.9515     16.7246   -999.2500
  2498.7500    -28.0116      9.4670     12.2384     16.6694   -999.2500
  2499.0000    -27.7748      9.4938     12.5968     17.2715   -999.2500
  2499.2500    -27.7959      9.5785     13.0222     18.8399   -999.2500
  2499.5000    -27.8538      9.7089     13.4830     20.9070   -999.2500
  2499.7500    -27.7581      9.8600     13.9296     22.4788   -999.2500
  2500.0000    -27.4584     10.0544     14.3184     22.7980   -999.2500
  2500.2500    -27.0347     10.2772     14.6324     22.0408   -999.2500
  2500.5000    -26.5977     10.5095     14.8778     21.2847   -999.2500
  2500.7500    -26.1938     10.7311     15.0612     21.6481   -999.2500
  2501.0000    -25.7790     10.9224     15.1703     23.2725   -999.2500
  2501.2500    -25.2647     11.0648     15.1789     25.0693   -999.2500
  2501.5000    -24.5999     11.1478     15.0722     25.5566   -999.2500
  2501.7500    -23.8371     11.1846     14.8707     24.1047   -999.2500
  2502.0000    -23.1136     11.2308     14.6281     21.4589   -999.2500
  2502.2500    -22.5109     11.3993     14.4037     19.1115   -999.2500
  2502.5000    -21.8445     11.8725     14.2304     18.1860   -999.2500
  2502.7500    -20.5754     12.9292     14.0969     18.7931   -999.2500
  2503.0000    -18.0729     14.9419     13.9534     20.2180   -999.2500
  2503.2500    -14.1827     18.8707     13.7428     21.5571   -999.2500
  2503.5000     -9.5814     26.3664     13.4461     22.1810   -999.2500
  2503.7500     -5.4161     41.3779     13.1085     21.8110   -999.2500
  2504.0000     -2.5097     74.1100     12.8242     20.5195   -999.2500
  2504.2500     -0.9396    155.3853     12.6921     18.8530   -999.2500
  2504.5000     -0.2813    407.7582     12.7778     17.7667   -999.2500
  2504.7500     -0.0668   1875.8154     13.0966     18.1174   -999.2500
  2505.0000     -0.0124 100000.0000     13.6077     20.0756   -999.2500
  2505.2500     -0.0017 100000.0000     14.2199     23.0064   -999.2500
  2505.5000   -999.2500 100000.0000     14.8210     25.8779   -999.2500
  2505.7500   -999.2500 100000.0000     15.3460     27.7864   -999.2500
  2506.0000   -999.2500    281.3190     15.8618     28.2322   -999.2500
  2506.2500   -999.2500    359.8505     16.6148     27.1357   -999.2500
  2506.5000   -999.2500    518.8215     18.0438     24.8069   -999.2500
  2506.7500   -999.2500    879.4686     20.8559     21.9298   -999.2500
  2507.0000   -999.2500   1944.7081     26.3908     19.3862   -999.2500
  2507.2500   -999.2500  10333.9326     37.4398     17.8613   -999.2500
  2507.5000   -999.2500 100000.0000     62.2058     17.5012   -999.2500
  2507.7500   -999.2500 100000.0000    131.9944     17.9094   -999.2500
  2508.0000   -999.2500 100000.0000    548.6710     18.4488   -999.2500
  2508.2500   -999.2500 100000.0000 100000.0000     18.5891   -999.2500
  2508.5000   -999.2500 100000.0000 100000.0000     18.1185   -999.2500
  2508.7500   -999.2500 100000.0000 100000.0000     17.2108   -999.2500
  2509.0000   -999.2500 100000.0000 100000.0000     16.3617   -999.2500
  2509.2500   -999.2500 100000.0000 100000.0000     16.2278   -999.2500
  2509.5000   -999.2500 100000.0000 100000.0000     17.4525   -999.2500
  2509.7500   -999.2500 100000.0000    661.5446     20.4691   -999.2500
  2510.0000   -999.2500 100000.0000    687.1091     25.1421   -999.2500
  2510.2500   -999.2500 100000.0000    717.8209     30.3739   -999.2500
  2510.5000   -999.2500 100000.0000    748.0307     34.2398   -999.2500
  2510.7500   -999.2500 100000.0000    774.4827     34.9764   -999.2500
  2511.0000   -999.2500 100000.0000    800.6209     32.1802   -999.2500
  2511.2500   -999.2500 100000.0000    839.1060     27.0801   -999.2500
  2511.5000   -999.2500 100000.0000    912.6193     21.5329   -999.2500
  2511.7500   -999.2500 100000.0000   1058.2865     16.6853   -999.2500
  2512.0000   -999.2500 100000.0000   1346.3784     12.5328   -999.2500
  2512.2500   -999.2500 100000.0000   1941.8850      8.5901   -999.2500
  2512.5000   -999.2500   -999.2500   3344.9377      4.7646   -999.2500
  2512.7500   -999.2500   -999.2500   7944.3613      1.4989   -999.2500
  2513.0000   -999.2500   -999.2500 100000.0000     -0.7584   -999.2500
  2513.2500   -999.2500   -999.2500 100000.0000     -1.9844   -999.2500
  2513.5000   -999.2500   -999.2500 100000.0000     -2.5029   -999.2500
  2513.7500   -999.2500   -999.2500 100000.0000     -2.6734   -999.2500
  2514.0000   -999.2500   -999.2500 100000.0000     -2.7169   -999.2500
  2514.2500   -999.2500   -999.2500 100000.0000     -2.7255   -999.2500
  2514.5000   -999.2500   -999.2500 100000.0000   -999.2500   -999.2500
  2514.7500   -999.2500   -999.2500 100000.0000   -999.2500   -999.2500
  2515.0000   -999.2500   -999.2500 100000.0000   -999.2500   -999.2500
  2515.2500   -999.2500   -999.2500 100000.0000   -999.2500   -999.2500
  2515.5000   -999.2500   -999.2500 100000.0000   -999.2500   -999.2500
  2515.7500   -999.2500   -999.2500 100000.0000   -999.2500   -999.2500
  2516.0000   -999.2500   -999.2500 100000.0000   -999.2500   -999.2500
  2516.2500   -999.2500   -999.2500 100000.0000   -999.2500   -999.2500
  2516.5000   -999.2500   -999.2500 100000.0000   -999.2500   -999.2500
  2516.7500   -999.2500   -999.2500 100000.0000   -999.2500   -999.2500
  2517.0000   -999.2500   -999.2500 100000.0000   -999.2500   -999.2500
