~Version Information
VERS.                      2.0: CWLS Log ASCII Standard - VERSION 2.0
WRAP.                       NO: One line per depth step
~Well Information Block
STRT.FT               987.5000: 
STOP.FT              2426.0000: 
STEP.FT                 0.5000: 
NULL.                -999.2500: 
COMP.          Evergreen Operating Corporation: COMPANY
WELL.          McCullough 34-32: WELL
FLD.           Purgatorie River: FIELD
LOC.           261' FSL & 2098' FEL--: LOCATION
PROV.                 Colorado: PROVINCE
CNTY.               Las Animas: COUNTRY
SRVC.          Patterson Wireline: SERVICE COMPANY
DATE.          Mon May 17 13:38:56 2004: LOG DATE
UWI.           05-071-07953-00: UNIQUE WELL ID
~Curve Information Block
DEPT.FT            0 000 00 00: Depth
CCL.                          : Casing Collar Locator
TT3.usec                      : CBL 3' Travel Time
AMP3.mV                       : CBL 3' Amplitude
GR.GAPI                       : Gamma Ray
~Parameter Information Block
~A  Depth       CCL         TT3         AMP3         GR     
# ...
  1992.5000      0.0000    738.0496      5.2748    134.0318
  1993.0000      0.0000    724.7289      6.1709    128.5204
  1993.5000      0.0000    708.4036      7.4823    114.7774
  1994.0000      0.0000    701.1371      8.2234    103.1318
  1994.5000      0.0000    698.8210      7.9831     94.7817
  1995.0000      0.0000    697.9490      7.1845     80.6409
  1995.5000      0.0000    695.0778      6.9004     63.2770
  1996.0000      0.0000    669.1216      7.5553     52.2962
  1996.5000      0.0000    581.9863      7.9104     49.9387
  1997.0000      0.0000    467.6893      7.6153     52.7084
  1997.5000      0.0000    400.8598      7.8045     54.9589
  1998.0000      0.0000    374.7644      8.0338     51.9323
  1998.5000      0.0000    365.9911      7.6933     45.7367
  1999.0000      0.0000    364.2279      7.8614     43.4316
  1999.5000      0.0000    363.6056      8.3119     47.0424
  2000.0000      0.0000    363.0492      8.1210     53.9567
  2000.5000      0.0000    362.8871      8.0472     65.8357
  2001.0000      0.0000    362.8369      8.3264     78.4863
  2001.5000      0.0000    362.9208      8.1664     77.9671
  2002.0000      0.0000    363.8333      8.1893     64.8469
  2002.5000      0.0000    367.6091      8.3650     53.4280
  2003.0000      0.0000    378.8262      8.0701     47.1845
  2003.5000      0.0000    393.9229      8.0295     46.3069
  2004.0000      0.0000    408.0558      8.0811     47.0089
  2004.5000      0.0000    434.1519      7.9037     46.5508
  2005.0000      0.0000    449.5734      8.0658     53.6595
  2005.5000      0.0000    415.5232      8.0154     70.4968
  2006.0000      0.0000    377.6780      7.8925     90.6622
  2006.5000      0.0000    364.8815      7.9806     98.2114
  2007.0000      0.0000    362.7493      7.7896     82.4874
  2007.5000      0.0000    362.9835      7.9674     60.9308
  2008.0000      0.0000    366.4566      8.2386     50.7933
  2008.5000      0.0000    374.9561      8.1032     50.9739
  2009.0000      0.0000    378.5172      8.1588     54.1512
  2009.5000      0.0000    371.2641      8.1845     56.0333
  2010.0000      0.0000    365.0392      8.2700     59.2717
  2010.5000      0.0000    363.0741      8.3103     61.0354
  2011.0000      0.0000    362.5076      8.1757     61.9263
  2011.5000      0.0000    362.1981      8.1073     65.2982
  2012.0000      0.0000    362.0744      8.1018     65.9333
  2012.5000      0.0000    362.2218      8.1487     62.4838
  2013.0000      0.0000    362.4763      8.2534     55.7110
  2013.5000      0.0000    361.5837      8.3255     48.8887
  2014.0000      0.0000    356.8624      8.3209     48.2733
  2014.5000      0.0000    350.1583      8.2557     52.8314
  2015.0000      0.0000    350.2125      8.2194     59.9962
  2015.5000      0.0000    356.9037      8.1902     65.8588
  2016.0000      0.0000    361.7536      8.3012     62.2373
  2016.5000      0.0000    362.9629      8.5899     53.1397
  2017.0000      0.0000    362.0664      8.7540     53.3206
  2017.5000      0.0000    358.2494      8.8768     64.8469
  2018.0000      0.0000    353.3792      8.8680     76.7455
  2018.5000      0.0000    351.2488      8.7127     79.4139
  2019.0000      0.0000    349.0630      8.6782     69.4035
  2019.5000      0.0000    345.6975      8.8787     55.7597
  2020.0000      0.0000    346.6718      9.1359     47.7411
  2020.5000      0.0000    348.3816      9.2166     46.1301
  2021.0000      0.0000    346.2074      9.1518     48.3082
  2021.5000      0.0000    346.9745      9.0292     49.0165
  2022.0000      0.0000    354.9993      8.8539     48.8341
  2022.5000      0.0000    360.7631      8.6699     49.2445
  2023.0000      0.0000    362.2707      8.4722     48.0939
  2023.5000      0.0000    362.7851      8.4151     44.4006
  2024.0000      0.0000    363.9767      8.3274     38.1406
  2024.5000      0.0000    375.1398      8.3155     39.4256
  2025.0000      0.0000    430.0064      8.3423     46.6402
  2025.5000      0.0000    537.8049      8.2532     49.4602
  2026.0000      0.0000    619.4619      8.0462     55.6835
  2026.5000      0.0000    613.7889      7.8183     69.8093
  2027.0000      0.0000    557.1843      7.3931     88.8850
  2027.5000      0.0000    530.8859      6.5916    108.1083
  2028.0000      0.0000    528.9933      5.9965    114.0549
  2028.5000      5.0000    571.8801      5.5272    107.9193
  2029.0000      0.0000    667.3674      5.0391    105.0968
  2029.5000      0.0000    730.4346      5.1262    107.7037
  2030.0000      0.0000    732.0377      5.6940    111.5765
  2030.5000      0.0000    715.0206      5.6439    112.8171
  2031.0000      0.0000    718.9771      5.5106    109.9415
  2031.5000      0.0000    739.7329      5.5959    106.4722
  2032.0000      0.0000    745.8611      5.6734    102.3777
  2032.5000      0.0000    744.7233      5.9154    102.5292
  2033.0000      0.0000    746.7859      6.3329    102.7811
  2033.5000      0.0000    734.7100      6.6951     95.6703
  2034.0000      0.0000    718.2908      6.8532     90.8485
  2034.5000      0.0000    707.1912      6.9547     90.5243
  2035.0000      0.0000    702.2734      7.1146     92.8360
  2035.5000      0.0000    699.1471      7.4490     95.8341
  2036.0000      0.0000    694.3357      7.9765     96.0581
  2036.5000      0.0000    687.6060      8.3378     99.7910
  2037.0000      0.0000    661.6479      8.3584    104.5812
  2037.5000      0.0000    603.7911      8.3107    110.2422
  2038.0000      0.0000    518.0569      8.5121    118.6770
  2038.5000      0.0000    424.6401      8.7836    118.5121
  2039.0000      0.0000    375.1534      8.7894    109.1936
  2039.5000      0.0000    364.5484      8.6317     98.6010
  2040.0000      0.0000    363.0489      8.4697     92.7964
  2040.5000      0.0000    362.4160      8.3630     92.3098
  2041.0000      0.0000    362.1343      8.4707     92.0211
  2041.5000      0.0000    362.1016      8.3787     92.1359
  2042.0000      0.0000    362.3096      8.3056     94.7572
  2042.5000      0.0000    362.7507      8.4561     95.4295
  2043.0000      0.0000    364.0337      8.5647    100.3714
  2043.5000      0.0000    372.9728      8.4837    108.1422
  2044.0000      0.0000    405.2080      8.3587    109.4514
  2044.5000      0.0000    435.1373      8.2872    104.6514
  2045.0000      0.0000    427.4966      8.1662     95.5294
  2045.5000      0.0000    460.8547      8.0353     81.6217
  2046.0000      0.0000    570.1436      8.0067     67.3178
  2046.5000      0.0000    660.3139      8.1702     61.3905
  2047.0000      0.0000    689.7704      8.4777     67.4652
  2047.5000      0.0000    694.6840      8.5581     73.6926
  2048.0000      0.0000    694.9658      8.3226     71.3225
  2048.5000      0.0000    694.6997      8.0834     64.5081
  2049.0000      0.0000    695.0491      8.0388     59.8016
  2049.5000      0.0000    696.0205      8.0123     56.5046
  2050.0000      0.0000    697.9895      7.8104     56.3660
  2050.5000      0.0000    701.9255      7.6491     60.8009
  2051.0000      0.0000    704.6705      7.7259     61.7853
  2051.5000      0.0000    701.4866      7.8426     63.9359
  2052.0000      0.0000    697.6074      7.7119     73.7824
  2052.5000      0.0000    696.3860      7.5660     85.0063
  2053.0000      0.0000    696.3160      7.6152     85.0881
  2053.5000      0.0000    696.2896      7.6711     76.4949
  2054.0000      0.0000    696.0107      7.7949     69.5517
  2054.5000      0.0000    695.7938      7.8158     71.7261
  2055.0000      0.0000    695.5796      7.5868     73.2531
  2055.5000      0.0000    695.2371      7.3939     69.2777
  2056.0000      0.0000    695.9933      7.4178     65.1682
  2056.5000      0.0000    700.2636      7.5627     64.4045
  2057.0000      0.0000    704.5949      7.8220     66.4193
  2057.5000      0.0000    705.4417      8.0144     67.8128
  2058.0000      0.0000    714.0737      7.9524     64.2116
  2058.5000      0.0000    728.8160      7.8779     57.2780
  2059.0000      0.0000    736.0758      7.9153     52.8515
