~Version Information
VERS.                      2.0: CWLS Log ASCII Standard - VERSION 2.0
WRAP.                       NO: One line per depth step
~Well Information Block
STRT.FT                -1.5000: 
STOP.FT              1317.0000: 
STEP.FT                 0.2500: 
NULL.                -999.2500: 
COMP.          Pioneer Natural Resources: COMPANY
WELL.              Border 21-3: WELL
FLD.           Purgatoire River: FIELD
LOC.           865' FNL & 1415' FWL: LOCATION
PROV.                 Colorado: PROVINCE
CNTY.               Las Animas: COUNTRY
SRVC.                Patterson: SERVICE COMPANY
DATE.          Tue Dec 14 14:08:05 2004: LOG DATE
UWI.           05 071 08169 00: UNIQUE WELL ID
~Curve Information Block
DEPT.FT            0 000 00 00: Depth
GR.GAPI                       : Gamma Ray
CCL.                          : Casing Collar Locator
TT3.usec                      : CBL 3' Travel Time
AMP3.mV                       : CBL 3' Amplitude
~Parameter Information Block
~A  Depth        GR         CCL         TT3         AMP3    
# ...
  1104.0000    117.6230      0.0000    718.7921      6.1017
  1104.2500    120.1309      0.0000    729.5212      6.1036
  1104.5000    123.3800      0.0000    738.0746      6.1168
  1104.7500    127.1552      0.0000    742.8389      6.1364
  1105.0000    131.3822      0.0000    743.3718      6.1408
  1105.2500    135.6402      0.0000    740.7330      6.1084
  1105.5000    138.8820      0.0000    736.5248      6.0384
  1105.7500    139.9266      0.0000    731.4180      5.9553
  1106.0000    138.1837      0.0000    724.9700      5.8946
  1106.2500    133.7366      0.0000    716.9878      5.8831
  1106.5000    127.0867      0.0000    708.6613      5.9293
  1106.7500    119.2236      0.0000    702.4199      6.0240
  1107.0000    111.5198      0.0000    700.9890      6.1453
  1107.2500    104.9812      0.0000    706.0624      6.2625
  1107.5000     99.7825      0.0000    716.7783      6.3437
  1107.7500     95.6967      0.0000    729.3015      6.3685
  1108.0000     92.6268      0.0000    738.8976      6.3354
  1108.2500     90.7755      0.0000    743.2813      6.2625
  1108.5000     90.8238      0.0000    743.9539      6.1801
  1108.7500     93.8468      0.0000    744.1765      6.1188
  1109.0000    100.2397      0.0000    745.9846      6.1022
  1109.2500    108.5574      0.0000    748.9957      6.1464
  1109.5000    116.1521      0.0000    751.1264      6.2547
  1109.7500    121.3053      0.0000    749.9301      6.4055
  1110.0000    124.2327      0.0000    744.0038      6.5527
  1110.2500    125.8616      0.0000    734.1182      6.6505
  1110.5000    126.3510      0.0000    723.2225      6.6778
  1110.7500    125.2171      0.0000    714.8878      6.6410
  1111.0000    122.2209      0.0000    710.9628      6.5619
  1111.2500    117.4862      0.0000    710.3182      6.4711
  1111.5000    111.1079      0.0000    710.1124      6.4042
  1111.7500    103.3338      0.0000    708.5428      6.3917
  1112.0000     95.2403      0.0000    706.1252      6.4483
  1112.2500     88.7529      0.0000    704.2026      6.5658
  1112.5000     85.3976      0.0000    702.8896      6.7107
  1112.7500     84.8087      0.0000    701.1843      6.8325
  1113.0000     84.8876      0.0000    698.6977      6.8864
  1113.2500     83.8919      0.0000    696.1945      6.8573
  1113.5000     82.1604      0.0000    694.2939      6.7663
  1113.7500     81.4690      0.0000    692.5649      6.6527
  1114.0000     83.0153      0.0000    690.3474      6.5489
  1114.2500     86.3620      0.0000    687.8324      6.4702
  1114.5000     89.9661      0.0000    685.8151      6.4208
  1114.7500     92.2728      0.0000    684.7446      6.4006
  1115.0000     92.4369      0.0000    684.4084      6.4054
  1115.2500     90.5376      0.0000    684.3553      6.4268
  1115.5000     87.4885      0.0000    684.3248      6.4548
  1115.7500     84.6762      0.0000    684.3083      6.4804
  1116.0000     83.2688      0.0000    684.3949      6.4945
  1116.2500     83.5327      0.0000    684.6360      6.4873
  1116.5000     84.7926      0.0000    684.9919      6.4539
  1116.7500     86.2083      0.0000    685.3540      6.4029
  1117.0000     87.6127      0.0000    685.6154      6.3562
  1117.2500     89.5197      0.0000    685.7493      6.3357
  1117.5000     92.3032      0.0000    685.8224      6.3460
  1117.7500     95.5486      0.0000    685.9205      6.3734
  1118.0000     98.3509      0.0000    686.0717      6.4003
  1118.2500    100.0163      0.0000    686.2424      6.4196
  1118.5000    100.2491      0.0000    686.3874      6.4361
  1118.7500     99.0865      0.0000    686.4944      6.4573
  1119.0000     97.0655      0.0000    686.5895      6.4866
  1119.2500     95.1103      0.0000    686.6924      6.5232
  1119.5000     93.9190      0.0000    686.7649      6.5639
  1119.7500     93.5668      0.0000    686.7383      6.6017
  1120.0000     93.5893      0.0000    686.6141      6.6261
  1120.2500     93.2346      0.0000    686.5345      6.6264
  1120.5000     91.8988      0.0000    686.7520      6.5968
  1120.7500     89.6188      0.0000    687.5867      6.5386
  1121.0000     87.0355      0.0000    689.3604      6.4580
  1121.2500     84.8810      0.0000    692.1646      6.3646
  1121.5000     83.7077      0.0000    695.5037      6.2754
  1121.7500     83.9603      0.0000    698.2440      6.2132
  1122.0000     85.6767      0.0000    699.1689      6.1940
  1122.2500     87.9546      0.0000    697.7765      6.2146
  1122.5000     89.2688      0.0000    694.6446      6.2541
  1122.7500     88.7208      0.0000    691.0436      6.2899
  1123.0000     86.7491      0.0000    688.1077      6.3113
  1123.2500     84.3888      0.0000    686.2636      6.3228
  1123.5000     82.1782      0.0000    685.3092      6.3371
  1123.7500     80.1356      0.0000    684.8565      6.3629
  1124.0000     78.4651      0.0000    684.6923      6.3989
  1124.2500     77.5309      0.0000    684.9526      6.4388
  1124.5000     77.0031      0.0000    686.1998      6.4797
  1124.7500     75.7909      0.0000    689.3616      6.5233
  1125.0000     73.4554      0.0000    695.3138      6.5690
  1125.2500     71.4044      0.0000    704.2090      6.6056
  1125.5000     72.1220      0.0000    715.1605      6.6155
  1125.7500     77.1658      0.0000    726.7218      6.5880
  1126.0000     85.9942      0.0000    737.6039      6.5325
  1126.2500     96.3457      0.0000    746.8724      6.4764
  1126.5000    105.3241      0.0000    753.8173      6.4472
  1126.7500    110.6334      0.0000    758.0220      6.4532
  1127.0000    111.8292      0.0000    759.4285      6.4810
  1127.2500    110.7353      0.0000    758.1085      6.5136
  1127.5000    110.0756      0.0000    754.1490      6.5441
  1127.7500    111.1557      0.0000    748.0360      6.5694
  1128.0000    112.7018      0.0000    741.0211      6.5801
  1128.2500    111.9266      0.0000    734.7065      6.5649
  1128.5000    106.9246      0.0000    730.0889      6.5218
  1128.7500     98.3900      0.0000    727.0417      6.4575
  1129.0000     89.1575      0.0000    724.5634      6.3828
  1129.2500     81.9034      0.0000    721.3316      6.3123
  1129.5000     77.1113      0.0000    716.3293      6.2631
  1129.7500     73.1751      0.0000    709.6191      6.2460
  1130.0000     68.2989      0.0000    702.8293      6.2580
  1130.2500     62.2048      0.0000    698.4611      6.2819
  1130.5000     56.2023      0.0000    698.0777      6.2975
  1130.7500     51.8714      0.0000    700.7324      6.2958
  1131.0000     49.7990      0.0000    703.3298      6.2858
  1131.2500     49.4956      0.0000    703.3179      6.2850
  1131.5000     50.1603      0.0000    701.5741      6.3033
  1131.7500     51.2488      0.0000    702.0123      6.3337
  1132.0000     52.4104      0.0000    707.5375      6.3571
  1132.2500     53.2038      0.0000    716.9110      6.3559
  1132.5000     53.1152      0.0000    726.2231      6.3215
  1132.7500     51.9783      0.0000    732.6137      6.2522
  1133.0000     50.3624      0.0000    735.5677      6.1458
  1133.2500     49.3550      0.0000    735.4098      6.0056
  1133.5000     49.7185      0.0000    732.1371      5.8561
  1133.7500     51.1329      0.0000    726.1440      5.7420
  1134.0000     52.3132      0.0000    719.2776      5.6924
  1134.2500     52.0495      0.0000    714.4207      5.6909
  1134.5000     50.2740      0.0000    713.8487      5.6980
  1134.7500     48.0636      0.0000    717.8464      5.6994
  1135.0000     46.5492      0.0000    724.7170      5.7135
  1135.2500     45.9611     -2.0000    732.1754      5.7550
  1135.5000     45.8571     -2.0000    738.9450      5.8088
  1135.7500     46.1001      2.0000    744.8621      5.8413
  1136.0000     47.2682      0.0000    749.4073      5.8301
  1136.2500     49.9341      0.0000    750.8947      5.7814
  1136.5000     53.7319      0.0000    747.8094      5.7163
  1136.7500     57.4039      0.0000    740.7433      5.6397
  1137.0000     59.7568      0.0000    732.4066      5.5416
  1137.2500     60.4820      0.0000    725.7220      5.4424
