~Version Information
VERS.                      2.0: CWLS Log ASCII Standard - VERSION 2.0
WRAP.                       NO: One line per depth step
~Well Information Block
STRT.FT                -7.0000: 
STOP.FT              2389.2500: 
STEP.FT                 0.2500: 
NULL.                -999.2500: 
COMP.          Pioneer Natural Resources: COMPANY
WELL.            Victory 12-14: WELL
FLD.           Purgatorie River: FIELD
LOC.           2434' FNL & 188' FWL------: LOCATION
PROV.                       CO: PROVINCE
CNTY.               Las Animas: COUNTRY
SRVC.          Patterson Wireline: SERVICE COMPANY
DATE.          Fri Apr 22 14:29:17 2005: LOG DATE
UWI.           05 071 08332 00: UNIQUE WELL ID
~Curve Information Block
DEPT.FT            0 000 00 00: Depth
CCL.                          : Casing Collar Locator
TT3.usec                      : CBL 3' Travel Time
AMP3.mV                       : CBL 3' Amplitude
GR.GAPI                       : Gamma Ray
~Parameter Information Block
~A  Depth       CCL         TT3         AMP3         GR     
# ...
  1735.0000      0.0000    676.6663      5.2557    160.6768
  1735.2500      0.0000    669.1272      5.0805    159.5253
  1735.5000      0.0000    661.4115      4.8658    154.4709
  1735.7500      0.0000    652.0490      4.6676    148.7462
  1736.0000      0.0000    641.1764      4.5369    144.5618
  1736.2500      0.0000    630.5746      4.4852    141.8138
  1736.5000      0.0000    622.0605      4.4932    139.1803
  1736.7500      0.0000    616.2764      4.5332    136.1704
  1737.0000      0.0000    613.5488      4.5750    133.9859
  1737.2500      0.0000    615.8290      4.5884    134.1247
  1737.5000     -2.0000    626.9376      4.5576    136.3529
  1737.7500     -2.0000    649.7188      4.4870    138.6740
  1738.0000      0.0000    682.1763      4.3888    139.1776
  1738.2500      0.0000    716.7206      4.2776    137.1735
  1738.5000      0.0000    744.2340      4.1848    132.7268
  1738.7500      0.0000    759.6899      4.1636    126.3988
  1739.0000      0.0000    764.4305      4.2591    119.8614
  1739.2500      0.0000    763.8762      4.4641    115.5299
  1739.5000      0.0000    763.5344      4.7139    114.7277
  1739.7500      0.0000    766.4188      4.9407    116.7247
  1740.0000      0.0000    772.3947      5.1262    120.0259
  1740.2500      0.0000    778.6525      5.2951    124.2140
  1740.5000      0.0000    781.0802      5.4743    130.1780
  1740.7500      0.0000    776.5579      5.6693    138.4605
  1741.0000      0.0000    765.1447      5.8651    147.5722
  1741.2500      0.0000    750.2401      6.0312    154.4853
  1741.5000      0.0000    735.7972      6.1289    157.1570
  1741.7500      0.0000    722.9191      6.1354    156.1582
  1742.0000      0.0000    709.8088      6.0669    153.4879
  1742.2500      0.0000    695.5767      5.9694    150.3336
  1742.5000      0.0000    683.2214      5.8901    146.4279
  1742.7500      0.0000    677.7799      5.8632    141.1515
  1743.0000      0.0000    681.5458      5.9000    134.7324
  1743.2500      0.0000    691.4794      5.9812    128.3154
  1743.5000      0.0000    701.3248      6.0671    122.8377
  1743.7500      0.0000    706.4456      6.1197    117.8348
  1744.0000      0.0000    706.9979      6.1211    111.7586
  1744.2500      0.0000    706.6654      6.0808    103.7714
  1744.5000      0.0000    708.8266      6.0257     94.8140
  1744.7500      0.0000    714.3864      5.9785     86.5859
  1745.0000      0.0000    722.3939      5.9500     80.0588
  1745.2500      0.0000    731.0732      5.9409     75.4243
  1745.5000      0.0000    738.2155      5.9454     72.7882
  1745.7500      0.0000    742.5829      5.9555     72.1112
  1746.0000      0.0000    746.0341      5.9643     72.7043
  1746.2500      0.0000    752.8379      5.9748     73.5579
  1746.5000      0.0000    765.1060      6.0097     74.3153
  1746.7500      0.0000    779.2739      6.0923     75.4790
  1747.0000      0.0000    788.3843      6.2171     77.4481
  1747.2500      0.0000    787.9378      6.3525     79.8124
  1747.5000      0.0000    779.1602      6.4608     81.9925
  1747.7500      0.0000    767.3160      6.5132     84.2941
  1748.0000      0.0000    757.6118      6.4980     87.8391
  1748.2500      0.0000    752.0018      6.4204     93.5104
  1748.5000      0.0000    748.7541      6.2937    101.1196
  1748.7500      0.0000    744.7194      6.1418    109.3304
  1749.0000      0.0000    738.2141      5.9983    116.2572
  1749.2500      0.0000    730.1241      5.8912    120.5992
  1749.5000      0.0000    722.7372      5.8310    122.5034
  1749.7500      0.0000    717.8690      5.8105    123.1131
  1750.0000      0.0000    716.0159      5.8124    123.2603
  1750.2500      0.0000    716.6678      5.8282    122.9498
  1750.5000      0.0000    718.8638      5.8636    122.0559
  1750.7500      0.0000    721.5706      5.9095    121.0883
  1751.0000      0.0000    724.1249      5.9246    121.1226
  1751.2500      0.0000    726.6434      5.8675    123.0887
  1751.5000      0.0000    729.9086      5.7425    127.0367
  1751.7500      0.0000    734.8088      5.6078    131.9774
  1752.0000      0.0000    741.6285      5.5321    136.6404
  1752.2500      0.0000    749.2324      5.5368    140.5784
  1752.5000      0.0000    754.8392      5.5934    144.3689
  1752.7500      0.0000    755.4255      5.6678    148.6679
  1753.0000      0.0000    750.1454      5.7422    153.2998
  1753.2500      0.0000    741.4049      5.8018    157.2425
  1753.5000      0.0000    733.3696      5.8279    159.2476
  1753.7500      0.0000    729.4233      5.7956    158.5831
  1754.0000      0.0000    730.7982      5.6769    155.5333
  1754.2500      0.0000    736.7382      5.4696    151.1827
  1754.5000      0.0000    745.4937      5.2228    146.4990
  1754.7500      0.0000    755.5638      5.0126    141.7228
  1755.0000      0.0000    766.4826      4.9002    136.7149
  1755.2500      0.0000    778.3360      4.9076    131.6585
  1755.5000      0.0000    790.5151      5.0026    127.3715
  1755.7500      0.0000    801.2985      5.1117    125.0005
  1756.0000      0.0000    808.7495      5.1794    125.1401
  1756.2500      0.0000    811.7770      5.2034    127.0581
  1756.5000      0.0000    810.2855      5.1986    129.1439
  1756.7500      0.0000    804.6459      5.1634    130.3451
  1757.0000      0.0000    795.3336      5.0980    130.8193
  1757.2500      0.0000    783.2012      5.0235    130.9692
  1757.5000      0.0000    770.0956      4.9711    130.2433
  1757.7500      0.0000    758.7283      4.9653    127.3079
  1758.0000      0.0000    751.1385      5.0034    121.4279
  1758.2500      0.0000    747.1308      5.0455    113.5075
  1758.5000      0.0000    744.7890      5.0487    105.7922
  1758.7500      0.0000    742.5313      5.0067    100.7076
  1759.0000      0.0000    740.0400      4.9343     99.6688
  1759.2500      0.0000    737.6816      4.8472    102.3479
  1759.5000      0.0000    736.3813      4.7879    107.0814
  1759.7500      0.0000    737.4957      4.8261    112.5112
  1760.0000      0.0000    740.9834      4.9829    118.6661
  1760.2500      0.0000    744.0887      5.1810    125.7204
  1760.5000      0.0000    744.0694      5.3220    131.9374
  1760.7500      0.0000    742.3699      5.3987    134.0187
  1761.0000      0.0000    743.6019      5.4876    130.0458
  1761.2500      0.0000    748.9074      5.6295    121.5517
  1761.5000      0.0000    751.9504      5.7633    112.2753
  1761.7500      0.0000    742.7053      5.8135    105.1970
  1762.0000      0.0000    714.1895      5.8119    100.9634
  1762.2500      0.0000    666.2309      5.8735     98.5704
  1762.5000      0.0000    608.1460      6.0416     96.8321
  1762.7500      0.0000    560.6418      6.2134     95.1680
  1763.0000      0.0000    548.3624      6.2576     93.5907
  1763.2500      0.0000    581.6698      6.1707     92.4406
  1763.5000      0.0000    645.1002      6.0615     92.0939
  1763.7500      0.0000    707.8105      5.9958     92.7714
  1764.0000      0.0000    746.0990      5.9210     94.7272
  1764.2500      0.0000    755.9995      5.7713     98.5948
  1764.5000      0.0000    748.6813      5.5971    105.2871
  1764.7500      0.0000    738.1169      5.5320    115.3119
  1765.0000      0.0000    731.7662      5.6309    128.0813
  1765.2500      0.0000    728.7479      5.7892    141.8747
  1765.5000      0.0000    724.2260      5.8511    154.4602
  1765.7500      0.0000    714.8537      5.7777    163.9194
  1766.0000      0.0000    701.1945      5.6712    169.4265
  1766.2500      0.0000    687.0240      5.6361    171.6742
  1766.5000      0.0000    676.9211      5.6523    172.3064
  1766.7500      0.0000    673.2318      5.6129    172.4151
  1767.0000      0.0000    675.0433      5.4688    171.5108
  1767.2500      0.0000    680.6964      5.2897    168.1158
  1767.5000      0.0000    690.6884      5.1708    161.3445
  1767.7500      0.0000    707.0886      5.1217    151.8115
  1768.0000      0.0000    730.0682      5.0885    141.0196
  1768.2500      0.0000    755.7497      5.0592    130.2793
