~Version Information
VERS.                      2.0: CWLS Log ASCII Standard - VERSION 2.0
WRAP.                       NO: One line per depth step
~Well Information Block
STRT.FT               664.0000: 
STOP.FT              1615.5000: 
STEP.FT                 0.2500: 
NULL.                -999.2500: 
COMP.          Petrogulf Corporation: COMPANY
WELL.          Great Plains 22-21R: WELL
FLD.           Purgatorie River: FIELD
LOC.           73' FNL & 1992' FWL: LOCATION
PROV.                 Colorado: PROVINCE
CNTY.               Las Animas: COUNTRY
SRVC.                Patterson: SERVICE COMPANY
DATE.          Thu Sep 08 08:05:26 2005: LOG DATE
UWI.                          : UNIQUE WELL ID
~Curve Information Block
DEPT.FT            0 000 00 00: Depth
SP.mV                         : DIL Spontaneous Potential
RILD.Ohm-m                    : DIL Deep Resistivity
RILM.Ohm-m                    : DIL Medium Resistivity
RLL3.Ohm-m                    : DIL Shallow Resistivity
GR.GAPI                       : Gamma Ray
~Parameter Information Block
~A  Depth        SP         RILD        RILM        RLL3         GR     
# ...
  1224.0000    149.3285      5.7276      5.6276      6.6765   -999.2500
  1224.2500    149.6376      5.7385      5.6176      6.7237   -999.2500
  1224.5000    149.8967      5.8109      5.6350      7.2224   -999.2500
  1224.7500    150.0343      5.8496      5.6978      7.3623   -999.2500
  1225.0000    149.9595      5.9118      5.7766      7.3928   -999.2500
  1225.2500    149.8351      6.0326      5.8608      7.5871   -999.2500
  1225.5000    149.7551      6.0909      5.9550      7.9975   -999.2500
  1225.7500    149.7082      6.2507      6.0675      8.4420   -999.2500
  1226.0000    149.5746      6.5138      6.1938      8.4130   -999.2500
  1226.2500    149.3433      6.8925      6.3959      8.3184   -999.2500
  1226.5000    149.0342      7.2398      6.6125      8.1586   -999.2500
  1226.7500    148.7456      7.5756      7.1026      7.6769   -999.2500
  1227.0000    148.4370      8.0047      7.7969      8.6195   -999.2500
  1227.2500    148.1242      8.3516      8.7044     12.7431   -999.2500
  1227.5000    147.8617      8.6957      9.9134     24.8266   -999.2500
  1227.7500    147.7656      9.1577     11.1666     48.2045   -999.2500
  1228.0000    147.6960      9.5423     12.2527     59.4255   -999.2500
  1228.2500    147.6904      9.9731     12.8970     42.3985   -999.2500
  1228.5000    147.6812     10.3200     12.9597     30.3379   -999.2500
  1228.7500    147.7272     10.7886     13.1986     23.3132   -999.2500
  1229.0000    147.8425     11.4205     13.4828     17.1835   -999.2500
  1229.2500    147.8776     12.1378     13.7575     16.5183   -999.2500
  1229.5000    147.7304     13.0143     14.3969     17.6154   -999.2500
  1229.7500    147.5116     13.6657     14.9675     17.9089   -999.2500
  1230.0000    147.2199     14.0909     15.3703     17.2958   -999.2500
  1230.2500    146.9863     14.3340     15.6657     16.5831   -999.2500
  1230.5000    146.7727     14.4280     15.9019     16.5859   -999.2500
  1230.7500    146.5693     14.3957     16.3328     17.4807   -999.2500
  1231.0000    146.3618     14.7231     16.6045     17.4248   -999.2500
  1231.2500    146.1540     14.6250     17.5469     18.1434   -999.2500
  1231.5000    145.9781     14.5509     18.4483     22.6011   -999.2500
  1231.7500    145.7702     14.2557     18.9413     32.5564   -999.2500
  1232.0000    145.6113     14.0635     19.4108     43.4162   -999.2500
  1232.2500    145.5616     14.2969     18.9922     41.5128   -999.2500
  1232.5000    145.6568     14.1023     18.2278     32.0323   -999.2500
  1232.7500    145.8301     14.1584     17.4936     25.0366   -999.2500
  1233.0000    145.9931     14.2886     16.8535     21.6104   -999.2500
  1233.2500    146.0858     14.3795     15.9582     18.0626   -999.2500
  1233.5000    146.1477     14.7775     15.4350     15.5630   -999.2500
  1233.7500    146.1502     14.7912     15.2770     14.0645   -999.2500
  1234.0000    146.0743     14.7176     15.1353     13.6687   -999.2500
  1234.2500    145.7290     14.6549     15.4215     14.4227   -999.2500
  1234.5000    145.4410     14.4330     15.5273     14.9833   -999.2500
  1234.7500    145.1247     14.0710     15.8892     15.5934   -999.2500
  1235.0000    144.8062     13.9283     15.8727     17.4180   -999.2500
  1235.2500    144.4427     13.6016     15.9461     21.4736   -999.2500
  1235.5000    144.0740     13.4734     15.8242     26.7547   -999.2500
  1235.7500    143.8982     13.4966     15.3894     25.5842   -999.2500
  1236.0000    143.8550     13.5311     14.8531     18.9039   -999.2500
  1236.2500    143.8783     13.8773     14.5685     15.5265   -999.2500
  1236.5000    143.9029     14.0718     14.3282     14.6269   -999.2500
  1236.7500    143.8929     14.4486     14.6460     14.7287   -999.2500
  1237.0000    143.9544     14.6672     15.0582     14.5574   -999.2500
  1237.2500    144.1438     15.0862     15.4695     15.4669   -999.2500
  1237.5000    144.4174     15.2154     16.4291     17.8227   -999.2500
  1237.7500    144.7184     15.4895     16.9390     21.9591   -999.2500
  1238.0000    145.0371     15.4944     17.6295     25.0348   -999.2500
  1238.2500    145.2689     15.3058     17.6850     22.8762   -999.2500
  1238.5000    145.5157     15.1713     17.9717     22.3488   -999.2500
  1238.7500    145.6701     15.2658     18.1486     24.7069   -999.2500
  1239.0000    145.6585     15.5556     18.2738     26.7727   -999.2500
  1239.2500    145.6045     15.5275     17.7979     24.9396   -999.2500
  1239.5000    145.4990     15.7355     18.0151     19.9143   -999.2500
  1239.7500    145.4109     16.1329     17.9251     19.1414   -999.2500
  1240.0000    145.3322     16.1202     17.7740     19.7174   -999.2500
  1240.2500    145.2664     16.1314     17.6607     18.6880   -999.2500
  1240.5000    145.2139     16.2188     17.7361     17.7732   -999.2500
  1240.7500    145.1073     16.3281     17.5214     18.7674   -999.2500
  1241.0000    144.9784     16.2521     17.1287     18.6481   -999.2500
  1241.2500    144.9477     16.2981     16.9545     16.3391   -999.2500
  1241.5000    144.9312     16.2103     17.1742     15.9087   -999.2500
  1241.7500    144.8507     16.3409     17.1330     17.4810   -999.2500
  1242.0000    144.7781     16.4143     17.7272     18.1977   -999.2500
  1242.2500    144.7299     16.3224     17.7605     19.1219   -999.2500
  1242.5000    144.7084     16.4666     18.1720     20.5144   -999.2500
  1242.7500    144.6972     16.2963     18.6490     21.6034   -999.2500
  1243.0000    144.7284     16.6065     18.9911     22.8645   -999.2500
  1243.2500    144.6724     16.4476     19.0882     23.7652   -999.2500
  1243.5000    144.4823     16.5405     19.1065     25.2815   -999.2500
  1243.7500    144.3171     16.4214     19.0641     25.1563   -999.2500
  1244.0000    144.1562     16.5828     18.6754     23.0513   -999.2500
  1244.2500    144.0311     16.4010     18.1991     20.6493   -999.2500
  1244.5000    144.0037     16.5120     18.2593     19.2827   -999.2500
  1244.7500    144.0191     16.4212     18.1439     19.0191   -999.2500
  1245.0000    144.0878     16.7891     17.6050     18.8604   -999.2500
  1245.2500    144.1741     16.7827     17.5550     17.9883   -999.2500
  1245.5000    144.2502     16.5008     17.2968     17.2148   -999.2500
  1245.7500    144.4185     16.6832     16.9888     16.8633   -999.2500
  1246.0000    144.6683     16.8169     17.3335     16.7356   -999.2500
  1246.2500    144.9464     16.5874     17.5251     16.4525   -999.2500
  1246.5000    145.2278     16.4677     17.8001     17.5060   -999.2500
  1246.7500    145.5212     16.4576     18.0326     18.8952   -999.2500
  1247.0000    145.8726     16.5378     18.2978     20.7069   -999.2500
  1247.2500    146.2504     16.3737     18.5830     21.4244   -999.2500
  1247.5000    146.5219     16.6090     18.2578     21.3163   -999.2500
  1247.7500    146.7206     16.5776     18.2803     21.0329   -999.2500
  1248.0000    146.7606     16.8745     18.7281     20.7201   -999.2500
  1248.2500    146.7482     16.9719     18.7896     20.8214   -999.2500
  1248.5000    146.7310     17.3369     18.7946     20.9789   -999.2500
  1248.7500    146.6307     17.5996     18.8094     20.3485   -999.2500
  1249.0000    146.4256     17.7773     18.9505     19.8145   -999.2500
  1249.2500    146.1812     17.9561     19.1394     19.9872   -999.2500
  1249.5000    145.9415     18.1461     19.4953     20.1240   -999.2500
  1249.7500    145.6657     18.1330     19.5336     20.1476   -999.2500
  1250.0000    145.4245     18.1898     20.0813     20.6037   -999.2500
  1250.2500    145.2112     18.4969     20.5900     21.7205   -999.2500
  1250.5000    145.0683     18.5031     20.5126     23.0244   -999.2500
  1250.7500    144.9868     18.6661     20.7032     24.2610   -999.2500
  1251.0000    145.0007     18.8147     21.1977     25.0718   -999.2500
  1251.2500    145.1566     18.9812     21.1293     25.1142   -999.2500
  1251.5000    145.3519     19.0577     21.3183     24.4112   -999.2500
  1251.7500    145.5742     19.4577     21.6165     23.6921   -999.2500
