~Version Information
VERS.                      2.0: CWLS Log ASCII Standard - VERSION 2.0
WRAP.                       NO: One line per depth step
~Well Information Block
STRT.FT               275.0000: 
STOP.FT               811.2000: 
STEP.FT                 0.1000: 
NULL.                -999.2500: 
COMP.          Pioneer Natural Resources: COMPANY
WELL.          Barrelman 41-27: WELL
FLD.           Purgatoire River: FIELD
LOC.           371' FNL & 493' FEL--: LOCATION
PROV.                 Colorado: PROVINCE
CNTY.               Las Animas: COUNTRY
SRVC.                Patterson: SERVICE COMPANY
DATE.          Fri May 20 11:50:01 2005: LOG DATE
UWI.           05 071 08334 00: UNIQUE WELL ID
~Curve Information Block
DEPT.FT            0 000 00 00: Depth
DCAL.in                       : CDL Caliper
RHOB.g/cc                     : CDL Bulk Density
RHOC.g/cc                     : CDL Density Correction
DPOR.pu                       : CDL Density Porosity
NPOR.pu                       : Neutron Porosity
GR.GAPI                       : Gamma Ray
~Parameter Information Block
~A  Depth       DCAL        RHOB        RHOC        DPOR        NPOR         GR     
# ...
   515.0000      8.0479      2.4364      0.0439     12.9463     18.7890    147.3736
   515.1000      8.0479      2.4608      0.0677     11.4662     19.3398    138.5610
   515.2000      8.0479      2.4881      0.1198      9.8123     19.7051    136.4238
   515.3000      8.0494      2.4973      0.0734      9.2563     19.7233    138.6005
   515.4000      8.0494      2.4964      0.0915      9.3063     19.4001    144.3211
   515.5000      8.0495      2.5003      0.1021      9.0711     18.9616    150.9905
   515.6000      8.0495      2.5108      0.0670      8.4370     18.8500    152.3859
   515.7000      8.0495      2.5229      0.1121      7.7057     19.1199    149.6102
   515.8000      8.0500      2.5286      0.0940      7.3604     19.2104    148.7716
   515.9000      8.0500      2.5284      0.0947      7.3684     19.0861    150.5064
   516.0000      8.0517      2.5259      0.0985      7.5203     19.1118    151.7810
   516.1000      8.0517      2.5199      0.0765      7.8874     19.0001    149.9267
   516.2000      8.0517      2.5115      0.0687      8.3932     18.5960    147.4028
   516.3000      8.0513      2.4996      0.1027      9.1155     18.1179    147.9803
   516.4000      8.0513      2.4815      0.0674     10.2094     17.7638    148.6303
   516.5000      8.0523      2.4708      0.0405     10.8598     17.7862    144.1094
   516.6000      8.0523      2.4809      0.0698     10.2503     18.0020    138.3724
   516.7000      8.0523      2.4973      0.1008      9.2521     18.1268    139.2838
   516.8000      8.0565      2.4941      0.0886      9.4484     18.3928    143.9689
   516.9000      8.0565      2.4718      0.0317     10.7989     19.0420    142.9372
   517.0000      8.0581      2.4548      0.0580     11.8284     19.7817    137.3275
   517.1000      8.0581      2.4562      0.0211     11.7444     20.0572    136.3662
   517.2000      8.0581      2.4703      0.0689     10.8921     19.7793    142.2528
   517.3000      8.0568      2.4820      0.0662     10.1846     19.4097    146.9764
   517.4000      8.0568      2.4798      0.0813     10.3145     19.1992    142.9754
   517.5000      8.0574      2.4651      0.0628     11.2061     19.0302    133.5843
   517.6000      8.0574      2.4497      0.0253     12.1401     18.8836    127.6720
   517.7000      8.0574      2.4404      0.0567     12.7040     18.7696    129.3751
   517.8000      8.0597      2.4275      0.0731     13.4871     18.5786    135.1070
   517.9000      8.0597      2.4095     -0.0021     14.5736     18.3317    136.2957
   518.0000      8.0602      2.4041      0.0170     14.9040     17.9927    130.5790
   518.1000      8.0602      2.4099      0.0703     14.5495     17.5535    125.2728
   518.2000      8.0602      2.4057      0.0719     14.8057     17.1186    125.8447
   518.3000      8.0588      2.3825      0.0666     16.2116     16.5642    129.1904
   518.4000      8.0588      2.3530      0.0177     18.0027     16.0363    130.1136
   518.5000      8.0567      2.3361      0.0436     19.0250     15.8698    131.5464
   518.6000      8.0567      2.3315      0.0727     19.3034     15.9138    133.5431
   518.7000      8.0567      2.3294      0.0313     19.4301     15.9075    129.3752
   518.8000      8.0553      2.3339      0.0518     19.1590     15.8967    123.0844
   518.9000      8.0553      2.3473      0.0696     18.3426     15.8708    124.3798
   519.0000      8.0548      2.3617      0.0650     17.4706     15.7108    132.2785
   519.1000      8.0548      2.3724      0.0756     16.8257     15.4443    138.8638
   519.2000      8.0548      2.3821      0.0444     16.2346     15.1781    140.5559
   519.3000      8.0559      2.3932      0.0736     15.5654     15.0391    139.7541
   519.4000      8.0559      2.4095      0.0569     14.5744     14.9758    137.3986
   519.5000      8.0570      2.4387      0.0852     12.8073     14.8265    135.6033
   519.6000      8.0570      2.4664      0.1426     11.1250     14.7969    136.9637
   519.7000      8.0570      2.4653      0.1352     11.1940     14.9088    136.1898
   519.8000      8.0571      2.4385      0.0472     12.8184     15.0583    131.4214
   519.9000      8.0571      2.4204      0.0468     13.9123     15.4013    129.8889
   520.0000      8.0578      2.4277      0.0657     13.4717     15.7547    131.7428
   520.1000      8.0578      2.4392      0.0643     12.7781     15.7849    131.8444
   520.2000      8.0578      2.4350      0.0374     13.0321     15.7043    134.0560
   520.3000      8.0572      2.4235      0.0415     13.7277     15.8614    144.4069
   520.4000      8.0572      2.4091      0.0782     14.6022     15.9344    156.7261
   520.5000      8.0563      2.3812      0.0469     16.2928     15.5803    164.8766
   520.6000      8.0563      2.3514     -0.0026     18.0959     15.0524    169.4426
   520.7000      8.0563      2.3438      0.0517     18.5547     14.6252    164.9717
   520.8000      8.0579      2.3624      0.0875     17.4283     14.5572    152.4283
   520.9000      8.0579      2.3913      0.1231     15.6774     15.0162    146.3866
   521.0000      8.0595      2.4094      0.1376     14.5797     15.4873    151.8314
   521.1000      8.0595      2.4119      0.0976     14.4331     15.3212    155.6163
   521.2000      8.0595      2.4149      0.0859     14.2478     14.7110    146.8254
   521.3000      8.0596      2.4331      0.0971     13.1428     14.1939    132.7433
   521.4000      8.0596      2.4613      0.1118     11.4385     14.0475    127.3315
   521.5000      8.0578      2.4842      0.1260     10.0493     14.2837    132.4799
   521.6000      8.0578      2.4977      0.1109      9.2315     14.7796    137.0433
   521.7000      8.0578      2.5050      0.1144      8.7853     15.3996    134.1264
   521.8000      8.0493      2.5042      0.0983      8.8372     15.7259    129.2865
   521.9000      8.0493      2.5001      0.0623      9.0830     15.6633    128.5182
   522.0000      8.0320      2.5040      0.0838      8.8469     15.5694    130.2504
   522.1000      8.0320      2.5146      0.0983      8.2070     15.4717    132.5180
   522.2000      8.0320      2.5213      0.1093      7.8017     15.3517    135.4310
   522.3000      8.0155      2.5163      0.0929      8.1061     15.4173    137.6604
   522.4000      8.0155      2.4983      0.0825      9.1935     15.7056    137.6857
   522.5000      8.0057      2.4772      0.0201     10.4752     16.0491    137.3165
   522.6000      8.0057      2.4679      0.0155     11.0390     16.2536    139.1256
   522.7000      8.0057      2.4733      0.0360     10.7062     16.4077    139.6185
   522.8000      7.9995      2.4825      0.0279     10.1533     16.5746    135.0218
   522.9000      7.9995      2.4841      0.0452     10.0530     16.4467    131.3669
   523.0000      7.9943      2.4807      0.0187     10.2588     15.9950    134.8377
   523.1000      7.9943      2.4792      0.0738     10.3542     15.6161    141.5955
   523.2000      7.9943      2.4788      0.0681     10.3782     15.7682    146.3686
   523.3000      7.9922      2.4794      0.0847     10.3374     16.6145    147.4360
   523.4000      7.9922      2.4843      0.0847     10.0400     17.8294    148.1889
   523.5000      7.9960      2.4932      0.0743      9.5047     18.6273    152.9523
   523.6000      7.9960      2.5030      0.0664      8.9068     18.7439    154.8330
   523.7000      7.9960      2.5079      0.0641      8.6140     18.7892    147.6050
   523.8000      8.0014      2.5015      0.0803      9.0006     18.9075    140.2289
   523.9000      8.0014      2.4839      0.0718     10.0674     18.8334    139.5577
   524.0000      7.9994      2.4604      0.0683     11.4910     18.6276    142.0141
   524.1000      7.9994      2.4441      0.0354     12.4798     18.4343    142.9775
   524.2000      7.9994      2.4526      0.0682     11.9621     18.0594    142.0729
   524.3000      7.9908      2.4887      0.0988      9.7754     17.1982    141.0921
   524.4000      7.9908      2.5341      0.1615      7.0269     16.1962    142.2168
   524.5000      7.9848      2.5676      0.1386      4.9938     15.5721    144.0218
