~Version Information
 VERS.                      2.0: CWLS Log ASCII Standard - VERSION 2.0
 WRAP.                       NO: One line per depth step
 ~Well Information Block
 STRT.FT               762.3000: 
 STOP.FT              2573.7000: 
 STEP.FT                 0.1000: 
 NULL.                -999.2500: 
 COMP.          Petrogulf Corporation: COMPANY
 WELL.               J&P 12-33V: WELL
 FLD.           Purgatorie River: FIELD
 LOC.           2005' FSL & 1928' FEL: LOCATION
 CNTY.               Las Animas: COUNTY
 SRVC.                         : SERVICE COMPANY
 DATE.          Sat Aug 28 11:34:36 2004: LOG DATE
 UWI.           05 071 08092 00: UNIQUE WELL ID
 STAT.                 Colorado: STATE
 PROV.                         :Province
 ~Curve Information Block
 DEPT.FT            0 000 00 00: Depth
 GR.GAPI                       : Gamma Ray
 DCAL.in                       : CDL Caliper
 DPOR.pu                       : CDL Density Porosity
 NPOR.pu                       : Neutron Porosity
 RHOB.g/cc                     : CDL Bulk Density
 RHOC.g/cc                     : CDL Density Correction
 ~Parameter Information Block
 ~A  Depth        GR         DCAL        DPOR        NPOR        RHOB        RHOC    
# ...
  1856.7000     26.5152      7.9003      5.8394     17.1606      2.5537      0.0332
  1856.8000     25.3343      7.9131      6.3582     16.2665      2.5451      0.0089
  1856.9000     24.6578      7.9131      6.9957     15.1881      2.5346     -0.0289
  1857.0000     24.0046      7.9103      7.4386     14.4385      2.5273     -0.0298
  1857.1000     24.9369      7.9103      7.1018     13.9617      2.5328     -0.0030
  1857.2000     28.1557      7.9103      5.9385     13.2627      2.5520      0.0076
  1857.3000     32.1092      7.9096      4.7073     12.3976      2.5723      0.0594
  1857.4000     33.2509      7.9096      4.5105     11.8842      2.5756      0.0750
  1857.5000     30.5359      7.8925      5.4831     11.8823      2.5595      0.0597
  1857.6000     27.2483      7.8925      6.6231     12.0060      2.5407      0.0331
  1857.7000     27.0903      7.8925      7.6230     12.0239      2.5242      0.0769
  1857.8000     31.1815      7.8401      8.9322     12.0659      2.5026      0.0378
  1857.9000     36.1903      7.8401      9.8731     12.2600      2.4871      0.0402
  1858.0000     36.3633      7.8195      9.2938     12.8746      2.4967      0.0195
  1858.1000     32.4846      7.8195      7.6082     13.7257      2.5245      0.0907
  1858.2000     30.0783      7.8195      6.4983     13.9947      2.5428      0.0858
  1858.3000     29.6628      7.8335      6.7041     13.4702      2.5394      0.0549
  1858.4000     29.8429      7.8335      7.4949     12.7949      2.5263      0.0283
  1858.5000     31.5973      7.8349      8.0674     12.7055      2.5169      0.0399
  1858.6000     34.3671      7.8349      8.3509     13.2873      2.5122      0.0494
  1858.7000     35.8478      7.8349      8.7557     13.9580      2.5055      0.0626
  1858.8000     35.0080      7.8318      9.5075     14.1116      2.4931      0.0777
  1858.9000     33.4242      7.8318     10.1285     13.4026      2.4829      0.0381
  1859.0000     33.2993      7.8318     10.1660     11.9785      2.4823      0.0665
  1859.1000     36.0535      7.8318      9.8714     10.6810      2.4871      0.0429
  1859.2000     42.1327      7.8318      9.5031     10.2200      2.4932      0.0610
  1859.3000     50.3561      7.8418      9.3035     10.3778      2.4965      0.0475
  1859.4000     60.2804      7.8418      9.4791     10.5690      2.4936      0.0590
  1859.5000     70.6455      7.8557      9.8827     10.5873      2.4869      0.0368
  1859.6000     75.9911      7.8557     10.1871     10.7418      2.4819      0.0375
  1859.7000     74.7060      7.8557     10.3718     11.3162      2.4789      0.0364
  1859.8000     75.3495      7.8637     10.8967     11.8569      2.4702      0.0657
  1859.9000     83.0108      7.8637     11.8293     12.0646      2.4548     -0.0020
  1860.0000     93.9194      7.8579     12.3764     12.4083      2.4458     -0.0127
  1860.1000    103.4501      7.8579     12.3388     13.1062      2.4464      0.0550
  1860.2000    107.8716      7.8579     12.3706     13.7669      2.4459      0.0673
  1860.3000    107.8488      7.8359     12.6019     14.4639      2.4421      0.0496
  1860.4000    105.9868      7.8359     12.6356     16.0662      2.4415      0.0329
  1860.5000    102.5000      7.8042     12.4731     18.4977      2.4442      0.0392
  1860.6000     98.8355      7.8042     12.8177     20.3216      2.4385      0.0922
  1860.7000     99.1434      7.8042     14.1208     21.5473      2.4170      0.0675
  1860.8000    104.1275      7.8256     15.8821     22.8417      2.3879      0.0252
  1860.9000    111.1670      7.8256     17.6946     23.7516      2.3580      0.0434
  1861.0000    117.2816      7.8322     20.0774     24.1651      2.3187      0.0321
  1861.1000    121.3833      7.8322     23.6666     24.8097      2.2595      0.0077
  1861.2000    126.0032      7.8322     28.2636     26.0405      2.1837      0.0166
  1861.3000    131.5111      7.8395     32.9871     27.2696      2.1057      0.0111
  1861.4000    135.9590      7.8395     36.9518     27.8087      2.0403     -0.0306
  1861.5000    138.1741      7.8588     39.6145     28.0267      1.9964     -0.0507
  1861.6000    135.1716      7.8588     40.5332     28.8242      1.9812     -0.0343
  1861.7000    128.5504      7.8588     39.2760     29.8977      2.0019     -0.0092
  1861.8000    125.0469      7.8707     36.3165     30.2693      2.0508      0.0914
  1861.9000    125.7257      7.8707     32.7696     29.9473      2.1093      0.1566
  1862.0000    125.7935      7.9084     29.0107     29.6447      2.1713      0.2114
  1862.1000    123.2840      7.9084     25.0841     29.6134      2.2361      0.2239
  1862.2000    121.3545      7.9084     21.5552     29.4027      2.2943      0.1946
  1862.3000    123.3030      7.9306     18.9182     28.5496      2.3378      0.1472
  1862.4000    127.6822      7.9306     16.8084     27.6659      2.3727      0.1094
  1862.5000    129.5806      7.8951     14.8825     27.3038      2.4044      0.0994
  1862.6000    129.1745      7.8951     13.4780     26.8355      2.4276      0.0904
  1862.7000    130.1285      7.8951     12.3787     26.4364      2.4458      0.0627
  1862.8000    132.2437      7.8907     10.7113     26.8255      2.4733      0.0590
  1862.9000    134.6005      7.8907      8.3171     27.2223      2.5128      0.1127
  1863.0000    136.9866      7.8887      5.6446     26.7098      2.5569      0.0981
  1863.1000    134.4311      7.8887      3.3938     25.7729      2.5940      0.1708
  1863.2000    124.3272      7.8887      2.7796     24.9325      2.6041      0.1521
  1863.3000    116.9412      7.8892      3.9366     24.2160      2.5850      0.1040
  1863.4000    119.2133      7.8892      5.7203     23.9247      2.5556      0.1285
  1863.5000    123.4736      7.8871      7.3614     24.2560      2.5285      0.1004
  1863.6000    124.1844      7.8871      8.4816     24.4699      2.5101      0.0661
  1863.7000    126.0244      7.8871      8.7719     24.0973      2.5053      0.0511
  1863.8000    129.7926      7.8867      8.5588     23.8771      2.5088      0.0950
  1863.9000    126.3133      7.8867      8.6298     24.2288      2.5076      0.0371
  1864.0000    116.8955      7.8889      9.1143     24.6526      2.4996      0.0155
  1864.1000    113.7469      7.8889      9.5791     24.7142      2.4919      0.0181
  1864.2000    119.9274      7.8889      9.7143     24.5822      2.4897      0.0300
  1864.3000    128.5225      7.8937      9.6280     24.7898      2.4911      0.0376
  1864.4000    134.0175      7.8937      9.6524     25.3638      2.4907      0.0124
  1864.5000    139.7464      7.9058      9.7750     25.8805      2.4887      0.0318
  1864.6000    147.8636      7.9058     10.0434     26.0259      2.4843      0.0228
  1864.7000    151.8591      7.9058     10.7532     25.6885      2.4726      0.0211
  1864.8000    152.7834      7.9075     11.3135     25.1090      2.4633     -0.0265
  1864.9000    157.2022      7.9075     10.5898     24.6419      2.4753      0.0284
  1865.0000    158.3824      7.9140      8.7862     24.3641      2.5050      0.0087
  1865.1000    149.9954      7.9140      7.2680     24.4124      2.5301      0.0424
  1865.2000    143.5444      7.9140      7.0626     24.6609      2.5335      0.0675
  1865.3000    142.6604      7.9206      8.0479     24.6920      2.5172      0.0441
  1865.4000    135.5946      7.9206      9.2571     24.5206      2.4973      0.0357
  1865.5000    122.9342      7.9233     10.1706     24.1707      2.4822      0.0102
  1865.6000    117.4711      7.9233     11.1068     23.6280      2.4667      0.0362
  1865.7000    122.1703      7.9233     12.5634     23.7437      2.4427      0.0317
  1865.8000    130.3965      7.9255     14.2745     24.8958      2.4145     -0.0061
  1865.9000    137.0607      7.9255     15.2339     26.2034      2.3986     -0.0266
  1866.0000    139.2605      7.9153     14.9739     27.0484      2.4029      0.0008
  1866.1000    135.7650      7.9153     13.9622     27.4323      2.4196      0.0380
  1866.2000    130.3334      7.9153     12.9771     27.6731      2.4359      0.0592
