~Version Information
VERS.                      2.0: CWLS Log ASCII Standard - VERSION 2.0
WRAP.                       NO: One line per depth step
~Well Information Block
STRT.FT                15.0000: 
STOP.FT              2556.5000: 
STEP.FT                 0.2500: 
NULL.                -999.2500: 
COMP.          Pioneer Natural Resources: COMPANY
WELL.              Quack 22-24: WELL
FLD.           Purgatoire River: FIELD
LOC.           2492' FNL & 2459' FWL: LOCATION
PROV.                 Colorado: PROVINCE
CNTY.               Las Animas: COUNTRY
SRVC.                Patterson: SERVICE COMPANY
DATE.          Tue Jul 26 07:02:30 2005: LOG DATE
UWI.           05 071 08402 00: UNIQUE WELL ID
~Curve Information Block
DEPT.FT            0 000 00 00: Depth
GR.GAPI                       : Gamma Ray
CCL.                          : Casing Collar Locator
TT3.usec                      : CBL 3' Travel Time
AMP3.mV                       : CBL 3' Amplitude
~Parameter Information Block
~A  Depth        GR         CCL         TT3         AMP3    
# ...
  1522.5000    138.0957      0.0000    672.8238      6.8515
  1522.7500    144.7216      0.0000    672.8235      6.9206
  1523.0000    151.4306      0.0000    670.5453      6.9948
  1523.2500    156.2719      0.0000    666.4540      7.0558
  1523.5000    157.6676      0.0000    662.1120      7.0905
  1523.7500    155.7806      0.0000    658.8860      7.0988
  1524.0000    152.7186      0.0000    657.2495      7.0935
  1524.2500    151.0426      0.0000    657.0537      7.0867
  1524.5000    151.7499      0.0000    657.9920      7.0790
  1524.7500    153.7067      0.0000    659.6143      7.0650
  1525.0000    155.0329      0.0000    661.1046      7.0486
  1525.2500    154.8133      0.0000    661.4927      7.0450
  1525.5000    153.4998      0.0000    660.3871      7.0645
  1525.7500    152.1790      0.0000    658.3187      7.0980
  1526.0000    151.7459      0.0000    656.1981      7.1228
  1526.2500    152.3130      0.0000    654.5206      7.1259
  1526.5000    152.9284      0.0000    653.3089      7.1162
  1526.7500    152.1501      0.0000    652.8464      7.1161
  1527.0000    149.3439      0.0000    654.1034      7.1471
  1527.2500    145.2519      0.0000    657.6819      7.2307
  1527.5000    141.0945      0.0000    662.3643      7.3952
  1527.7500    137.4968      0.0000    665.8964      7.6748
  1528.0000    134.5369      0.0000    667.4294      8.0862
  1528.2500    132.4449      0.0000    667.9656      8.5896
  1528.5000    131.7433      0.0000    668.6578      9.0782
  1528.7500    132.6850      0.0000    670.0648      9.4285
  1529.0000    134.8344      0.0000    672.3884      9.5781
  1529.2500    137.1357      0.0000    674.8043      9.5529
  1529.5000    138.1784      0.0000    675.1986      9.4296
  1529.7500    136.7957      0.0000    672.0984      9.2863
  1530.0000    133.0096      0.0000    666.5599      9.1790
  1530.2500    128.3343      0.0000    661.1791      9.1327
  1530.5000    124.9137      0.0000    657.7126      9.1312
  1530.7500    124.4769      0.0000    656.2021      9.1121
  1531.0000    127.8946      0.0000    655.7958      8.9907
  1531.2500    134.7641      0.0000    655.6946      8.7160
  1531.5000    142.9484      0.0000    655.4764      8.3196
  1531.7500    149.2491      0.0000    655.0516      7.9047
  1532.0000    151.4116      0.0000    654.5626      7.5761
  1532.2500    149.7267      0.0000    654.2691      7.3788
  1532.5000    146.7034      0.0000    654.4444      7.2982
  1532.7500    145.1046      0.0000    655.2895      7.3041
  1533.0000    145.9334      0.0000    657.0834      7.3808
  1533.2500    147.9943      0.0000    660.4448      7.5221
  1533.5000    149.1625      0.0000    665.9724      7.7119
  1533.7500    147.7945      0.0000    672.9702      7.9154
  1534.0000    143.3114      0.0000    678.8171      8.0894
  1534.2500    136.5536      0.0000    680.5893      8.2059
  1534.5000    129.8387      0.0000    677.6204      8.2652
  1534.7500    125.7643      0.0000    672.3681      8.2818
  1535.0000    125.3654      0.0000    668.8130      8.2627
  1535.2500    127.5375      0.0000    669.7225      8.2067
  1535.5000    130.1142      0.0000    674.6421      8.1220
  1535.7500    131.3308      0.0000    680.0936      8.0305
  1536.0000    130.7403      0.0000    681.8862      7.9556
  1536.2500    129.2788      0.0000    677.5807      7.9091
  1536.5000    128.4200      0.0000    667.2473      7.8870
  1536.7500    129.0362      0.0000    652.7649      7.8706
  1537.0000    131.0402      0.0000    636.8843      7.8354
  1537.2500    134.0443      0.0000    621.7990      7.7664
  1537.5000    137.9312      0.0000    607.1114      7.6680
  1537.7500    142.2127      0.0000    589.7431      7.5580
  1538.0000    145.0405      0.0000    567.8677      7.4544
  1538.2500    143.9493      0.0000    545.6862      7.3686
  1538.5000    138.2322      0.0000    533.2314      7.3071
  1538.7500    130.1064      0.0000    539.9890      7.2727
  1539.0000    123.0564      0.0000    567.4420      7.2636
  1539.2500    119.2611      0.0000    606.9109      7.2717
  1539.5000    118.5372      0.0000    644.5386      7.2852
  1539.7500    119.1188      0.0000    669.4762      7.2944
  1540.0000    119.1281      0.0000    679.0437      7.2949
  1540.2500    117.6259      0.0000    677.8847      7.2847
  1540.5000    114.7912      0.0000    673.3638      7.2637
  1540.7500    111.4093      0.0000    671.2665      7.2358
  1541.0000    108.2263      0.0000    673.5243      7.2085
  1541.2500    105.5757      0.0000    677.6738      7.1829
  1541.5000    103.3960      0.0000    678.4673      7.1426
  1541.7500    101.5467      0.0000    671.6320      7.0654
  1542.0000    100.1914      0.0000    657.2468      6.9513
  1542.2500     99.8643      0.0000    639.6769      6.8173
  1542.5000    100.9394      0.0000    624.3824      6.6561
  1542.7500    102.8747      0.0000    615.1598      6.4367
  1543.0000    104.2588      0.0000    614.1228      6.1730
  1543.2500    104.0010      0.0000    622.8124      5.9490
  1543.5000    102.5138      0.0000    641.4843      5.8408
  1543.7500    101.5360      0.0000    666.7808      5.8421
  1544.0000    102.6686      0.0000    691.6852      5.8889
  1544.2500    106.2046      0.9915    709.4008      5.9388
  1544.5000    111.3927      0.5273    717.5000      6.0273
  1544.7500    117.3577      0.0000    718.4608      6.2588
  1545.0000    123.3212      0.0000    716.7065      6.7298
  1545.2500    128.2985      0.0000    715.0071      7.4239
  1545.5000    131.3955      0.0000    713.3047      8.1866
  1545.7500    132.6460      0.0000    710.5078      8.8329
  1546.0000    133.2619      0.0000    706.5863      9.2730
  1546.2500    134.8175      0.0000    702.5114      9.5266
  1546.5000    138.1006      0.0000    699.0787      9.6528
  1546.7500    142.5697      0.0000    696.7905      9.7000
  1547.0000    146.7719      0.0000    696.6815      9.7016
  1547.2500    149.4512      0.0000    700.0856      9.6852
  1547.5000    150.6512      0.0000    706.9067      9.6715
  1547.7500    151.7633      0.0000    714.6406      9.6702
  1548.0000    154.0051      0.0000    719.9901      9.6821
  1548.2500    156.8489      0.0000    721.4908      9.7049
  1548.5000    158.5533      0.0000    720.3621      9.7360
  1548.7500    158.1565      0.0000    719.1697      9.7716
  1549.0000    156.1922      0.0000    719.5603      9.8070
  1549.2500    153.6276      0.0000    720.4246      9.8359
  1549.5000    151.1456      0.0000    718.2117      9.8495
  1549.7500    149.4496      0.0000    709.7031      9.8390
  1550.0000    149.1360      0.0000    694.8415      9.8022
  1550.2500    149.8746      0.0000    677.1433      9.7447
  1550.5000    150.3678      0.0000    661.5315      9.6718
  1550.7500    149.3711      0.0000    651.3448      9.5801
  1551.0000    146.4214      0.0000    646.8682      9.4618
  1551.2500    141.8088      0.0000    646.1933      9.3232
  1551.5000    136.3417      0.0000    647.0961      9.1923
  1551.7500    130.9096      0.0000    648.2280      9.1026
  1552.0000    125.8974      0.0000    649.1096      9.0676
  1552.2500    121.4608      0.0000    649.3315      9.0725
  1552.5000    118.5782      0.0000    647.8768      9.0862
  1552.7500    118.8985      0.0000    643.5172      9.0811
  1553.0000    122.7982      0.0000    636.1066      9.0439
  1553.2500    128.2045      0.0000    627.3774      8.9766
  1553.5000    132.1525      0.0000    620.2505      8.8891
  1553.7500    133.2897      0.0000    617.2260      8.7929
  1554.0000    132.4594      0.0000    619.0925      8.6980
  1554.2500    131.2540      0.0000    624.4752      8.6116
  1554.5000    130.6445      0.0000    630.3326      8.5370
  1554.7500    130.8933      0.0000    633.5527      8.4724
  1555.0000    132.0762      0.0000    632.8396      8.4127
  1555.2500    134.1644      0.0000    629.2303      8.3512
  1555.5000    136.5916      0.0000    624.8744      8.2835
  1555.7500    138.2088      0.0000    621.5670      8.2092
