~Version Information
VERS.                      2.0: CWLS Log ASCII Standard - VERSION 2.0
WRAP.                       NO: One line per depth step
~Well Information Block
STRT.FT               482.2000: 
STOP.FT              2349.0000: 
STEP.FT                 0.1000: 
NULL.                -999.2500: 
COMP.          Pioneer Natural Resources: COMPANY
WELL.          Hill Climb 22-2: WELL
FLD.           Purgatoire River: FIELD
LOC.           1820' FNL & 2193' FWL: LOCATION
PROV.                 Colorado: PROVINCE
CNTY.               Las Animas: COUNTRY
SRVC.                Patterson: SERVICE COMPANY
DATE.          Wed Oct 20 09:25:25 2004: LOG DATE
UWI.           05 071 08175 00: UNIQUE WELL ID
~Curve Information Block
DEPT.FT            0 000 00 00: Depth
DCAL.in                       : CDL Caliper
DPOR.pu                       : CDL Density Porosity
NPOR.pu                       : Neutron Porosity
RHOB.g/cc                     : CDL Bulk Density
RHOC.g/cc                     : CDL Density Correction
GR.GAPI                       : Gamma Ray
~Parameter Information Block
~A  Depth       DCAL        DPOR        NPOR        RHOB        RHOC         GR     
# ...
  1384.6000      9.4110     22.7848     29.1877      2.2741      0.0620    126.0326
  1384.7000      9.4110     24.1360     28.5589      2.2518      0.0708    121.3085
  1384.8000      9.0236     26.5289     28.0212      2.2123      0.0734    118.5848
  1384.9000      9.0236     29.5128     27.2249      2.1630      0.0417    117.1037
  1385.0000      8.7594     31.6519     26.1708      2.1277      0.0387    114.8443
  1385.1000      8.7594     31.6813     25.0652      2.1273      0.0673    112.2231
  1385.2000      8.7594     29.5304     23.8337      2.1627      0.0784    108.2714
  1385.3000      8.7615     25.7585     22.6083      2.2250      0.1083     99.9954
  1385.4000      8.7615     20.8445     21.7426      2.3061      0.1853     99.2951
  1385.5000      8.8712     15.8726     21.4467      2.3881      0.3129    115.4109
  1385.6000      8.8712     12.7515     21.7821      2.4396      0.3695    128.6456
  1385.7000      8.8712     12.2114     22.5407      2.4485      0.3196    124.5558
  1385.8000      9.0855     13.2008     23.3033      2.4322      0.2355    113.1216
  1385.9000      9.0855     14.3116     23.6825      2.4139      0.1507    102.5030
  1386.0000      9.1397     14.5950     23.8020      2.4092      0.0834     95.3315
  1386.1000      9.1397     14.3491     24.0490      2.4132      0.0951     95.6604
  1386.2000      9.1397     14.6103     24.7103      2.4089      0.0430    104.2458
  1386.3000      8.8558     15.0370     25.8788      2.4019     -0.0064    115.8751
  1386.4000      8.8558     14.3081     27.0078      2.4139     -0.0059    122.6073
  1386.5000      8.5409     12.7194     27.3970      2.4401      0.0265    117.8881
  1386.6000      8.5409     11.6157     27.1170      2.4583     -0.0079    107.5682
  1386.7000      8.5409     11.2769     26.7213      2.4639      0.0566    103.2538
  1386.8000      8.4294     11.5617     26.5409      2.4592      0.0521    107.3482
  1386.9000      8.4294     12.9051     26.8599      2.4371      0.0790    113.8716
  1387.0000      8.4888     16.0909     27.7949      2.3845      0.0640    116.3309
  1387.1000      8.4888     20.9439     28.8763      2.3044      0.0056    118.6946
  1387.2000      8.4888     26.1865     29.6300      2.2179     -0.0144    123.5133
  1387.3000      8.6058     30.7500     30.2686      2.1426     -0.0488    123.5205
  1387.4000      8.6058     34.2730     31.0118      2.0845     -0.0315    119.5954
  1387.5000      8.6445     37.0444     31.4563      2.0388     -0.0801    119.9436
  1387.6000      8.6445     39.3493     31.6683      2.0007     -0.0503    125.0991
  1387.7000      8.6445     40.5537     32.1286      1.9809     -0.0797    127.5992
  1387.8000      8.6424     39.7382     32.4688      1.9943      0.0106    124.3233
  1387.9000      8.6424     37.5349     32.1483      2.0307      0.1125    123.0377
  1388.0000      8.7651     35.0790     31.2274      2.0712      0.1595    124.0670
  1388.1000      8.7651     32.2880     30.1186      2.1172      0.2090    120.5043
  1388.2000      8.7651     29.3368     29.1540      2.1659      0.3039    109.8219
  1388.3000      8.9917     27.2052     28.3997      2.2011      0.2517    102.1747
  1388.4000      8.9917     26.3405     28.1188      2.2154      0.2299    108.5348
  1388.5000      8.9746     26.6772     28.3613      2.2098      0.2367    122.1590
  1388.6000      8.9746     27.6866     28.9172      2.1932      0.1442    135.2780
  1388.7000      8.9746     28.4590     29.6011      2.1804      0.1266    147.0100
  1388.8000      8.6029     28.9521     30.0959      2.1723      0.1328    155.6776
  1388.9000      8.6029     29.5541     30.1937      2.1624      0.1020    164.8370
  1389.0000      8.3082     30.3249     30.0553      2.1496      0.2002    176.2011
  1389.1000      8.3082     31.4055     29.8693      2.1318      0.1622    183.4844
  1389.2000      8.3082     32.6544     29.5341      2.1112      0.1620    180.3972
  1389.3000      8.1481     33.8428     29.3186      2.0916      0.1517    174.0847
  1389.4000      8.1481     34.6452     29.4866      2.0784      0.0774    172.6272
  1389.5000      7.9265     34.6894     29.7129      2.0776      0.0793    171.8114
  1389.6000      7.9265     33.9722     29.6435      2.0895      0.0629    169.5075
  1389.7000      7.9265     32.1414     29.2450      2.1197      0.0517    164.9971
  1389.8000      7.7130     29.0317     28.4934      2.1710      0.0813    155.9316
  1389.9000      7.7130     26.0372     27.3338      2.2204      0.1543    140.5149
  1390.0000      7.5149     24.5223     26.2672      2.2454      0.1668    122.4557
  1390.1000      7.5149     23.5993     25.8965      2.2606      0.0901    110.9425
  1390.2000      7.5149     21.8014     25.6616      2.2903      0.0936    104.5995
  1390.3000      7.3193     19.2920     25.0755      2.3317      0.0659     98.0476
  1390.4000      7.3193     16.9194     24.8113      2.3708      0.0733     97.1524
  1390.5000      7.1762     15.2351     25.1773      2.3986      0.1061    103.0992
  1390.6000      7.1762     14.2799     25.8717      2.4144      0.0535    101.0297
  1390.7000      7.1762     13.8838     26.4190      2.4209      0.0729     84.9012
  1390.8000      6.9645     14.1950     26.4547      2.4158      0.0361     70.2868
  1390.9000      6.9645     15.3673     26.5906      2.3964      0.0450     71.6310
  1391.0000      6.3436     18.0612     27.5045      2.3520      0.0504     82.1179
  1391.1000      6.3436     23.1186     28.8319      2.2685      0.0119     89.0435
  1391.2000      6.3436     30.2297     30.0719      2.1512     -0.0243     89.7236
  1391.3000      5.4123     38.0447     31.1975      2.0223     -0.0853     87.1361
  1391.4000      5.4123     45.0082     32.1794      1.9074     -0.1066     87.2631
  1391.5000      4.8889     49.9815     32.5947      1.8253     -0.1198     91.6759
  1391.6000      4.8889     52.4161     32.0640      1.7851     -0.0728     93.7367
  1391.7000      4.8889     52.4974     31.1727      1.7838     -0.0767     87.7477
  1391.8000      4.8713     50.9902     30.7587      1.8087     -0.0125     82.6419
  1391.9000      4.8713     48.9453     30.8825      1.8424      0.0959     88.9373
  1392.0000      5.0408     46.9597     30.9816      1.8752      0.1460     98.7184
  1392.1000      5.0408     44.9630     30.6865      1.9081      0.2101    100.0635
  1392.2000      5.0408     42.6135     30.2176      1.9469      0.1671     96.7664
  1392.3000      5.2597     39.2945     29.8252      2.0016      0.1431     98.1825
  1392.4000      5.2597     35.2106     29.4618      2.0690      0.1477    107.3498
  1392.5000      5.5506     31.4366     28.7921      2.1313      0.1239    112.8491
  1392.6000      5.5506     27.7908     27.6818      2.1915      0.1299    103.9647
  1392.7000      5.5506     22.8935     26.2087      2.2723      0.1295     93.9913
  1392.8000      5.9629     17.0455     24.5597      2.3687      0.2180     93.5911
  1392.9000      5.9629     12.5949     23.2409      2.4422      0.2263     95.3443
  1393.0000      6.3888     10.6271     22.1414      2.4747      0.1701     93.8194
  1393.1000      6.3888     10.0458     20.6565      2.4842      0.1497     92.8949
  1393.2000      6.3888      9.8204     19.0633      2.4880      0.1184    100.3326
  1393.3000      6.7104      9.5600     18.0931      2.4923      0.0309    113.4236
  1393.4000      6.7104      9.0246     18.0686      2.5011      0.0436    118.0522
  1393.5000      6.8715      8.4313     18.5365      2.5109      0.0393    112.5416
  1393.6000      6.8715      7.8601     18.5981      2.5203     -0.0140    107.1437
  1393.7000      6.8715      7.1269     18.3359      2.5324      0.0387    104.0433
  1393.8000      6.9463      6.4617     18.4402      2.5434      0.0455    104.6831
  1393.9000      6.9463      5.6879     18.8379      2.5561      0.0177    108.5598
  1394.0000      7.0630      4.4058     19.2552      2.5773      0.0436    107.4377
  1394.1000      7.0630      3.4836     19.5975      2.5925      0.0792    101.2016
