~Version Information
VERS.                      2.0: CWLS Log ASCII Standard - VERSION 2.0
WRAP.                       NO: One line per depth step
~Well Information Block
STRT.FT               430.0000: 
STOP.FT              2826.2500: 
STEP.FT                 0.2500: 
NULL.                -999.2500: 
COMP.          Pioneer Natural Resources: COMPANY
WELL.           Ei-ei-oh 31-24: WELL
FLD.           Purgatoire River: FIELD
LOC.           235' FNL & 2001' FEL--: LOCATION
PROV.                 Colorado: PROVINCE
CNTY.               Las Animas: COUNTRY
SRVC.                Patterson: SERVICE COMPANY
DATE.          Thu Jun 16 06:46:37 2005: LOG DATE
UWI.           05 071 08403 00: UNIQUE WELL ID
~Curve Information Block
DEPT.FT            0 000 00 00: Depth
DIR.Ohm-m                     : IEL Induction Resistivity
SN.Ohm-m                      : IEL Short Normal
SP.mV                         : IEL Spontaneous Potential
GR.GAPI                       : Gamma Ray
~Parameter Information Block
~A  Depth       DIR          SN          SP          GR     
# ...
   899.0000     27.8323   2000.0000   2000.0000     67.4558
   899.2500     27.2128   2000.0000   2000.0000     67.9164
   899.5000     26.3329   2000.0000   2000.0000     71.4169
   899.7500     25.2687   2000.0000   2000.0000     75.9846
   900.0000     24.1392   2000.0000   2000.0000     85.9848
   900.2500     23.0670   2000.0000   2000.0000     94.0361
   900.5000     22.1441   2000.0000   2000.0000    106.3004
   900.7500     21.4186   2000.0000   2000.0000    113.4442
   901.0000     20.8976   2000.0000   2000.0000    121.0855
   901.2500     20.5621   2000.0000   2000.0000    123.6883
   901.5000     20.3857   2000.0000   2000.0000    124.0521
   901.7500     20.3527   2000.0000   2000.0000    122.5601
   902.0000     20.4664   2000.0000   2000.0000    119.1032
   902.2500     20.7477   2000.0000   2000.0000    116.5005
   902.5000     21.2261   2000.0000   2000.0000    112.1205
   902.7500     21.9305   2000.0000   2000.0000    108.5661
   903.0000     22.8786   2000.0000   2000.0000    101.9495
   903.2500     24.0674   2000.0000   2000.0000     96.7899
   903.5000     25.4636   2000.0000   2000.0000     88.4566
   903.7500     27.0020   2000.0000   2000.0000     82.8446
   904.0000     28.5949   2000.0000   2000.0000     74.9537
   904.2500     30.1519   2000.0000   2000.0000     70.5167
   904.5000     31.5996   2000.0000   2000.0000     65.8977
   904.7500     32.8899   2000.0000   2000.0000     64.3241
   905.0000     33.9955   2000.0000   2000.0000     63.6908
   905.2500     34.9034   2000.0000   2000.0000     63.8778
   905.5000     35.6193   2000.0000   2000.0000     64.3019
   905.7500     36.1794   2000.0000   2000.0000     64.4283
   906.0000     36.6498   2000.0000   2000.0000     64.1184
   906.2500     37.1009   2000.0000   2000.0000     63.4167
   906.5000     37.5673   2000.0000   2000.0000     61.4340
   906.7500     38.0217   2000.0000   2000.0000     59.5795
   907.0000     38.3847   2000.0000   2000.0000     56.5345
   907.2500     38.5678   2000.0000   2000.0000     54.7345
   907.5000     38.5204   2000.0000   2000.0000     52.9152
   907.7500     38.2466   2000.0000   2000.0000     52.4089
   908.0000     37.7858   2000.0000   2000.0000     52.6927
   908.2500     37.1758   2000.0000   2000.0000     53.6382
   908.5000     36.4308   2000.0000   2000.0000     56.6245
   908.7500     35.5481   2000.0000   2000.0000     59.9593
   909.0000     34.5329   2000.0000   2000.0000     67.1046
   909.2500     33.4197   2000.0000   2000.0000     73.0616
   909.5000     32.2700   2000.0000   2000.0000     83.0551
   909.7500     31.1526   2000.0000   2000.0000     89.9307
   910.0000     30.1238   2000.0000   2000.0000     99.6712
   910.2500     29.2193   2000.0000   2000.0000    105.2249
   910.5000     28.4613   2000.0000   2000.0000    111.2529
   910.7500     27.8698   2000.0000   2000.0000    113.4176
   911.0000     27.4684   2000.0000   2000.0000    113.9752
   911.2500     27.2757   2000.0000   2000.0000    112.9348
   911.5000     27.2892   2000.0000   2000.0000    109.9450
   911.7500     27.4773   2000.0000   2000.0000    107.1586
   912.0000     27.7905   2000.0000   2000.0000    101.8156
   912.2500     28.1885   2000.0000   2000.0000     97.6635
   912.5000     28.6602   2000.0000   2000.0000     91.3402
   912.7500     29.2165   2000.0000   2000.0000     87.5071
   913.0000     29.8612   2000.0000   2000.0000     82.5366
   913.2500     30.5624   2000.0000   2000.0000     79.6302
   913.5000     31.2509   2000.0000   2000.0000     75.8242
   913.7500     31.8470   2000.0000   2000.0000     73.7684
   914.0000     32.2979   2000.0000   2000.0000     71.5468
   914.2500     32.5990   2000.0000   2000.0000     70.5969
   914.5000     32.7850   2000.0000   2000.0000     69.7806
   914.7500     32.9039   2000.0000   2000.0000     69.5313
   915.0000     32.9946   2000.0000   2000.0000     69.3774
   915.2500     33.0827   2000.0000   2000.0000     69.2680
   915.5000     33.1874   2000.0000   2000.0000     68.9710
   915.7500     33.3246   2000.0000   2000.0000     68.7922
   916.0000     33.4964   2000.0000   2000.0000     68.8928
   916.2500     33.6784   2000.0000   2000.0000     69.2906
   916.5000     33.8264   2000.0000   2000.0000     70.2083
   916.7500     33.9104   2000.0000   2000.0000     70.9190
   917.0000     33.9481   2000.0000   2000.0000     72.1979
   917.2500     34.0036   2000.0000   2000.0000     73.2371
   917.5000     34.1483   2000.0000   2000.0000     74.6449
   917.7500     34.4201   2000.0000   2000.0000     74.9938
   918.0000     34.8101   2000.0000   2000.0000     74.2544
   918.2500     35.2763   2000.0000   2000.0000     73.2299
   918.5000     35.7612   2000.0000   2000.0000     71.6893
   918.7500     36.2028   2000.0000   2000.0000     70.7969
   919.0000     36.5400   2000.0000   2000.0000     69.4385
   919.2500     36.7261   2000.0000   2000.0000     68.4996
   919.5000     36.7444   2000.0000   2000.0000     67.3580
   919.7500     36.6140   2000.0000   2000.0000     66.9340
   920.0000     36.3744   2000.0000   2000.0000     66.7187
   920.2500     36.0586   2000.0000   2000.0000     66.6576
   920.5000     35.6706   2000.0000   2000.0000     66.4870
   920.7500     35.1772   2000.0000   2000.0000     66.4408
   921.0000     34.5163   2000.0000   2000.0000     66.8922
   921.2500     33.6172   2000.0000   2000.0000     67.6720
   921.5000     32.4326   2000.0000   2000.0000     69.5987
   921.7500     30.9667   2000.0000   2000.0000     71.5336
   922.0000     29.2829   2000.0000   2000.0000     75.9728
   922.2500     27.4835   2000.0000   2000.0000     80.2342
   922.5000     25.6752   2000.0000   2000.0000     88.5384
   922.7500     23.9409   2000.0000   2000.0000     95.0322
   923.0000     22.3291   2000.0000   2000.0000    105.5472
   923.2500     20.8592   2000.0000   2000.0000    112.8307
   923.5000     19.5358   2000.0000   2000.0000    123.8063
   923.7500     18.3632   2000.0000   2000.0000    130.5610
   924.0000     17.3503   2000.0000   2000.0000    137.9940
   924.2500     16.5074   2000.0000   2000.0000    140.2034
   924.5000     15.8392   2000.0000   2000.0000    139.3978
   924.7500     15.3421   2000.0000   2000.0000    137.1103
   925.0000     15.0048   2000.0000   2000.0000    133.3053
   925.2500     14.8110   2000.0000   2000.0000    131.4311
   925.5000     14.7414   2000.0000   2000.0000    129.7663
   925.7500     14.7747   2000.0000   2000.0000    128.7894
   926.0000     14.8900   2000.0000   2000.0000    126.2057
   926.2500     15.0708   2000.0000   2000.0000    123.4397
   926.5000     15.3079   2000.0000   2000.0000    118.3831
   926.7500     15.5985   2000.0000   2000.0000    115.1575
   927.0000     15.9428   2000.0000   2000.0000    111.5059
   927.2500     16.3413   2000.0000   2000.0000    109.9352
   927.5000     16.7942   2000.0000   2000.0000    108.3389
   927.7500     17.3021   2000.0000   2000.0000    107.4461
   928.0000     17.8659   2000.0000   2000.0000    106.1285
   928.2500     18.4856   2000.0000   2000.0000    105.1776
   928.5000     19.1626   2000.0000   2000.0000    103.2913
   928.7500     19.9023   2000.0000   2000.0000    101.6226
   929.0000     20.7143   2000.0000   2000.0000     99.0825
   929.2500     21.6083   2000.0000   2000.0000     97.9455
   929.5000     22.5841   2000.0000   2000.0000     97.3302
   929.7500     23.6221   2000.0000   2000.0000     97.0804
   930.0000     24.6834   2000.0000   2000.0000     95.5643
   930.2500     25.7227   2000.0000   2000.0000     93.4394
   930.5000     26.7083   2000.0000   2000.0000     89.2092
   930.7500     27.6311   2000.0000   2000.0000     86.4312
   931.0000     28.4930   2000.0000   2000.0000     83.2826
   931.2500     29.2872   2000.0000   2000.0000     82.0301
   931.5000     29.9965   2000.0000   2000.0000     81.2380
   931.7500     30.6128   2000.0000   2000.0000     81.1998
   932.0000     31.1591   2000.0000   2000.0000     81.3753
   932.2500     31.6853   2000.0000   2000.0000     81.3920
