~Version Information
VERS.                      2.0: CWLS Log ASCII Standard - VERSION 2.0
WRAP.                       NO: One line per depth step
~Well Information Block
STRT.FT                -1.5000: 
STOP.FT              1317.0000: 
STEP.FT                 0.2500: 
NULL.                -999.2500: 
COMP.          Pioneer Natural Resources: COMPANY
WELL.              Border 21-3: WELL
FLD.           Purgatoire River: FIELD
LOC.           865' FNL & 1415' FWL: LOCATION
PROV.                 Colorado: PROVINCE
CNTY.               Las Animas: COUNTRY
SRVC.                Patterson: SERVICE COMPANY
DATE.          Tue Dec 14 14:08:05 2004: LOG DATE
UWI.           05 071 08169 00: UNIQUE WELL ID
~Curve Information Block
DEPT.FT            0 000 00 00: Depth
GR.GAPI                       : Gamma Ray
CCL.                          : Casing Collar Locator
TT3.usec                      : CBL 3' Travel Time
AMP3.mV                       : CBL 3' Amplitude
~Parameter Information Block
~A  Depth        GR         CCL         TT3         AMP3    
# ...
    99.0000     63.5212      0.0000    777.0270      9.4318
    99.2500     64.2985      0.0000    777.1936      9.2688
    99.5000     68.3552      0.0000    776.3732      9.1200
    99.7500     74.1751      0.0000    776.6895      8.9989
   100.0000     80.0126      0.0000    778.5204      8.9173
   100.2500     84.8810      0.0000    780.1007      8.8810
   100.5000     88.7245      0.0000    779.2242      8.8841
   100.7500     91.9168      0.0000    775.1719      8.9096
   101.0000     94.5627      0.0000    769.1858      8.9366
   101.2500     96.0812      0.0000    763.3840      8.9482
   101.5000     95.7050      0.0000    759.2706      8.9377
   101.7500     93.6290      0.0000    757.1027      8.9109
   102.0000     91.2889      0.0000    756.3082      8.8834
   102.2500     90.0772      0.0000    756.1862      8.8691
   102.5000     89.9063      0.0000    756.2532      8.8714
   102.7500     89.2825      0.0000    756.2629      8.8833
   103.0000     86.7565      0.0000    756.1473      8.8965
   103.2500     82.3125      0.0000    755.9519      8.9072
   103.5000     77.7036      0.0000    755.7479      8.9134
   103.7500     75.5078      0.0000    755.5606      8.9120
   104.0000     77.3517      0.0000    755.3651      8.9017
   104.2500     82.6383      0.0000    755.1403      8.8872
   104.5000     89.0108      0.0000    754.9037      8.8733
   104.7500     93.9991      0.0000    754.6903      8.8568
   105.0000     96.2259      0.0000    754.5135      8.8313
   105.2500     95.6512      0.0000    754.3600      8.7970
   105.5000     93.4143      0.0000    754.2137      8.7605
   105.7500     91.2218      0.0000    754.0786      8.7224
   106.0000     90.1710      0.0000    753.9264      8.6726
   106.2500     90.0662      0.0000    753.6196      8.5998
   106.5000     90.0431      0.0000    753.0357      8.5124
   106.7500     89.5408      0.0000    752.8329      8.4505
   107.0000     88.4877      0.0000    755.8024      8.4562
   107.2500     86.9831      0.0000    767.0395      8.5118
   107.5000     85.1188      0.0000    790.5381      8.5317
   107.7500     82.9876      0.0000    823.8736      8.4508
   108.0000     80.8505      0.0000    857.4736      8.3022
   108.2500     79.2553      0.0000    881.0283      8.1733
   108.5000     78.7258     -2.0000    890.3442      8.1106
   108.7500     79.3676     -2.0000    887.7885      8.1020
   109.0000     80.9870      2.0000    878.4169      8.1342
   109.2500     83.3391      0.0000    867.1563      8.2368
   109.5000     85.9260      0.0000    857.8018      8.4666
   109.7500     87.7903      0.0000    851.8770      8.8308
   110.0000     88.0683      0.0000    847.7866      9.2177
   110.2500     86.8895      0.0000    842.1966      9.4421
   110.5000     85.4136      0.0000    832.9272      9.4109
   110.7500     84.9132      0.0000    820.1113      9.2136
   111.0000     85.9732      0.0000    804.9803      9.0146
   111.2500     88.3504      0.0000    789.0954      8.8986
   111.5000     91.1638      0.0000    774.6758      8.8518
   111.7500     93.3293      0.0000    763.9412      8.8409
   112.0000     94.1943      0.0000    757.6166      8.8591
   112.2500     93.7954      0.0000    754.7161      8.9107
   112.5000     92.5352      0.0000    753.7173      8.9864
   112.7500     90.9372      0.0000    753.5216      9.0620
   113.0000     89.6772      0.0000    753.5861      9.1130
   113.2500     89.1711      0.0000    753.6755      9.1285
   113.5000     88.8917      0.0000    753.6876      9.1132
   113.7500     87.7048      0.0000    753.5915      9.0801
   114.0000     85.2610      0.0000    753.4296      9.0365
   114.2500     82.6385      0.0000    753.2757      8.9763
   114.5000     81.3287      0.0000    753.1783      8.8898
   114.7500     82.0174      0.0000    753.1249      8.7799
   115.0000     84.6539      0.0000    753.0466      8.6633
   115.2500     89.0261      0.0000    752.8553      8.5552
   115.5000     94.4192      0.0000    752.5062      8.4589
   115.7500     99.0243      0.0000    752.0517      8.3740
   116.0000    100.7876      0.0000    751.6342      8.3099
   116.2500     99.2077      0.0000    751.4038      8.2878
   116.5000     95.7375      0.0000    751.4222      8.3257
   116.7500     92.2230      0.0000    751.6269      8.4234
   117.0000     89.4514      0.0000    751.8894      8.5632
   117.2500     87.2973      0.0000    752.1239      8.7225
   117.5000     85.6334      0.0000    752.3840      8.8818
   117.7500     84.5478      0.0000    752.9232      9.0289
   118.0000     83.8424      0.0000    754.2287      9.1641
   118.2500     82.9290      0.0000    756.9340      9.3020
   118.5000     81.5127      0.0000    761.4142      9.4594
   118.7500     80.0719      0.0000    767.0906      9.6413
   119.0000     79.3921      0.0000    772.1006      9.8345
   119.2500     79.7868      0.0000    774.1494     10.0089
   119.5000     80.9752      0.0000    772.2075     10.1300
   119.7500     82.5571      0.0000    767.4154     10.1803
   120.0000     84.3847      0.0000    762.1631     10.1726
   120.2500     86.4491      0.0000    758.3250     10.1328
   120.5000     88.5319      0.0000    756.3720     10.0688
   120.7500     90.1065      0.0000    755.7710      9.9686
   121.0000     90.7920      0.0000    755.7980      9.8287
   121.2500     90.9326      0.0000    755.9993      9.6694
   121.5000     91.5038      0.0000    756.1985      9.5162
   121.7500     93.2451      0.0000    756.3095      9.3810
   122.0000     95.8601      0.0000    756.2451      9.2649
   122.2500     98.0876      0.0000    755.9926      9.1695
   122.5000     98.5568      0.0000    755.6835      9.0965
   122.7500     96.7523      0.0000    755.4918      9.0450
   123.0000     93.4212      0.0000    755.4595      9.0125
   123.2500     90.0608      0.0000    755.4490      8.9935
   123.5000     87.7591      0.0000    755.2877      8.9752
   123.7500     86.4868      0.0000    754.9603      8.9425
   124.0000     85.6602      0.0000    754.6483      8.8932
   124.2500     85.1772      0.0000    754.5646      8.8410
   124.5000     85.4211      0.0000    754.7465      8.8013
   124.7500     86.3892      0.0000    755.0128      8.7792
   125.0000     87.4561      0.0000    755.1350      8.7751
   125.2500     87.9728      0.0000    755.0620      8.7884
   125.5000     87.6835      0.0000    754.9567      8.8150
   125.7500     86.6783      0.0000    755.0251      8.8485
   126.0000     85.2498      0.0000    755.3727      8.8867
   126.2500     83.6704      0.0000    756.0809      8.9341
   126.5000     81.9916      0.0000    757.3356      8.9959
   126.7500     80.1686      0.0000    759.2932      9.0718
   127.0000     78.3099      0.0000    761.8123      9.1511
   127.2500     76.7077      0.0000    764.5952      9.2139
   127.5000     75.7439      0.0000    767.7021      9.2420
   127.7500     75.7126      0.0000    771.5273      9.2311
   128.0000     76.4777      0.0000    776.0375      9.1953
   128.2500     77.4024      0.0000    780.4302      9.1585
   128.5000     77.9693      0.0000    783.8068      9.1392
   128.7500     78.5384      0.0000    785.8993      9.1399
   129.0000     80.1186      0.0000    787.0092      9.1532
   129.2500     83.0679      0.0000    787.5293      9.1762
   129.5000     86.1867      0.0000    787.6794      9.2132
   129.7500     87.4242      0.0000    787.5480      9.2631
   130.0000     85.4675      0.0000    787.2172      9.3132
   130.2500     80.6154      0.0000    786.8350      9.3508
   130.5000     74.4553      0.0000    786.5929      9.3785
   130.7500     68.9579      0.0000    786.6391      9.4128
   131.0000     65.6013      0.0000    787.0781      9.4675
   131.2500     64.8306      0.0000    788.1334      9.5431
   131.5000     66.0014      0.0000    790.3482      9.6325
   131.7500     67.8148      0.0000    794.4440      9.7304
   132.0000     69.2104      0.0000    800.5244      9.8343
   132.2500     70.0814      0.0000    807.3567      9.9382
