~Version Information
VERS.                      2.0: CWLS Log ASCII Standard - VERSION 2.0
WRAP.                       NO: One line per depth step
~Well Information Block
STRT.FT                -7.2500: 
STOP.FT               868.2500: 
STEP.FT                 0.2500: 
NULL.                -999.2500: 
COMP.          Pioneer Natural Resources: COMPANY
WELL.              Venom 32-22: WELL
FLD.           Purgatorie River: FIELD
LOC.           2307' FNL & 2024' FWL--: LOCATION
PROV.                       CO: PROVINCE
CNTY.               Las Animas: COUNTRY
SRVC.          Patterson Wireline: SERVICE COMPANY
DATE.          Mon May 16 15:26:38 2005: LOG DATE
UWI.           05 071 08361 00: UNIQUE WELL ID
~Curve Information Block
DEPT.FT            0 000 00 00: Depth
CCL.                          : Casing Collar Locator
TT3.usec                      : CBL 3' Travel Time
AMP3.mV                       : CBL 3' Amplitude
GR.GAPI                       : Gamma Ray
~Parameter Information Block
~A  Depth       CCL         TT3         AMP3         GR     
# ...
   830.2500      2.0000    811.5463      5.1306     81.8155
   830.5000     -2.0000    814.8781      5.1770     85.6934
   830.7500     -2.0000    814.2166      5.0738     90.5570
   831.0000      0.0000    808.8635      4.8944     94.5726
   831.2500      0.0000    799.0826      4.7801     96.2314
   831.5000      0.0000    787.7408      4.8612     95.2649
   831.7500      0.0000    779.7152      5.1666     92.7556
   832.0000      0.0000    778.1381      5.5929     90.4894
   832.2500      0.0000    781.8024      5.9779     90.1137
   832.5000      0.0000    787.0246      6.2090     92.4403
   832.7500      0.0000    791.2964      6.2557     96.8883
   833.0000      0.0000    794.5652      6.1400    101.5210
   833.2500      0.0000    797.8256      5.9207    104.2660
   833.5000      0.0000    801.4044      5.6712    104.5768
   833.7500      0.0000    804.6401      5.4312    103.7804
   834.0000      0.0000    806.7239      5.2059    103.5654
   834.2500      0.0000    807.3067      5.0119    104.1640
   834.5000      0.0000    806.3847      4.8779    104.2458
   834.7500      0.0000    804.2250      4.8127    102.5946
   835.0000      0.0000    801.5247      4.8203     99.5711
   835.2500      0.0000    799.1166      4.9151     96.6655
   835.5000      0.0000    797.3816      5.0696     94.8925
   835.7500      0.0000    796.1526      5.1936     94.1071
   836.0000      0.0000    795.1277      5.2278     93.7321
   836.2500      0.0000    794.2111      5.2291     93.4936
   836.5000      0.0000    793.4976      5.2981     93.2280
   836.7500      0.0000    793.0848      5.4378     92.4082
   837.0000      0.0000    792.9662      5.5443     90.4514
   837.2500      0.0000    793.0714      5.5452     87.6217
   837.5000      0.0000    793.3411      5.4936     85.1851
   837.7500      0.0000    793.7272      5.4990     84.3093
   838.0000      0.0000    794.1580      5.5929     84.9843
   838.2500      0.0000    794.5710      5.7049     86.2300
   838.5000      0.0000    795.0555      5.7624     87.2432
   838.7500      0.0000    796.0226      5.7662     88.0891
   839.0000      0.0000    798.1591      5.7451     89.4017
   839.2500      0.0000    801.8644      5.6753     91.7504
   839.5000      0.0000    806.3772      5.5045     95.2140
   839.7500      0.0000    809.6941      5.2608     99.1220
   840.0000      0.0000    810.0791      5.0806    102.2094
   840.2500      0.0000    807.9341      5.0809    103.3922
   840.5000      0.0000    805.7850      5.2198    102.5309
   840.7500      0.0000    806.1386      5.3245    100.4304
   841.0000      0.0000    809.4205      5.2682     98.3664
   841.2500      0.0000    813.9473      5.0883     97.7312
   841.5000      0.0000    817.5726      4.9092     99.7120
   841.7500      0.0000    819.0576      4.7740    104.6389
   842.0000      0.0000    818.1410      4.6085    111.3965
   842.2500      0.0000    815.3871      4.3565    117.6919
   842.5000      0.0000    812.5242      4.0988    121.3052
   842.7500      0.0000    811.9269      3.9928    121.5286
   843.0000      0.0000    814.5975      4.1076    119.6712
   843.2500      0.0000    818.7300      4.3602    118.1196
   843.5000      0.0000    820.9210      4.6254    118.5955
   843.7500      0.0000    818.8417      4.8775    120.8544
   844.0000      0.0000    812.5925      5.1809    122.9110
   844.2500      0.0000    804.0582      5.5512    122.7839
   844.5000      0.0000    795.9529      5.8946    120.2422
   844.7500      0.0000    791.3259      6.1209    116.8638
   845.0000      0.0000    792.4913      6.2541    114.4436
   845.2500      0.0000    799.5128      6.3724    113.3411
   845.5000      0.0000    809.9951      6.4780    112.4168
   845.7500      0.0000    820.5499      6.4972    110.5426
   846.0000      0.0000    828.4071      6.3972    107.8980
   846.2500      0.0000    832.0457      6.2476    105.4575
   846.5000      0.0000    830.9070      6.1557    103.5690
   846.7500      0.0000    825.1924      6.1571    101.6932
   847.0000      0.0000    816.5253      6.1670     99.5206
   847.2500      0.0000    808.3693      6.0320     97.8223
   847.5000      0.0000    804.2036      5.6566     97.8078
   847.7500      0.0000    804.4271      5.1140     99.7270
   848.0000      0.0000    806.0511      4.6353    102.4143
   848.2500      0.0000    806.0520      4.4574    104.2569
   848.5000      0.0000    804.1249      4.6551    104.4641
   848.7500      0.0000    801.9398      5.1071    103.4924
   849.0000      0.0000    801.0558      5.6160    102.3549
   849.2500      0.0000    802.1255      6.0522    101.4327
   849.5000      0.0000    805.0667      6.3891    100.0498
   849.7500      0.0000    809.0450      6.6403     97.4520
   850.0000      0.0000    812.5073      6.7978     94.0794
   850.2500      0.0000    813.8975      6.8225     91.3893
   850.5000      0.0000    812.6213      6.6678     90.4793
   850.7500      0.0000    809.3761      6.3089     91.4519
   851.0000      0.0000    805.5676      5.7773     93.9817
   851.2500      0.0000    802.3480      5.1836     97.6427
   851.5000      0.0000    800.0895      4.6906    101.5388
   851.7500      0.0000    798.6368      4.4331    104.3803
   852.0000      0.0000    797.9064      4.4521    105.3684
   852.2500      0.0000    798.2282      4.6971    104.8298
   852.5000      0.0000    800.2138      5.0750    103.7488
   852.7500      0.0000    804.1204      5.4940    102.7635
   853.0000      0.0000    808.9869      5.8847    101.8018
   853.2500      0.0000    812.4973      6.2015    100.5275
   853.5000      0.0000    812.3969      6.4235     98.6272
   853.7500      0.0000    808.4274      6.5555     95.3223
   854.0000      0.0000    802.7510      6.6091     88.9379
   854.2500      0.0000    798.3608      6.5631     77.6121
   854.5000      0.0000    796.9813      6.3537     61.0328
   854.7500      0.0000    798.1890      5.9362     41.7059
   855.0000      0.0000    800.4683      5.3778     24.0058
   855.2500      0.0000    802.9988      4.8608     11.3621
   855.5000      0.0000    805.8951      4.5513      4.3460
   855.7500      0.0000    808.8123      4.4570      1.3274
   856.0000      0.0000    810.4384      4.4395      0.3205
   856.2500      0.0000    809.8450      4.3715      0.0604
   856.5000      0.0000    807.6033      4.2639      0.0086
   856.7500      0.0000    805.1248      4.2341      0.0000
   857.0000      0.0000    803.3800      4.3781   -999.2500
   857.2500      0.0000    802.5668      4.6925   -999.2500
   857.5000      0.0000    802.6499      5.0860   -999.2500
   857.7500      0.0000    803.7292      5.4334   -999.2500
   858.0000      0.0000    805.7148      5.6387   -999.2500
   858.2500      0.0000    807.7353      5.6878   -999.2500
   858.5000      0.0000    808.2304      5.6382   -999.2500
   858.7500      0.0000    805.3463      5.5425   -999.2500
   859.0000      0.0000    795.8632      5.3902   -999.2500
   859.2500      0.0000    771.7586      5.1295   -999.2500
   859.5000      0.0000    718.3188      4.7171   -999.2500
   859.7500      0.0000    620.8411      4.1340   -999.2500
   860.0000      0.0000    479.8668      3.3994   -999.2500
   860.2500      0.0000    320.3004      2.6070   -999.2500
   860.5000      0.0000    179.4718      1.9096   -999.2500
   860.7500      0.0000     82.6514      1.4238   -999.2500
   861.0000      0.0000     30.8121      1.1597   -999.2500
   861.2500      0.0000      9.1969      1.0480   -999.2500
   861.5000      0.0000      2.1781      1.0114   -999.2500
   861.7500      0.0000      0.4032      1.0021   -999.2500
   862.0000      0.0000      0.0536      1.0003   -999.2500
   862.2500      0.0000   -999.2500   -999.2500   -999.2500
   862.5000      0.0000   -999.2500   -999.2500   -999.2500
   862.7500      0.0000   -999.2500   -999.2500   -999.2500
   863.0000      0.0000   -999.2500   -999.2500   -999.2500
   863.2500      0.0000   -999.2500   -999.2500   -999.2500
   863.5000      0.0000   -999.2500   -999.2500   -999.2500
