~Version Information
VERS.                      2.0: CWLS Log ASCII Standard - VERSION 2.0
WRAP.                       NO: One line per depth step
~Well Information Block
STRT.FT              1736.0000: 
STOP.FT              1964.5000: 
STEP.FT                 0.2500: 
NULL.                -999.2500: 
COMP.          Petrogulf Corporation: COMPANY
WELL.              Royal 8-33R: WELL
FLD.           Purgatorie River: FIELD
LOC.           2401' FSL & 2270' FEL: LOCATION
CNTY.               Las Animas: COUNTY
SRVC.                         : SERVICE COMPANY
DATE.          Mon Apr 26 06:49:48 2004: LOG DATE
UWI.           05 071 08041 00: UNIQUE WELL ID
STAT.                 Colorado: STATE
~Curve Information Block
DEPT.FT            0 000 00 00: Depth
SP.mV                         : DIL Spontaneous Potential
RILD.Ohm-m                    : DIL Deep Resistivity
RILM.Ohm-m                    : DIL Medium Resistivity
RLL3.Ohm-m                    : DIL Shallow Resistivity
GR.GAPI                       : Gamma Ray
~Parameter Information Block
~A  Depth        SP         RILD        RILM        RLL3         GR     
# ...
  1876.0000     40.0291     16.7128     18.5584     26.0650    119.9197
  1876.2500     39.8228     17.4585     19.4186     26.2406    122.2898
  1876.5000     39.6502     18.2749     20.5088     27.2584    123.4555
  1876.7500     39.4568     19.1345     21.8222     29.4333    121.2519
  1877.0000     39.1817     20.0012     23.3018     32.4327    114.0843
  1877.2500     38.7688     20.8364     24.8542     35.3930    108.2861
  1877.5000     38.1747     21.6107     26.3871     37.4498    101.3255
  1877.7500     37.3816     22.3125     27.8520     38.2729     99.3767
  1878.0000     36.4133     22.9484     29.2593     38.1522    101.1497
  1878.2500     35.3355     23.5328     30.6489     37.6636    104.3766
  1878.5000     34.2363     24.0757     32.0335     37.3332    108.8054
  1878.7500     33.2054     24.5743     33.3479     37.5235    109.5517
  1879.0000     32.3228     25.0157     34.4399     38.3786    105.9724
  1879.2500     31.6486     25.3888     35.1268     39.6978    101.1644
  1879.5000     31.2032     25.6939     35.3023     40.9016     93.2900
  1879.7500     30.9564     25.9411     35.0193     41.2918     89.2703
  1880.0000     30.8496     26.1348     34.4723     40.4895     86.3112
  1880.2500     30.8391     26.2623     33.8953     38.7133     86.1237
  1880.5000     30.9177     26.2989     33.4577     36.7117     87.3270
  1880.7500     31.0963     26.2248     33.2128     35.4336     88.3496
  1881.0000     31.3712     26.0391     33.1012     35.5673     88.8947
  1881.2500     31.7089     25.7593     32.9908     37.0707     87.9679
  1881.5000     32.0550     25.4154     32.7415     39.0071     84.4835
  1881.7500     32.3559     25.0464     32.2702     40.0271     81.4930
  1882.0000     32.5774     24.6973     31.5845     39.2947     78.1270
  1882.2500     32.7082     24.4088     30.7661     37.0508     77.4694
  1882.5000     32.7496     24.2044     29.9255     34.2837     78.4852
  1882.7500     32.7089     24.0838     29.1622     31.9209     79.6875
  1883.0000     32.6036     24.0286     28.5517     30.3407     81.5206
  1883.2500     32.4662     24.0158     28.1493     29.4639     82.7310
  1883.5000     32.3377     24.0320     27.9963     29.0947     84.1262
  1883.7500     32.2558     24.0805     28.1186     29.1444     84.1582
  1884.0000     32.2491     24.1772     28.5221     29.6621     81.7301
  1884.2500     32.3391     24.3383     29.1912     30.7530     78.1389
  1884.5000     32.5382     24.5677     30.0939     32.4544     70.3671
  1884.7500     32.8429     24.8558     31.1909     34.6256     64.5243
  1885.0000     33.2304     25.1908     32.4437     36.9448     56.2128
  1885.2500     33.6595     25.5740     33.8175     39.0581     51.2137
  1885.5000     34.0743     26.0228     35.2776     40.7871     44.5136
  1885.7500     34.4114     26.5578     36.7821     42.2282     40.9553
  1886.0000     34.6150     27.1840     38.2779     43.6555     38.0151
  1886.2500     34.6557     27.8817     39.7036     45.2857     37.7462
  1886.5000     34.5426     28.6092     40.9993     47.0644     38.7274
  1886.7500     34.3188     29.3172     42.1165     48.6590     39.5036
  1887.0000     34.0407     29.9650     43.0239     49.7011     40.4009
  1887.2500     33.7503     30.5303     43.7109     50.0798     40.9073
  1887.5000     33.4599     31.0069     44.1922     49.9876     41.2480
  1887.7500     33.1600     31.3941     44.5072     49.6590     40.7307
  1888.0000     32.8413     31.6897     44.7144     49.0875     38.4213
  1888.2500     32.5066     31.8910     44.8763     48.0515     36.2203
  1888.5000     32.1678     32.0010     45.0433     46.4291     33.3502
  1888.7500     31.8440     32.0331     45.2429     44.4465     32.5054
  1889.0000     31.5636     32.0134     45.4825     42.5854     33.1855
  1889.2500     31.3617     31.9787     45.7614     41.2638     34.4913
  1889.5000     31.2648     31.9712     46.0819     40.6333     36.4808
  1889.7500     31.2746     32.0304     46.4550     40.6583     37.1245
  1890.0000     31.3629     32.1846     46.9036     41.3299     36.2543
  1890.2500     31.4798     32.4434     47.4653     42.7352     34.5256
  1890.5000     31.5729     32.7953     48.1978     44.8593     31.7376
  1890.7500     31.6101     33.2102     49.1789     47.3286     31.0495
  1891.0000     31.5914     33.6485     50.5000     49.4982     33.0271
  1891.2500     31.5441     34.0673     52.2514     51.0155     35.9817
  1891.5000     31.5062     34.4171     54.5023     52.3964     40.8723
  1891.7500     31.5104     34.6322     57.2662     54.9350     43.1673
  1892.0000     31.5738     34.6311     60.4288     59.8290     43.8957
  1892.2500     31.6986     34.3388     63.6355     67.1778     42.5853
  1892.5000     31.8836     33.7213     66.1975     75.6648     38.7748
  1892.7500     32.1432     32.8049     67.1837     83.1244     35.6072
  1893.0000     32.5191     31.6674     65.8295     87.4580     31.0584
  1893.2500     33.0701     30.4097     62.0433     87.2810     29.0115
  1893.5000     33.8411     29.1286     56.5165     82.2573     28.9485
  1893.7500     34.8341     27.9014     50.3072     73.3005     31.6128
  1894.0000     36.0028     26.7794     44.3326     62.3506     40.1758
  1894.2500     37.2725     25.7829     39.1390     51.4626     48.6654
  1894.5000     38.5647     24.8998     34.9349     41.8986     64.3655
  1894.7500     39.8081     24.0904     31.7166     34.0990     76.1617
  1895.0000     40.9389     23.3036     29.3735     28.2764     94.7685
  1895.2500     41.9056     22.4987     27.7454     24.7034    106.3522
  1895.5000     42.6833     21.6619     26.6430     23.4541    118.4196
  1895.7500     43.2838     20.8080     25.8583     24.0928    121.2488
  1896.0000     43.7499     19.9705     25.1874     25.7023    119.1444
  1896.2500     44.1313     19.1854     24.4731     27.2298    116.3490
  1896.5000     44.4602     18.4818     23.6436     27.9237    113.8793
  1896.7500     44.7399     17.8779     22.7171     27.5920    113.4368
  1897.0000     44.9578     17.3823     21.7653     26.5337    112.4144
  1897.2500     45.1117     16.9960     20.8667     25.2285    110.7694
  1897.5000     45.2244     16.7118     20.0755     24.0324    108.0271
  1897.7500     45.3350     16.5131     19.4145     23.0704    107.3280
  1898.0000     45.4750     16.3742     18.8814     22.3109    109.0920
  1898.2500     45.6513     16.2656     18.4597     21.6855    111.6870
  1898.5000     45.8471     16.1618     18.1300     21.1521    116.0565
  1898.7500     46.0343     16.0488     17.8775     20.7074    118.5574
  1899.0000     46.1796     15.9247     17.6946     20.3818    121.1885
  1899.2500     46.2411     15.7926     17.5775     20.2127    122.1732
  1899.5000     46.1758     15.6528     17.5210     20.2011    123.0213
  1899.7500     45.9650     15.4985     17.5161     20.2909    123.7706
  1900.0000     45.6331     15.3192     17.5494     20.4013    125.6326
  1900.2500     45.2324     15.1071     17.6025     20.4819    126.6110
  1900.5000     44.8068     14.8615     17.6508     20.5456    125.2008
  1900.7500     44.3731     14.5882     17.6613     20.6656    121.4612
  1901.0000     43.9366     14.2958     17.5948     20.9425    112.8440
  1901.2500     43.5146     13.9913     17.4125     21.4384    107.1166
  1901.5000     43.1357     13.6803     17.0857     22.0873    102.1730
  1901.7500     42.8189     13.3672     16.6055     22.6418    102.2217
  1902.0000     42.5584     13.0559     15.9900     22.7417    105.7292
  1902.2500     42.3300     12.7472     15.2828     22.1138    108.4650
  1902.5000     42.1054     12.4382     14.5414     20.7798    111.3818
  1902.7500     41.8617     12.1233     13.8204     19.0901    113.0096
  1903.0000     41.5800     11.7995     13.1569     17.5286    116.5413
  1903.2500     41.2394     11.4697     12.5668     16.4355    119.8393
  1903.5000     40.8100     11.1426     12.0483     15.8622    125.3995
  1903.7500     40.2538     10.8295     11.5915     15.6305    129.0758
