~Version Information
VERS.                      2.0: CWLS Log ASCII Standard - VERSION 2.0
WRAP.                       NO: One line per depth step
~Well Information Block
STRT.FT                -8.5000: 
STOP.FT              2286.0000: 
STEP.FT                 0.2500: 
NULL.                -999.2500: 
COMP.          Pioneer Natural Resources: COMPANY
WELL.             Culver 14-12: WELL
FLD.           Purgatorie River: FIELD
LOC.           913' FSL & 1140' FWL--: LOCATION
PROV.                       CO: PROVINCE
CNTY.               Las Animas: COUNTRY
SRVC.          Patterson Wireline: SERVICE COMPANY
DATE.          Wed Jun 15 13:05:36 2005: LOG DATE
UWI.           05 071 08386 00: UNIQUE WELL ID
~Curve Information Block
DEPT.FT            0 000 00 00: Depth
CCL.                          : Casing Collar Locator
TT3.usec                      : CBL 3' Travel Time
AMP3.mV                       : CBL 3' Amplitude
GR.GAPI                       : Gamma Ray
~Parameter Information Block
~A  Depth       CCL         TT3         AMP3         GR     
# ...
  1197.5000      0.0000    533.8037      3.1507    135.6237
  1197.7500      0.0000    555.2954      3.0667    136.3316
  1198.0000      0.0000    591.9628      3.0445    135.6870
  1198.2500      0.0000    637.1628      3.0710    133.4433
  1198.5000      0.0000    678.6684      3.1113    129.5453
  1198.7500      0.0000    705.7300      3.1292    124.7243
  1199.0000      0.0000    715.2775      3.1057    121.2286
  1199.2500      0.0000    712.9367      3.0469    121.8194
  1199.5000      0.0000    709.1056      2.9766    127.2713
  1199.7500      0.0000    713.1451      2.9157    135.1969
  1200.0000      0.0000    728.3035      2.8687    141.8234
  1200.2500      0.0000    749.8160      2.8289    144.9509
  1200.5000      0.0000    768.2411      2.7920    145.0296
  1200.7500      0.0000    776.3181      2.7656    143.6515
  1201.0000      2.0000    773.1681      2.7638    141.7452
  1201.2500      0.0000    762.4891      2.7881    139.5675
  1201.5000      0.0000    748.5978      2.8106    137.6672
  1201.7500      0.0000    734.8353      2.7901    137.0148
  1202.0000      0.0000    723.6616      2.7187    138.1436
  1202.2500      0.0000    716.4999      2.6477    140.3032
  1202.5000      0.0000    713.4769      2.6505    141.2739
  1202.7500      0.0000    713.5837      2.7544    138.2882
  1203.0000      0.0000    715.1960      2.9117    129.9352
  1203.2500      0.0000    716.8422      3.0400    117.4225
  1203.5000      0.0000    717.7665      3.0820    103.6466
  1203.7500      0.0000    717.8658      3.0280     90.9286
  1204.0000      0.0000    717.1800      2.9057     79.7033
  1204.2500      0.0000    715.6520      2.7639     69.1779
  1204.5000      0.0000    713.4247      2.6559     58.9462
  1204.7500      0.0000    711.2894      2.6121     49.8117
  1205.0000      0.0000    710.4471      2.6227     43.0106
  1205.2500      0.0000    711.5042      2.6587     38.9598
  1205.5000      0.0000    713.8498      2.7014     37.2144
  1205.7500      0.0000    716.2604      2.7487     37.5127
  1206.0000      0.0000    717.9395      2.7982     40.3330
  1206.2500      0.0000    718.8331      2.8346     46.3197
  1206.5000      0.0000    719.2424      2.8374     55.5131
  1206.7500      0.0000    719.4359      2.7989     67.3243
  1207.0000      0.0000    719.5618      2.7349     80.8887
  1207.2500      0.0000    719.6970      2.6707     94.9172
  1207.5000      0.0000    719.8586      2.6251    107.2421
  1207.7500      0.0000    720.0007      2.6155    115.0422
  1208.0000      0.0000    720.0631      2.6620    115.9940
  1208.2500      0.0000    720.0499      2.7633    109.6640
  1208.5000      0.0000    720.0196      2.8807     98.1044
  1208.7500      0.0000    719.9625      2.9719     84.8332
  1209.0000      0.0000    719.7261      3.0373     72.8917
  1209.2500      0.0000    718.8854      3.1077     63.7519
  1209.5000      0.0000    716.4026      3.1877     57.5720
  1209.7500      0.0000    710.1784      3.2447     53.9239
  1210.0000      0.0000    697.7907      3.2551     52.4612
  1210.2500      0.0000    679.6053      3.2346     53.1969
  1210.5000      0.0000    661.8896      3.2184     56.0447
  1210.7500      0.0000    654.3500      3.2233     60.1561
  1211.0000      0.0000    661.8530      3.2429     64.0201
  1211.2500      0.0000    679.5352      3.2623     66.3848
  1211.5000      0.0000    697.7229      3.2602     67.2105
  1211.7500      0.0000    710.1812      3.2106     67.9208
  1212.0000      0.0000    716.5434      3.1028     70.5362
  1212.2500      0.0000    719.2243      2.9570     76.0556
  1212.5000      0.0000    720.3450      2.8228     83.4607
  1212.7500      0.0000    720.9675      2.7630     90.3762
  1213.0000      0.0000    721.5311      2.8144     94.6351
  1213.2500      0.0000    722.2906      2.9552     95.1033
  1213.5000      0.0000    723.5637      3.1223     91.5445
  1213.7500      0.0000    725.7045      3.2617     84.6921
  1214.0000      0.0000    728.8477      3.3520     76.6926
  1214.2500      0.0000    732.7075      3.3891     70.6131
  1214.5000      0.0000    736.8781      3.3709     68.6604
  1214.7500      0.0000    741.1270      3.3027     70.7634
  1215.0000      0.0000    744.7463      3.1975     74.9405
  1215.2500      0.0000    745.8665      3.0627     78.8507
  1215.5000      0.0000    742.4212      2.8994     80.9700
  1215.7500      0.0000    733.7839      2.7202     80.9768
  1216.0000      0.0000    720.1195      2.5629     79.8463
  1216.2500      0.0000    700.3279      2.4783     79.5031
  1216.5000      0.0000    672.4849      2.4934     81.6906
  1216.7500      0.0000    637.1188      2.5916     86.9198
  1217.0000      0.0000    598.6605      2.7361     94.5267
  1217.2500      0.0000    563.2189      2.8927    103.2417
  1217.5000      0.0000    535.8745      3.0285    111.2426
  1217.7500      0.0000    518.8097      3.1172    116.1635
  1218.0000      0.0000    509.5610      3.1574    116.0536
  1218.2500      0.0000    503.2019      3.1693    110.6948
  1218.5000      0.0000    499.4732      3.1763    101.8656
  1218.7500      0.0000    504.5265      3.1883     92.4152
  1219.0000      0.0000    521.2763      3.1952     85.0452
  1219.2500      0.0000    542.0649      3.1833     81.4421
  1219.5000      0.0000    557.4114      3.1617     81.8717
  1219.7500      0.0000    569.5227      3.1524     85.2322
  1220.0000      0.0000    589.4496      3.1618     89.5987
  1220.2500      0.0000    621.1747      3.1827     93.1369
  1220.5000      0.0000    655.1307      3.2058     94.9020
  1220.7500      0.0000    678.3907      3.2132     94.9936
  1221.0000      0.0000    686.3520      3.1783     94.0654
  1221.2500      0.0000    683.8020      3.0850     92.7435
  1221.5000      0.0000    678.6916      2.9535     91.4318
  1221.7500      0.0000    676.9132      2.8470     90.4304
  1222.0000      0.0000    680.9090      2.8278     89.9409
  1222.2500      0.0000    690.4123      2.8982     89.6117
  1222.5000      0.0000    703.4758      3.0027     88.1730
  1222.7500      0.0000    717.4474      3.0860     84.1676
  1223.0000      0.0000    729.8789      3.1281     77.2902
  1223.2500      0.0000    739.1133      3.1408     68.7295
  1223.5000      0.0000    744.4931      3.1539     60.3196
  1223.7500      0.0000    746.1681      3.1902     53.6562
  1224.0000      0.0000    744.4922      3.2479     49.7602
  1224.2500      0.0000    739.7205      3.3090     49.0040
  1224.5000      0.0000    732.3846      3.3500     50.9943
  1224.7500      0.0000    723.4344      3.3454     54.5645
  1225.0000      0.0000    713.8327      3.2877     58.2998
  1225.2500      0.0000    704.6586      3.2007     61.5388
  1225.5000      0.0000    697.7352      3.1149     64.9606
  1225.7500      0.0000    695.2203      3.0437     70.1278
  1226.0000      0.0000    697.8886      2.9916     78.6170
  1226.2500      0.0000    704.0932      2.9587     91.3890
  1226.5000      0.0000    710.8426      2.9344    107.9480
  1226.7500      0.0000    715.8594      2.9137    125.3339
  1227.0000      0.0000    718.5865      2.9121    138.7708
  1227.2500      0.0000    719.6682      2.9399    144.6482
  1227.5000      0.0000    719.9563      2.9819    143.0777
  1227.7500      0.0000    719.9840      3.0171    137.2420
  1228.0000      0.0000    719.9706      3.0317    130.7293
  1228.2500      0.0000    719.9997      3.0099    125.7904
  1228.5000      0.0000    720.0970      2.9489    123.2888
  1228.7500      0.0000    720.2168      2.8771    123.3478
  1229.0000      0.0000    720.2587      2.8246    125.7849
  1229.2500      0.0000    720.1674      2.7927    129.8533
  1229.5000      0.0000    719.9999      2.7736    133.7534
  1229.7500      0.0000    719.8798      2.7702    135.1844
  1230.0000      0.0000    719.8921      2.7786    133.0450
  1230.2500      0.0000    720.0254      2.7866    128.6529
  1230.5000      0.0000    720.1868      2.7958    125.0171
  1230.7500      0.0000    720.2547      2.8135    124.5219
