~Version Information
VERS.                      2.0: CWLS Log ASCII Standard - VERSION 2.0
WRAP.                       NO: One line per depth step
~Well Information Block
STRT.FT               520.0000: 
STOP.FT              1105.5000: 
STEP.FT                 0.1000: 
NULL.                -999.2500: 
COMP.          Pioneer Natural Resources: COMPANY
WELL.            Redland 23-24: WELL
FLD.           Purgatoire River: FIELD
LOC.           2356' FSL & 1880' FWL: LOCATION
PROV.                 Colorado: PROVINCE
CNTY.               Las Animas: COUNTRY
SRVC.                Patterson: SERVICE COMPANY
DATE.          Mon Mar 21 07:08:20 2005: LOG DATE
UWI.           05 071 08221 00: UNIQUE WELL ID
~Curve Information Block
DEPT.FT            0 000 00 00: Depth
DCAL.in                       : CDL Caliper
RHOB.g/cc                     : CDL Bulk Density
RHOC.g/cc                     : CDL Density Correction
DPOR.pu                       : CDL Density Porosity
GR.GAPI                       : Gamma Ray
NPOR.pu                       : Neutron Porosity
~Parameter Information Block
~A  Depth       DCAL        RHOB        RHOC        DPOR         GR         NPOR    
# ...
   894.4000      7.9234      2.3812      0.1350     16.2914     59.7976     31.4342
   894.5000      8.0237      2.4507      0.1108     12.0817     62.6695     30.4347
   894.6000      8.0237      2.4865      0.0180      9.9108     65.5740     29.7857
   894.7000      8.0237      2.5102      0.1074      8.4743     67.4674     29.0744
   894.8000      7.9764      2.5165      0.1058      8.0934     68.4370     28.4565
   894.9000      7.9764      2.5009      0.0415      9.0337     66.5266     28.0563
   895.0000      7.9232      2.4787      0.0646     10.3848     63.4272     27.5857
   895.1000      7.9232      2.4608      0.0251     11.4682     63.0705     26.9930
   895.2000      7.9232      2.4479      0.0173     12.2491     64.3490     26.5687
   895.3000      7.8712      2.4293      0.0134     13.3729     64.3580     26.6364
   895.4000      7.8712      2.4067     -0.0509     14.7438     64.8349     27.2096
   895.5000      7.8591      2.4057     -0.0279     14.8081     68.1038     27.9479
   895.6000      7.8591      2.4320      0.0109     13.2142     71.2276     28.2427
   895.7000      7.8591      2.4664      0.0050     11.1276     71.2310     27.8335
   895.8000      7.8748      2.4901      0.0513      9.6929     72.2909     27.4524
   895.9000      7.8748      2.4868      0.0849      9.8911     78.2700     27.6304
   896.0000      7.8873      2.4565      0.0177     11.7302     85.6212     27.5411
   896.1000      7.8873      2.4185      0.0229     14.0312     89.5539     26.6254
   896.2000      7.8873      2.3911     -0.0176     15.6929     87.5677     26.0771
   896.3000      7.8698      2.3758      0.0211     16.6200     81.2598     27.0753
   896.4000      7.8698      2.3678     -0.0016     17.1040     75.9852     28.8810
   896.5000      7.8701      2.3673      0.0134     17.1309     74.1049     29.7228
   896.6000      7.8701      2.3699      0.0672     16.9744     73.0240     28.9456
   896.7000      7.8701      2.3796      0.0058     16.3867     70.0943     27.5185
   896.8000      7.8716      2.4139      0.0423     14.3096     66.4603     26.5142
   896.9000      7.8716      2.4647      0.1027     11.2320     64.2343     26.3004
   897.0000      7.8728      2.5033      0.0823      8.8890     62.5074     26.3817
   897.1000      7.8728      2.5166      0.0924      8.0863     58.5886     25.8248
   897.2000      7.8728      2.5106      0.0540      8.4485     52.6903     24.7071
   897.3000      7.8734      2.4991      0.0151      9.1473     48.8661     23.8810
   897.4000      7.8734      2.4845      0.0787     10.0323     49.2028     23.9130
   897.5000      7.8854      2.4650      0.0378     11.2107     49.2443     24.5968
   897.6000      7.8854      2.4566     -0.0224     11.7227     45.2103     25.2759
   897.7000      7.8854      2.4714     -0.0129     10.8214     40.4925     25.4070
   897.8000      7.8599      2.4923      0.0721      9.5548     38.1941     24.8118
   897.9000      7.8599      2.4963      0.0613      9.3140     38.2023     24.0466
   898.0000      7.8750      2.4928      0.0265      9.5289     40.0146     23.6598
   898.1000      7.8750      2.5031      0.0997      8.9052     41.5967     23.1897
   898.2000      7.8750      2.5189      0.1334      7.9482     41.0472     22.2345
   898.3000      7.8592      2.5261      0.0709      7.5084     40.0475     21.4709
   898.4000      7.8592      2.5384      0.0950      6.7649     40.7673     21.9218
   898.5000      7.7691      2.5744      0.0715      4.5797     42.8016     23.4609
   898.6000      7.7691      2.6225      0.1741      1.6680     44.7820     24.3007
   898.7000      7.7691      2.6391      0.2080      0.6592     45.3466     23.7011
   898.8000      7.7490      2.6030      0.1280      2.8495     44.0273     22.8921
   898.9000      7.7490      2.5481      0.0876      6.1733     40.3918     22.7842
   899.0000      7.7208      2.5150      0.0339      8.1820     37.1917     23.2548
   899.1000      7.7208      2.5063      0.0120      8.7074     38.1294     23.7648
   899.2000      7.7208      2.5065      0.0223      8.6964     40.7711     24.1652
   899.3000      7.7856      2.5143      0.0050      8.2238     40.6456     24.6755
   899.4000      7.7856      2.5341      0.0740      7.0259     38.3304     24.8723
   899.5000      7.8507      2.5523      0.0785      5.9220     37.8703     24.3145
   899.6000      7.8507      2.5588      0.0091      5.5245     39.2026     23.3428
   899.7000      7.8507      2.5641      0.0201      5.2079     38.5667     22.4009
   899.8000      7.8539      2.5749      0.0759      4.5516     36.6946     21.7260
   899.9000      7.8539      2.5875      0.0689      3.7907     36.0750     21.3309
   900.0000      7.8694      2.6012      0.0776      2.9570     36.2355     21.3279
   900.1000      7.8694      2.6099      0.1058      2.4323     37.5750     21.8888
   900.2000      7.8694      2.5982      0.1276      3.1403     41.4621     22.1376
   900.3000      7.8372      2.5699      0.0516      4.8554     46.7624     21.2959
   900.4000      7.8372      2.5537     -0.0305      5.8367     51.2840     20.5160
   900.5000      7.8316      2.5610      0.0484      5.3929     53.8282     21.1208
   900.6000      7.8316      2.5706      0.0732      4.8124     55.5484     22.7556
   900.7000      7.8316      2.5684      0.1023      4.9435     57.9722     23.8720
   900.8000      7.8611      2.5530      0.0781      5.8804     59.7322     23.8611
   900.9000      7.8611      2.5254      0.0390      7.5537     59.4754     23.5169
   901.0000      7.8360      2.4983      0.0474      9.1914     59.6317     23.6977
   901.1000      7.8360      2.4790      0.0551     10.3655     63.0913     24.5486
   901.2000      7.8360      2.4549      0.0277     11.8235     69.8250     25.4879
   901.3000      7.8256      2.4264     -0.0047     13.5543     77.6767     25.9790
   901.4000      7.8256      2.4152     -0.0384     14.2331     85.0496     25.8510
   901.5000      7.8198      2.4206      0.0771     13.9010     89.5406     25.3677
   901.6000      7.8198      2.4154      0.0601     14.2167     88.2946     25.5290
   901.7000      7.8198      2.3958      0.0712     15.4074     84.8222     26.8551
   901.8000      7.8705      2.3746      0.0590     16.6925     83.2524     28.3207
   901.9000      7.8705      2.3582      0.0207     17.6864     81.7060     28.9062
   902.0000      7.8336      2.3606     -0.0059     17.5390     79.4506     29.0329
   902.1000      7.8336      2.3887      0.0475     15.8376     77.9998     29.0515
   902.2000      7.8336      2.4345      0.0174     13.0578     77.6400     29.0187
   902.3000      7.8656      2.4863      0.1035      9.9237     78.0437     29.1764
   902.4000      7.8656      2.5241      0.1418      7.6315     78.8337     29.1462
   902.5000      7.8896      2.5420      0.1256      6.5451     80.3970     28.7686
   902.6000      7.8896      2.5491      0.1783      6.1164     83.2454     28.5786
   902.7000      7.8896      2.5343      0.1769      7.0132     84.7852     28.2293
   902.8000      7.8926      2.4822      0.1199     10.1677     85.1800     27.6396
   902.9000      7.8926      2.4164      0.0075     14.1587     89.2385     27.8145
   903.0000      7.8800      2.3867     -0.0496     15.9602     95.1100     28.7281
   903.1000      7.8800      2.4050      0.0601     14.8501     95.5228     29.3041
   903.2000      7.8800      2.4358      0.0586     12.9835     89.4544     29.4491
   903.3000      7.9184      2.4545      0.0770     11.8492     83.0562     29.6051
   903.4000      7.9184      2.4591      0.0749     11.5712     81.7666     29.3631
   903.5000      7.9694      2.4577      0.0184     11.6520     82.8854     28.8865
   903.6000      7.9694      2.4689      0.0395     10.9745     82.8443     28.8376
   903.7000      7.9694      2.4989      0.0902      9.1575     82.2677     29.0264
   903.8000      8.0653      2.5306      0.1130      7.2391     79.9115     29.3848
   903.9000      8.0653      2.5441      0.1073      6.4179     73.4588     29.6575
