~Version Information
VERS.                      2.0: CWLS Log ASCII Standard - VERSION 2.0
WRAP.                       NO: One line per depth step
~Well Information Block
STRT.FT                37.7500: 
STOP.FT              1898.5000: 
STEP.FT                 0.2500: 
NULL.                -999.2500: 
COMP.          Petrogulf Corporation: COMPANY
WELL.           Montoya 12-41R: WELL
FLD.           Purgatorie River: FIELD
LOC.           1086' FNL & 610' FEL--: LOCATION
PROV.                       CO: PROVINCE
CNTY.               Las Animas: COUNTRY
SRVC.                         : SERVICE COMPANY
DATE.          Wed Feb 09 11:45:45 2005: LOG DATE
UWI.         005 071 08241 : UNIQUE WELL ID
~Curve Information Block
DEPT.FT            0 000 00 00: Depth
CCL.                          : Casing Collar Locator
TT3.usec                      : CBL 3' Travel Time
AMP3.mV                       : CBL 3' Amplitude
GR.GAPI                       : Gamma Ray
~Parameter Information Block
~A  Depth       CCL         TT3         AMP3         GR     
# ...
   406.2500      0.0000    266.9079     84.5150    141.1217
   406.5000      0.0000    266.9421     84.6848    144.6009
   406.7500      0.0000    266.9897     84.7248    144.9786
   407.0000      0.0000    267.0397     84.6271    143.2305
   407.2500      0.0000    267.0844     84.4236    141.1460
   407.5000      0.0000    267.1197     84.1696    140.0650
   407.7500      0.0000    267.1382     83.9435    140.4810
   408.0000      0.0000    267.1270     83.8259    142.3062
   408.2500      0.0000    267.0783     83.8595    144.7333
   408.5000      0.0000    267.0035     84.0252    145.9821
   408.7500      0.0000    266.9319     84.2534    143.9027
   409.0000      0.0000    266.8930     84.4616    137.2987
   409.2500      0.0000    266.8979     84.5931    126.7812
   409.5000      0.0000    266.9362     84.6400    114.2966
   409.7500      0.0000    266.9863     84.6350    101.8262
   410.0000      0.0000    267.0286     84.6177     90.6425
   410.2500      0.0000    267.0521     84.6063     81.5533
   410.5000      0.0000    267.0542     84.5983     75.2717
   410.7500      0.0000    267.0396     84.5863     72.1190
   411.0000      0.0000    267.0184     84.5559     71.4211
   411.2500      0.0000    267.0015     84.4779     71.5441
   411.5000      0.0000    266.9937     84.3272     70.9094
   411.7500      0.0000    266.9929     84.1146     69.0923
   412.0000      0.0000    266.9934     83.8987     67.0690
   412.2500      0.0000    266.9907     83.7679     66.5820
   412.5000      0.0000    266.9821     83.7967     68.9997
   412.7500      0.0000    266.9682     83.9922     74.1871
   413.0000      0.0000    266.9536     84.2731     80.3416
   413.2500      0.0000    266.9452     84.5131     85.2556
   413.5000      0.0000    266.9455     84.6220     87.8336
   413.7500      0.0000    266.9508     84.6018     88.3819
   414.0000      0.0000    266.9560     84.5282     87.8941
   414.2500      0.0000    266.9620     84.4725     87.4494
   414.5000      0.0000    266.9749     84.4448     87.8844
   414.7500      0.0000    266.9962     84.4144     89.2918
   415.0000      0.0000    267.0179     84.3717     90.8499
   415.2500      0.0000    267.0301     84.3503     91.5976
   415.5000      0.0000    267.0320     84.3830     91.3827
   415.7500      0.0000    267.0318     84.4480     90.8405
   416.0000      0.0000    267.0358     84.4772     90.8494
   416.2500      0.0000    267.0410     84.4291     92.4894
   416.5000      0.0000    267.0405     84.3403     97.1208
   416.7500      0.0000    267.0324     84.2907    105.4756
   417.0000      0.0000    267.0222     84.3173    116.2356
   417.2500      0.0000    267.0133     84.3757    126.1674
   417.5000      0.0000    267.0027     84.3908    132.4244
   417.7500      0.0000    266.9869     84.3349    134.6325
   418.0000      0.0000    266.9705     84.2446    134.2960
   418.2500      0.0000    266.9629     84.1632    132.5656
   418.5000      0.0000    266.9709     84.0921    129.6536
   418.7500      0.0000    266.9967     83.9961    126.3706
   419.0000      0.0000    267.0491     83.7927    124.6614
   419.2500      0.0000    267.1643     83.2602    125.7760
   419.5000      0.0000    267.4225     81.9494    128.9949
   419.7500      0.0000    267.9339     79.3744    132.8491
   420.0000      0.0000    268.7753     75.5227    136.5945
   420.2500      0.0000    269.9095     71.1420    139.9147
   420.5000      0.0000    271.1634     67.2467    142.0078
   420.7500      0.0000    272.3065     64.3088    141.4891
   421.0000      0.0000    273.1750     62.1320    137.0496
   421.2500      0.0000    273.7394     60.4039    128.4074
   421.5000      0.0000    274.0731     59.0648    117.1180
   421.7500      2.0000    274.2668     58.1967    106.4842
   422.0000      2.0000    274.3728     57.8350    100.1778
   422.2500     -2.0000    274.4045     57.9464    100.3917
   422.5000      0.0000    274.3422     58.5615    106.7694
   422.7500      0.0000    274.1071     59.9011    116.4940
   423.0000      0.0000    273.5478     62.2551    125.5174
   423.2500      0.0000    272.5256     65.6235    130.7379
   423.5000      0.0000    271.0741     69.5677    131.7614
   423.7500      0.0000    269.4655     73.5485    130.5189
   424.0000      0.0000    268.0610     77.2461    129.1782
   424.2500      0.0000    267.0777     80.4350    128.6071
   424.5000      0.0000    266.5069     82.8213    128.6519
   424.7500      0.0000    266.2203     84.2343    129.3191
   425.0000      0.0000    266.0992     84.8275    131.0871
   425.2500      0.0000    266.0754     84.9578    133.8550
   425.5000      0.0000    266.1071     84.9492    136.0491
   425.7500      0.0000    266.1564     84.9860    135.5205
   426.0000      0.0000    266.1925     85.1190    131.6106
   426.2500      0.0000    266.2037     85.2972    125.9606
   426.5000      0.0000    266.1957     85.4353    120.9666
   426.7500      0.0000    266.1787     85.4832    117.6693
   427.0000      0.0000    266.1577     85.4538    115.3363
   427.2500      0.0000    266.1357     85.3875    112.7946
   427.5000      0.0000    266.1174     85.3045    109.9235
   427.7500      0.0000    266.1070     85.2106    107.8724
   428.0000      0.0000    266.1043     85.1357    107.8197
   428.2500      0.0000    266.1079     85.1269    109.5389
   428.5000      0.0000    266.1199     85.1896    111.5029
   428.7500      0.0000    266.1457     85.2621    112.5950
   429.0000      0.0000    266.1880     85.2624    113.0907
   429.2500      0.0000    266.2400     85.1568    113.3032
   429.5000      0.0000    266.2858     84.9877    111.9069
   429.7500      0.0000    266.3088     84.8418    106.7827
   430.0000      0.0000    266.3020     84.7780     97.6052
   430.2500      0.0000    266.2725     84.7816     86.9979
   430.5000      0.0000    266.2365     84.7873     79.1068
   430.7500      0.0000    266.2087     84.7414     77.1375
   431.0000      0.0000    266.1923     84.6473     81.6641
   431.2500      0.0000    266.1769     84.5681     90.5540
   431.5000      0.0000    266.1468     84.5791    100.4014
   431.7500      0.0000    266.0981     84.6951    108.4713
   432.0000      0.0000    266.0483     84.8398    113.9651
   432.2500      0.0000    266.0213     84.9062    118.0702
   432.5000      0.0000    266.0215     84.8578    122.9497
   432.7500      0.0000    266.0296     84.7706    130.2930
   433.0000      0.0000    266.0253     84.7661    140.1154
   433.2500      0.0000    266.0082     84.8983    150.6697
   433.5000      0.0000    265.9920     85.1079    159.7831
   433.7500      0.0000    265.9834     85.2836    166.4102
   434.0000      0.0000    265.9773     85.3544    170.7011
   434.2500      0.0000    265.9693     85.3180    173.0277
   434.5000      0.0000    265.9642     85.2072    173.6035
   434.7500      0.0000    265.9696     85.0619    172.5203
   435.0000      0.0000    265.9851     84.9394    169.6337
   435.2500      0.0000    266.0043     84.9126    164.9976
   435.5000      0.0000    266.0224     85.0205    159.4755
   435.7500      0.0000    266.0380     85.2189    154.1500
   436.0000      0.0000    266.0476     85.3991    149.3830
   436.2500      0.0000    266.0464     85.4639    145.3744
   436.5000      0.0000    266.0365     85.3904    143.0356
   436.7500      0.0000    266.0281     85.2317    142.9640
   437.0000      0.0000    266.0267     85.0750    143.7692
   437.2500      0.0000    266.0253     84.9866    142.8273
   437.5000      0.0000    266.0152     84.9682    138.9910
   437.7500      0.0000    265.9991     84.9587    133.8680
   438.0000      0.0000    265.9878     84.8949    130.1058
   438.2500      0.0000    265.9886     84.7812    128.8775
   438.5000      0.0000    266.0005     84.6886    129.3299
   438.7500      0.0000    266.0182     84.6767    130.1536
   439.0000      0.0000    266.0380     84.7170    131.0112
   439.2500      0.0000    266.0605     84.7164    131.9264
   439.5000      0.0000    266.0860     84.6265    131.7956
