~Version Information
VERS.                      2.0: CWLS Log ASCII Standard - VERSION 2.0
WRAP.                       NO: One line per depth step
~Well Information Block
STRT.FT               236.5000: 
STOP.FT              2818.2500: 
STEP.FT                 0.2500: 
NULL.                -999.2500: 
COMP.          Pioneer Natural Resources: COMPANY
WELL.            Sebring 42-29: WELL
FLD.           Purgatorie River: FIELD
LOC.           1751' FNL & 584' FEL--: LOCATION
PROV.                       CO: PROVINCE
CNTY.               Las Animas: COUNTRY
SRVC.          Patterson Wireline: SERVICE COMPANY
DATE.          Fri Aug 26 09:14:13 2005: LOG DATE
UWI.           05 071 08293 00: UNIQUE WELL ID
~Curve Information Block
DEPT.FT            0 000 00 00: Depth
CCL.                          : Casing Collar Locator
TT3.usec                      : CBL 3' Travel Time
AMP3.mV                       : CBL 3' Amplitude
GR.GAPI                       : Gamma Ray
~Parameter Information Block
~A  Depth       CCL         TT3         AMP3         GR     
# ...
  2615.0000      0.0000    526.8418      6.3883     92.0833
  2615.2500      0.0000    532.6507      6.4168     87.7248
  2615.5000      0.0000    544.6447      6.4310     84.0090
  2615.7500      0.0000    562.4692      6.4433     82.7336
  2616.0000      0.0000    583.9039      6.4540     84.2301
  2616.2500      0.0000    605.6156      6.4563     87.0770
  2616.5000      0.0000    624.7597      6.4491     89.1013
  2616.7500      0.0000    639.6689      6.4443     88.5780
  2617.0000      0.0000    649.7785      6.4622     84.9700
  2617.2500      0.0000    655.5676      6.5223     79.1405
  2617.5000      0.0000    658.3118      6.6332     72.8380
  2617.7500      0.0000    659.4401      6.7875     67.6920
  2618.0000      0.0000    659.9706      6.9610     64.5728
  2618.2500      0.0000    660.4288      7.1212     63.6278
  2618.5000      0.0000    661.1025      7.2397     64.5247
  2618.7500      0.0000    662.2845      7.3003     66.7103
  2619.0000      0.0000    664.2478      7.2989     69.8033
  2619.2500      0.0000    666.7862      7.2396     73.8760
  2619.5000      0.0000    668.5585      7.1347     79.1469
  2619.7500      0.0000    666.8289      7.0040     85.3373
  2620.0000      0.0000    657.9127      6.8688     91.4551
  2620.2500      0.0000    638.2142      6.7460     96.3262
  2620.5000      0.0000    606.0411      6.6476     99.3365
  2620.7500      0.0000    563.9440      6.5793    100.6879
  2621.0000      0.0000    519.3375      6.5361    101.0626
  2621.2500      0.0000    481.5188      6.5056    101.2279
  2621.5000      0.0000    457.0769      6.4789    101.8668
  2621.7500      0.0000    447.6754      6.4564    103.2246
  2622.0000      0.0000    450.7619      6.4420    104.6118
  2622.2500      0.0000    460.6917      6.4343    104.6824
  2622.5000      0.0000    469.7285      6.4262    102.6234
  2622.7500      0.0000    471.0513      6.4082     98.8917
  2623.0000      0.0000    463.3284      6.3700     94.7254
  2623.2500      0.0000    452.2672      6.2999     91.3220
  2623.5000      0.0000    447.1516      6.1834     89.4970
  2623.7500      0.0000    456.1630      6.0095     89.6821
  2624.0000      0.0000    483.4387      5.7898     91.9103
  2624.2500      0.0000    526.6943      5.5767     95.8740
  2624.5000      0.0000    576.2990      5.4515    101.0942
  2624.7500      0.0000    619.7533      5.4668    106.9382
  2625.0000      0.0000    650.0989      5.5877    112.3192
  2625.2500      0.0000    669.8945      5.7079    115.6829
  2625.5000      0.0000    686.3151      5.7500    115.7254
  2625.7500      0.0000    703.4832      5.7422    112.0465
  2626.0000      0.0000    720.4352      5.7773    104.9466
  2626.2500      0.0000    735.0771      5.9020     95.0974
  2626.5000     -2.0000    747.3421      6.0672     83.8719
  2626.7500      2.0000    757.6979      6.1817     73.6760
  2627.0000      0.0000    764.3536      6.1982     67.3057
  2627.2500      0.0000    763.4650      6.1593     66.4637
  2627.5000      0.0000    752.1322      6.1678     70.6491
  2627.7500      0.0000    731.2914      6.2938     77.5934
  2628.0000      0.0000    706.1484      6.4928     84.8053
  2628.2500      0.0000    683.2924      6.6368     90.5965
  2628.5000      0.0000    666.5707      6.6469     94.0920
  2628.7500      0.0000    655.3262      6.5693     95.1427
  2629.0000      0.0000    646.4866      6.5040     94.3229
  2629.2500      0.0000    638.5980      6.4979     92.4949
  2629.5000      0.0000    634.2723      6.5302     90.2038
  2629.7500      0.0000    638.2484      6.5674     87.6268
  2630.0000      0.0000    652.3044      6.5982     84.8696
  2630.2500      0.0000    672.5544      6.6269     81.9739
  2630.5000      0.0000    692.1095      6.6550     78.7987
  2630.7500      0.0000    705.6985      6.6763     75.3413
  2631.0000      0.0000    711.9151      6.6829     72.1172
  2631.2500      0.0000    712.5111      6.6725     69.8469
  2631.5000      0.0000    710.1528      6.6507     68.6504
  2631.7500      0.0000    706.5277      6.6305     67.9039
  2632.0000      0.0000    702.2845      6.6262     67.0750
  2632.2500      0.0000    698.0540      6.6460     66.4146
  2632.5000      0.0000    694.7072      6.6873     66.5624
  2632.7500      0.0000    692.6857      6.7388     67.6598
  2633.0000      0.0000    691.6047      6.7893     69.1906
  2633.2500      0.0000    690.4305      6.8348     70.6970
  2633.5000      0.0000    687.9055      6.8760     72.2826
  2633.7500      0.0000    683.3563      6.9083     74.2419
  2634.0000      0.0000    677.9134      6.9179     76.4493
  2634.2500      0.0000    674.7794      6.8901     78.3213
  2634.5000      0.0000    677.0201      6.8218     79.3639
  2634.7500      0.0000    684.3665      6.7242     79.8039
  2635.0000      0.0000    692.9183      6.6121     80.7814
  2635.2500      0.0000    698.5928      6.4931     83.8483
  2635.5000      0.0000    700.2767      6.3656     89.9746
  2635.7500      0.0000    699.5459      6.2281     98.5025
  2636.0000      0.0000    698.5753      6.0839    106.7047
  2636.2500      0.0000    699.2143      5.9342    110.7806
  2636.5000      0.0000    703.3062      5.7702    108.0826
  2636.7500      0.0000    712.4277      5.5805     98.8344
  2637.0000      0.0000    726.2772      5.3701     85.8618
  2637.2500      0.0000    741.5414      5.1666     72.7925
  2637.5000      0.0000    753.4825      5.0046     62.2103
  2637.7500      0.0000    759.3553      4.9035     54.9038
  2638.0000      0.0000    759.9203      4.8602     50.4559
  2638.2500      0.0000    757.6658      4.8602     48.2802
  2638.5000      0.0000    754.6196      4.8941     47.9816
  2638.7500      0.0000    751.8794      4.9678     49.0461
  2639.0000      0.0000    749.6309      5.0993     50.6841
  2639.2500      0.0000    746.8625      5.3063     52.1706
  2639.5000      0.0000    741.8819      5.5953     53.4217
  2639.7500      0.0000    733.6402      5.9558     55.1904
  2640.0000      0.0000    722.6063      6.3578     58.3497
  2640.2500      0.0000    710.7653      6.7539     62.7936
  2640.5000      0.0000    700.8716      7.0924     67.3928
  2640.7500      0.0000    695.0514      7.3389     71.2234
  2641.0000      0.0000    693.4523      7.4862     74.5520
  2641.2500      0.0000    694.1965      7.5463     78.3733
  2641.5000      0.0000    694.7380      7.5376     83.0135
  2641.7500      0.0000    693.4184      7.4816     87.4546
  2642.0000      0.0000    690.1011      7.4028     90.2944
  2642.2500      0.0000    685.8101      7.3228     91.1242
  2642.5000      0.0000    681.8994      7.2526     90.4528
  2642.7500      0.0000    679.2144      7.1929     88.4629
  2643.0000      0.0000    677.4247      7.1406     84.6560
  2643.2500      0.0000    675.0897      7.0945     78.9915
  2643.5000      0.0000    670.9788      7.0537     72.9046
  2643.7500      0.0000    665.3689      7.0157     68.7173
  2644.0000      0.0000    659.4079      6.9777     67.9714
  2644.2500      0.0000    653.5103      6.9401     70.3337
  2644.5000      0.0000    647.3878      6.9087     74.0203
  2644.7500      0.0000    641.3434      6.8920     77.2980
  2645.0000      0.0000    636.4409      6.8970     79.7766
  2645.2500      0.0000    633.4774      6.9271     82.4434
  2645.5000      0.0000    632.5826      6.9814     86.4680
  2645.7500      0.0000    633.8333      7.0541     91.9054
  2646.0000      0.0000    637.6532      7.1339     97.4155
  2646.2500      0.0000    643.9728      7.2059    101.1755
  2646.5000      0.0000    650.7997      7.2579    102.1345
  2646.7500      0.0000    654.4035      7.2868    100.5774
  2647.0000      0.0000    652.3198      7.2996     97.6650
  2647.2500      0.0000    646.3664      7.3056     94.4686
  2647.5000      0.0000    641.3684      7.3115     91.2937
  2647.7500      0.0000    640.3145      7.3215     87.8209
  2648.0000      0.0000    641.5452      7.3385     84.1010
  2648.2500      0.0000    640.7015      7.3616     81.3588
