~Version Information
VERS.                      2.0: CWLS Log ASCII Standard - VERSION 2.0
WRAP.                       NO: One line per depth step
~Well Information Block
STRT.FT               481.5000: 
STOP.FT              2033.5000: 
STEP.FT                 0.2500: 
NULL.                -999.2500: 
COMP.          Petrogulf Corporation: COMPANY
WELL.            Montoya 7-12R: WELL
FLD.           Purgatorie River: FIELD
LOC.           1769' FNL & 658' FWL: LOCATION
CNTY.               Las Animas: COUNTY
SRVC.                         : SERVICE COMPANY
DATE.          Sat Nov 20 02:31:05 2004: LOG DATE
UWI.           05 071 08240 00: UNIQUE WELL ID
STAT.                 Colorado: STATE
~Curve Information Block
DEPT.FT            0 000 00 00: Depth
SP.mV                         : DIL Spontaneous Potential
RILD.Ohm-m                    : DIL Deep Resistivity
RILM.Ohm-m                    : DIL Medium Resistivity
RLL3.Ohm-m                    : DIL Shallow Resistivity
GR.GAPI                       : Gamma Ray
~Parameter Information Block
~A  Depth        SP         RILD        RILM        RLL3         GR     
# ...
  1097.5000   -162.0997     25.0629     27.2813    164.0326     47.2032
  1097.7500   -161.8630     26.1106     28.6403    156.7434     47.5853
  1098.0000   -161.2718     27.2323     30.0655    142.9445     53.2877
  1098.2500   -160.3624     28.3943     31.5647    125.5462     59.7758
  1098.5000   -159.1720     29.5446     33.1425    107.6631     71.3404
  1098.7500   -157.7351     30.6176     34.7947     91.8609     78.7811
  1099.0000   -156.0949     31.5459     36.5049     79.7071     87.3358
  1099.2500   -154.3199     32.2719     38.2389     71.6973     90.5734
  1099.5000   -152.5255     32.7594     39.9448     67.4721     91.7207
  1099.7500   -150.8708     33.0009     41.5492     66.1680     90.5482
  1100.0000   -149.5347     33.0131     42.9582     66.7508     87.1146
  1100.2500   -148.6731     32.8295     44.0618     68.2492     84.4587
  1100.5000   -148.3702     32.4877     44.7451     69.8761     81.1981
  1100.7500   -148.6165     32.0241     44.9097     71.0685     80.0680
  1101.0000   -149.3140     31.4685     44.5014     71.4845     80.1202
  1101.2500   -150.3073     30.8455     43.5283     70.9813     80.9845
  1101.5000   -151.4364     30.1743     42.0677     69.5666     82.7754
  1101.7500   -152.5789     29.4714     40.2499     67.3474     84.0169
  1102.0000   -153.6724     28.7508     38.2234     64.4618     85.7896
  1102.2500   -154.7086     28.0234     36.1305     61.0238     86.9958
  1102.5000   -155.7068     27.2980     34.0839     57.1110     89.3526
  1102.7500   -156.6817     26.5827     32.1628     52.7884     91.7039
  1103.0000   -157.6218     25.8862     30.4145     48.1572     96.8671
  1103.2500   -158.4854     25.2196     28.8637     43.3941    101.3201
  1103.5000   -159.2140     24.5963     27.5201     38.7615    108.6322
  1103.7500   -159.7571     24.0330     26.3843     34.5826    113.0773
  1104.0000   -160.0924     23.5464     25.4523     31.1995    117.7561
  1104.2500   -160.2374     23.1524     24.7175     28.9384    119.2608
  1104.5000   -160.2302     22.8627     24.1703     28.0858    119.5759
  1104.7500   -160.1172     22.6834     23.7982     28.8616    118.9902
  1105.0000   -159.9168     22.6141     23.5853     31.3664    117.4085
  1105.2500   -159.6134     22.6467     23.5107     35.4971    115.7737
  1105.5000   -159.1559     22.7663     23.5506     40.8608    111.6164
  1105.7500   -158.4872     22.9515     23.6783     46.7468    107.1230
  1106.0000   -157.5673     23.1765     23.8675     52.2114     97.7726
  1106.2500   -156.3992     23.4132     24.0946     56.2849     90.8729
  1106.5000   -155.0351     23.6343     24.3407     58.2409     82.7117
  1106.7500   -153.5648     23.8160     24.5923     57.8186     80.3093
  1107.0000   -152.0980     23.9399     24.8384     55.2895     81.7343
  1107.2500   -150.7424     23.9941     25.0671     51.3358     84.9279
  1107.5000   -149.5940     23.9730     25.2608     46.7955     90.1919
  1107.7500   -148.7254     23.8767     25.3953     42.3909     92.7159
  1108.0000   -148.1790     23.7108     25.4420     38.5544     94.4497
  1108.2500   -147.9610     23.4840     25.3729     35.4027     94.7994
  1108.5000   -148.0345     23.2094     25.1714     32.8332     95.6814
  1108.7500   -148.3181     22.9025     24.8374     30.6700     97.1751
  1109.0000   -148.7012     22.5804     24.3907     28.7828    100.8772
  1109.2500   -149.0661     22.2605     23.8660     27.1363    103.8787
  1109.5000   -149.3205     21.9581     23.3044     25.7723    108.2094
  1109.7500   -149.4162     21.6854     22.7448     24.7553    110.5585
  1110.0000   -149.3582     21.4502     22.2166     24.1193    112.9182
  1110.2500   -149.1950     21.2561     21.7385     23.8406    113.6723
  1110.5000   -148.9997     21.1028     21.3181     23.8422    113.6525
  1110.7500   -148.8511     20.9879     20.9555     24.0177    112.9670
  1111.0000   -148.8160     20.9078     20.6463     24.2646    111.3197
  1111.2500   -148.9426     20.8599     20.3856     24.5086    110.2785
  1111.5000   -149.2531     20.8426     20.1694     24.7129    109.7780
  1111.7500   -149.7500     20.8547     19.9960     24.8736    110.3342
  1112.0000   -150.4110     20.8958     19.8659     25.0065    111.5212
  1112.2500   -151.1989     20.9643     19.7813     25.1316    111.5682
  1112.5000   -152.0630     21.0575     19.7447     25.2607    109.6504
  1112.7500   -152.9555     21.1723     19.7587     25.3931    107.4258
  1113.0000   -153.8301     21.3059     19.8258     25.5219    104.1493
  1113.2500   -154.6496     21.4571     19.9490     25.6482    102.7418
  1113.5000   -155.3817     21.6273     20.1329     25.7974    102.4144
  1113.7500   -155.9933     21.8220     20.3848     26.0296    103.3843
  1114.0000   -156.4486     22.0488     20.7150     26.4385    105.9542
  1114.2500   -156.7164     22.3161     21.1366     27.1356    107.7262
  1114.5000   -156.7769     22.6322     21.6650     28.2274    109.3936
  1114.7500   -156.6359     23.0015     22.3152     29.7920    109.5587
  1115.0000   -156.3223     23.4253     23.1000     31.8660    108.4920
  1115.2500   -155.8804     23.9006     24.0277     34.4409    107.1719
  1115.5000   -155.3598     24.4216     25.1004     37.4683    104.7291
  1115.7500   -154.7994     24.9816     26.3143     40.8652    102.8830
  1116.0000   -154.2333     25.5769     27.6612     44.5202     99.6599
  1116.2500   -153.6934     26.2073     29.1319     48.3000     97.1747
  1116.5000   -153.2270     26.8780     30.7204     52.0657     93.1449
  1116.7500   -152.9007     27.5987     32.4287     55.6960     90.4061
  1117.0000   -152.7969     28.3807     34.2647     59.1116     86.3511
  1117.2500   -152.9891     29.2341     36.2397     62.2871     83.7737
  1117.5000   -153.5179     30.1640     38.3597     65.2402     80.3478
  1117.7500   -154.3606     31.1681     40.6110     68.0015     78.4119
  1118.0000   -155.4229     32.2349     42.9524     70.5804     75.8273
  1118.2500   -156.5498     33.3438     45.3050     72.9473     74.1862
  1118.5000   -157.5606     34.4667     47.5559     75.0491     71.8495
  1118.7500   -158.2932     35.5718     49.5744     76.8528     70.3768
  1119.0000   -158.6533     36.6290     51.2360     78.4010     68.0110
  1119.2500   -158.6430     37.6148     52.4531     79.8537     66.0928
  1119.5000   -158.3595     38.5199     53.1891     81.4934     62.7002
  1119.7500   -157.9764     39.3542     53.4646     83.6794     60.4268
  1120.0000   -157.6856     40.1462     53.3394     86.7556     57.7021
  1120.2500   -157.6492     40.9405     52.8930     90.9321     56.5034
  1120.5000   -157.9525     41.7896     52.2072     96.1782     55.3589
  1120.7500   -158.5880     42.7449     51.3528    102.1706     54.7262
  1121.0000   -159.4599     43.8460     50.3893    108.3258     53.5887
  1121.2500   -160.4203     45.1105     49.3625    113.9234     52.7119
  1121.5000   -161.3138     46.5291     48.3120    118.2860     51.6255
  1121.7500   -162.0152     48.0602     47.2728    120.9554     51.3223
  1122.0000   -162.4641     49.6306     46.2796    121.8037     51.7207
  1122.2500   -162.6683     51.1386     45.3663    121.0403     52.5854
  1122.5000   -162.6904     52.4691     44.5659    119.1223     54.6725
  1122.7500   -162.6172     53.5116     43.9098    116.6105     56.2709
  1123.0000   -162.5207     54.1797     43.4270    114.0279     58.0111
  1123.2500   -162.4392     54.4340     43.1415    111.7681     58.2946
  1123.5000   -162.3669     54.2880     43.0730    110.0728     57.4321
  1123.7500   -162.2680     53.8049     43.2309    109.0688     56.3779
  1124.0000   -162.1047     53.0834     43.6140    108.8288     54.9431
  1124.2500   -161.8517     52.2327     44.2057    109.4081     54.6113
  1124.5000   -161.5088     51.3584     44.9696    110.8251     55.6544
  1124.7500   -161.0869     50.5437     45.8500    112.9880     57.2200
  1125.0000   -160.5982     49.8454     46.7722    115.6058     59.6373
  1125.2500   -160.0393     49.2904     47.6561    118.1526     60.5251
