~Version Information
VERS.                      2.0: CWLS Log ASCII Standard - VERSION 2.0
WRAP.                       NO: One line per depth step
~Well Information Block
STRT.FT               460.0000: 
STOP.FT               961.2000: 
STEP.FT                 0.1000: 
NULL.                -999.2500: 
COMP.          Pioneer Natural Resources: COMPANY
WELL.                Pug 33-19: WELL
FLD.           Purgatoire River: FIELD
LOC.           1381' FSL & 2140' FEL: LOCATION
PROV.                 Colorado: PROVINCE
CNTY.               Las Animas: COUNTRY
SRVC.                Patterson: SERVICE COMPANY
DATE.          Wed Dec 15 07:19:20 2004: LOG DATE
UWI.           05 071 08193 00: UNIQUE WELL ID
~Curve Information Block
DEPT.FT            0 000 00 00: Depth
DCAL.in                       : CDL Caliper
RHOB.g/cc                     : CDL Bulk Density
RHOC.g/cc                     : CDL Density Correction
DPOR.pu                       : CDL Density Porosity
NPOR.pu                       : Neutron Porosity
GR.GAPI                       : Gamma Ray
~Parameter Information Block
~A  Depth       DCAL        RHOB        RHOC        DPOR        NPOR         GR     
# ...
   556.0000      7.9610      2.3475      0.0964     18.3320     25.3968    111.1391
   556.1000      7.9610      2.4005      0.1402     15.1220     25.2194    105.6704
   556.2000      7.9610      2.4578      0.1622     11.6461     24.5088     97.6593
   556.3000      7.9576      2.5109      0.1649      8.4320     23.8041     93.7234
   556.4000      7.9576      2.5491      0.1637      6.1161     23.2649     97.3769
   556.5000      7.9608      2.5702      0.1584      4.8344     22.8422    102.9219
   556.6000      7.9608      2.5801      0.1614      4.2346     22.7207    103.0524
   556.7000      7.9608      2.5841      0.1299      3.9951     22.8254    101.9669
   556.8000      7.9690      2.5874      0.1251      3.7914     23.0759    106.9222
   556.9000      7.9690      2.5899      0.1354      3.6422     23.5944    112.0382
   557.0000      7.9802      2.5860      0.0943      3.8809     24.0083    112.0644
   557.1000      7.9802      2.5786      0.0957      4.3295     23.9961    115.1573
   557.2000      7.9802      2.5750      0.0646      4.5442     23.7911    122.4312
   557.3000      7.9929      2.5651      0.1059      5.1439     23.6381    123.7927
   557.4000      7.9929      2.5314      0.0986      7.1897     23.6980    118.9816
   557.5000      8.0047      2.4865      0.0256      9.9087     24.0814    115.0782
   557.6000      8.0047      2.4556      0.0455     11.7834     24.7909    114.4185
   557.7000      8.0047      2.4396      0.0405     12.7513     25.7280    116.4944
   557.8000      8.0197      2.4333      0.0346     13.1330     26.4366    120.4553
   557.9000      8.0197      2.4350      0.0403     13.0309     26.8115    123.4117
   558.0000      8.0386      2.4368      0.0450     12.9240     27.3807    125.5051
   558.1000      8.0386      2.4281      0.0953     13.4476     28.1808    130.3780
   558.2000      8.0386      2.4089      0.0466     14.6119     29.0044    135.7854
   558.3000      8.0587      2.3942      0.0473     15.5027     29.6242    134.8628
   558.4000      8.0587      2.3929      0.0782     15.5816     29.4570    128.9713
   558.5000      8.0726      2.3971      0.0972     15.3298     28.5161    126.7169
   558.6000      8.0726      2.3988      0.1006     15.2270     27.6266    128.0071
   558.7000      8.0726      2.4053      0.0718     14.8313     27.3312    126.4994
   558.8000      8.0691      2.4225      0.0980     13.7879     27.4618    124.4962
   558.9000      8.0691      2.4384      0.1003     12.8252     27.5377    125.5926
   559.0000      8.0447      2.4469      0.0715     12.3091     27.3255    127.5076
   559.1000      8.0447      2.4557      0.0635     11.7780     26.9107    129.4044
   559.2000      8.0447      2.4664      0.0820     11.1254     26.2377    130.5115
   559.3000      8.0094      2.4788      0.0803     10.3746     25.3031    130.1602
   559.4000      8.0094      2.4914      0.1131      9.6143     24.6880    130.7003
   559.5000      7.9828      2.4947      0.1081      9.4151     24.6564    132.5587
   559.6000      7.9828      2.4908      0.0485      9.6496     24.7311    131.2243
   559.7000      7.9828      2.4958      0.0821      9.3452     24.6529    127.1572
   559.8000      7.9720      2.5131      0.0820      8.2947     24.5366    126.4556
   559.9000      7.9720      2.5280      0.0874      7.3953     24.4557    128.5942
   560.0000      7.9700      2.5241      0.1032      7.6300     24.2722    128.3795
   560.1000      7.9700      2.5092      0.0170      8.5316     24.0130    125.7434
   560.2000      7.9700      2.5011      0.0460      9.0269     24.2292    126.1297
   560.3000      7.9713      2.4949      0.0425      9.3983     25.0551    131.0653
   560.4000      7.9713      2.4828      0.0604     10.1319     25.9200    135.1267
   560.5000      7.9729      2.4695      0.0409     10.9370     26.4676    135.1695
   560.6000      7.9729      2.4603      0.0346     11.4966     26.7518    132.0918
   560.7000      7.9729      2.4574     -0.0003     11.6730     27.1172    128.9128
   560.8000      7.9727      2.4605      0.0163     11.4868     27.6151    127.2030
   560.9000      7.9727      2.4608      0.0519     11.4691     27.7074    123.2011
   561.0000      7.9715      2.4530      0.0473     11.9400     27.6285    115.7808
   561.1000      7.9715      2.4401      0.0488     12.7217     28.2214    110.0587
   561.2000      7.9715      2.4256      0.0145     13.6021     29.2561    108.1821
   561.3000      7.9717      2.4155      0.0408     14.2139     29.9470    108.0873
   561.4000      7.9717      2.4100      0.0328     14.5444     29.9523    108.1485
   561.5000      7.9716      2.4042      0.0259     14.8992     29.5003    108.3451
   561.6000      7.9716      2.3961      0.0272     15.3876     29.1115    108.7508
   561.7000      7.9716      2.3853      0.0489     16.0445     28.7827    110.2288
   561.8000      7.9701      2.3716      0.0408     16.8722     28.2389    113.5959
   561.9000      7.9701      2.3586      0.0433     17.6584     27.9535    114.5638
   562.0000      7.9696      2.3475      0.0644     18.3331     28.4633    112.3062
   562.1000      7.9696      2.3357      0.0776     19.0455     29.1924    115.2901
   562.2000      7.9696      2.3237      0.0591     19.7741     29.2994    123.0441
   562.3000      7.9701      2.3183      0.0269     20.1035     28.8746    126.0079
   562.4000      7.9701      2.3308      0.0091     19.3463     28.8184    122.2034
   562.5000      7.9708      2.3631      0.0813     17.3878     29.3938    115.9202
   562.6000      7.9708      2.3991      0.1039     15.2071     29.4625    113.1014
   562.7000      7.9708      2.4215      0.1225     13.8468     28.5057    114.1149
   562.8000      7.9718      2.4289      0.0939     13.3983     27.3055    114.6682
   562.9000      7.9718      2.4308      0.1065     13.2844     26.4313    115.4699
   563.0000      7.9731      2.4302      0.1171     13.3222     26.0216    119.6706
   563.1000      7.9731      2.4220      0.1193     13.8207     25.9087    126.3370
   563.2000      7.9731      2.4092      0.0647     14.5950     25.8146    133.1643
   563.3000      7.9766      2.4058      0.0741     14.8001     25.8373    137.5390
   563.4000      7.9766      2.4169      0.0430     14.1298     26.1927    137.6547
   563.5000      7.9796      2.4323      0.0802     13.1916     26.7233    135.7686
   563.6000      7.9796      2.4425      0.0282     12.5733     27.0810    135.9161
   563.7000      7.9796      2.4494      0.0516     12.1586     27.2377    138.4264
   563.8000      7.9810      2.4530      0.0478     11.9374     27.3216    140.1826
   563.9000      7.9810      2.4520      0.0570     12.0014     27.4610    137.0243
   564.0000      7.9818      2.4547      0.0301     11.8355     27.8142    130.8158
   564.1000      7.9818      2.4692      0.0450     10.9576     28.3188    127.2943
   564.2000      7.9818      2.4823      0.1073     10.1630     28.7308    124.8361
   564.3000      7.9803      2.4804      0.0474     10.2773     28.5662    119.4416
   564.4000      7.9803      2.4733      0.0242     10.7089     27.8509    115.0498
   564.5000      7.9751      2.4694      0.0329     10.9448     27.8444    115.5156
   564.6000      7.9751      2.4646      0.0506     11.2354     28.7254    116.2694
   564.7000      7.9751      2.4588      0.0526     11.5898     28.8287    116.6192
   564.8000      7.9707      2.4526      0.0740     11.9615     27.8590    121.1996
   564.9000      7.9707      2.4454      0.0731     12.4004     27.1433    127.4100
   565.0000      7.9705      2.4504      0.0562     12.0942     27.1501    128.4044
   565.1000      7.9705      2.4770      0.1141     10.4845     27.7418    126.1899
   565.2000      7.9705      2.5089      0.1139      8.5490     28.4982    126.4861
   565.3000      7.9720      2.5277      0.1155      7.4105     28.7476    127.8807
   565.4000      7.9720      2.5313      0.1003      7.1969     28.5169    126.8711
   565.5000      7.9719      2.5257      0.1173      7.5335     27.9837    123.7767
