~Version Information
 VERS.                                  2.0 : CWLS LAS VERSION
 WRAP.                                   NO : WRAPING MODE
 SWARE .                 MController 2.5.0N : SOFTWARE VERSION
~Well Information
 WELL.                           Zink 44-10 : WELL
 COMP.    Pioneer Natural Resources USA Inc : COMPANY
 FLD.                      Purgatoire River : FIELD
 LOC.                SE/SE Sec 10 T32S R66W : LOCATION
 DATE.                              5/29/05 : DATE(S) LOGGED
 SRVC.       Blanco Geological Services LLC : SERVICE COMPANY
 STAT.                                   CO : STATE
 CNTY.                           Las Animas : COUNTY
 CTRY.                                  USA : COUNTRY
 API.                       05-071-08380-00 : API NUMBER
 STRT.FT                             620.00 : START DEPTH
 STOP.FT                            2635.00 : STOP DEPTH
 STEP.FT                               1.00 : DEPTH INCREMENT
 NULL.                                -9999 : NULL VALUE
~Curve information
 DEPTH.FT                                   :
 ROP.MIN/FT                                 :
 GAS.UNITS                                  :
~ASCII Log data
# ...
      1420.0         0.23         34.8 
      1421.0         0.23         33.9 
      1422.0         0.27         33.1 
      1423.0         0.30         36.8 
      1424.0         0.27         40.4 
      1425.0         0.25         43.8 
      1426.0         0.10         44.4 
      1427.0         0.13         44.5 
      1428.0         0.23         42.2 
      1429.0         0.40         39.4 
      1430.0         0.23         35.1 
      1431.0         0.17         33.8 
      1432.0         0.23         31.5 
      1433.0         0.27         28.2 
      1434.0         0.23         25.7 
      1435.0         0.20         27.6 
      1436.0         1.85        110.0 
      1437.0         0.43        102.7 
      1438.0         0.43         81.2 
      1439.0         0.27         62.3 
      1440.0         0.20         54.4 
      1441.0         0.27         51.0 
      1442.0         0.23         48.3 
      1443.0         0.37         45.6 
      1444.0         0.27         42.1 
      1445.0         0.25         38.6 
      1446.0         0.23         37.0 
      1447.0         0.17         36.3 
      1448.0         0.17         36.0 
      1449.0         0.17         35.5 
      1450.0         0.20         35.4 
      1451.0         0.20         34.4 
      1452.0         0.23         34.5 
      1453.0         0.20         34.8 
      1454.0         0.17         35.6 
      1455.0         0.20         36.5 
      1456.0         0.23         39.5 
      1457.0         0.23         42.1 
      1458.0         0.20         41.2 
      1459.0         0.20         37.3 
      1460.0         0.20         33.2 
      1461.0         0.38         32.1 
      1462.0         0.33         29.5 
      1463.0         0.20         25.9 
      1464.0         0.23         24.3 
      1465.0         0.20         25.5 
      1466.0         2.03        106.9 
      1467.0         0.35         84.1 
      1468.0         0.27         66.3 
      1469.0         0.17         55.9 
      1470.0         0.23         51.8 
      1471.0         0.23         47.4 
      1472.0         0.27         45.2 
      1473.0         0.23         44.1 
      1474.0         0.23         43.5 
      1475.0         0.20         43.0 
      1476.0         0.30         40.7 
      1477.0         0.27         36.3 
      1478.0         0.23         34.4 
      1479.0         0.20         32.8 
      1480.0         0.23         32.2 
      1481.0         0.25         33.2 
      1482.0         0.20         34.8 
      1483.0         0.13         35.9 
      1484.0         0.17         36.9 
      1485.0         0.13         39.8 
      1486.0         0.20         39.9 
      1487.0         0.23         37.9 
      1488.0         0.23         33.7 
      1489.0         0.17         31.3 
      1490.0         0.20         30.2 
      1491.0         0.23         30.0 
      1492.0         0.23         28.4 
      1493.0         0.27         25.8 
      1494.0         0.23         25.4 
      1495.0         0.23         28.7 
      1496.0         1.25         94.2 
      1497.0         0.33         94.4 
      1498.0         0.47         85.2 
      1499.0         0.37         65.2 
      1500.0         0.30         51.2 
      1501.0         0.27         45.4 
      1502.0         0.23         42.9 
      1503.0         0.23         41.9 
      1504.0         0.25         41.5 
      1505.0         0.27         38.7 
      1506.0         0.23         37.3 
      1507.0         0.23         36.5 
      1508.0         0.23         35.9 
      1509.0         0.20         34.8 
      1510.0         0.23         33.9 
      1511.0         0.27         32.8 
      1512.0         0.13         32.1 
      1513.0         0.23         33.8 
      1514.0         0.27         33.6 
      1515.0         0.20         36.3 
      1516.0         0.17         38.7 
      1517.0         0.20         41.4 
      1518.0         0.20         42.9 
      1519.0         0.25         47.3 
      1520.0         0.17         51.8 
      1521.0         0.13         51.4 
      1522.0         0.37         50.9 
      1523.0         0.50         48.7 
      1524.0         0.37         46.7 
      1525.0         0.47         41.1 
      1526.0         2.22        160.4 
      1527.0         0.37        129.7 
      1528.0         0.33        105.8 
      1529.0         0.27         89.1 
      1530.0         0.20         80.6 
      1531.0         0.20         76.1 
      1532.0         0.17         73.5 
      1533.0         0.23         72.0 
      1534.0         0.33         69.9 
      1535.0         0.27         68.5 
      1536.0         0.32         66.0 
      1537.0         0.23         61.4 
      1538.0         0.27         59.3 
      1539.0         0.20         57.1 
      1540.0         0.23         55.4 
      1541.0         0.23         54.5 
      1542.0         0.20         53.3 
      1543.0         0.17         52.7 
      1544.0         0.17         53.8 
      1545.0         0.27         60.2 
      1546.0         0.20         58.5 
      1547.0         0.23         53.4 
      1548.0         0.20         49.9 
      1549.0         0.17         48.4 
      1550.0         0.17         46.7 
      1551.0         0.28         45.7 
      1552.0         0.23         42.3 
      1553.0         0.27         38.8 
      1554.0         0.23         38.7 
      1555.0         0.23         45.9 
      1556.0         1.80        167.6 
      1557.0         0.33        157.1 
      1558.0         0.35        130.1 
      1559.0         0.27        108.3 
      1560.0         0.27         96.2 
      1561.0         0.23         89.2 
      1562.0         0.20         83.9 
      1563.0         0.17         81.9 
      1564.0         0.20         82.3 
      1565.0         0.20         82.6 
      1566.0         0.20         81.8 
      1567.0         0.23         81.9 
      1568.0         0.23         81.7 
      1569.0         0.20         81.9 
      1570.0         0.23         89.9 
      1571.0         0.27        110.0 
      1572.0         0.13        119.2 
      1573.0         0.35        137.6 
      1574.0         0.27        143.1 
      1575.0         0.30        150.3 
      1576.0         0.30        156.4 
      1577.0         0.27        176.8 
      1578.0         0.40        177.0 
      1579.0         0.33        167.6 
      1580.0         0.17        165.1 
      1581.0         0.10        164.9 
      1582.0         0.13        163.3 
      1583.0         0.20        160.4 
      1584.0         0.27        150.3 
      1585.0         0.17        134.9 
      1586.0         7.42        436.6 
      1587.0         0.30        322.9 
      1588.0         0.37        323.4 
      1589.0         0.37        296.7 
      1590.0         0.33        257.9 
      1591.0         0.30        223.1 
      1592.0         0.30        194.0 
      1593.0         0.27        176.4 
      1594.0         0.20        178.2 
      1595.0         0.17        184.6 
      1596.0         0.25        188.9 
      1597.0         0.20        193.2 
      1598.0         0.20        196.8 
      1599.0         0.23        196.8 
      1600.0         0.23        195.4 
      1601.0         0.23        194.6 
      1602.0         0.27        198.0 
      1603.0         0.30        198.1 
      1604.0         0.27        198.8 
      1605.0         0.27        199.7 
      1606.0         0.30        197.1 
      1607.0         0.27        204.6 
      1608.0         0.27        217.7 
      1609.0         0.32        210.2 
      1610.0         0.23        184.7 
      1611.0         0.27        179.7 
      1612.0         0.23        176.2 
      1613.0         0.20        169.5 
      1614.0         0.23        156.6 
      1615.0         0.23        139.4 
      1616.0         3.45       1222.7 
      1617.0         0.27        549.4 
      1618.0         0.27        494.2 
      1619.0         0.30        488.9 
