~Version Information
VERS.                      2.0: CWLS Log ASCII Standard - VERSION 2.0
WRAP.                       NO: One line per depth step
~Well Information Block
STRT.FT                -2.5000: 
STOP.FT              2329.5000: 
STEP.FT                 0.2500: 
NULL.                -999.2500: 
COMP.          Pioneer Natural Resources: COMPANY
WELL.              Whinny 42-2: WELL
FLD.           Purgatorie River: FIELD
LOC.           1836' FNL & 466' FEL--: LOCATION
PROV.                       CO: PROVINCE
CNTY.               Las Animas: COUNTRY
SRVC.          Patterson Wireline: SERVICE COMPANY
DATE.          Mon Aug 29 13:18:04 2005: LOG DATE
UWI.           05 071 08406 00: UNIQUE WELL ID
~Curve Information Block
DEPT.FT            0 000 00 00: Depth
CCL.                          : Casing Collar Locator
TT3.usec                      : CBL 3' Travel Time
AMP3.mV                       : CBL 3' Amplitude
GR.GAPI                       : Gamma Ray
~Parameter Information Block
~A  Depth       CCL         TT3         AMP3         GR     
# ...
  2141.5000      0.0000    442.9193      7.9669     51.9835
  2141.7500      0.0000    497.4391      7.3978     49.6229
  2142.0000      0.0000    561.5112      6.8043     48.8272
  2142.2500      0.0000    619.6907      6.2727     49.5247
  2142.5000      0.0000    659.0723      5.8517     51.3214
  2142.7500      0.0000    675.3522      5.5501     53.7479
  2143.0000      0.0000    670.6530      5.3461     56.3703
  2143.2500      0.0000    649.7616      5.2060     58.7142
  2143.5000      0.0000    621.9574      5.1007     60.0891
  2143.7500      0.0000    602.4988      5.0127     59.8308
  2144.0000      0.0000    603.6801      4.9385     58.1103
  2144.2500      0.0000    622.3643      4.8879     56.2546
  2144.5000      0.0000    642.1984      4.8782     55.6304
  2144.7500      0.0000    650.2344      4.9208     56.1589
  2145.0000      0.0000    647.3580      5.0137     56.4649
  2145.2500      0.0000    642.2982      5.1443     55.6107
  2145.5000      0.0000    640.7802      5.2971     54.2378
  2145.7500      0.0000    642.5657      5.4566     53.7466
  2146.0000      0.0000    645.1942      5.6064     54.6467
  2146.2500      0.0000    646.7611      5.7310     56.0902
  2146.5000      0.0000    645.2285      5.8216     56.9150
  2146.7500      0.0000    638.0226      5.8798     56.6651
  2147.0000      0.0000    624.9612      5.9178     55.5467
  2147.2500      0.0000    611.6484      5.9522     53.9167
  2147.5000      0.0000    607.2224      5.9964     52.1509
  2147.7500      0.0000    616.3128      6.0568     50.6018
  2148.0000      0.0000    634.1176      6.1340     49.2545
  2148.2500      0.0000    651.0865      6.2217     47.7307
  2148.5000      0.0000    661.6052      6.3024     45.9913
  2148.7500      0.0000    667.3187      6.3467     44.7274
  2149.0000      0.0000    673.8563      6.3276     44.7492
  2149.2500      0.0000    685.6603      6.2402     46.1449
  2149.5000      0.0000    702.5642      6.1094     48.1027
  2149.7500      0.0000    719.7074      5.9773     49.4339
  2150.0000      0.0000    731.0862      5.8795     49.4006
  2150.2500      0.0000    734.0941      5.8271     48.1818
  2150.5000      0.0000    730.7964      5.8061     46.4822
  2150.7500      0.0000    725.3088      5.7891     44.7872
  2151.0000      0.0000    720.3165      5.7510     43.2575
  2151.2500      0.0000    715.5941      5.6768     42.1997
  2151.5000      0.0000    708.8777      5.5645     42.2853
  2151.7500      0.0000    697.8288      5.4258     44.2259
  2152.0000      0.0000    681.3159      5.2842     48.1987
  2152.2500      0.0000    658.9699      5.1678     53.4141
  2152.5000      0.0000    630.3419      5.0961     58.4004
  2152.7500      0.0000    596.0971      5.0722     62.0629
  2153.0000      0.0000    560.3368      5.0862     64.4911
  2153.2500      0.0000    530.2388      5.1263     66.8029
  2153.5000      0.0000    512.7772      5.1857     70.3947
  2153.7500      0.0000    512.1174      5.2629     75.9513
  2154.0000      0.0000    528.8401      5.3557     82.5636
  2154.2500      0.0000    559.2559      5.4537     88.0530
  2154.5000      0.0000    595.7485      5.5391     90.6967
  2154.7500      0.0000    630.3937      5.5966     90.5367
  2155.0000      0.0000    659.3157      5.6263     89.0588
  2155.2500      0.0000    682.8172      5.6429     88.1075
  2155.5000      0.0000    701.7625      5.6620     89.0570
  2155.7500      0.0000    715.5117      5.6860     92.2573
  2156.0000      0.0000    723.2238      5.7050     96.8398
  2156.2500      0.0000    725.0892      5.7057    101.1834
  2156.5000      0.0000    721.5296      5.6797    103.8118
  2156.7500      0.0000    712.5568      5.6289    104.2017
  2157.0000      0.0000    698.7051      5.5671    103.1379
  2157.2500      0.0000    682.0643      5.5119    102.1991
  2157.5000      0.0000    666.0117      5.4740    102.5344
  2157.7500      0.0000    653.6392      5.4537    104.1638
  2158.0000      0.0000    645.9783      5.4479    106.4866
  2158.2500      0.0000    641.7242      5.4552    109.0483
  2158.5000      0.0000    638.8311      5.4728    111.6100
  2158.7500      0.0000    636.0538      5.4909    113.8968
  2159.0000      0.0000    632.7109      5.4965    115.5931
  2159.2500      0.0000    627.3027      5.4829    116.5051
  2159.5000      0.0000    616.9825      5.4547    116.7512
  2159.7500      0.0000    599.3255      5.4275    116.7540
  2160.0000      0.0000    575.7766      5.4218    116.7325
  2160.2500      0.0000    553.5056      5.4544    116.2298
  2160.5000      0.0000    542.3952      5.5297    114.4336
  2160.7500      0.0000    548.5997      5.6380    110.8116
  2161.0000      0.0000    570.1753      5.7615    105.2625
  2161.2500      0.0000    598.6464      5.8815     98.0758
  2161.5000      0.0000    625.1187      5.9808     90.2068
  2161.7500      0.0000    645.6883      6.0456     83.3700
  2162.0000      0.0000    661.5811      6.0694     79.2946
  2162.2500      0.0000    675.0121      6.0578     78.4980
  2162.5000      0.0000    686.0693      6.0261     79.7387
  2162.7500      0.0000    693.2592      5.9903     80.8799
  2163.0000      0.0000    695.2243      5.9571     80.4872
  2163.2500      0.0000    691.1053      5.9196     78.7531
  2163.5000      0.0000    680.4904      5.8651     77.1605
  2163.7500      0.0000    664.3981      5.7889     77.3693
  2164.0000      0.0000    646.1212      5.7039     80.0338
  2164.2500      0.0000    629.8635      5.6363     84.2559
  2164.5000      0.0000    617.7296      5.6125     88.1158
  2164.7500      0.0000    607.8333      5.6468     89.9703
  2165.0000      0.0000    595.2018      5.7374     89.6056
  2165.2500      0.0000    575.0738      5.8671     88.4453
  2165.5000      0.0000    546.6937      6.0103     88.4561
  2165.7500      0.0000    514.4854      6.1430     90.3371
  2166.0000      0.0000    484.8650      6.2502     92.6852
  2166.2500      0.0000    461.7792      6.3268     93.2234
  2166.5000      0.0000    445.5362      6.3716     90.8550
  2166.7500      0.0000    434.7633      6.3818     86.3642
  2167.0000      0.0000    428.0421      6.3546     81.3556
  2167.2500      0.0000    424.0871      6.2910     76.9645
  2167.5000      0.0000    421.6773      6.1985     73.7522
  2167.7500      0.0000    419.9130      6.0899     72.4524
  2168.0000      0.0000    418.3955      5.9823     73.9505
  2168.2500      0.0000    417.0982      5.8971     78.0230
  2168.5000      0.0000    416.1363      5.8566     82.6797
  2168.7500      0.0000    415.5988      5.8762     85.6662
  2169.0000      0.0000    415.4845      5.9563     86.5889
  2169.2500      0.0000    415.6477      6.0810     86.9601
  2169.5000      0.0000    415.7278      6.2270     88.1323
  2169.7500      0.0000    415.1885      6.3746     89.5895
  2170.0000      0.0000    413.5717      6.5120     89.4047
  2170.2500      0.0000    410.8250      6.6307     86.3452
  2170.5000      0.0000    407.3702      6.7223     81.3371
  2170.7500      0.0000    403.7735      6.7817     76.6348
  2171.0000      0.0000    400.3021      6.8117     73.7075
  2171.2500      0.0000    396.7284      6.8219     72.2487
  2171.5000      0.0000    392.5159      6.8227     71.0872
  2171.7500      0.0000    387.3860      6.8211     69.5520
  2172.0000      0.0000    382.0117      6.8201     67.8471
  2172.2500      0.0000    378.0860      6.8179     66.5229
  2172.5000      0.0000    377.2476      6.7992     65.8605
  2172.7500      0.0000    379.9639      6.7338     65.5574
  2173.0000      0.0000    385.9496      6.5974     64.7777
  2173.2500      0.0000    395.9554      6.4106     62.7909
  2173.5000      0.0000    412.2009      6.2474     59.8718
  2173.7500      0.0000    435.7165      6.1756     57.2728
  2174.0000      0.0000    462.7004      6.1825     56.0069
  2174.2500      0.0000    484.5326      6.1968     56.0919
  2174.5000      0.0000    493.1586      6.1936     57.1700
  2174.7500      0.0000    488.3381      6.2273     59.0438
