~Version Information
VERS.                      2.0: CWLS Log ASCII Standard - VERSION 2.0
WRAP.                       NO: One line per depth step
~Well Information Block
STRT.FT               700.0000: 
STOP.FT              1869.5000: 
STEP.FT                 0.1000: 
NULL.                -999.2500: 
COMP.          Petrogulf Corporation: COMPANY
WELL.             State 16-24R: WELL
FLD.           Purgatorie River: FIELD
LOC.           541' FSL & 2371' FWL: LOCATION
PROV.                 Colorado: PROVINCE
CNTY.               Las Animas: COUNTRY
SRVC.                Patterson: SERVICE COMPANY
DATE.          Fri Aug 12 09:07:22 2005: LOG DATE
UWI.                071-08312 : UNIQUE WELL ID
~Curve Information Block
DEPT.FT            0 000 00 00: Depth
DCAL.in                       : CDL Caliper
RHOB.g/cc                     : CDL Bulk Density
RHOC.g/cc                     : CDL Density Correction
DPOR.pu                       : CDL Density Porosity
GR.GAPI                       : Gamma Ray
NPOR.pu                       : Neutron Porosity
~Parameter Information Block
~A  Depth       DCAL        RHOB        RHOC        DPOR         GR         NPOR    
# ...
  1535.2000      7.8106      2.5557      0.0815      5.7139     86.2001     22.4739
  1535.3000      7.7657      2.5592      0.0566      5.5026     82.3245     22.0145
  1535.4000      7.7657      2.5654      0.0765      5.1300     77.7085     21.5112
  1535.5000      7.7778      2.5778      0.0608      4.3772     74.4054     21.1654
  1535.6000      7.7778      2.6020      0.0688      2.9065     73.1763     21.0959
  1535.7000      7.7778      2.6287      0.1284      1.2923     71.9401     20.9642
  1535.8000      7.8509      2.6441      0.0984      0.3548     71.1135     20.3483
  1535.9000      7.8509      2.6454      0.1387      0.2815     71.4420     19.3381
  1536.0000      7.8411      2.6343      0.0729      0.9508     70.6798     18.5232
  1536.1000      7.8411      2.6230      0.0420      1.6347     68.1711     18.4836
  1536.2000      7.8411      2.6214      0.0534      1.7322     67.1827     18.9602
  1536.3000      7.8355      2.6244      0.0826      1.5521     68.7634     19.0752
  1536.4000      7.8355      2.6265      0.0606      1.4253     69.3182     18.5774
  1536.5000      7.8978      2.6344      0.0146      0.9435     66.6231     18.1051
  1536.6000      7.8978      2.6509      0.0923     -0.0553     62.7486     17.9273
  1536.7000      7.8978      2.6633      0.0772     -0.8036     59.8443     17.5594
  1536.8000      7.9058      2.6630      0.0928     -0.7897     58.4110     16.7288
  1536.9000      7.9058      2.6527      0.0711     -0.1613     59.0635     15.7347
  1537.0000      7.9153      2.6360      0.0682      0.8457     60.7240     14.9874
  1537.1000      7.9153      2.6207      0.0415      1.7771     60.6551     14.9012
  1537.2000      7.9153      2.6151      0.0401      2.1181     59.1374     15.4864
  1537.3000      7.8720      2.6162      0.0937      2.0502     57.9568     16.0704
  1537.4000      7.8720      2.6204      0.0304      1.7964     55.9086     16.1196
  1537.5000      7.7904      2.6329      0.0541      1.0364     52.1397     15.7735
  1537.6000      7.7904      2.6486      0.0937      0.0873     48.5922     15.3304
  1537.7000      7.7904      2.6519      0.1095     -0.1138     47.4752     15.1813
  1537.8000      7.8276      2.6451      0.0569      0.2966     48.9621     15.6741
  1537.9000      7.8276      2.6446      0.0687      0.3287     51.7182     16.6636
  1538.0000      7.8757      2.6496      0.0783      0.0253     55.5094     17.6523
  1538.1000      7.8757      2.6510      0.0375     -0.0602     59.0051     18.3025
  1538.2000      7.8757      2.6505      0.0342     -0.0274     60.0418     18.6508
  1538.3000      7.8465      2.6456      0.0800      0.2648     61.6497     19.0344
  1538.4000      7.8465      2.6298      0.0391      1.2214     67.7454     19.5324
  1538.5000      7.8429      2.6083      0.0558      2.5297     76.5360     19.9720
  1538.6000      7.8429      2.5898      0.0140      3.6461     84.7948     20.3493
  1538.7000      7.8429      2.5755      0.0594      4.5145     91.0345     20.9086
  1538.8000      7.8666      2.5607      0.0239      5.4094     95.3925     21.5280
  1538.9000      7.8666      2.5513     -0.0097      5.9825    100.4937     21.6545
  1539.0000      7.9051      2.5524      0.0262      5.9134    108.6242     21.6323
  1539.1000      7.9051      2.5524      0.0242      5.9169    118.2835     22.1841
  1539.2000      7.9051      2.5451      0.0528      6.3575    125.6145     23.0482
  1539.3000      7.8717      2.5399      0.0741      6.6751    128.6013     23.8100
  1539.4000      7.8717      2.5442      0.0686      6.4109    128.6496     24.6727
  1539.5000      7.8409      2.5567      0.0712      5.6565    127.5450     25.6737
  1539.6000      7.8409      2.5689      0.0989      4.9138    127.7223     26.5518
  1539.7000      7.8409      2.5733      0.1026      4.6496    130.3730     27.1862
  1539.8000      7.9031      2.5703      0.0808      4.8295    132.9004     27.5839
  1539.9000      7.9031      2.5652      0.0826      5.1402    133.0572     27.7074
  1540.0000      7.9005      2.5607      0.0785      5.4149    129.2635     27.6322
  1540.1000      7.9005      2.5551      0.0820      5.7540    120.9002     27.5964
  1540.2000      7.9005      2.5484      0.0563      6.1562    112.5300     27.6415
  1540.3000      7.8915      2.5507      0.0303      6.0195    109.6479     27.5518
  1540.4000      7.8915      2.5661      0.0425      5.0847    110.2503     27.3647
  1540.5000      7.9793      2.5801      0.0640      4.2342    109.2782     27.3508
  1540.6000      7.9793      2.5797      0.0580      4.2619    108.5302     27.2123
  1540.7000      7.9793      2.5731     -0.0026      4.6619    111.2336     26.4906
  1540.8000      7.9970      2.5763      0.0507      4.4665    115.1003     25.5959
  1540.9000      7.9970      2.5857      0.0858      3.8996    117.4466     25.3128
  1541.0000      7.8960      2.5901      0.0577      3.6290    118.3254     25.6937
  1541.1000      7.8960      2.5904      0.0658      3.6143    120.3544     26.0543
  1541.2000      7.8960      2.5904      0.0953      3.6121    125.1352     26.0454
  1541.3000      7.8743      2.5908      0.0829      3.5872    130.9329     25.9125
  1541.4000      7.8743      2.5890      0.1070      3.6948    135.0128     25.8366
  1541.5000      7.8920      2.5844      0.0745      3.9743    134.2333     25.7253
  1541.6000      7.8920      2.5808      0.0745      4.1938    129.0565     25.2839
  1541.7000      7.8920      2.5789      0.1089      4.3069    123.9897     24.5653
  1541.8000      7.8838      2.5755      0.0935      4.5136    122.5721     24.3708
  1541.9000      7.8838      2.5667      0.0702      5.0485    125.3246     25.2055
  1542.0000      7.8441      2.5517      0.0436      5.9581    129.2775     26.3370
  1542.1000      7.8441      2.5353      0.0306      6.9543    131.3312     26.7983
  1542.2000      7.8441      2.5241      0.0318      7.6327    130.0639     26.5220
  1542.3000      7.9263      2.5225      0.0567      7.7275    125.9421     25.9386
  1542.4000      7.9263      2.5339      0.0301      7.0360    122.3997     25.3250
  1542.5000      7.9572      2.5564      0.0520      5.6702    119.5743     25.0341
  1542.6000      7.9572      2.5793      0.0895      4.2818    114.1501     25.2759
  1542.7000      7.9572      2.5933      0.0981      3.4339    107.6621     25.7682
  1542.8000      8.0300      2.5969      0.0961      3.2199    103.9952     25.9957
  1542.9000      8.0300      2.5974      0.0552      3.1888    101.1883     25.4728
  1543.0000      8.0139      2.6063      0.0474      2.6488     95.2098     24.0787
  1543.1000      8.0139      2.6216      0.0653      1.7232     87.5218     22.3108
  1543.2000      8.0139      2.6308      0.0154      1.1640     82.7474     20.9162
  1543.3000      7.9227      2.6286      0.0471      1.2997     81.6340     20.0293
  1543.4000      7.9227      2.6143      0.0188      2.1608     80.5379     19.3019
  1543.5000      7.8801      2.5895      0.0062      3.6644     77.8540     18.7109
  1543.6000      7.8801      2.5608     -0.0284      5.4088     77.3878     18.4855
  1543.7000      7.8801      2.5358      0.0156      6.9192     82.4285     18.4899
  1543.8000      7.8629      2.5173      0.0144      8.0404     90.1080     18.5511
  1543.9000      7.8629      2.5125     -0.0255      8.3354     95.9466     18.6857
  1544.0000      7.8191      2.5313     -0.0015      7.1911     98.9437     19.1403
  1544.1000      7.8191      2.5665      0.0762      5.0630    101.6486     20.0946
  1544.2000      7.8191      2.5993      0.1315      3.0715    105.8678     21.1575
  1544.3000      7.8433      2.6248      0.1551      1.5249    111.8466     22.0240
  1544.4000      7.8433      2.6411      0.1883      0.5422    120.3133     22.7522
  1544.5000      7.7683      2.6346      0.1878      0.9320    129.2851     23.3801
  1544.6000      7.7683      2.6032      0.1523      2.8335    134.0634     23.9047
  1544.7000      7.7683      2.5625      0.0987      5.3054    135.2246     24.5310
