~Version Information
VERS.                      2.0: CWLS Log ASCII Standard - VERSION 2.0
WRAP.                       NO: One line per depth step
~Well Information Block
STRT.FT               652.0000: 
STOP.FT              1880.0000: 
STEP.FT                 0.1000: 
NULL.                -999.2500: 
COMP.          Pioneer Natural Resources: COMPANY
WELL.          Corkscrew 33-12 Tr: WELL
FLD.           Purgatoire River: FIELD
LOC.           1870' FSL & 1706' FEL: LOCATION
PROV.                 Colorado: PROVINCE
CNTY.               Las Animas: COUNTRY
SRVC.                Patterson: SERVICE COMPANY
DATE.          Tue Mar 29 09:18:51 2005: LOG DATE
UWI.           05 071 08295 00: UNIQUE WELL ID
~Curve Information Block
DEPT.FT            0 000 00 00: Depth
DCAL.in                       : CDL Caliper
RHOB.g/cc                     : CDL Bulk Density
RHOC.g/cc                     : CDL Density Correction
DPOR.pu                       : CDL Density Porosity
GR.GAPI                       : Gamma Ray
NPOR.pu                       : Neutron Porosity
~Parameter Information Block
~A  Depth       DCAL        RHOB        RHOC        DPOR         GR         NPOR    
# ...
  1535.2000      7.7825      2.5054      0.0513      8.7643     64.1464     21.4807
  1535.3000      7.7839      2.5082      0.0669      8.5962     65.9491     21.0550
  1535.4000      7.7839      2.5176      0.0203      8.0267     68.1475     20.0194
  1535.5000      7.7857      2.5243      0.0396      7.6192     71.9914     19.4615
  1535.6000      7.7857      2.5168      0.0180      8.0756     73.0099     19.4448
  1535.7000      7.7857      2.4926     -0.0052      9.5378     68.6468     19.2010
  1535.8000      7.7851      2.4708     -0.0358     10.8600     63.4161     18.4927
  1535.9000      7.7851      2.4806     -0.0233     10.2645     60.2047     17.6934
  1536.0000      7.7888      2.5170      0.0396      8.0602     58.4047     16.9141
  1536.1000      7.7888      2.5397      0.0197      6.6876     59.0260     16.2322
  1536.2000      7.7888      2.5307      0.0018      7.2301     61.3923     15.8338
  1536.3000      7.7863      2.5097     -0.0358      8.5044     63.8497     16.0440
  1536.4000      7.7863      2.4986     -0.0320      9.1778     65.1880     16.7677
  1536.5000      7.7887      2.4999     -0.0102      9.0975     63.9026     16.8354
  1536.6000      7.7887      2.5091     -0.0188      8.5370     64.3925     16.0015
  1536.7000      7.7887      2.5223      0.0626      7.7419     67.4029     15.3547
  1536.8000      7.7959      2.5347     -0.0064      6.9902     65.8279     15.4662
  1536.9000      7.7959      2.5458      0.0615      6.3142     60.3476     15.8365
  1537.0000      7.7946      2.5484      0.0653      6.1572     58.0981     15.8017
  1537.1000      7.7946      2.5420     -0.0023      6.5436     58.9151     15.5692
  1537.2000      7.7946      2.5333      0.0385      7.0700     56.2229     15.7044
  1537.3000      7.7954      2.5218      0.0025      7.7673     49.9483     16.2279
  1537.4000      7.7954      2.5104      0.0270      8.4606     46.0772     16.8557
  1537.5000      7.7967      2.4979      0.0331      9.2169     46.5992     17.5176
  1537.6000      7.7967      2.4767      0.0208     10.5041     48.4047     18.0477
  1537.7000      7.7967      2.4507     -0.0319     12.0764     49.5295     17.9094
  1537.8000      7.7952      2.4370     -0.0481     12.9109     50.6725     17.2402
  1537.9000      7.7952      2.4391      0.0129     12.7829     52.8493     17.0968
  1538.0000      7.8000      2.4445     -0.0048     12.4561     55.4660     17.4575
  1538.1000      7.8000      2.4480     -0.0059     12.2400     57.4113     17.6566
  1538.2000      7.8000      2.4512      0.0247     12.0457     56.0703     17.9967
  1538.3000      7.8002      2.4542     -0.0026     11.8646     51.4590     18.5069
  1538.4000      7.8002      2.4572      0.0005     11.6862     49.0991     18.3543
  1538.5000      7.8035      2.4577      0.0508     11.6542     50.9320     18.0684
  1538.6000      7.8035      2.4501     -0.0069     12.1133     52.6758     18.5585
  1538.7000      7.8035      2.4383      0.0123     12.8279     50.8395     18.9936
  1538.8000      7.8072      2.4328     -0.0010     13.1646     47.2264     18.5082
  1538.9000      7.8072      2.4379      0.0153     12.8567     45.9639     17.7626
  1539.0000      7.8007      2.4495     -0.0029     12.1515     50.5022     17.7014
  1539.1000      7.8007      2.4586      0.0339     11.5976     59.5947     18.3391
  1539.2000      7.8007      2.4650      0.0407     11.2134     66.5204     19.0177
  1539.3000      7.8002      2.4816      0.0171     10.2059     65.7420     19.3814
  1539.4000      7.8002      2.5089      0.0097      8.5500     58.9812     19.2250
  1539.5000      7.7996      2.5261      0.0496      7.5084     52.6450     18.2231
  1539.6000      7.7996      2.5203      0.0480      7.8614     50.3352     17.0478
  1539.7000      7.7996      2.5073     -0.0171      8.6478     50.0735     16.9150
  1539.8000      7.7946      2.5075      0.0013      8.6375     48.8707     17.5173
  1539.9000      7.7946      2.5129      0.0526      8.3078     48.2430     17.8259
  1540.0000      7.7920      2.5027      0.0089      8.9263     50.5422     18.0124
  1540.1000      7.7920      2.4765     -0.0232     10.5122     54.0357     18.4116
  1540.2000      7.7920      2.4575     -0.0288     11.6679     56.8441     18.7727
  1540.3000      7.7887      2.4653      0.0113     11.1954     60.4634     19.1979
  1540.4000      7.7887      2.4918      0.0263      9.5879     63.6816     19.6864
  1540.5000      7.7905      2.5108      0.0187      8.4339     64.6376     19.8070
  1540.6000      7.7905      2.5104     -0.0159      8.4624     63.6215     19.4447
  1540.7000      7.7905      2.4991     -0.0049      9.1451     60.9157     19.1467
  1540.8000      7.7930      2.4961     -0.0165      9.3280     57.8671     19.0681
  1540.9000      7.7930      2.5149      0.0033      8.1884     56.4848     18.7465
  1541.0000      7.7919      2.5407      0.0291      6.6247     56.6349     18.6259
  1541.1000      7.7919      2.5444      0.0375      6.4007     57.9410     18.9584
  1541.2000      7.7919      2.5197      0.0138      7.8980     59.4041     18.4858
  1541.3000      7.7924      2.4865     -0.0093      9.9100     59.8473     17.1803
  1541.4000      7.7924      2.4703      0.0021     10.8902     61.9322     16.4642
  1541.5000      7.7937      2.4820     -0.0280     10.1820     65.2544     16.3098
  1541.6000      7.7937      2.5018      0.0430      8.9842     64.4540     16.0672
  1541.7000      7.7937      2.4968      0.0332      9.2856     59.9657     16.0789
  1541.8000      7.7927      2.4708     -0.0366     10.8632     56.0625     16.3497
  1541.9000      7.7927      2.4571     -0.0124     11.6891     55.4887     16.3645
  1542.0000      7.7945      2.4621      0.0470     11.3875     57.2996     16.2872
  1542.1000      7.7945      2.4629      0.0470     11.3376     56.6144     16.5960
  1542.2000      7.7945      2.4496      0.0176     12.1434     52.5174     17.2400
  1542.3000      7.7987      2.4354      0.0027     13.0052     49.0476     17.6931
  1542.4000      7.7987      2.4345      0.0055     13.0604     48.9581     17.7223
  1542.5000      7.7966      2.4408      0.0367     12.6788     53.8395     17.5878
  1542.6000      7.7966      2.4418      0.0257     12.6184     61.9740     17.1785
  1542.7000      7.7966      2.4452     -0.0277     12.4107     65.8713     16.6059
  1542.8000      7.7978      2.4574      0.0592     11.6755     61.0256     16.4067
  1542.9000      7.7978      2.4644      0.0882     11.2501     52.1964     16.8040
  1543.0000      7.8207      2.4627      0.0437     11.3532     47.2721     17.5475
  1543.1000      7.8207      2.4556      0.0629     11.7808     48.0386     18.2742
  1543.2000      7.8207      2.4337      0.0043     13.1070     51.9054     19.0804
  1543.3000      7.8109      2.4010     -0.0171     15.0922     55.3205     19.9484
  1543.4000      7.8109      2.3816     -0.0073     16.2666     53.1157     20.1023
  1543.5000      7.8115      2.3900     -0.0384     15.7583     47.1223     19.2527
  1543.6000      7.8115      2.4175      0.0490     14.0922     44.6330     18.2326
  1543.7000      7.8115      2.4468      0.0312     12.3164     47.4366     17.8738
  1543.8000      7.8092      2.4662      0.0528     11.1412     52.7132     18.3258
  1543.9000      7.8092      2.4656      0.0586     11.1760     57.4589     19.0578
  1544.0000      7.7945      2.4487      0.0059     12.2009     59.3559     19.3695
  1544.1000      7.7945      2.4332      0.0130     13.1367     57.6326     18.7982
  1544.2000      7.7945      2.4290     -0.0060     13.3945     55.2141     17.7521
  1544.3000      7.8013      2.4302      0.0648     13.3242     53.8396     17.3509
  1544.4000      7.8013      2.4229      0.0320     13.7632     50.1292     17.7419
  1544.5000      7.7977      2.4148     -0.0893     14.2551     43.4349     17.8880
  1544.6000      7.7977      2.4223      0.0359     13.8002     38.9684     17.2719
  1544.7000      7.7977      2.4337      0.0461     13.1112     38.2778     16.6045
