~Version Information
VERS.                      2.0: CWLS Log ASCII Standard - VERSION 2.0
WRAP.                       NO: One line per depth step
~Well Information Block
STRT.FT                -5.5000: 
STOP.FT              1979.7500: 
STEP.FT                 0.2500: 
NULL.                -999.2500: 
COMP.          Pioneer Natural Resources: COMPANY
WELL.          Bucksnort 41-35: WELL
FLD.           Purgatorie River: FIELD
LOC.           117' FNL & 463' FEL: LOCATION
PROV.                 Colorado: PROVINCE
CNTY.               Las Animas: COUNTRY
SRVC.                Patterson: SERVICE COMPANY
DATE.          Fri Jul 29 10:31:46 2005: LOG DATE
UWI.                          : UNIQUE WELL ID
~Curve Information Block
DEPT.FT            0 000 00 00: Depth
GR.GAPI                       : Gamma Ray
CCL.                          : Casing Collar Locator
TT3.usec                      : CBL 3' Travel Time
AMP3.mV                       : CBL 3' Amplitude
~Parameter Information Block
~A  Depth        GR         CCL         TT3         AMP3    
# ...
   497.0000     87.1542      0.0000    923.7632      4.6272
   497.2500     87.3939      0.0000    893.5277      4.7375
   497.5000     88.3695      0.0000    881.1765      4.9214
   497.7500     88.7214      0.0000    879.3611      5.1651
   498.0000     88.2115      0.0000    878.8969      5.4182
   498.2500     88.1705      0.0000    874.3446      5.6002
   498.5000     90.0136      0.0000    866.7482      5.6622
   498.7500     93.4683      0.0000    861.0220      5.6394
   499.0000     96.5975      0.0000    863.5323      5.6040
   499.2500     97.4877      0.0000    880.7263      5.5767
   499.5000     95.7848      0.0000    916.3476      5.5241
   499.7500     92.8632      0.0000    966.8195      5.4101
   500.0000     90.6845      0.0000   1020.0614      5.2350
   500.2500     90.2728      0.0000   1069.0719      5.0595
   500.5000     91.0201      0.0000   1112.1791      4.9725
   500.7500     91.3764      0.0000   1132.0640      5.0075
   501.0000     90.2100      0.0000   1109.4688      5.1223
   501.2500     87.5952      0.0000   1059.8744      5.2799
   501.5000     84.4832      0.0000   1027.9769      5.4951
   501.7500     81.8034      0.0000   1040.9812      5.7676
   502.0000     79.7299      0.0000   1084.2386      6.0215
   502.2500     77.4526      0.0000   1119.6560      6.1734
   502.5000     73.6085      0.0000   1107.9685      6.2211
   502.7500     67.3263      0.0000   1032.3365      6.2249
   503.0000     59.2135      0.0000    923.1033      6.2404
   503.2500     51.2562      0.0000    839.3094      6.2839
   503.5000     45.4286      0.0000    817.7905      6.3255
   503.7500     42.3481      0.0000    855.2657      6.3073
   504.0000     41.3760      0.0000    922.0464      6.1908
   504.2500     41.8777      0.0000    980.3869      5.9836
   504.5000     44.0472      0.0000   1007.0903      5.7151
   504.7500     48.4565      0.0000   1003.4237      5.4140
   505.0000     55.0679      0.0000    985.4318      5.1165
   505.2500     62.9226      0.0000    970.2017      4.8561
   505.5000     70.7120      0.0000    968.5304      4.6393
   505.7500     77.4248      0.0000    986.8746      4.4587
   506.0000     82.5477      0.0000   1025.6602      4.3179
   506.2500     86.1687      0.0000   1067.6425      4.2201
   506.5000     89.0763      0.0000   1083.1860      4.1535
   506.7500     92.3545      0.0000   1059.7983      4.1034
   507.0000     96.5387      0.0000   1015.0364      4.0737
   507.2500    101.1701      0.0000    974.5178      4.1008
   507.5000    105.1654      0.0000    949.5798      4.2429
   507.7500    107.5974      0.0000    939.6631      4.5329
   508.0000    108.3778      0.0000    939.7104      4.9401
   508.2500    108.3617      0.0000    940.7747      5.3830
   508.5000    108.4907      0.0000    936.1603      5.7774
   508.7500    108.6220      0.0000    925.6378      6.0811
   509.0000    107.4609      0.0000    907.5099      6.3039
   509.2500    103.9892      0.0000    877.0129      6.4839
   509.5000     98.8068      0.0000    838.9352      6.6512
   509.7500     93.7961      0.0000    807.8812      6.8041
   510.0000     90.5825      0.0000    791.5994      6.9254
   510.2500     89.4291      0.0000    785.4404      7.0140
   510.5000     89.3480      0.0000    782.0485      7.0745
   510.7500     89.1624      0.0000    780.0544      7.0902
   511.0000     88.6493      0.0000    784.4590      7.0427
   511.2500     88.5632      0.0000    795.7686      6.9361
   511.5000     89.4187      0.0000    802.2924      6.7944
   511.7500     90.5933      0.0000    795.1174      6.6646
   512.0000     90.9325      0.0000    782.0452      6.5936
   512.2500     89.9945      0.0000    772.4577      6.5531
   512.5000     88.4363      0.0000    761.9445      6.3788
   512.7500     87.2573      0.0000    741.2402      5.8362
   513.0000     86.7647      0.0000    710.4844      4.8852
   513.2500     86.2998      0.0000    684.0349      3.8186
   513.5000     84.9585      0.0000    682.9337      2.9157
   513.7500     82.4885      0.0000    715.7852      2.2016
   514.0000     79.4233      0.0000    768.2740      1.6814
   514.2500     76.5179      0.0000    815.3160      1.4063
   514.5000     74.1176      0.0000    842.0849      1.3515
   514.7500     71.8817      2.0000    854.1044      1.4581
   515.0000     69.0512      2.0000    865.0507      1.6956
   515.2500     65.1879      0.0000    871.3219      2.0842
   515.5000     60.8295      0.0000    855.5535      2.7750
   515.7500     57.3635      0.0000    823.5527      4.0389
   516.0000     56.0165      0.0000    803.1907      5.8362
   516.2500     56.7311      0.0000    798.7706      7.4559
   516.5000     58.0835      0.0000    789.5846      8.2181
   516.7500     58.6020      0.0000    769.3751      8.2933
   517.0000     58.2517      0.0000    749.9368      8.2269
   517.2500     58.4785      0.0000    741.3017      8.2501
   517.5000     60.7778      0.0000    744.3640      8.3404
   517.7500     65.4418      0.0000    752.2150      8.4442
   518.0000     71.6979      0.0000    757.8416      8.5345
   518.2500     78.6644      0.0000    759.4031      8.6160
   518.5000     85.7789      0.0000    757.3631      8.7234
   518.7500     92.4820      0.0000    751.3231      8.8928
   519.0000     97.9141      0.0000    736.4807      9.1216
   519.2500    101.1398      0.0000    698.1961      9.3539
   519.5000    101.8291      0.0000    623.6850      9.5191
   519.7500    100.7271      0.0000    532.6047      9.5945
   520.0000     99.1165      0.0000    473.3918      9.6144
   520.2500     97.5744      0.0000    471.7983      9.6204
   520.5000     95.4957      0.0000    509.7691      9.6261
   520.7500     92.0026      0.0000    563.7115      9.6239
   521.0000     87.0345      0.0000    625.7551      9.6209
   521.2500     81.3792      0.0000    686.0493      9.6442
   521.5000     75.9117      0.0000    733.1452      9.7014
   521.7500     71.0455      0.0000    763.3801      9.7717
   522.0000     66.8537      0.0000    775.1911      9.8269
   522.2500     63.5888      0.0000    769.2651      9.8402
   522.5000     61.8605      0.0000    754.9457      9.7859
   522.7500     62.1404      0.0000    746.2784      9.6586
   523.0000     64.2318      0.0000    749.7934      9.4890
   523.2500     67.4236      0.0000    759.5731      9.3202
   523.5000     70.9067      0.0000    770.6926      9.1663
   523.7500     73.8180      0.0000    787.2072      8.9977
   524.0000     75.2671      0.0000    805.5387      8.7830
   524.2500     74.8619      0.0000    810.6475      8.5135
   524.5000     73.1635      0.0000    799.3101      8.1844
   524.7500     71.2031      0.0000    786.5963      7.8229
   525.0000     69.4810      0.0000    783.1312      7.4825
   525.2500     67.6915      0.0000    782.8570      7.1819
   525.5000     65.4446      0.0000    778.1550      6.9270
   525.7500     62.9847      0.0000    774.1398      6.7497
   526.0000     61.1164      0.0000    782.4863      6.6551
   526.2500     60.5564      0.0000    807.9183      6.6041
   526.5000     61.2926      0.0000    841.6879      6.5783
   526.7500     62.4080      0.0000    868.7659      6.5954
   527.0000     62.7388      0.0000    882.6384      6.6628
   527.2500     61.9927      0.0000    887.4417      6.7576
   527.5000     61.0730      0.0000    887.2793      6.8453
   527.7500     61.0661      0.0000    879.3937      6.9073
   528.0000     62.0873      0.0000    858.8304      6.9434
   528.2500     63.4139      0.0000    829.5298      6.9498
   528.5000     64.4612      0.0000    804.2624      6.9110
   528.7500     65.0590      0.0000    790.6915      6.8194
   529.0000     64.8825      0.0000    786.1929      6.6835
   529.2500     63.3534      0.0000    785.9321      6.5222
   529.5000     60.4507      0.0000    789.3810      6.3671
   529.7500     57.2323      0.0000    800.5662      6.2498
   530.0000     55.1773      0.0000    823.0176      6.1678
   530.2500     54.9835      0.0000    853.6988      6.0849
