~Version Information
VERS.                      2.0: CWLS Log ASCII Standard - VERSION 2.0
WRAP.                       NO: One line per depth step
~Well Information Block
STRT.FT               250.0000: 
STOP.FT              2600.7000: 
STEP.FT                 0.1000: 
NULL.                -999.2500: 
COMP.          Pioneer Natural Resources: COMPANY
WELL.              Quack 22-24: WELL
FLD.           Purgatoire River: FIELD
LOC.           2492' FNL & 2459' FWL--: LOCATION
PROV.                 Colorado: PROVINCE
CNTY.               Las Animas: COUNTRY
SRVC.                Patterson: SERVICE COMPANY
DATE.          Mon Jun 13 08:03:15 2005: LOG DATE
UWI.            05 071 0840200: UNIQUE WELL ID
~Curve Information Block
DEPT.FT            0 000 00 00: Depth
DCAL.in                       : CDL Caliper
RHOB.g/cc                     : CDL Bulk Density
RHOC.g/cc                     : CDL Density Correction
DPOR.pu                       : CDL Density Porosity
NPOR.pu                       : Neutron Porosity
GR.GAPI                       : Gamma Ray
~Parameter Information Block
~A  Depth       DCAL        RHOB        RHOC        DPOR        NPOR         GR     
# ...
  2266.0000      7.9777      2.7284      0.0755     -4.7524     24.2243    101.9187
  2266.1000      7.9777      2.7385      0.0801     -5.3654     23.9395     93.8657
  2266.2000      7.9777      2.7400      0.0749     -5.4534     23.7578     80.8560
  2266.3000      7.9769      2.7373      0.0570     -5.2931     23.9097     71.6778
  2266.4000      7.9769      2.7423      0.0826     -5.5920     23.9617     69.0511
  2266.5000      7.9765      2.7473      0.1063     -5.8945     23.3382     71.5065
  2266.6000      7.9765      2.7376      0.0603     -5.3086     22.4538     77.3723
  2266.7000      7.9765      2.7207      0.0446     -4.2834     21.9325     85.5325
  2266.8000      7.9770      2.7128      0.0028     -3.8043     21.7855     94.4849
  2266.9000      7.9770      2.7101      0.0688     -3.6427     21.9795     98.5726
  2267.0000      7.9781      2.7034      0.0488     -3.2393     22.2347     95.4698
  2267.1000      7.9781      2.7025      0.0113     -3.1823     22.1506     91.1742
  2267.2000      7.9781      2.7110      0.0572     -3.6977     21.7991     87.9001
  2267.3000      7.9779      2.7148      0.0549     -3.9299     21.3076     84.5588
  2267.4000      7.9779      2.7092      0.0641     -3.5871     20.7703     84.5006
  2267.5000      7.9745      2.6993      0.0130     -2.9886     20.8014     86.9986
  2267.6000      7.9745      2.6849      0.0554     -2.1172     21.6730     86.9901
  2267.7000      7.9745      2.6628      0.0056     -0.7764     22.9132     85.5331
  2267.8000      7.9733      2.6392      0.0344      0.6548     24.2148     86.7231
  2267.9000      7.9733      2.6249     -0.0259      1.5236     25.2083     91.6791
  2268.0000      7.9767      2.6180      0.0350      1.9418     25.5539     99.4128
  2268.1000      7.9767      2.6039      0.0146      2.7911     25.6298    107.8717
  2268.2000      7.9767      2.5875     -0.0019      3.7852     26.0488    112.8654
  2268.3000      7.9829      2.5838      0.0157      4.0119     26.8973    115.4817
  2268.4000      7.9829      2.5836      0.0317      4.0268     27.7955    121.2544
  2268.5000      7.9934      2.5720     -0.0175      4.7244     28.4085    132.0710
  2268.6000      7.9934      2.5559      0.0260      5.7052     28.8697    144.3367
  2268.7000      7.9934      2.5415      0.0479      6.5732     29.1595    149.6171
  2268.8000      8.0116      2.5222      0.0011      7.7484     29.1006    145.7977
  2268.9000      8.0116      2.4850      0.0344      9.9994     29.1869    141.4236
  2269.0000      8.0310      2.4267     -0.0235     13.5357     29.6189    142.3201
  2269.1000      8.0310      2.3659     -0.0024     17.2207     29.8143    147.6600
  2269.2000      8.0310      2.3136     -0.0064     20.3854     29.9300    152.9121
  2269.3000      8.0344      2.2552     -0.0305     23.9254     30.5239    153.3254
  2269.4000      8.0344      2.1795     -0.0761     28.5123     30.8512    145.6921
  2269.5000      8.0230      2.1005     -0.0984     33.3004     30.1692    130.8869
  2269.6000      8.0230      2.0373     -0.0918     37.1362     29.4532    114.1326
  2269.7000      8.0230      1.9841     -0.0258     40.3551     29.7099    100.9463
  2269.8000      8.0083      1.9203     -0.0521     44.2254     30.3671     96.1223
  2269.9000      8.0083      1.8461     -0.0809     48.7207     30.6737     96.7105
  2270.0000      7.9938      1.7863     -0.0462     52.3466     30.8832     95.8281
  2270.1000      7.9938      1.7600     -0.0372     53.9396     31.6735     93.1265
  2270.2000      7.9938      1.7578      0.0478     54.0741     32.5550     87.5352
  2270.3000      7.9778      1.7510      0.0627     54.4822     32.3019     77.0975
  2270.4000      7.9778      1.7309      0.0300     55.7059     31.2370     66.2830
  2270.5000      7.9689      1.7181      0.0270     56.4791     30.5957     62.1615
  2270.6000      7.9689      1.7341      0.0470     55.5089     30.4352     65.8070
  2270.7000      7.9689      1.7823      0.0867     52.5901     30.3359     69.8817
  2270.8000      7.9750      1.8578      0.1036     48.0124     30.3270     70.1742
  2270.9000      7.9750      1.9530      0.1539     42.2398     30.4734     70.1770
  2271.0000      7.9885      2.0489      0.1924     36.4309     30.6950     72.4123
  2271.1000      7.9885      2.1274      0.1652     31.6717     30.4944     76.3516
  2271.2000      7.9885      2.1904      0.1825     27.8541     29.7326     79.5540
  2271.3000      7.9976      2.2568      0.1850     23.8288     29.1010     83.3646
  2271.4000      7.9976      2.3443      0.2088     18.5246     28.8308     94.0023
  2271.5000      8.0050      2.4429      0.2354     12.5543     28.8280    110.3713
  2271.6000      8.0050      2.5202      0.2161      7.8687     29.0535    120.4735
  2271.7000      8.0050      2.5610      0.1422      5.3911     29.1466    119.9112
  2271.8000      8.0160      2.5771      0.1380      4.4189     29.0614    118.9436
  2271.9000      8.0160      2.5795      0.1030      4.2706     29.1069    125.0888
  2272.0000      8.0238      2.5705      0.1061      4.8161     29.2972    134.9984
  2272.1000      8.0238      2.5483      0.1077      6.1610     29.1177    139.5147
  2272.2000      8.0238      2.5205      0.0290      7.8514     28.1616    134.3197
  2272.3000      8.0267      2.5038      0.0437      8.8613     27.0724    127.5548
  2272.4000      8.0267      2.5060      0.0461      8.7287     26.6579    128.5066
  2272.5000      8.0292      2.5267      0.0466      7.4736     26.8314    133.6968
  2272.6000      8.0292      2.5550      0.0708      5.7568     27.1214    136.0609
  2272.7000      8.0292      2.5692      0.0863      4.8943     27.2260    134.8692
  2272.8000      8.0319      2.5592      0.0841      5.5049     26.9023    132.6485
  2272.9000      8.0319      2.5387      0.0491      6.7452     25.9748    131.8615
  2273.0000      8.0320      2.5336      0.0330      7.0543     24.9544    130.0939
  2273.1000      8.0320      2.5478      0.0884      6.1960     24.6390    125.0552
  2273.2000      8.0320      2.5581      0.0968      5.5681     25.1539    118.5581
  2273.3000      8.0288      2.5585      0.0508      5.5450     25.5322    113.3433
  2273.4000      8.0288      2.5645      0.0602      5.1841     24.7131    111.4229
  2273.5000      8.0270      2.5745      0.0983      4.5779     23.1454    112.5020
  2273.6000      8.0270      2.5741      0.0917      4.6011     21.9904    116.3038
  2273.7000      8.0270      2.5643      0.0564      5.1954     21.6504    119.8868
  2273.8000      8.0258      2.5583      0.0496      5.5582     21.8968    119.6468
  2273.9000      8.0258      2.5632      0.0563      5.2634     22.3253    114.2585
  2274.0000      8.0237      2.5741      0.0658      4.6012     22.8047    103.7774
  2274.1000      8.0237      2.5805      0.0894      4.2149     23.3923     94.8111
  2274.2000      8.0237      2.5760      0.0647      4.4825     23.8784     94.6440
  2274.3000      8.0222      2.5679      0.0355      4.9745     24.2956     99.6435
  2274.4000      8.0222      2.5679      0.0557      4.9778     24.8871    102.4070
  2274.5000      8.0231      2.5705      0.0839      4.8202     25.4247    104.2514
  2274.6000      8.0231      2.5576      0.0729      5.6021     25.3247    106.6982
  2274.7000      8.0231      2.5283      0.0634      7.3787     24.7764    107.7900
  2274.8000      8.0237      2.5074      0.0095      8.6423     24.8576    110.3732
  2274.9000      8.0237      2.5108      0.0437      8.4357     25.8053    116.6469
  2275.0000      8.0228      2.5209      0.0559      7.8255     26.6110    121.0637
  2275.1000      8.0228      2.5210      0.0710      7.8210     26.6727    121.4337
  2275.2000      8.0228      2.5190      0.0477      7.9414     26.3773    121.1104
  2275.3000      8.0220      2.5310      0.0403      7.2133     26.1063    120.0044
  2275.4000      8.0220      2.5566      0.0771      5.6583     25.9145    115.6401
  2275.5000      8.0234      2.5796      0.0734      4.2643     25.9077    112.1947
