~Version Information
VERS.                      2.0: CWLS Log ASCII Standard - VERSION 2.0
WRAP.                       NO: One line per depth step
~Well Information Block
STRT.FT                 0.0000: 
STOP.FT              1390.5000: 
STEP.FT                 0.2500: 
NULL.                -999.2500: 
COMP.          Petrogulf Corporation: COMPANY
WELL.             Leier 17-42R: WELL
FLD.           Purgatorie River: FIELD
LOC.           2398' FNL & 1109' FEL: LOCATION
PROV.                 Colorado: PROVINCE
CNTY.               Las Animas: COUNTRY
SRVC.                Patterson: SERVICE COMPANY
DATE.          Thu Nov 10 14:34:29 2005: LOG DATE
UWI.                          : UNIQUE WELL ID
~Curve Information Block
DEPT.FT            0 000 00 00: Depth
CCL.                          : Casing Collar Locator
TT3.usec                      : CBL 3' Travel Time
AMP3.mV                       : CBL 3' Amplitude
GR.GAPI                       : Gamma Ray
~Parameter Information Block
~A  Depth       CCL         TT3         AMP3         GR     
# ...
  1273.0000      0.0000    499.1595      2.8069     97.2193
  1273.2500      0.0000    519.1412      2.7021     94.6529
  1273.5000      0.0000    538.8302      2.6754     94.1691
  1273.7500      0.0000    548.3546      2.7087     95.6974
  1274.0000      0.0000    553.5541      2.7781     98.6778
  1274.2500      0.0000    553.8224      2.8431    101.7761
  1274.5000      0.0000    556.2232      2.8405    103.4612
  1274.7500      0.0000    572.8581      2.7696    103.2051
  1275.0000      0.0000    597.2532      2.7677    101.8233
  1275.2500      0.0000    615.3556      2.9693    100.3655
  1275.5000      0.0000    625.4996      3.2774     98.9019
  1275.7500      0.0000    631.9648      3.5250     96.7970
  1276.0000      0.0000    632.1262      3.7734     94.0469
  1276.2500      0.0000    615.0735      4.1278     91.8265
  1276.5000      0.0000    574.8392      4.5073     91.4908
  1276.7500     -2.0000    530.1045      4.7992     93.1735
  1277.0000      2.0000    510.8648      4.9845     95.4218
  1277.2500      0.0000    520.4622      5.0663     96.2678
  1277.5000      0.0000    544.3359      5.0384     94.7718
  1277.7500      0.0000    576.3804      4.9581     91.5040
  1278.0000      0.0000    606.6810      4.8963     87.6323
  1278.2500      0.0000    619.6715      4.7500     83.9749
  1278.5000      0.0000    610.1235      4.4343     80.9838
  1278.7500      0.0000    583.2429      4.1862     79.0299
  1279.0000      0.0000    549.3689      4.2238     78.3473
  1279.2500      0.0000    513.1298      4.4242     78.9839
  1279.5000      0.0000    471.6574      4.5761     80.8761
  1279.7500      0.0000    431.9983      4.6100     83.7844
  1280.0000      0.0000    407.1814      4.5612     87.1573
  1280.2500      0.0000    398.3182      4.4913     90.1758
  1280.5000      0.0000    397.5454      4.4512     92.1124
  1280.7500      0.0000    398.9009      4.4545     92.9761
  1281.0000      0.0000    400.6621      4.4711     93.8699
  1281.2500      0.0000    403.1461      4.4606     96.3931
  1281.5000      0.0000    406.9646      4.4110    101.5102
  1281.7500      0.0000    413.2012      4.3606    108.8457
  1282.0000      0.0000    426.1221      4.3529    116.7027
  1282.2500      0.0000    455.2936      4.3588    122.6561
  1282.5000      0.0000    507.3763      4.3034    124.7772
  1282.7500      0.0000    570.8217      4.1656    123.0677
  1283.0000      0.0000    621.2639      3.9953    119.7504
  1283.2500      0.0000    646.9418      3.8457    117.8163
  1283.5000      0.0000    655.0396      3.7196    119.0748
  1283.7500      0.0000    656.5948      3.5919    123.3992
  1284.0000      0.0000    657.5772      3.4583    129.3501
  1284.2500      0.0000    660.5079      3.3354    135.2208
  1284.5000      0.0000    666.5886      3.2341    139.7627
  1284.7500      0.0000    675.1398      3.1652    142.4377
  1285.0000      0.0000    683.4454      3.1348    143.3557
  1285.2500      0.0000    688.1528      3.1364    143.1475
  1285.5000      0.0000    686.4736      3.1690    142.7724
  1285.7500      0.0000    677.3330      3.2438    143.0823
  1286.0000      0.0000    662.1888      3.3621    144.2660
  1286.2500      0.0000    644.5621      3.4841    145.6357
  1286.5000      0.0000    629.7104      3.5647    146.2125
  1286.7500      0.0000    623.5301      3.6143    145.8913
  1287.0000      0.0000    628.2062      3.6776    145.9124
  1287.2500      0.0000    639.2320      3.7689    147.6117
  1287.5000      0.0000    649.3613      3.8496    150.5572
  1287.7500      0.0000    655.0828      3.8847    152.4245
  1288.0000      0.0000    657.6854      3.8965    150.9268
  1288.2500      0.0000    660.3896      3.9238    145.5779
  1288.5000      0.0000    666.0766      3.9547    137.7887
  1288.7500      0.0000    673.9856      3.9425    130.0238
  1289.0000      0.0000    678.0251      3.8918    124.8825
  1289.2500      0.0000    673.9519      3.8496    123.8465
  1289.5000      0.0000    665.8352      3.8211    126.1165
  1289.7500      0.0000    659.7859      3.7771    129.0314
  1290.0000      0.0000    657.1282      3.7091    130.2213
  1290.2500      0.0000    656.3445      3.6343    129.5559
  1290.5000      0.0000    656.2372      3.5512    128.9969
  1290.7500      0.0000    656.2842      3.4305    130.5453
  1291.0000      0.0000    656.2928      3.2627    134.3096
  1291.2500      0.0000    656.2582      3.0791    138.5419
  1291.5000      0.0000    656.1492      2.9284    141.1727
  1291.7500      0.0000    655.8436      2.8366    141.0503
  1292.0000      0.0000    655.3730      2.7916    138.2578
  1292.2500      0.0000    654.9808      2.7801    134.0741
  1292.5000      0.0000    654.8096      2.7865    130.5797
  1292.7500      0.0000    654.7228      2.7759    129.5970
  1293.0000      0.0000    654.5154      2.7580    131.5440
  1293.2500      0.0000    654.1566      2.7917    135.2923
  1293.5000      0.0000    653.7706      2.8720    139.1822
  1293.7500      0.0000    653.4528      2.9086    142.0388
  1294.0000      0.0000    653.1906      2.8540    143.1767
  1294.2500      0.0000    652.9745      2.7637    142.0344
  1294.5000      0.0000    652.8968      2.6890    138.4873
  1294.7500      0.0000    653.0438      2.6125    133.3148
  1295.0000      0.0000    653.3708      2.5421    127.7545
  1295.2500      0.0000    653.8098      2.5504    122.7058
  1295.5000      0.0000    654.3857      2.6804    118.4560
  1295.7500      0.0000    655.1194      2.8884    114.8044
  1296.0000      0.0000    655.9869      3.1153    111.3395
  1296.2500      0.0000    657.0056      3.3944    107.9201
  1296.5000      0.0000    658.1540      3.8280    104.9499
  1296.7500      0.0000    659.2593      4.4435    103.1078
  1297.0000      0.0000    660.1157      5.1444    102.7982
  1297.2500      0.0000    660.6439      5.8111    103.7766
  1297.5000      0.0000    660.8232      6.4040    105.2134
  1297.7500      0.0000    660.3876      6.9535    106.2854
  1298.0000      0.0000    658.7285      7.4708    106.7883
  1298.2500      0.0000    655.6312      7.9283    107.0284
  1298.5000      0.0000    651.8849      8.2874    107.0543
  1298.7500      0.0000    648.2283      8.4908    106.2096
  1299.0000      0.0000    645.1404      8.5136    103.6652
  1299.2500      0.0000    644.3022      8.3970     99.4605
  1299.5000      0.0000    647.2380      8.1672     94.8546
  1299.7500      0.0000    652.5668      7.8014     91.5308
  1300.0000      0.0000    657.1640      7.3108     90.5350
  1300.2500      0.0000    659.5042      6.8016     91.9506
  1300.5000      0.0000    660.2202      6.4014     95.2317
  1300.7500      0.0000    660.3489      6.1458     99.6427
  1301.0000      0.0000    660.3281      5.9744    104.6190
  1301.2500      0.0000    659.9453      5.8181    109.8936
  1301.5000      0.0000    658.1341      5.6609    115.3130
  1301.7500      0.0000    653.0176      5.5171    120.5979
  1302.0000      0.0000    644.2445      5.3734    125.1495
  1302.2500      0.0000    636.2651      5.1838    128.0318
  1302.5000      0.0000    634.9268      4.9197    128.4393
  1302.7500      0.0000    638.6754      4.6003    126.3702
  1303.0000      0.0000    639.4204      4.2684    122.8266
  1303.2500      0.0000    633.9214      3.9434    119.4237
  1303.5000      0.0000    628.1018      3.6174    117.6357
  1303.7500      0.0000    628.0577      3.2803    117.9915
  1304.0000      0.0000    630.8541      2.9349    119.7953
  1304.2500      0.0000    628.9336      2.6041    121.6118
  1304.5000      0.0000    622.0150      2.3201    122.0163
  1304.7500      0.0000    617.0797      2.1019    120.1397
  1305.0000      0.0000    617.5338      1.9347    116.0250
  1305.2500      0.0000    620.7345      1.7873    110.6665
  1305.5000      0.0000    625.7450      1.6702    105.4781
  1305.7500      0.0000    637.5512      1.6277    101.5678
  1306.0000      0.0000    660.6631      1.6681     99.4330
  1306.2500      0.0000    687.0239      1.7573     99.0738
