~Version Information
VERS.                      2.0: CWLS Log ASCII Standard - VERSION 2.0
WRAP.                       NO: One line per depth step
~Well Information Block
STRT.FT               -10.8000: 
STOP.FT              2238.7000: 
STEP.FT                 0.1000: 
NULL.                -999.2500: 
COMP.          Petrogulf Corporation: COMPANY
WELL.             McLeod 9-42V: WELL
FLD.           Purgatorie River: FIELD
LOC.           1658' FNL & 415' FEL----: LOCATION
CNTY.               Las Animas: COUNTY
SRVC.                         : SERVICE COMPANY
DATE.          Wed Nov 17 12:01:16 2004: LOG DATE
UWI.                          : UNIQUE WELL ID
STAT.                       CO: STATE
~Curve Information Block
DEPT.FT            0 000 00 00: Depth
GR.GAPI                       : Gamma Ray
CCL.                          : Casing Collar Locator
TT3.usec                      : CBL 3' Travel Time
AMP3.mV                       : CBL 3' Amplitude
~Parameter Information Block
~A  Depth        GR         CCL         TT3         AMP3    
# ...
   431.4000     89.9153      0.0000    259.9400     50.1409
   431.5000     91.8448      0.0000    260.5704     48.4835
   431.6000     91.8448      0.0000    260.5704     48.4835
   431.7000     91.8448      0.0000    260.5704     48.4835
   431.8000     91.6336      0.0000    261.9430     46.6582
   431.9000     91.6336      0.0000    261.9430     46.6582
   432.0000     89.3764      0.0000    264.7773     44.7548
   432.1000     89.3764      0.0000    264.7773     44.7548
   432.2000     89.3764      0.0000    264.7773     44.7548
   432.3000     85.9584      0.0000    269.7313     42.8174
   432.4000     85.9584      0.0000    269.7313     42.8174
   432.5000     82.0073      0.0000    276.6999     40.8968
   432.6000     82.0073      0.0000    276.6999     40.8968
   432.7000     82.0073      0.0000    276.6999     40.8968
   432.8000     77.6252      0.0000    284.4367     39.0939
   432.9000     77.6252      0.0000    284.4367     39.0939
   433.0000     73.1272      0.0000    291.1648     37.5301
   433.1000     73.1272      0.0000    291.1648     37.5301
   433.2000     73.1272      0.0000    291.1648     37.5301
   433.3000     69.4850      0.0000    295.7350     36.2925
   433.4000     69.4850      0.0000    295.7350     36.2925
   433.5000     67.7082      0.0000    298.1608     35.4266
   433.6000     67.7082      0.0000    298.1608     35.4266
   433.7000     67.7082      0.0000    298.1608     35.4266
   433.8000     68.0295      0.0000    299.1689     34.9598
   433.9000     68.0295      0.0000    299.1689     34.9598
   434.0000     69.9941      0.0000    299.4924     34.8962
   434.1000     69.9941      0.0000    299.4924     34.8962
   434.2000     69.9941      0.0000    299.4924     34.8962
   434.3000     73.2049      0.0000    299.5589     35.1789
   434.4000     73.2049      0.0000    299.5589     35.1789
   434.5000     77.6143      0.0000    299.5468     35.6597
   434.6000     77.6143      0.0000    299.5468     35.6597
   434.7000     77.6143      0.0000    299.5468     35.6597
   434.8000     83.1038      0.0000    299.5146     36.1085
   434.9000     83.1038      0.0000    299.5146     36.1085
   435.0000     89.0296      0.0000    299.4693     36.2875
   435.1000     89.0296      0.0000    299.4693     36.2875
   435.2000     89.0296      0.0000    299.4693     36.2875
   435.3000     94.0775      0.0000    299.4026     36.0792
   435.4000     94.0775      0.0000    299.4026     36.0792
   435.5000     96.5201      0.0000    299.3281     35.5720
   435.6000     96.5201      0.0000    299.3281     35.5720
   435.7000     96.5201      0.0000    299.3281     35.5720
   435.8000     95.1329      0.0000    299.3032     34.9994
   435.9000     95.1329      0.0000    299.3032     34.9994
   436.0000     90.4712      0.0000    299.3994     34.5641
   436.1000     90.4712      0.0000    299.3994     34.5641
   436.2000     90.4712      0.0000    299.3994     34.5641
   436.3000     85.2263      0.0000    299.6454     34.3071
   436.4000     85.2263      0.0000    299.6454     34.3071
   436.5000     82.9528      0.0000    300.0077     34.1172
   436.6000     82.9528      0.0000    300.0077     34.1172
   436.7000     82.9528      0.0000    300.0077     34.1172
   436.8000     85.8659      0.0000    300.4248     33.8338
   436.9000     85.8659      0.0000    300.4248     33.8338
   437.0000     93.1498      0.0000    300.8466     33.3407
   437.1000     93.1498      0.0000    300.8466     33.3407
   437.2000     93.1498      0.0000    300.8466     33.3407
   437.3000    101.3150      0.0000    301.2437     32.6042
   437.4000    101.3150      0.0000    301.2437     32.6042
   437.5000    106.7530      0.0000    301.6003     31.6636
   437.6000    106.7530      0.0000    301.6003     31.6636
   437.7000    106.7530      0.0000    301.6003     31.6636
   437.8000    108.3333      0.0000    301.9422     30.6013
   437.9000    108.3333      0.0000    301.9422     30.6013
   438.0000    107.4682      0.0000    302.4111     29.5131
   438.1000    107.4682      0.0000    302.4111     29.5131
   438.2000    107.4682      0.0000    302.4111     29.5131
   438.3000    105.8675      0.0000    303.6373     28.4880
   438.4000    105.8675      0.0000    303.6373     28.4880
   438.5000    103.8875      0.0000    307.7189     27.5941
   438.6000    103.8875      0.0000    307.7189     27.5941
   438.7000    103.8875      0.0000    307.7189     27.5941
   438.8000    101.1097      0.0000    319.5220     26.8563
   438.9000    101.1097      0.0000    319.5220     26.8563
   439.0000     97.7920      0.0000    346.1127     26.2416
   439.1000     97.7920      0.0000    346.1127     26.2416
   439.2000     97.7920      0.0000    346.1127     26.2416
   439.3000     95.2900      0.0000    391.2294     25.6901
   439.4000     95.2900      0.0000    391.2294     25.6901
   439.5000     95.0807      0.0000    446.7624     25.1816
   439.6000     95.0807      0.0000    446.7624     25.1816
   439.7000     95.0807      0.0000    446.7624     25.1816
   439.8000     97.1904      0.0000    492.4912     24.7672
   439.9000     97.1904      0.0000    492.4912     24.7672
   440.0000     99.4766      0.0000    510.7051     24.5239
   440.1000     99.4766      0.0000    510.7051     24.5239
   440.2000     99.4766      0.0000    510.7051     24.5239
   440.3000     98.8875      0.0000    501.3957     24.4796
   440.4000     98.8875      0.0000    501.3957     24.4796
   440.5000     93.7874      0.0000    478.6155     24.5826
   440.6000     93.7874      0.0000    478.6155     24.5826
   440.7000     93.7874      0.0000    478.6155     24.5826
   440.8000     85.0821      0.0000    455.8536     24.7298
   440.9000     85.0821      0.0000    455.8536     24.7298
   441.0000     75.4594      0.0000    442.0104     24.8171
   441.1000     75.4594      0.0000    442.0104     24.8171
   441.2000     75.4594      0.0000    442.0104     24.8171
   441.3000     67.8259      0.0000    445.7254     24.7829
   441.4000     67.8259      0.0000    445.7254     24.7829
   441.5000     63.8712      0.0000    472.2438     24.6250
   441.6000     63.8712      0.0000    472.2438     24.6250
   441.7000     63.8712      0.0000    472.2438     24.6250
   441.8000     63.4774      0.0000    516.4204     24.3783
   441.9000     63.4774      0.0000    516.4204     24.3783
   442.0000     65.3589      0.0000    565.2914     24.0774
   442.1000     65.3589      0.0000    565.2914     24.0774
   442.2000     65.3589      0.0000    565.2914     24.0774
   442.3000     68.1897      0.0000    607.9698     23.7436
   442.4000     68.1897      0.0000    607.9698     23.7436
   442.5000     71.0619      0.0000    642.2587     23.3940
   442.6000     71.0619      0.0000    642.2587     23.3940
   442.7000     71.0619      0.0000    642.2587     23.3940
   442.8000     73.3002      0.0000    672.9509     23.0476
   442.9000     73.3002      0.0000    672.9509     23.0476
   443.0000     74.5122      0.0000    703.2532     22.7271
   443.1000     74.5122      0.0000    703.2532     22.7271
   443.2000     74.5122      0.0000    703.2532     22.7271
   443.3000     74.9090      0.0000    728.4587     22.4587
   443.4000     74.9090      0.0000    728.4587     22.4587
   443.5000     75.2478      0.0000    740.3422     22.2611
   443.6000     75.2478      0.0000    740.3422     22.2611
   443.7000     75.2478      0.0000    740.3422     22.2611
   443.8000     76.4805      0.0000    736.0347     22.1255
   443.9000     76.4805      0.0000    736.0347     22.1255
   444.0000     79.4329      0.0000    719.8535     22.0083
   444.1000     79.4329      0.0000    719.8535     22.0083
   444.2000     79.4329      0.0000    719.8535     22.0083
   444.3000     84.2004      0.0000    698.9664     21.8543
   444.4000     84.2004      0.0000    698.9664     21.8543
   444.5000     89.4558      0.0000    679.6260     21.6384
   444.6000     89.4558      0.0000    679.6260     21.6384
   444.7000     89.4558      0.0000    679.6260     21.6384
