~Version Information
 VERS.                      2.0: CWLS Log ASCII Standard - VERSION 2.0
 WRAP.                       NO: One line per depth step
 ~Well Information Block
 STRT.FT               130.0000: 
 STOP.FT              1766.9000: 
 STEP.FT                 0.1000: 
 NULL.                -999.2500: 
 COMP.          Petrogulf Corporation: COMPANY
 WELL.           Parsons 23-15V: WELL
 FLD.           Purgatorie River: FIELD
 LOC.           2095' FSL & 1817' FWL--API 05 071 07556 00----: LOCATION
 CNTY.               Las Animas: COUNTY
 SRVC.                         : SERVICE COMPANY
 DATE.          Fri Apr 19 17:40:55 2002: LOG DATE
 UWI.                          : UNIQUE WELL ID
 STAT.                       CO: STATE
 PROV.                         :Province
 ~Curve Information Block
 DEPT.FT            0 000 00 00: Depth
 DCAL.in                       : CDL Caliper
 RHOB.g/cc                     : CDL Bulk Density
 RHOC.g/cc                     : CDL Density Correction
 DPOR.pu                       : CDL Density Porosity
 GR.GAPI                       : Gamma Ray
 NPOR.pu                       : Neutron Porosity
 ~Parameter Information Block
 ~A  Depth       DCAL        RHOB        RHOC        DPOR         GR         NPOR    
# ...
  1656.4000      7.6725      2.6300      0.1006      1.2098     92.4536     23.3274
  1656.5000      7.6841      2.6248      0.0945      1.5269     93.1851     23.3697
  1656.6000      7.6841      2.6183      0.0876      1.9196     94.2488     23.4783
  1656.7000      7.6841      2.6107      0.0808      2.3820     95.6068     23.6481
  1656.8000      7.7322      2.6021      0.0746      2.9021     97.1724     23.8696
  1656.9000      7.7322      2.5928      0.0696      3.4641     98.8252     24.1314
  1657.0000      7.7702      2.5832      0.0659      4.0501    100.4292     24.4208
  1657.1000      7.7702      2.5734      0.0635      4.6414    101.8634     24.7252
  1657.2000      7.7702      2.5639      0.0621      5.2211    103.0398     25.0343
  1657.3000      7.7767      2.5547      0.0616      5.7743    103.9239     25.3402
  1657.4000      7.7767      2.5462      0.0617      6.2895    104.5363     25.6383
  1657.5000      7.7672      2.5385      0.0621      6.7589    104.9516     25.9269
  1657.6000      7.7672      2.5316      0.0627      7.1786    105.2782     26.2055
  1657.7000      7.7672      2.5255      0.0634      7.5481    105.6387     26.4745
  1657.8000      7.7620      2.5201      0.0640      7.8698    106.1455     26.7336
  1657.9000      7.7620      2.5155      0.0643      8.1485    106.8797     26.9810
  1658.0000      7.7690      2.5116      0.0643      8.3904    107.8781     27.2121
  1658.1000      7.7690      2.5081      0.0638      8.6021    109.1270     27.4203
  1658.2000      7.7690      2.5050      0.0626      8.7905    110.5695     27.5975
  1658.3000      7.7833      2.5021      0.0609      8.9614    112.1140     27.7349
  1658.4000      7.7833      2.4995      0.0587      9.1198    113.6479     27.8243
  1658.5000      7.7938      2.4971      0.0559      9.2690    115.0574     27.8602
  1658.6000      7.7938      2.4947      0.0530      9.4113    116.2398     27.8395
  1658.7000      7.7938      2.4925      0.0499      9.5475    117.1154     27.7634
  1658.8000      7.8026      2.4903      0.0469      9.6772    117.6345     27.6357
  1658.9000      7.8026      2.4883      0.0443      9.7994    117.7792     27.4631
  1659.0000      7.8148      2.4864      0.0422      9.9127    117.5626     27.2538
  1659.1000      7.8148      2.4847      0.0405     10.0154    117.0215     27.0168
  1659.2000      7.8148      2.4833      0.0394     10.1059    116.2096     26.7605
  1659.3000      7.8236      2.4820      0.0388     10.1827    115.1891     26.4938
  1659.4000      7.8236      2.4810      0.0386     10.2446    114.0233     26.2257
  1659.5000      7.8243      2.4802      0.0387     10.2906    112.7699     25.9664
  1659.6000      7.8243      2.4797      0.0389     10.3202    111.4772     25.7277
  1659.7000      7.8243      2.4795      0.0393     10.3326    110.1885     25.5230
  1659.8000      7.8216      2.4796      0.0397     10.3277    108.9369     25.3657
  1659.9000      7.8216      2.4800      0.0400     10.3054    107.7528     25.2674
  1660.0000      7.8214      2.4806      0.0404     10.2662    106.6650     25.2352
  1660.1000      7.8214      2.4815      0.0407     10.2105    105.7034     25.2696
  1660.2000      7.8214      2.4827      0.0411     10.1395    104.8964     25.3635
  1660.3000      7.8234      2.4841      0.0414     10.0549    104.2709     25.5024
  1660.4000      7.8234      2.4857      0.0418      9.9587    103.8429     25.6656
  1660.5000      7.8248      2.4874      0.0420      9.8537    103.6222     25.8301
  1660.6000      7.8248      2.4892      0.0423      9.7430    103.5999     25.9746
  1660.7000      7.8248      2.4911      0.0424      9.6297    103.7560     26.0828
  1660.8000      7.8226      2.4930      0.0424      9.5171    104.0543     26.1457
  1660.9000      7.8226      2.4948      0.0424      9.4082    104.4500     26.1633
  1661.0000      7.8136      2.4965      0.0424      9.3054    104.8958     26.1417
  1661.1000      7.8136      2.4980      0.0423      9.2105    105.3412     26.0926
  1661.2000      7.8136      2.4995      0.0423      9.1241    105.7440     26.0307
  1661.3000      7.8044      2.5007      0.0422      9.0462    106.0697     25.9702
  1661.4000      7.8044      2.5019      0.0421      8.9758    106.2975     25.9245
  1661.5000      7.8077      2.5030      0.0420      8.9110    106.4238     25.9038
  1661.6000      7.8077      2.5040      0.0418      8.8497    106.4568     25.9148
  1661.7000      7.8077      2.5050      0.0416      8.7893    106.4221     25.9613
  1661.8000      7.8187      2.5060      0.0413      8.7278    106.3496     26.0427
  1661.9000      7.8187      2.5071      0.0411      8.6636    106.2709     26.1537
  1662.0000      7.8234      2.5082      0.0409      8.5962    106.2089     26.2861
  1662.1000      7.8234      2.5093      0.0409      8.5263    106.1702     26.4287
  1662.2000      7.8234      2.5105      0.0411      8.4561    106.1376     26.5691
  1662.3000      7.8241      2.5116      0.0414      8.3892    106.0765     26.6955
  1662.4000      7.8241      2.5125      0.0419      8.3305    105.9386     26.7996
  1662.5000      7.8236      2.5133      0.0424      8.2862    105.6768     26.8768
  1662.6000      7.8236      2.5137      0.0429      8.2631    105.2626     26.9264
  1662.7000      7.8236      2.5136      0.0434      8.2685    104.6980     26.9515
  1662.8000      7.8209      2.5129      0.0439      8.3099    104.0275     26.9564
  1662.9000      7.8209      2.5115      0.0442      8.3944    103.3346     26.9458
  1663.0000      7.8191      2.5093      0.0445      8.5286    102.7354     26.9213
  1663.1000      7.8191      2.5061      0.0447      8.7184    102.3567     26.8830
  1663.2000      7.8191      2.5020      0.0449      8.9686    102.3143     26.8284
  1663.3000      7.8187      2.4968      0.0450      9.2833    102.6896     26.7549
  1663.4000      7.8187      2.4905      0.0449      9.6654    103.5069     26.6613
  1663.5000      7.8177      2.4831      0.0444     10.1170    104.7249     26.5491
  1663.6000      7.8177      2.4745      0.0436     10.6391    106.2387     26.4238
  1663.7000      7.8177      2.4647      0.0423     11.2316    107.8883     26.2947
  1663.8000      7.8147      2.4538      0.0404     11.8929    109.4797     26.1734
  1663.9000      7.8147      2.4418      0.0380     12.6199    110.8141     26.0718
  1664.0000      7.8132      2.4288      0.0351     13.4075    111.7086     26.0009
  1664.1000      7.8132      2.4149      0.0317     14.2481    112.0250     25.9687
  1664.2000      7.8132      2.4003      0.0279     15.1314    111.6837     25.9802
  1664.3000      7.8171      2.3853      0.0240     16.0441    110.6728     26.0371
  1664.4000      7.8171      2.3700      0.0200     16.9699    109.0436     26.1381
  1664.5000      7.8205      2.3548      0.0162     17.8892    106.9063     26.2797
  1664.6000      7.8205      2.3401      0.0129     18.7802    104.4067     26.4575
  1664.7000      7.8205      2.3263      0.0104     19.6193    101.7140     26.6655
  1664.8000      7.8207      2.3137      0.0090     20.3823     98.9946     26.8973
  1664.9000      7.8207      2.3027      0.0090     21.0455     96.4044     27.1458
  1665.0000      7.8226      2.2938      0.0106     21.5871     94.0732     27.4037
  1665.1000      7.8226      2.2872      0.0139     21.9889     92.0998     27.6633
  1665.2000      7.8226      2.2831      0.0189     22.2369     90.5574     27.9167
  1665.3000      7.8275      2.2817      0.0251     22.3230     89.4888     28.1555
  1665.4000      7.8275      2.2830      0.0323     22.2448     88.9159     28.3710
  1665.5000      7.8350      2.2869      0.0399     22.0065     88.8360     28.5540
  1665.6000      7.8350      2.2933      0.0473     21.6178     89.2233     28.6945
  1665.7000      7.8350      2.3019      0.0540     21.0940     90.0307     28.7823
  1665.8000      7.8412      2.3125      0.0595     20.4545     91.1832     28.8075
  1665.9000      7.8412      2.3246      0.0637     19.7216     92.5844     28.7619
