~Version Information
VERS.                      2.0: CWLS Log ASCII Standard - VERSION 2.0
WRAP.                       NO: One line per depth step
~Well Information Block
STRT.FT               530.0000: 
STOP.FT              1825.0000: 
STEP.FT                 0.1000: 
NULL.                -999.2500: 
COMP.          Pioneer Natural Resources: COMPANY
WELL.          Vision 31-11 Tr: WELL
FLD.           Purgatoire River: FIELD
LOC.           742' FNL & 1593' FEL: LOCATION
STAT.                 Colorado: State
CNTY.               Las Animas: COUNTY
CTRY. USA : Country
SECT. 11 : Section
TOWN. 32S : Township
RANG. 66W : Range
SRVC.                Patterson: SERVICE COMPANY
DATE.          Mon Oct 10 07:17:32 2005: LOG DATE
API.           05 071 08305 00: UNIQUE WELL ID
~Curve Information Block
DEPT.FT            0 000 00 00: Depth
DCAL.in                       : CDL Caliper
RHOB.g/cc                     : CDL Bulk Density
RHOC.g/cc                     : CDL Density Correction
DPOR.pu                       : CDL Density Porosity
GR.GAPI                       : Gamma Ray
NPOR.pu                       : Neutron Porosity
~Parameter Information Block
~A  Depth       DCAL        RHOB        RHOC        DPOR         GR         NPOR    
# ...
  1547.6000      7.9968      2.4831      0.0476     10.1132     65.8360     18.9059
  1547.7000      7.9968      2.4919      0.0889      9.5816     58.3823     19.2583
  1547.8000      8.0015      2.4879      0.0387      9.8223     55.2630     19.1075
  1547.9000      8.0015      2.4802      0.0523     10.2921     53.6041     18.2942
  1548.0000      7.9882      2.4786      0.0379     10.3905     51.5039     17.7104
  1548.1000      7.9882      2.4814      0.0756     10.2165     50.1051     17.8757
  1548.2000      7.9882      2.4957     -0.0009      9.3516     50.3619     17.7792
  1548.3000      7.9645      2.5353      0.0305      6.9516     51.5108     17.0882
  1548.4000      7.9645      2.5815      0.1158      4.1522     52.7854     16.7881
  1548.5000      7.9566      2.5967      0.1040      3.2306     54.3781     16.6754
  1548.6000      7.9566      2.5794      0.1000      4.2778     54.3436     16.2083
  1548.7000      7.9566      2.5581      0.0603      5.5724     51.7453     15.7677
  1548.8000      7.9541      2.5502      0.0696      6.0469     50.1005     15.4640
  1548.9000      7.9541      2.5471      0.0652      6.2339     50.8799     14.6215
  1549.0000      7.9543      2.5339      0.0426      7.0338     51.1599     13.6231
  1549.1000      7.9543      2.5142      0.0434      8.2280     50.0854     13.6188
  1549.2000      7.9543      2.5085      0.0188      8.5729     48.7283     14.2643
  1549.3000      7.9602      2.5290      0.0311      7.3329     49.0122     14.4892
  1549.4000      7.9602      2.5647      0.0479      5.1680     51.8501     14.6208
  1549.5000      7.9806      2.5894      0.0997      3.6746     55.4940     15.2875
  1549.6000      7.9806      2.5887      0.0642      3.7172     59.9214     16.0649
  1549.7000      7.9806      2.5746      0.0354      4.5718     63.6096     16.0272
  1549.8000      7.9852      2.5546      0.0870      5.7813     62.7015     15.3233
  1549.9000      7.9852      2.5276      0.0203      7.4194     58.9656     15.5398
  1550.0000      7.9902      2.5042      0.0556      8.8364     56.0202     17.3352
  1550.1000      7.9902      2.5009     -0.0160      9.0383     54.8954     19.0562
  1550.2000      7.9902      2.5269      0.0523      7.4628     55.4769     19.3430
  1550.3000      7.9928      2.5666      0.0988      5.0562     56.5080     18.4963
  1550.4000      7.9928      2.5923      0.0915      3.4966     57.3261     17.2438
  1550.5000      7.9756      2.5975      0.0868      3.1844     58.5637     16.3260
  1550.6000      7.9756      2.5889      0.1231      3.7008     58.9678     16.1377
  1550.7000      7.9756      2.5738      0.0617      4.6189     58.6033     17.0723
  1550.8000      7.9622      2.5720      0.0365      4.7259     59.6488     19.1157
  1550.9000      7.9622      2.5980      0.0894      3.1519     60.9854     20.7126
  1551.0000      7.9526      2.6359      0.0710      0.8540     61.5083     20.9303
  1551.1000      7.9526      2.6577      0.1138     -0.4661     63.4564     21.1583
  1551.2000      7.9526      2.6560      0.0841     -0.3661     68.0795     21.8887
  1551.3000      7.9597      2.6509      0.0480     -0.0568     74.3141     21.6680
  1551.4000      7.9597      2.6591      0.0885     -0.5540     78.4919     19.8065
  1551.5000      7.9643      2.6733      0.0943     -1.4109     77.8855     17.9653
  1551.6000      7.9643      2.6824      0.0815     -1.9634     77.0270     18.1303
  1551.7000      7.9643      2.6952      0.0353     -2.7371     81.6952     19.8971
  1551.8000      7.9694      2.7242      0.0243     -4.4953     89.3383     20.6377
  1551.9000      7.9694      2.7494      0.1552     -6.0245     93.8313     19.1208
  1552.0000      7.9650      2.7362      0.0796     -5.2215     94.7087     17.0939
  1552.1000      7.9650      2.6892      0.0353     -2.3734     94.2760     16.2512
  1552.2000      7.9650      2.6370     -0.0146      0.7896     91.0670     16.4651
  1552.3000      7.9503      2.5837      0.0070      4.0200     85.1052     16.7301
  1552.4000      7.9503      2.5093     -0.0109      8.5299     82.4816     16.8981
  1552.5000      7.9388      2.4119     -0.0141     14.4325     86.6121     16.9600
  1552.6000      7.9388      2.3250     -0.0197     19.6999     94.9736     16.4825
  1552.7000      7.9388      2.2840     -0.0652     22.1826    102.3056     15.7604
  1552.8000      7.9256      2.2855      0.0752     22.0884    104.3405     15.5992
  1552.9000      7.9256      2.2995      0.0659     21.2413    102.6651     16.8180
  1553.0000      7.9047      2.3178      0.0482     20.1307    101.5808     19.5100
  1553.1000      7.9047      2.3491      0.1230     18.2347    103.2230     22.0827
  1553.2000      7.9047      2.3961      0.1538     15.3898    104.8126     23.0458
  1553.3000      7.9037      2.4623      0.1856     11.3732    105.1438     23.1046
  1553.4000      7.9037      2.5327      0.2774      7.1093    106.3937     23.0957
  1553.5000      7.9125      2.5700      0.2726      4.8490    109.4380     22.3782
  1553.6000      7.9125      2.5600      0.1921      5.4565    112.1765     21.0196
  1553.7000      7.9125      2.5244      0.1095      7.6109    111.2123     20.4146
  1553.8000      7.9354      2.4976      0.0618      9.2391    108.7175     20.5846
  1553.9000      7.9354      2.4947      0.0911      9.4134    108.6741     21.0499
  1554.0000      7.9097      2.5064      0.0963      8.7016    111.6896     22.4971
  1554.1000      7.9097      2.5153      0.1025      8.1626    116.0997     24.2901
  1554.2000      7.9097      2.5070      0.1117      8.6687    117.6317     24.5805
  1554.3000      7.9182      2.4884      0.0858      9.7920    116.2409     23.4818
  1554.4000      7.9182      2.4873      0.0593      9.8586    118.5898     22.9406
  1554.5000      7.9711      2.5207      0.1007      7.8392    124.6833     23.5356
  1554.6000      7.9711      2.5734      0.1747      4.6450    128.6832     23.9437
  1554.7000      7.9711      2.6206      0.2433      1.7809    132.4544     23.2200
  1554.8000      7.9892      2.6473      0.2543      0.1628    142.7990     22.0348
  1554.9000      7.9892      2.6377      0.2589      0.7444    156.1320     21.4713
  1555.0000      7.9890      2.5954      0.1468      3.3104    159.9272     21.5879
  1555.1000      7.9890      2.5590      0.0632      5.5165    155.3878     22.3251
  1555.2000      7.9890      2.5539      0.1017      5.8235    151.0794     23.1833
  1555.3000      7.9741      2.5638      0.1155      5.2228    145.8438     22.4779
  1555.4000      7.9741      2.5672      0.1052      5.0179    136.8250     20.0668
  1555.5000      7.9362      2.5654      0.0535      5.1284    126.7536     18.4164
  1555.6000      7.9362      2.5669      0.0346      5.0378    118.4379     18.4244
  1555.7000      7.9362      2.5697      0.0387      4.8636    112.7476     18.8038
  1555.8000      7.9539      2.5617      0.1090      5.3503    112.0888     19.0309
  1555.9000      7.9539      2.5402      0.0475      6.6567    116.2985     19.5847
  1556.0000      7.9601      2.5270      0.0209      7.4537    118.3356     20.4131
  1556.1000      7.9601      2.5441      0.0202      6.4180    115.2046     20.5848
  1556.2000      7.9601      2.5825      0.0931      4.0926    112.0235     19.9540
  1556.3000      8.0293      2.6151      0.0890      2.1181    113.2344     19.6454
  1556.4000      8.0293      2.6292      0.1015      1.2618    117.1279     20.4566
  1556.5000      8.0299      2.6278      0.0476      1.3472    119.1505     22.0723
  1556.6000      8.0299      2.6186      0.0865      1.9013    115.2085     23.0378
  1556.7000      8.0299      2.6047      0.0606      2.7425    105.6252     22.3862
  1556.8000      7.9784      2.5854      0.0863      3.9170     96.0970     20.4621
  1556.9000      7.9784      2.5613      0.0715      5.3746     92.0434     18.2418
  1557.0000      7.9747      2.5408      0.0512      6.6178     95.9475     17.0192
  1557.1000      7.9747      2.5368      0.0330      6.8630    103.9897     17.3861
