~Version Information
VERS.                      2.0: CWLS Log ASCII Standard - VERSION 2.0
WRAP.                       NO: One line per depth step
~Well Information Block
STRT.FT               300.0000: 
STOP.FT               871.2000: 
STEP.FT                 0.1000: 
NULL.                -999.2500: 
COMP.          Pioneer Natural Resources: COMPANY
WELL.            Hustler 12-17: WELL
FLD.           Purgatoire River: FIELD
LOC.           2150' FNL & 450' FWL: LOCATION
PROV.                 Colorado: PROVINCE
CNTY.               Las Animas: COUNTRY
SRVC.                Patterson: SERVICE COMPANY
DATE.          Mon Dec 20 11:14:19 2004: LOG DATE
UWI.           05 071 08236 00: UNIQUE WELL ID
~Curve Information Block
DEPT.FT            0 000 00 00: Depth
DCAL.in                       : CDL Caliper
RHOB.g/cc                     : CDL Bulk Density
RHOC.g/cc                     : CDL Density Correction
DPOR.pu                       : CDL Density Porosity
NPOR.pu                       : Neutron Porosity
GR.GAPI                       : Gamma Ray
~Parameter Information Block
~A  Depth       DCAL        RHOB        RHOC        DPOR        NPOR         GR     
# ...
   405.6000      7.9367      2.5904      0.1097      3.6095     23.7791     97.3530
   405.7000      7.9367      2.5971      0.1296      3.2074     23.5654     92.8539
   405.8000      7.9325      2.5854      0.1062      3.9146     23.0360     89.3596
   405.9000      7.9325      2.5645      0.0809      5.1845     22.9324     91.2826
   406.0000      7.9389      2.5489      0.0435      6.1273     23.1735     95.6289
   406.1000      7.9389      2.5539      0.0510      5.8258     23.2977     98.2046
   406.2000      7.9389      2.5724      0.0782      4.7042     23.4083     97.8086
   406.3000      7.9601      2.5782      0.0854      4.3509     23.5555     96.3998
   406.4000      7.9601      2.5577      0.0542      5.5937     23.5960     96.3523
   406.5000      7.9885      2.5186     -0.0059      7.9619     23.7592     96.0418
   406.6000      7.9885      2.4816     -0.0502     10.2077     24.1609     93.6253
   406.7000      7.9885      2.4591     -0.0261     11.5706     24.5237     91.3877
   406.8000      8.0055      2.4475     -0.0386     12.2739     24.8720     92.1533
   406.9000      8.0055      2.4488     -0.0861     12.1968     25.2504     94.9933
   407.0000      8.0083      2.4670      0.0001     11.0902     25.5221     97.6655
   407.1000      8.0083      2.4927      0.0163      9.5355     25.7483     99.9732
   407.2000      8.0083      2.5104      0.0760      8.4593     25.9494    102.8404
   407.3000      7.9993      2.5088      0.0657      8.5589     25.9298    105.7511
   407.4000      7.9993      2.4941      0.0386      9.4506     25.9112    106.4207
   407.5000      7.9814      2.4901      0.0193      9.6905     26.3870    103.4680
   407.6000      7.9814      2.5077      0.1062      8.6248     27.1786     98.9454
   407.7000      7.9814      2.5231      0.1405      7.6909     27.8291     97.4692
   407.8000      7.9667      2.5106      0.1025      8.4507     28.2137    102.1854
   407.9000      7.9667      2.4815      0.0579     10.2120     28.3414    109.2996
   408.0000      7.9612      2.4686      0.0173     10.9925     28.1795    111.6635
   408.1000      7.9612      2.4808      0.1327     10.2570     27.5079    110.5701
   408.2000      7.9612      2.4960      0.1220      9.3327     26.3610    112.8575
   408.3000      7.9601      2.4994      0.1200      9.1266     25.3003    118.5744
   408.4000      7.9601      2.4975      0.0840      9.2433     24.8176    120.0694
   408.5000      7.9660      2.5026      0.0852      8.9312     24.9769    115.4916
   408.6000      7.9660      2.5142      0.0969      8.2316     25.3995    114.4712
   408.7000      7.9660      2.5215      0.1108      7.7864     25.5811    120.7021
   408.8000      7.9778      2.5134      0.1179      8.2801     25.3745    123.9429
   408.9000      7.9778      2.4815      0.1071     10.2123     25.1711    118.0712
   409.0000      7.9859      2.4318      0.0582     13.2240     25.3182    112.1781
   409.1000      7.9859      2.3802      0.0699     16.3508     25.4951    111.9507
   409.2000      7.9859      2.3409      0.0248     18.7361     25.2609    110.6483
   409.3000      7.9944      2.3202      0.0232     19.9863     24.8027    108.2836
   409.4000      7.9944      2.3047      0.0260     20.9257     24.3664    112.2415
   409.5000      8.0052      2.2840     -0.0278     22.1845     23.8013    120.1523
   409.6000      8.0052      2.2747      0.0253     22.7435     22.9762    124.3524
   409.7000      8.0052      2.2914      0.0883     21.7330     21.7645    122.9430
   409.8000      8.0112      2.3247      0.1528     19.7157     20.3400    119.9672
   409.9000      8.0112      2.3614      0.1690     17.4906     19.1673    119.7965
   410.0000      8.0137      2.4051      0.1592     14.8433     18.5337    122.9560
   410.1000      8.0137      2.4528      0.2346     11.9522     18.4212    125.3596
   410.2000      8.0137      2.4799      0.1976     10.3109     18.5905    124.7992
   410.3000      8.0142      2.4817      0.1257     10.1975     18.8983    124.1669
   410.4000      8.0142      2.4820      0.0747     10.1791     19.3834    127.4472
   410.5000      8.0099      2.4959      0.0805      9.3381     20.0902    132.7897
   410.6000      8.0099      2.5187      0.1135      7.9551     20.8509    135.3137
   410.7000      8.0099      2.5355      0.1158      6.9373     21.3867    137.9317
   410.8000      8.0041      2.5345      0.0813      7.0010     21.8275    145.0133
   410.9000      8.0041      2.5200      0.0551      7.8812     22.4457    152.0829
   411.0000      7.9984      2.5110      0.0298      8.4241     23.0578    152.0506
   411.1000      7.9984      2.5211      0.0611      7.8136     23.3531    147.3948
   411.2000      7.9984      2.5438      0.0640      6.4373     23.2869    142.8767
   411.3000      7.9909      2.5644      0.0956      5.1906     23.1876    136.9998
   411.4000      7.9909      2.5733      0.0839      4.6491     23.5133    129.3834
   411.5000      7.9849      2.5729      0.0627      4.6747     24.2771    123.0479
   411.6000      7.9849      2.5706      0.0597      4.8123     25.0340    120.9972
   411.7000      7.9849      2.5733      0.0370      4.6483     25.3618    121.2099
   411.8000      7.9839      2.5791      0.0872      4.2942     25.2391    116.6321
   411.9000      7.9839      2.5724      0.0819      4.7055     25.1073    108.5788
   412.0000      7.9862      2.5538      0.0348      5.8316     25.4987    103.6994
   412.1000      7.9862      2.5442      0.0506      6.4133     26.0941    102.2009
   412.2000      7.9862      2.5452      0.0498      6.3521     26.0833    101.8344
   412.3000      7.9863      2.5488      0.0355      6.1324     25.4719    100.2976
   412.4000      7.9863      2.5609      0.0286      5.4011     24.9159     97.7038
   412.5000      7.9839      2.5780      0.0441      4.3631     24.8732     97.8950
   412.6000      7.9839      2.5829      0.0408      4.0694     25.2184    102.4796
   412.7000      7.9839      2.5723      0.0350      4.7071     25.6425    109.4355
   412.8000      7.9831      2.5597      0.0137      5.4732     25.8054    114.7739
   412.9000      7.9831      2.5504      0.0327      6.0339     25.4067    114.4234
   413.0000      7.9845      2.5395      0.0399      6.6962     24.9435    109.1856
   413.1000      7.9845      2.5272      0.0230      7.4416     25.1371    105.3323
   413.2000      7.9845      2.5176     -0.0035      8.0234     25.8007    107.4220
   413.3000      7.9872      2.5060      0.0322      8.7253     26.4709    113.2940
   413.4000      7.9872      2.4853      0.0014      9.9837     27.1207    118.0616
   413.5000      7.9960      2.4564     -0.0162     11.7335     27.7541    120.2651
   413.6000      7.9960      2.4222     -0.0096     13.8074     28.2121    122.5018
   413.7000      7.9960      2.3919     -0.0375     15.6454     28.4242    127.4637
   413.8000      8.0126      2.3863     -0.0491     15.9815     28.3039    129.8327
   413.9000      8.0126      2.4038      0.0489     14.9206     27.9503    126.0100
   414.0000      8.0280      2.4091      0.0520     14.5988     27.6151    123.2080
   414.1000      8.0280      2.3806      0.0208     16.3280     27.0612    125.7950
   414.2000      8.0280      2.3188      0.0015     20.0718     25.9763    129.6710
   414.3000      8.0369      2.2278     -0.0300     25.5907     24.6173    131.8385
   414.4000      8.0369      2.1245     -0.0714     31.8457     23.4588    132.8791
   414.5000      8.0407      2.0232     -0.0234     37.9849     22.5750    133.1922
   414.6000      8.0407      1.9108     -0.0286     44.8018     21.4402    131.3087
   414.7000      8.0407      1.7781     -0.0980     52.8407     19.6463    126.3942
   414.8000      8.0490      1.6481     -0.1761     60.7239     17.5449    120.7699
   414.9000      8.0490      1.5469     -0.1515     66.8558     15.6407    115.4134
   415.0000      8.0803      1.4806     -0.1511     70.8702     14.0867    110.1369
   415.1000      8.0803      1.4514     -0.0884     72.6425     12.8199    105.4271
