~Version Information
 VERS.                                  2.0 : CWLS LAS VERSION
 WRAP.                                   NO : WRAPING MODE
 SWARE .                 MController 2.5.0J : SOFTWARE VERSION
~Well Information
 WELL.                         Leier 17-24R : WELL
 COMP.                Petrogulf Corporation : COMPANY
 FLD.                      Purgatoire River : FIELD
 LOC.                SE/NE Sec 17 T33S R67W : LOCATION
 DATE.                          10/17-18/05 : DATE(S) LOGGED
 SRVC.       BLANCO Geological Services LLC : SERVICE COMPANY
 STAT.                                   CO : STATE
 CNTY.                           Las Animas : COUNTY
 CTRY.                                  USA : COUNTRY
 API.                       05-071-08410-00 : API NUMBER
 STRT.FT                              31.00 : START DEPTH
 STOP.FT                            1390.00 : STOP DEPTH
 STEP.FT                               1.00 : DEPTH INCREMENT
 NULL.                                -9999 : NULL VALUE
~Curve information
 DEPTH.FT                                   :
 ROP.MIN/FT                                 :
 GAS.UNITS                                  :
~ASCII Log data
        31.0     -9999.00          3.6 
        32.0        14.10          3.6 
        33.0         0.97          1.9 
        34.0         5.77          1.9 
        35.0         1.02          1.5 
        36.0         2.82          1.8 
        37.0         1.10          1.5 
        38.0         0.13          1.6 
        39.0         0.13          1.2 
        40.0         0.50          1.4 
        41.0         0.50          1.5 
        42.0         0.48          1.7 
        43.0         0.50          1.5 
        44.0         0.30          1.6 
        45.0         0.33          1.6 
        46.0         0.33          1.7 
        47.0         0.43          1.6 
        48.0         0.43          1.6 
        49.0         0.30          1.5 
        50.0         0.45          1.6 
        51.0         0.40          1.8 
        52.0         0.37          1.7 
        53.0         0.40          1.7 
        54.0         0.37          2.6 
        55.0         0.47          2.6 
        56.0         0.33          4.8 
        57.0         0.30          4.9 
        58.0         0.28          4.7 
        59.0         0.30          4.4 
        60.0         0.20          4.8 
        61.0         0.30          5.2 
        62.0         0.30          6.0 
        63.0         0.40         29.4 
        64.0         0.47        115.9 
        65.0         0.40         93.8 
        66.0         0.27         34.0 
        67.0         0.27         16.1 
        68.0         0.28          9.5 
        69.0         0.23          5.8 
        70.0         0.20          5.7 
        71.0         0.23          5.0 
        72.0         0.23          4.7 
        73.0         0.20          5.0 
        74.0         0.20          5.2 
        75.0         0.20          5.5 
        76.0         0.20          5.6 
        77.0         0.20          6.0 
        78.0         0.23          6.2 
        79.0         0.23          6.6 
        80.0         0.23          6.7 
        81.0         0.27          7.2 
        82.0         0.28          7.1 
        83.0         0.20          7.3 
        84.0         0.17          7.2 
        85.0         0.30          7.5 
        86.0         1.00          8.4 
        87.0         0.23          8.6 
        88.0         0.20          8.8 
        89.0         0.30          8.6 
        90.0         0.28          8.6 
        91.0         0.27          9.0 
        92.0         0.27          9.0 
        93.0         0.23          8.8 
        94.0         0.23          9.1 
        95.0         0.23          9.5 
        96.0         0.27          8.9 
        97.0         0.20          8.5 
        98.0         0.23          9.2 
        99.0         0.27          9.1 
       100.0         0.27          9.4 
       101.0         0.33          9.1 
       102.0         0.27          9.2 
       103.0         0.28          9.5 
       104.0         0.23          9.4 
       105.0         0.30          9.6 
       106.0         0.27          9.3 
       107.0         0.27          9.7 
       108.0         0.27          9.6 
       109.0         0.27          9.7 
       110.0         0.27          9.7 
       111.0         0.27         10.1 
       112.0         0.27          9.7 
       113.0         0.27         10.0 
       114.0         0.30         10.2 
       115.0         0.28         10.5 
       116.0         1.23         10.6 
       117.0         0.20         10.4 
       118.0         0.27         10.1 
       119.0         0.30         10.1 
       120.0         0.23         10.6 
       121.0         0.27         10.0 
       122.0         0.27         10.4 
       123.0         0.27         10.1 
       124.0         0.28         10.2 
       125.0         0.27         10.2 
       126.0         0.27         10.5 
       127.0         0.30         10.2 
       128.0         0.23         10.5 
       129.0         0.23         10.6 
       130.0         0.23         10.4 
       131.0         0.23         10.6 
       132.0         0.20         10.8 
       133.0         0.23         11.1 
       134.0         0.23         10.6 
       135.0         0.20         10.2 
       136.0         0.20         10.9 
       137.0         0.23         10.9 
       138.0         0.25         10.6 
       139.0         0.20         10.2 
       140.0         0.23         11.0 
       141.0         0.23         11.2 
       142.0         0.20         10.6 
       143.0         0.23         11.0 
       144.0         0.27         10.6 
       145.0         0.23         10.3 
       146.0         2.02         11.2 
       147.0         0.30         11.2 
       148.0         0.23         11.0 
       149.0         0.27         11.3 
       150.0         0.20         11.2 
       151.0         0.23         11.3 
       152.0         0.23         11.1 
       153.0         0.20         11.3 
       154.0         0.23         11.2 
       155.0         0.20         11.3 
       156.0         0.20         10.6 
       157.0         0.27         11.2 
       158.0         0.32         11.5 
       159.0         0.27         11.3 
       160.0         0.27         10.7 
       161.0         0.30         10.8 
       162.0         0.27         11.0 
       163.0         0.57         11.1 
       164.0         0.37         10.9 
       165.0         0.23         11.0 
       166.0         0.27         10.7 
       167.0         0.30         11.1 
       168.0         0.23         11.2 
       169.0         0.28         11.0 
       170.0         0.23         11.1 
       171.0         0.30         11.1 
       172.0         0.23         11.2 
       173.0         0.23         11.1 
       174.0         0.23         10.6 
       175.0         0.27         11.3 
       176.0         1.95         11.3 
       177.0         0.20         10.9 
       178.0         0.23         10.6 
       179.0         0.23         11.4 
       180.0         0.23         11.1 
       181.0         0.23         10.6 
       182.0         0.23         11.1 
       183.0         0.23         11.2 
       184.0         0.23         11.0 
       185.0         0.27         11.1 
       186.0         0.23         10.9 
       187.0         0.27         10.8 
       188.0         0.32         11.1 
       189.0         0.30         10.9 
       190.0         0.30         10.7 
       191.0         0.27         10.7 
       192.0         0.33         10.6 
       193.0         0.33         10.6 
       194.0         0.33         10.7 
       195.0         0.30         10.0 
       196.0         0.30         10.7 
       197.0         0.30         10.5 
       198.0         0.30         10.4 
       199.0         0.28         10.7 
       200.0         0.27         10.6 
       201.0         0.23         10.2 
       202.0         0.27         10.7 
       203.0         0.20         10.1 
       204.0         0.23         10.6 
       205.0         0.30         10.5 
       206.0         1.27         10.5 
       207.0         0.30         10.1 
       208.0         0.28         10.3 
       209.0         0.30         10.2 
       210.0         0.27         10.1 
       211.0         0.23         10.0 
       212.0         0.30         10.0 
       213.0         0.30         10.1 
       214.0         0.27          9.9 
       215.0         0.27         10.1 
       216.0         0.27          9.6 
       217.0         0.30          9.6 
       218.0         0.27          9.9 
       219.0         0.27          9.7 
       220.0         0.28          9.2 
       221.0         0.33          9.8 
       222.0         0.33          9.7 
       223.0         0.37          9.3 
       224.0         0.27          9.4 
       225.0         0.27          9.6 
       226.0         0.23          8.9 
       227.0         0.27          9.3 
       228.0         0.27          9.3 
       229.0         0.30          9.3 
       230.0         0.28          8.7 
