~Version Information
 VERS.                                  2.0 : CWLS LAS VERSION
 WRAP.                                   NO : WRAPING MODE
 SWARE .                 MController 2.5.0E : SOFTWARE VERSION
~Well Information
 WELL.                          SUNSET 24-3 : WELL
 COMP.                            EVERGREEN : COMPANY
 FLD.                      PURGATOIRE RIVER : FIELD
 LOC.                  SE/SW SEC3 T33S R65W : LOCATION
 DATE.                             09/22/04 : DATE(S) LOGGED
 SRVC.       BLANCO GEOLOGICAL SERVICES LLC : SERVICE COMPANY
 STAT.                             COLORADO : STATE
 CNTY.                           LAS ANIMAS : COUNTY
 CTRY.                                  USA : COUNTRY
 API.                       05-071-08158-00 : API NUMBER
 STRT.FT                             506.00 : START DEPTH
 STOP.FT                            1050.00 : STOP DEPTH
 STEP.FT                               1.00 : DEPTH INCREMENT
 NULL.                                -9999 : NULL VALUE
~Curve information
 DEPTH.FT                                   :
 ROP.MIN/FT                                 :
 GAS.UNITS                                  :
~ASCII Log data
# ...
      906.00        0.167         31.9 
      907.00        0.200         42.9 
      908.00        0.233         50.3 
      909.00        0.183         53.4 
      910.00        0.200         54.7 
      911.00        0.167         59.6 
      912.00        0.200         72.2 
      913.00        0.167         84.6 
      914.00        0.200         96.8 
      915.00        0.167        102.7 
      916.00        0.200        106.4 
      917.00        0.200        113.1 
      918.00        0.167        117.8 
      919.00        0.200        124.1 
      920.00        0.167        129.1 
      921.00        0.167        129.3 
      922.00        0.167        127.8 
      923.00        0.167        125.5 
      924.00        0.200        124.4 
      925.00        0.167        124.2 
      926.00        2.217       1232.9 
      927.00        0.233       1226.5 
      928.00        0.267       1153.8 
      929.00        0.233       1026.4 
      930.00        0.267        911.9 
      931.00        0.233        797.6 
      932.00        0.167        717.8 
      933.00        0.217        672.6 
      934.00        0.167        621.8 
      935.00        0.133        588.8 
      936.00        0.167        566.2 
      937.00        0.167        541.6 
      938.00        0.200        519.0 
      939.00        0.167        494.8 
      940.00        0.167        485.0 
      941.00        0.167        484.3 
      942.00        0.167        483.6 
      943.00        0.133        480.6 
      944.00        0.167        478.6 
      945.00        0.167        470.8 
      946.00        0.167        462.1 
      947.00        0.167        455.7 
      948.00        0.233        446.6 
      949.00        0.267        469.8 
      950.00        0.167        467.5 
      951.00        0.200        444.9 
      952.00        0.183        440.0 
      953.00        0.200        140.3 
      954.00        0.200        133.6 
      955.00        0.167        129.4 
      956.00        2.533        387.6 
      957.00        0.283        383.6 
      958.00        0.267        358.7 
      959.00        0.300        326.9 
      960.00        0.267        290.9 
      961.00        0.300        258.0 
      962.00        0.167        228.8 
      963.00        0.267        217.5 
      964.00        0.233        198.4 
      965.00        0.267        184.2 
      966.00        0.200        170.7 
      967.00        0.233        165.2 
      968.00        0.200        162.5 
      969.00        0.200        162.5 
      970.00        0.167        160.1 
      971.00        0.217        156.5 
      972.00        0.200        154.8 
      973.00        0.167        151.4 
      974.00        0.200        148.3 
      975.00        0.200        145.3 
      976.00        0.200        148.0 
      977.00        0.133        151.4 
      978.00        0.233        161.9 
      979.00        0.167        165.6 
      980.00        0.133        164.5 
      981.00        0.167        158.7 
      982.00        0.133        150.0 
      983.00        0.167        143.9 
      984.00        0.167        138.2 
      985.00        0.133        133.7 
      986.00        2.017       1257.5 
      987.00        0.233       1259.2 
      988.00        0.267       1209.7 
      989.00        0.233       1104.9 
      990.00        0.233       1008.9 
      991.00        0.233        907.8 
      992.00        0.200        819.2 
      993.00        0.233        756.9 
      994.00        0.233        689.8 
      995.00        0.200        645.0 
      996.00        0.250        611.0 
      997.00        0.200        578.0 
      998.00        0.233        561.8 
      999.00        0.233        545.3 
     1000.00        0.233        528.1 
     1001.00        0.233        514.3 
     1002.00        0.167        494.4 
     1003.00        0.233        484.6 
     1004.00        0.200        488.7 
     1005.00        0.200        488.7 
     1006.00        0.167        486.3 
     1007.00        0.167        481.6 
     1008.00        0.300        483.6 
     1009.00        0.167        505.2 
     1010.00        0.167        504.9 
     1011.00        0.167        483.6 
     1012.00        0.217        458.4 
     1013.00        0.167        440.0 
     1014.00        0.200        440.0 
     1015.00        0.133        134.7 
     1016.00        2.000        441.2 
     1017.00        0.300       1301.3 
     1018.00        0.267       1278.1 
     1019.00        0.250       1167.2 
     1020.00        0.233       1028.4 
     1021.00        0.233        927.7 
     1022.00        0.267        829.0 
     1023.00        0.233        740.4 
     1024.00        0.200        681.7 
     1025.00        0.200        631.9 
     1026.00        0.200        595.8 
     1027.00        0.200        563.1 
     1028.00        0.200        538.6 
     1029.00        0.200        507.2 
     1030.00        0.167        476.2 
     1031.00        0.200        444.9 
     1032.00        0.167        440.0 
     1033.00        0.167        130.4 
     1034.00        0.133        120.0 
     1035.00        0.167        115.1 
     1036.00        0.183        111.4 
     1037.00        0.167        108.0 
     1038.00        0.167        108.5 
     1039.00        0.200        118.5 
     1040.00        0.133        122.4 
     1041.00        0.167        123.8 
     1042.00        0.133        123.8 
     1043.00        0.167        123.1 
     1044.00        0.133        121.7 
     1045.00        0.167        120.7 
     1046.00        2.350        443.1 
     1047.00        0.267        446.5 
     1048.00        0.233      -9999.0 
     1049.00        0.200      -9999.0 
     1050.00        0.200      -9999.0 
