~Version Information
VERS.                      2.0: CWLS Log ASCII Standard - VERSION 2.0
WRAP.                       NO: One line per depth step
~Well Information Block
STRT.FT               456.0000: 
STOP.FT              1700.7000: 
STEP.FT                 0.1000: 
NULL.                -999.2500: 
COMP.          Pioneer Natural Resources: COMPANY
WELL.                Mead 11-9: WELL
FLD.           Purgatoire River: FIELD
LOC.           1127' FNL & 668' FWL: LOCATION
PROV.                 Colorado: PROVINCE
CNTY.               Las Animas: COUNTRY
SRVC.                Patterson: SERVICE COMPANY
DATE.          Sat Feb 19 09:18:18 2005: LOG DATE
UWI.           05 071 08160 00: UNIQUE WELL ID
~Curve Information Block
DEPT.FT            0 000 00 00: Depth
DCAL.in                       : CDL Caliper
RHOB.g/cc                     : CDL Bulk Density
RHOC.g/cc                     : CDL Density Correction
DPOR.pu                       : CDL Density Porosity
GR.GAPI                       : Gamma Ray
NPOR.pu                       : Neutron Porosity
~Parameter Information Block
~A  Depth       DCAL        RHOB        RHOC        DPOR         GR         NPOR    
# ...
   705.6000      8.0505      2.4154      0.0516     14.2208     76.1073     19.2493
   705.7000      8.0505      2.3884      0.0112     15.8536     76.5727     18.8494
   705.8000      8.0510      2.3699      0.0306     16.9773     75.9099     18.4731
   705.9000      8.0510      2.3680     -0.0019     17.0896     73.2774     18.1238
   706.0000      8.0504      2.3761      0.0254     16.5977     70.7077     17.9981
   706.1000      8.0504      2.3781      0.0962     16.4771     68.7592     18.3374
   706.2000      8.0504      2.3753      0.0078     16.6510     64.8121     18.9000
   706.3000      8.0498      2.3899      0.0495     15.7632     59.3433     19.1145
   706.4000      8.0498      2.4184      0.1067     14.0364     57.2119     18.9870
   706.5000      8.0502      2.4339      0.0693     13.0947     60.0103     18.8836
   706.6000      8.0502      2.4360      0.0596     12.9703     64.5886     18.7617
   706.7000      8.0502      2.4444      0.0335     12.4629     66.7734     18.6595
   706.8000      8.0502      2.4571      0.1189     11.6891     65.1768     18.7481
   706.9000      8.0502      2.4547      0.1126     11.8391     62.1996     19.0366
   707.0000      8.0495      2.4354      0.0978     13.0050     59.9890     19.4391
   707.1000      8.0495      2.4212      0.0181     13.8649     58.9749     19.7232
   707.2000      8.0495      2.4290      0.0351     13.3928     59.0209     19.7275
   707.3000      8.0491      2.4463      0.0642     12.3483     59.3244     19.6455
   707.4000      8.0491      2.4547      0.0694     11.8363     59.5706     19.7504
   707.5000      8.0502      2.4543      0.0738     11.8596     58.9953     19.9613
   707.6000      8.0502      2.4507      0.0482     12.0800     58.1052     19.9864
   707.7000      8.0502      2.4436      0.0644     12.5072     59.8432     19.8711
   707.8000      8.0515      2.4344      0.0654     13.0658     62.9846     19.7937
   707.9000      8.0515      2.4331      0.0676     13.1447     64.4928     19.6397
   708.0000      8.0514      2.4457      0.0801     12.3821     65.5761     19.2277
   708.1000      8.0514      2.4629      0.1189     11.3370     66.3697     18.8632
   708.2000      8.0514      2.4740      0.0955     10.6690     66.3187     18.9563
   708.3000      8.0512      2.4785      0.1040     10.3957     67.6697     19.2582
   708.4000      8.0512      2.4775      0.1136     10.4520     71.2117     19.3937
   708.5000      8.0522      2.4714      0.0831     10.8265     74.2945     19.3746
   708.6000      8.0522      2.4609      0.0729     11.4588     74.3875     19.3020
   708.7000      8.0522      2.4447      0.0552     12.4427     72.4546     19.2668
   708.8000      8.0528      2.4303      0.0239     13.3148     70.0388     19.3803
   708.9000      8.0528      2.4377      0.0381     12.8694     67.4167     19.8031
   709.0000      8.0515      2.4623      0.0487     11.3727     66.2232     20.4777
   709.1000      8.0515      2.4756      0.0460     10.5681     68.8706     21.1496
   709.2000      8.0515      2.4714      0.0113     10.8223     73.3657     21.5724
   709.3000      8.0506      2.4629      0.0360     11.3389     75.3638     21.4789
   709.4000      8.0506      2.4584      0.0252     11.6148     73.1677     21.0426
   709.5000      8.0505      2.4614      0.0836     11.4286     68.1251     20.7261
   709.6000      8.0505      2.4652      0.0473     11.1982     65.1607     20.6244
   709.7000      8.0505      2.4634      0.0465     11.3102     68.2820     20.6674
   709.8000      8.0503      2.4559      0.0480     11.7609     74.9617     20.7865
   709.9000      8.0503      2.4481      0.0064     12.2361     79.1617     20.8332
   710.0000      8.0499      2.4522      0.0391     11.9870     78.5954     20.9875
   710.1000      8.0499      2.4697      0.0767     10.9295     74.4492     21.5470
   710.2000      8.0499      2.4838      0.0697     10.0749     70.2796     22.2046
   710.3000      8.0494      2.4820      0.0922     10.1795     69.8057     22.3693
   710.4000      8.0494      2.4696      0.0636     10.9325     72.2766     22.1824
   710.5000      8.0496      2.4582      0.0728     11.6264     74.4631     22.1892
   710.6000      8.0496      2.4568      0.0728     11.7089     75.4049     22.2658
   710.7000      8.0496      2.4754      0.0350     10.5842     75.6636     22.2116
   710.8000      8.0511      2.5141      0.0590      8.2362     75.8235     22.2469
   710.9000      8.0511      2.5491      0.0872      6.1179     75.9530     22.4763
   711.0000      8.0526      2.5581      0.1134      5.5682     75.9241     22.9616
   711.1000      8.0526      2.5483      0.0720      6.1610     76.1421     23.5488
   711.2000      8.0526      2.5384      0.0925      6.7606     77.9817     23.8202
   711.3000      8.0529      2.5400      0.0512      6.6675     84.3968     23.6100
   711.4000      8.0529      2.5520      0.0835      5.9372     94.8244     23.1297
   711.5000      8.0524      2.5584      0.1089      5.5504     99.5941     22.9486
   711.6000      8.0524      2.5514     -0.0078      5.9746     94.8460     23.3880
   711.7000      8.0524      2.5402      0.0464      6.6535     91.3345     24.1639
   711.8000      8.0500      2.5309     -0.0051      7.2204     96.6927     24.8299
   711.9000      8.0500      2.5289      0.0054      7.3413    105.2830     25.1518
   712.0000      8.0484      2.5414     -0.0408      6.5806    109.2728     25.3316
   712.1000      8.0484      2.5671     -0.0087      5.0251    110.5703     25.5230
   712.2000      8.0484      2.5858      0.0899      3.8905    115.4264     25.6463
   712.3000      8.0486      2.5832      0.0229      4.0483    120.7441     25.8822
   712.4000      8.0486      2.5784      0.0282      4.3372    121.2891     26.4044
   712.5000      8.0486      2.5835      0.0654      4.0313    120.7124     26.7003
   712.6000      8.0486      2.5825      0.0745      4.0923    122.1203     26.2683
   712.7000      8.0486      2.5759     -0.0073      4.4881    125.2343     25.6003
   712.8000      8.0484      2.5755      0.0794      4.5144    129.3887     25.4405
   712.9000      8.0484      2.5681      0.0143      4.9651    132.4107     25.8093
   713.0000      8.0478      2.5499     -0.0163      6.0670    132.4007     26.2892
   713.1000      8.0478      2.5356      0.0136      6.9316    131.3949     26.6200
   713.2000      8.0478      2.5337     -0.0355      7.0475    132.6588     26.5758
   713.3000      8.0467      2.5409      0.0354      6.6143    133.9770     26.2338
   713.4000      8.0467      2.5383     -0.0139      6.7698    132.6369     26.1484
   713.5000      8.0466      2.5143      0.0339      8.2248    131.5367     26.1644
   713.6000      8.0466      2.4818     -0.0278     10.1933    132.6316     25.8036
   713.7000      8.0466      2.4637      0.0093     11.2885    132.6989     25.4321
   713.8000      8.0479      2.4620      0.0253     11.3931    129.9353     25.5528
   713.9000      8.0479      2.4658      0.0076     11.1658    126.0529     26.0241
   714.0000      8.0469      2.4727      0.0366     10.7445    123.2517     26.5756
   714.1000      8.0469      2.4866      0.0483      9.9060    122.3882     27.0023
   714.2000      8.0469      2.5131      0.0487      8.2947    122.2912     26.8756
   714.3000      8.0397      2.5462      0.1229      6.2926    121.4468     26.3541
   714.4000      8.0397      2.5701      0.1029      4.8442    120.5462     26.1549
   714.5000      8.0315      2.5834      0.1316      4.0376    121.7415     26.4144
   714.6000      8.0315      2.5874      0.1691      3.7959    125.5770     26.7876
   714.7000      8.0315      2.5798      0.0845      4.2576    128.7283     26.9081
   714.8000      8.0395      2.5671      0.0893      5.0264    126.6068     26.6918
   714.9000      8.0395      2.5614      0.0086      5.3689    120.0612     26.2329
   715.0000      8.0759      2.5721      0.0386      4.7189    118.1882     25.6709
   715.1000      8.0759      2.5912      0.0450      3.5639    127.1732     25.3952
