~Version Information
VERS.                      2.0: CWLS Log ASCII Standard - VERSION 2.0
WRAP.                       NO: One line per depth step
~Well Information Block
STRT.FT               -13.5000: 
STOP.FT              2474.2500: 
STEP.FT                 0.2500: 
NULL.                -999.2500: 
COMP.          Pioneer Natural Resources: COMPANY
WELL.              Tiaga 23-14: WELL
FLD.           Purgatorie River: FIELD
LOC.           2168' FSL & 2030' FWL--: LOCATION
PROV.                       CO: PROVINCE
CNTY.               Las Animas: COUNTRY
SRVC.                         : SERVICE COMPANY
DATE.          Thu May 12 17:01:37 2005: LOG DATE
UWI.                          : UNIQUE WELL ID
~Curve Information Block
DEPT.FT            0 000 00 00: Depth
TT3.usec                      : CBL 3' Travel Time
AMP3.mV                       : CBL 3' Amplitude
GR.GAPI                       : Gamma Ray
CCL.                          : Casing Collar Locator
~Parameter Information Block
~A  Depth       TT3         AMP3         GR         CCL     
   -13.5000   -999.2500   -999.2500   -999.2500   -999.2500
   -13.2500   -999.2500   -999.2500   -999.2500      0.0000
   -13.0000   -999.2500   -999.2500   -999.2500      0.0000
   -12.7500   -999.2500   -999.2500   -999.2500      0.0000
   -12.5000   -999.2500   -999.2500   -999.2500      0.0000
   -12.2500   -999.2500   -999.2500   -999.2500      0.0000
   -12.0000   -999.2500   -999.2500   -999.2500      0.0000
   -11.7500   -999.2500   -999.2500   -999.2500      0.0000
   -11.5000   -999.2500   -999.2500   -999.2500      0.0000
   -11.2500   -999.2500   -999.2500   -999.2500      0.0000
   -11.0000   -999.2500   -999.2500   -999.2500      0.0000
   -10.7500   -999.2500   -999.2500   -999.2500      0.0000
   -10.5000   -999.2500   -999.2500   -999.2500      0.0000
   -10.2500   -999.2500   -999.2500   -999.2500      0.0000
   -10.0000   -999.2500   -999.2500   -999.2500      0.0000
    -9.7500   -999.2500   -999.2500   -999.2500      0.0000
    -9.5000   -999.2500   -999.2500   -999.2500      0.0000
    -9.2500   -999.2500   -999.2500   -999.2500      0.0000
    -9.0000   -999.2500   -999.2500   -999.2500      0.0000
    -8.7500   -999.2500   -999.2500     59.6550      0.0000
    -8.5000   -999.2500   -999.2500     61.7035      0.0000
    -8.2500   -999.2500   -999.2500     60.8318      0.0000
    -8.0000   -999.2500   -999.2500     57.7993      0.0000
    -7.7500   -999.2500   -999.2500     54.5174      0.0000
    -7.5000   -999.2500   -999.2500     52.5632      0.0000
    -7.2500   -999.2500   -999.2500     52.2727      0.0000
    -7.0000   -999.2500   -999.2500     53.0496      0.0000
    -6.7500   -999.2500   -999.2500     54.1621      0.0000
    -6.5000   -999.2500   -999.2500     55.2477      0.0000
    -6.2500   -999.2500   -999.2500     56.3586      0.0000
    -6.0000   -999.2500   -999.2500     57.6380      0.0000
    -5.7500   -999.2500   -999.2500     58.8683      0.0000
    -5.5000   -999.2500   -999.2500     59.3152      0.0000
    -5.2500   -999.2500   -999.2500     58.2005      0.0000
    -5.0000   -999.2500   -999.2500     55.5202      0.0000
    -4.7500   -999.2500   -999.2500     52.4060      0.0000
    -4.5000   -999.2500   -999.2500     50.4904      0.0000
    -4.2500   1482.0000      3.7149     50.6729      0.0000
    -4.0000   1482.0000      3.7118     52.3581      0.0000
    -3.7500   1482.0000      3.7119     53.9187      0.0000
    -3.5000   1482.0000      3.7127     54.0241      0.0000
    -3.2500   1482.0000      3.7153     52.6296      0.0000
    -3.0000   1482.0000      3.7223     50.8518      0.0000
    -2.7500   1482.0000      3.7266     50.8167      0.0000
    -2.5000   1482.0000      3.7183     52.7495      0.0000
    -2.2500   1482.0000      3.7016     54.4698      0.0000
    -2.0000   1482.0000      3.6898     54.5604      0.0000
    -1.7500   1482.0000      3.6893     52.5453      0.0000
    -1.5000   1482.0000      3.6989     49.1542      0.0000
    -1.2500   1482.0000      3.7097     45.6859      0.0000
    -1.0000   1482.0000      3.7077     43.2284      0.0000
    -0.7500   1482.0000      3.6910     42.2920      0.0000
    -0.5000   1482.0000      3.6734     42.8324      0.0000
    -0.2500   1482.0000      3.6679     44.4926      0.0000
     0.0000   1482.0000      3.6924     49.1491      0.0000
     0.2500   1482.0000      3.6965     50.4169      0.0000
     0.5000   1482.0000      3.6890     49.5739      0.0000
     0.7500   1482.0000      3.6835     46.4315      0.0000
     1.0000   1482.0000      3.6904     41.8463      0.0000
     1.2500   1482.0000      3.7101     36.9286      2.0000
     1.5000   1482.0000      3.7354     32.2958     -2.0000
     1.7500   1482.0000      3.7517     28.1568      2.0000
     2.0000   1482.0000      3.7448     24.7545      2.0000
     2.2500   1482.0000      3.7175     22.4490     -2.0000
     2.5000   1482.0000      3.6885     21.4780      2.0000
     2.7500   1482.0000      3.6697     21.8706     -2.0000
     3.0000   1482.0000      3.6477     23.6129      0.0000
     3.2500   1482.0000      3.6055     26.6963      0.0000
     3.5000   1482.0000      3.5674     30.8609     -2.0000
     3.7500   1482.0000      3.5704     35.3850      0.0000
     4.0000   1482.0000      3.6081     39.2319      0.0000
     4.2500   1482.0000      3.6474     41.4073      0.0000
     4.5000   1482.0000      3.6663     41.4238      0.0000
     4.7500   1482.0000      3.6600     39.7769      0.0000
     5.0000   1482.0000      3.6405     37.8813      0.0000
     5.2500   1482.0000      3.6301     37.1843      0.0000
     5.5000   1482.0000      3.6410     38.1709      0.0000
     5.7500   1482.0000      3.6627     40.1127      0.0000
     6.0000   1482.0000      3.6758     41.6325      0.0000
     6.2500   1482.0000      3.6740     41.6371      0.0000
     6.5000   1482.0000      3.6669     40.0326      0.0000
     6.7500   1482.0000      3.6644     37.6740      0.0000
     7.0000   1482.0000      3.6640     35.7170      0.0000
     7.2500   1482.0000      3.6627     35.1592      0.0000
     7.5000   1482.0000      3.6618     36.6560      0.0000
     7.7500   1482.0000      3.6565     40.0976      0.0000
     8.0000   1482.0000      3.6406     44.2976      0.0000
     8.2500   1482.0000      3.6194     47.5915      0.0000
     8.5000   1482.0000      3.6033     49.0124      0.0000
     8.7500   1482.0000      3.5972     48.9013      0.0000
     9.0000   1482.0000      3.6003     48.4571      0.0000
     9.2500   1482.0000      3.6094     48.6931      0.0000
     9.5000   1482.0000      3.6193     49.7144      0.0000
     9.7500   1482.0000      3.6267     50.9746      0.0000
    10.0000   1482.0000      3.6321     52.2001      0.0000
    10.2500   1482.0000      3.6353     53.8014      0.0000
    10.5000   1482.0000      3.6337     56.3006      0.0000
    10.7500   1482.0000      3.6314     59.6808      0.0000
    11.0000   1482.0000      3.6353     63.5442      0.0000
    11.2500   1482.0000      3.6418     67.7374      0.0000
    11.5000   1482.0000      3.6432     72.4859      0.0000
    11.7500   1482.0000      3.6426     77.6593      0.0000
    12.0000   1482.0000      3.6451     81.9265      0.0000
    12.2500   1481.9595      3.6466     83.1858      0.0000
    12.5000   1481.4926      3.6407     80.3990      0.0000
    12.7500   1478.0437      3.6299     74.8041      0.0000
    13.0000   1461.6938      3.6223     68.8726      0.0000
    13.2500   1411.9326      3.6235     64.3855      0.0000
    13.5000   1314.2014      3.6287     61.8902      0.0000
    13.7500   1188.0731      3.6280     61.2426      0.0000
    14.0000   1074.6178      3.6310     61.6787      0.0000
    14.2500    993.1658      3.7265     61.7499      0.0000
    14.5000    938.7605      4.3719     60.3071      0.0000
    14.7500    895.6313      7.2200     57.7165      0.0000
    15.0000    825.0937     15.6125     55.6053      0.0000
    15.2500    688.7994     31.8045     55.3179      0.0000
    15.5000    510.7834     52.0916     56.8040      0.0000
    15.7500    364.7163     68.5997     58.9580      0.0000
    16.0000    288.9464     77.3859     60.6982      0.0000
    16.2500    263.9317     80.4381     61.5689      0.0000
    16.5000    258.6709     80.7952     61.5213      0.0000
    16.7500    257.9673     79.6097     60.5175      0.0000
    17.0000    257.9073     76.8017     58.5562      0.0000
    17.2500    257.9550     72.2721     55.9208      0.0000
    17.5000    258.1393     66.2743     53.1145      0.0000
    17.7500    258.5705     59.2821     50.6502      0.0000
    18.0000    259.5243     51.8494     49.0656      0.0000
    18.2500    261.9451     44.5387     48.8379      0.0000
    18.5000    268.1208     37.8589     49.9563      0.0000
    18.7500    281.6259     32.0996     51.6953      0.0000
    19.0000    306.4097     27.2540     53.0452      0.0000
    19.2500    345.3725     23.1646     53.3190      0.0000
    19.5000    397.5431     19.6872     52.3188      0.0000
    19.7500    458.0429     16.8008     50.1930      0.0000
