~Version Information
VERS.                      2.0: CWLS Log ASCII Standard - VERSION 2.0
WRAP.                       NO: One line per depth step
~Well Information Block
STRT.FT               651.5000: 
STOP.FT              2190.5000: 
STEP.FT                 0.2500: 
NULL.                -999.2500: 
COMP.          Pioneer Natural Resources: COMPANY
WELL.               King 22-13: WELL
FLD.           Purgatoire River: FIELD
LOC.           2419' FNL & 1806' FWL----: LOCATION
PROV.                 Colorado: PROVINCE
CNTY.               Las Animas: COUNTRY
SRVC.                Patterson: SERVICE COMPANY
DATE.          Thu Mar 31 14:33:28 2005: LOG DATE
UWI.           05 071 08318 00: UNIQUE WELL ID
~Curve Information Block
DEPT.FT            0 000 00 00: Depth
SN.Ohm-m                      : IEL Short Normal
SP.mV                         : IEL Spontaneous Potential
DIR.Ohm-m                     : IEL Induction Resistivity
GR.GAPI                       : Gamma Ray
~Parameter Information Block
~A  Depth        SN          SP         DIR          GR     
# ...
  1455.5000     16.5434    -23.0952     15.8668    143.6518
  1455.7500     16.0767    -23.5174     15.7471    149.9247
  1456.0000     15.8654    -24.1683     15.6652    157.1401
  1456.2500     15.9636    -25.0465     15.6195    158.7768
  1456.5000     16.3807    -26.1242     15.6166    156.1938
  1456.7500     17.0744    -27.3558     15.6653    152.8955
  1457.0000     18.0461    -28.6940     15.7688    148.8140
  1457.2500     19.3471    -30.1044     15.9197    146.8161
  1457.5000     20.9168    -31.5710     16.0999    142.5285
  1457.7500     22.4950    -33.0868     16.2840    137.7038
  1458.0000     23.8102    -34.6423     16.4451    128.1241
  1458.2500     24.7940    -36.2249     16.5625    121.3957
  1458.5000     25.5152    -37.8205     16.6275    112.4069
  1458.7500     25.9281    -39.4101     16.6452    107.6348
  1459.0000     25.7549    -40.9694     16.6311    103.0653
  1459.2500     24.7135    -42.4751     16.6035    101.9834
  1459.5000     22.8962    -43.9117     16.5739    102.5008
  1459.7500     20.8180    -45.2737     16.5399    103.5841
  1460.0000     19.0453    -46.5665     16.4848    107.0898
  1460.2500     17.8189    -47.8058     16.3867    112.2889
  1460.5000     17.0271    -49.0067     16.2332    125.7215
  1460.7500     16.4581    -50.1701     16.0338    136.9640
  1461.0000     16.0118    -51.2788     15.8195    152.4905
  1461.2500     15.7307    -52.3048     15.6316    159.6839
  1461.5000     15.7118    -53.2152     15.5097    164.0467
  1461.7500     16.0042    -53.9689     15.4846    162.6922
  1462.0000     16.5666    -54.5150     15.5772    156.1233
  1462.2500     17.2792    -54.8020     15.7966    150.9638
  1462.5000     18.0026    -54.8001     16.1383    146.0698
  1462.7500     18.6310    -54.5224     16.5826    145.5354
  1463.0000     19.1021    -54.0207     17.0993    146.9651
  1463.2500     19.4426    -53.3564     17.6588    147.7371
  1463.5000     19.7888    -52.5673     18.2422    146.8999
  1463.7500     20.2815    -51.6607     18.8455    144.5834
  1464.0000     20.9654    -50.6310     19.4735    138.6091
  1464.2500     21.7763    -49.4865     20.1295    134.2280
  1464.5000     22.5574    -48.2668     20.8075    130.8646
  1464.7500     23.1306    -47.0441     21.4934    132.3619
  1465.0000     23.4327    -45.9057     22.1707    139.6403
  1465.2500     23.5909    -44.9249     22.8284    145.8588
  1465.5000     23.8695    -44.1287     23.4641    153.0750
  1465.7500     24.5106    -43.4869     24.0852    154.7874
  1466.0000     25.5539    -42.9346     24.7100    152.4811
  1466.2500     26.8192    -42.4163     25.3672    148.9314
  1466.5000     28.0865    -41.9146     26.0892    143.0220
  1466.7500     29.2589    -41.4463     26.9002    139.2619
  1467.0000     30.3725    -41.0451     27.8048    133.2645
  1467.2500     31.4794    -40.7490     28.7855    128.4092
  1467.5000     32.5349    -40.5933     29.8087    119.4829
  1467.7500     33.4544    -40.6133     30.8338    112.7890
  1468.0000     34.2375    -40.8510     31.8188    102.8596
  1468.2500     34.9403    -41.3526     32.7257     97.1573
  1468.5000     35.5677    -42.1487     33.5257     91.2710
  1468.7500     36.0777    -43.2276     34.1993     89.4397
  1469.0000     36.4681    -44.5224     34.7310     89.1087
  1469.2500     36.7838    -45.9287     35.1092     89.4141
  1469.5000     37.0488    -47.3478     35.3376     88.5809
  1469.7500     37.2478    -48.7264     35.4500     86.4831
  1470.0000     37.3648    -50.0559     35.5078     81.7056
  1470.2500     37.4107    -51.3356     35.5768     78.8220
  1470.5000     37.4169    -52.5324     35.7015     77.0547
  1470.7500     37.4152    -53.5710     35.8923     77.3579
  1471.0000     37.4281    -54.3559     36.1319     77.3964
  1471.2500     37.4652    -54.8082     36.3921     75.8780
  1471.5000     37.5327    -54.9032     36.6539     71.7184
  1471.7500     37.6240    -54.6916     36.9222     68.8937
  1472.0000     37.7096    -54.2866     37.2270     65.9131
  1472.2500     37.7882    -53.8148     37.6087     64.7227
  1472.5000     37.9228    -53.3629     38.0959     64.0122
  1472.7500     38.1927    -52.9656     38.6921     64.7423
  1473.0000     38.6277    -52.6405     39.3786     68.3719
  1473.2500     39.2011    -52.4323     40.1280     71.8567
  1473.5000     39.8593    -52.4239     40.9159     75.9324
  1473.7500     40.5465    -52.7023     41.7225     76.4476
  1474.0000     41.2358    -53.2953     42.5278     73.6549
  1474.2500     41.9355    -54.1239     43.3104     70.6098
  1474.5000     42.6373    -55.0195     44.0513     67.2019
  1474.7500     43.2978    -55.8083     44.7354     66.8285
  1475.0000     43.9122    -56.3987     45.3459     68.6724
  1475.2500     44.5409    -56.8100     45.8630     70.1625
  1475.5000     45.2227    -57.1335     46.2773     70.8046
  1475.7500     45.9353    -57.4605     46.6063     70.0879
  1476.0000     46.6607    -57.8220     46.8884     68.5223
  1476.2500     47.3968    -58.1768     47.1492     67.8769
  1476.5000     48.0666    -58.4533     47.3745     68.0329
  1476.7500     48.5281    -58.6101     47.5201     68.7548
  1477.0000     48.7336    -58.6718     47.5510     69.9311
  1477.2500     48.7668    -58.7158     47.4698     70.2276
  1477.5000     48.7174    -58.8179     47.3108     69.6824
  1477.7500     48.6180    -58.9936     47.1195     69.0204
  1478.0000     48.4738    -59.1869     46.9414     68.4339
  1478.2500     48.2935    -59.3167     46.8210     68.5919
  1478.5000     48.1086    -59.3339     46.7901     69.6160
  1478.7500     47.9724    -59.2337     46.8406     70.6797
  1479.0000     47.9419    -59.0172     46.9037     72.6052
  1479.2500     48.0714    -58.6506     46.8597     73.9399
  1479.5000     48.3956    -58.0652     46.5842     75.5397
  1479.7500     48.8842    -57.1931     46.0032     75.9580
  1480.0000     49.4249    -56.0059     45.1163     75.0697
  1480.2500     49.8889    -54.5389     43.9767     73.5508
  1480.5000     50.2149    -52.8927     42.6479     71.2522
  1480.7500     50.4261    -51.1994     41.1763     70.8954
  1481.0000     50.5622    -49.5603     39.5914     73.0319
  1481.2500     50.5597    -47.9986     37.9260     75.4519
  1481.5000     50.1861    -46.4676     36.2280     77.9049
  1481.7500     49.1328    -44.9061     34.5530     77.7597
  1482.0000     47.2433    -43.2928     32.9483     75.6638
  1482.2500     44.6555    -41.6663     31.4425     74.5066
  1482.5000     41.6688    -40.1097     30.0487     75.3167
  1482.7500     38.5368    -38.7097     28.7703     77.8618
  1483.0000     35.4439    -37.5077     27.6055     83.7092
  1483.2500     32.5629    -36.4782     26.5480     88.1237
  1483.5000     30.0031    -35.5534     25.5885     95.1767
  1483.7500     27.7311    -34.6722     24.7188    101.1371
  1484.0000     25.6577    -33.8120     23.9375    114.2910
  1484.2500     23.8289    -32.9863     23.2509    125.8278
  1484.5000     22.4741    -32.2169     22.6694    143.1779
  1484.7500     21.8528    -31.5066     22.1997    151.4403
  1485.0000     22.0594    -30.8358     21.8414    156.1054
  1485.2500     22.9284    -30.1829     21.5898    155.2012
  1485.5000     24.0563    -29.5382     21.4429    152.1622
  1485.7500     24.8995    -28.8912     21.4042    150.9006
  1486.0000     24.9622    -28.2075     21.4771    150.3911
  1486.2500     24.0737    -27.4268     21.6560    149.7487
  1486.5000     22.5945    -26.4931     21.9247    145.9447
  1486.7500     21.3136    -25.3982     22.2632    141.0081
  1487.0000     21.0339    -24.2028     22.6590    131.1953
  1487.2500     22.1575    -23.0188     23.1114    124.3988
  1487.5000     24.5011    -21.9588     23.6268    115.8478
  1487.7500     27.3575    -21.0847     24.2093    111.8077
  1488.0000     29.8618    -20.3894     24.8505    108.1964
  1488.2500     31.5155    -19.8161     25.5278    107.1814
  1488.5000     32.3888    -19.2933     26.2103    107.3034
  1488.7500     32.8568    -18.7608     26.8732    107.9892
