~Version Information
VERS.                      2.0: CWLS Log ASCII Standard - VERSION 2.0
WRAP.                       NO: One line per depth step
~Well Information Block
STRT.FT               450.0000: 
STOP.FT              1642.0000: 
STEP.FT                 0.1000: 
NULL.                -999.2500: 
COMP.          Pioneer Natural Resources: COMPANY
WELL.           Buckhorn 12-21: WELL
FLD.           Purgatoire River: FIELD
LOC.           2450' FNL & 608' FWL: LOCATION
PROV.                 Colorado: PROVINCE
CNTY.               Las Animas: COUNTRY
SRVC.                Patterson: SERVICE COMPANY
DATE.          Wed Dec 01 15:08:21 2004: LOG DATE
UWI.           05 071 08129 00: UNIQUE WELL ID
~Curve Information Block
DEPT.FT            0 000 00 00: Depth
NPOR.pu                       : Neutron Porosity
CCL.                          : Casing Collar Locator
GR.GAPI                       : Gamma Ray
~Parameter Information Block
~A  Depth       NPOR        CCL          GR     
# ...
  1301.7000     21.5502      0.0000     93.6464
  1301.8000     21.7901      0.0000    101.9495
  1301.9000     21.7901      0.0000    101.9495
  1302.0000     21.9037      0.0000    111.4394
  1302.1000     21.9037      0.0000    111.4394
  1302.2000     21.9037      0.0000    111.4394
  1302.3000     21.9341      0.0000    120.4321
  1302.4000     21.9341      0.0000    120.4321
  1302.5000     22.0228      0.0000    127.0661
  1302.6000     22.0228      0.0000    127.0661
  1302.7000     22.0228      0.0000    127.0661
  1302.8000     22.3353      0.0000    130.4604
  1302.9000     22.3353      0.0000    130.4604
  1303.0000     22.9683      0.0000    131.7951
  1303.1000     22.9683      0.0000    131.7951
  1303.2000     22.9683      0.0000    131.7951
  1303.3000     23.9090      0.0000    133.6375
  1303.4000     23.9090      0.0000    133.6375
  1303.5000     25.0545      0.0000    137.7110
  1303.6000     25.0545      0.0000    137.7110
  1303.7000     25.0545      0.0000    137.7110
  1303.8000     26.2693      0.0000    143.4907
  1303.9000     26.2693      0.0000    143.4907
  1304.0000     27.4529      0.0000    149.1782
  1304.1000     27.4529      0.0000    149.1782
  1304.2000     27.4529      0.0000    149.1782
  1304.3000     28.5775      0.0000    153.6204
  1304.4000     28.5775      0.0000    153.6204
  1304.5000     29.6722      0.0000    156.8210
  1304.6000     29.6722      0.0000    156.8210
  1304.7000     29.6722      0.0000    156.8210
  1304.8000     30.7646      0.0000    158.9878
  1304.9000     30.7646      0.0000    158.9878
  1305.0000     31.8278      0.0000    159.9341
  1305.1000     31.8278      0.0000    159.9341
  1305.2000     31.8278      0.0000    159.9341
  1305.3000     32.7778      0.0000    159.4624
  1305.4000     32.7778      0.0000    159.4624
  1305.5000     33.5169      0.0000    157.6694
  1305.6000     33.5169      0.0000    157.6694
  1305.7000     33.5169      0.0000    157.6694
  1305.8000     33.9868      0.0000    154.6255
  1305.9000     33.9868      0.0000    154.6255
  1306.0000     34.2071      0.0000    150.3829
  1306.1000     34.2071      0.0000    150.3829
  1306.2000     34.2071      0.0000    150.3829
  1306.3000     34.2663      0.0000    145.6507
  1306.4000     34.2663      0.0000    145.6507
  1306.5000     34.2413      0.0000    141.8573
  1306.6000     34.2413      0.0000    141.8573
  1306.7000     34.2413      0.0000    141.8573
  1306.8000     34.1038      0.0000    140.0522
  1306.9000     34.1038      0.0000    140.0522
  1307.0000     33.6994      0.0000    139.9371
  1307.1000     33.6994      0.0000    139.9371
  1307.2000     33.6994      0.0000    139.9371
  1307.3000     32.8025      0.0000    140.1283
  1307.4000     32.8025      0.0000    140.1283
  1307.5000     31.2145      0.0000    139.2492
  1307.6000     31.2145      0.0000    139.2492
  1307.7000     31.2145      0.0000    139.2492
  1307.8000     28.9192      0.0000    136.7192
  1307.9000     28.9192      0.0000    136.7192
  1308.0000     26.2262      0.0000    132.6356
  1308.1000     26.2262      0.0000    132.6356
  1308.2000     26.2262      0.0000    132.6356
  1308.3000     23.7144      0.0000    127.3897
  1308.4000     23.7144      0.0000    127.3897
  1308.5000     21.9417      0.0000    121.9729
  1308.6000     21.9417      0.0000    121.9729
  1308.7000     21.9417      0.0000    121.9729
  1308.8000     21.1720      0.0000    118.2999
  1308.9000     21.1720      0.0000    118.2999
  1309.0000     21.3323      0.0000    118.1941
  1309.1000     21.3323      0.0000    118.1941
  1309.2000     21.3323      0.0000    118.1941
  1309.3000     22.1583      0.0000    121.7931
  1309.4000     22.1583      0.0000    121.7931
  1309.5000     23.3784      0.0000    127.4451
  1309.6000     23.3784      0.0000    127.4451
  1309.7000     23.3784      0.0000    127.4451
  1309.8000     24.8047      0.0000    133.1334
  1309.9000     24.8047      0.0000    133.1334
  1310.0000     26.2794      0.0000    137.7162
  1310.1000     26.2794      0.0000    137.7162
  1310.2000     26.2794      0.0000    137.7162
  1310.3000     27.5735      0.0000    141.0660
  1310.4000     27.5735      0.0000    141.0660
  1310.5000     28.3889      0.0000    143.4515
  1310.6000     28.3889      0.0000    143.4515
  1310.7000     28.3889      0.0000    143.4515
  1310.8000     28.5003      0.0000    144.8669
  1310.9000     28.5003      0.0000    144.8669
  1311.0000     27.9024      0.0000    144.9227
  1311.1000     27.9024      0.0000    144.9227
  1311.2000     27.9024      0.0000    144.9227
  1311.3000     26.8130      0.0000    143.3032
  1311.4000     26.8130      0.0000    143.3032
  1311.5000     25.5524      0.0000    140.2874
  1311.6000     25.5524      0.0000    140.2874
  1311.7000     25.5524      0.0000    140.2874
  1311.8000     24.4188      0.0000    137.0186
  1311.9000     24.4188      0.0000    137.0186
  1312.0000     23.6211      0.0000    135.1620
  1312.1000     23.6211      0.0000    135.1620
  1312.2000     23.6211      0.0000    135.1620
  1312.3000     23.2612      0.0000    135.7736
  1312.4000     23.2612      0.0000    135.7736
  1312.5000     23.3395      0.0000    138.3482
  1312.6000     23.3395      0.0000    138.3482
  1312.7000     23.3395      0.0000    138.3482
  1312.8000     23.7541      0.0000    141.2740
  1312.9000     23.7541      0.0000    141.2740
  1313.0000     24.3024      0.0000    143.2305
  1313.1000     24.3024      0.0000    143.2305
  1313.2000     24.3024      0.0000    143.2305
  1313.3000     24.7454      0.0000    143.8738
  1313.4000     24.7454      0.0000    143.8738
  1313.5000     24.9293      0.0000    143.4202
  1313.6000     24.9293      0.0000    143.4202
  1313.7000     24.9293      0.0000    143.4202
  1313.8000     24.8412      0.0000    142.2790
  1313.9000     24.8412      0.0000    142.2790
  1314.0000     24.5523      0.0000    141.1986
  1314.1000     24.5523      0.0000    141.1986
  1314.2000     24.5523      0.0000    141.1986
  1314.3000     24.1743      0.0000    140.9864
  1314.4000     24.1743      0.0000    140.9864
  1314.5000     23.8841      0.0000    141.6073
  1314.6000     23.8841      0.0000    141.6073
  1314.7000     23.8841      0.0000    141.6073
  1314.8000     23.9183      0.0000    142.0392
  1314.9000     23.9183      0.0000    142.0392
  1315.0000     24.4678      0.0000    141.5166
  1315.1000     24.4678      0.0000    141.5166
  1315.2000     24.4678      0.0000    141.5166
  1315.3000     25.5515      0.0000    140.6261
  1315.4000     25.5515      0.0000    140.6261
  1315.5000     26.9622      0.0000    140.8434
  1315.6000     26.9622      0.0000    140.8434
  1315.7000     26.9622      0.0000    140.8434
  1315.8000     28.3229      0.0000    143.1299
  1315.9000     28.3229      0.0000    143.1299
  1316.0000     29.2211      0.0000    147.0673
  1316.1000     29.2211      0.0000    147.0673
  1316.2000     29.2211      0.0000    147.0673
  1316.3000     29.3604      0.0000    151.2059
  1316.4000     29.3604      0.0000    151.2059
  1316.5000     28.6882      0.0000    154.1141
  1316.6000     28.6882      0.0000    154.1141
  1316.7000     28.6882      0.0000    154.1141
  1316.8000     27.4416      0.0000    155.1100
  1316.9000     27.4416      0.0000    155.1100
  1317.0000     26.0394      0.0000    154.1823
  1317.1000     26.0394      0.0000    154.1823
  1317.2000     26.0394      0.0000    154.1823
  1317.3000     24.8611      0.0000    151.6524
  1317.4000     24.8611      0.0000    151.6524
  1317.5000     24.0860      0.0000    148.2299
  1317.6000     24.0860      0.0000    148.2299
  1317.7000     24.0860      0.0000    148.2299
  1317.8000     23.6911      0.0000    145.1464
  1317.9000     23.6911      0.0000    145.1464
  1318.0000     23.5629      0.0000    143.7559
  1318.1000     23.5629      0.0000    143.7559
  1318.2000     23.5629      0.0000    143.7559
  1318.3000     23.6139      0.0000    144.7042
