~Version Information
VERS.                      2.0: CWLS Log ASCII Standard - VERSION 2.0
WRAP.                       NO: One line per depth step
~Well Information Block
STRT.FT                -7.5000: 
STOP.FT              2304.7500: 
STEP.FT                 0.2500: 
NULL.                -999.2500: 
COMP.          Pioneer Natural Resources: COMPANY
WELL.          Foothills 12-36: WELL
FLD.           Purgatorie River: FIELD
LOC.           2450' FNL & 201' FWL--: LOCATION
PROV.                       CO: PROVINCE
CNTY.               Las Animas: COUNTRY
SRVC.          Patterson Wireline: SERVICE COMPANY
DATE.          Tue Apr 26 11:10:08 2005: LOG DATE
UWI.           05 071 08339 00: UNIQUE WELL ID
~Curve Information Block
DEPT.FT            0 000 00 00: Depth
CCL.                          : Casing Collar Locator
TT3.usec                      : CBL 3' Travel Time
AMP3.mV                       : CBL 3' Amplitude
GR.GAPI                       : Gamma Ray
~Parameter Information Block
~A  Depth       CCL         TT3         AMP3         GR     
# ...
   763.0000      0.0000    783.7825      7.0155    129.5066
   763.2500      0.0000    788.1566      7.0036    132.2968
   763.5000      0.0000    794.6060      6.9950    134.3374
   763.7500      0.0000    804.6052      7.0112    134.1787
   764.0000      0.0000    816.9480      7.0459    130.8927
   764.2500      0.0000    827.9430      7.0752    124.4754
   764.5000      0.0000    834.5665      7.1007    115.8604
   764.7500      0.0000    836.8902      7.1439    106.4786
   765.0000      0.0000    837.3699      7.1948     97.6555
   765.2500      0.0000    838.5717      7.2045     90.3096
   765.5000      0.0000    841.7117      7.1421     84.7954
   765.7500      0.0000    846.5826      7.0308     80.7174
   766.0000      0.0000    852.0193      6.9185     77.0860
   766.2500      0.0000    856.1985      6.8403     73.1599
   766.5000      0.0000    856.7509      6.8015     69.6682
   766.7500      0.0000    851.0717      6.7598     69.0363
   767.0000      0.0000    837.4611      6.6428     73.5194
   767.2500      0.0000    817.1945      6.4418     82.6771
   767.5000      0.0000    795.6219      6.2745     93.3636
   767.7500      0.0000    779.9935      6.2801    102.4749
   768.0000      0.0000    775.1481      6.4545    109.0417
   768.2500      0.0000    781.1094      6.6603    113.7435
   768.5000      0.0000    794.3154      6.7905    117.4670
   768.7500      0.0000    810.2532      6.8514    120.6830
   769.0000      0.0000    825.0694      6.8935    123.6558
   769.2500     -2.0000    836.0758      6.9301    126.8416
   769.5000     -2.0000    841.9172      6.9363    130.7223
   769.7500      0.0000    842.5323      6.8937    135.0205
   770.0000      0.0000    838.9979      6.8298    138.5249
   770.2500      0.0000    833.5881      6.8119    140.0075
   770.5000      0.0000    829.3368      6.8769    139.1786
   770.7500      0.0000    828.3564      6.9757    136.8696
   771.0000      0.0000    830.3983      7.0291    134.5901
   771.2500      0.0000    833.5377      7.0205    133.6395
   771.5000      0.0000    836.0458      6.9858    134.2720
   771.7500      0.0000    837.3588      6.9380    135.6508
   772.0000      0.0000    837.6718      6.8613    136.6671
   772.2500      0.0000    837.2861      6.7532    136.9032
   772.5000      0.0000    836.5934      6.6288    136.9144
   772.7500      0.0000    836.1644      6.4993    137.5906
   773.0000      0.0000    836.2132      6.3836    139.2271
   773.2500      0.0000    836.2979      6.3212    141.2634
   773.5000      0.0000    836.0383      6.3407    142.8408
   773.7500      0.0000    835.7329      6.4193    143.5227
   774.0000      0.0000    835.7883      6.4916    143.6752
   774.2500      0.0000    836.1752      6.4988    144.2354
   774.5000      0.0000    837.0816      6.4351    145.8381
   774.7500      0.0000    839.4702      6.3542    148.0105
   775.0000      0.0000    844.1214      6.3239    149.5009
   775.2500      0.0000    850.3525      6.3692    149.5267
   775.5000      0.0000    856.3210      6.4681    148.4622
   775.7500      0.0000    860.5501      6.5902    147.1795
   776.0000      0.0000    862.8124      6.7205    145.9654
   776.2500      0.0000    863.7365      6.8485    144.1899
   776.5000      0.0000    864.0228      6.9533    140.9877
   776.7500      0.0000    864.0889      7.0085    136.4544
   777.0000      0.0000    864.1031      7.0026    132.2302
   777.2500      0.0000    864.0690      6.9526    130.4836
   777.5000      0.0000    863.8052      6.8931    131.9253
   777.7500      0.0000    862.8945      6.8546    134.9558
   778.0000      0.0000    860.7431      6.8508    137.1847
   778.2500      0.0000    856.9554      6.8725    137.7753
   778.5000      0.0000    851.8902      6.8927    137.8519
   778.7500      0.0000    846.7255      6.8941    138.6551
   779.0000      0.0000    842.6508      6.8887    139.9083
   779.2500      0.0000    840.1560      6.9031    140.2909
   779.5000      0.0000    839.4474      6.9541    139.0072
   779.7500      0.0000    841.0823      7.0409    136.3849
   780.0000      0.0000    845.3950      7.1474    133.1649
   780.2500      0.0000    851.4659      7.2448    129.7156
   780.5000      0.0000    857.3621      7.3026    125.9819
   780.7500      0.0000    861.4304      7.3054    121.8611
   781.0000      0.0000    862.9612      7.2685    117.4314
   781.2500      0.0000    861.7465      7.2301    113.0239
   781.5000      0.0000    857.6513      7.2169    109.2756
   781.7500      0.0000    850.9855      7.2171    106.9666
   782.0000      0.0000    843.0212      7.1978    106.5295
   782.2500      0.0000    835.6430      7.1448    107.5043
   782.5000      0.0000    830.2725      7.0723    108.5148
   782.7500      0.0000    827.1846      6.9944    108.0699
   783.0000      0.0000    825.7584      6.9053    105.6361
   783.2500      0.0000    825.1705      6.7961    102.0339
   783.5000      0.0000    824.8735      6.6782     98.6977
   783.7500      0.0000    824.6946      6.5758     96.4680
   784.0000      0.0000    824.6792      6.5099     94.9779
   784.2500      0.0000    824.8334      6.4948     93.0115
   784.5000      0.0000    824.8842      6.5363     89.4631
   784.7500      0.0000    824.2969      6.6232     84.3239
   785.0000      0.0000    822.7338      6.7308     78.8517
   785.2500      0.0000    820.5626      6.8475     74.5362
   785.5000      0.0000    818.5381      6.9931     71.9561
   785.7500      0.0000    816.5524      7.1958     70.7324
   786.0000      0.0000    812.9294      7.4522     70.0448
   786.2500      0.0000    805.6776      7.7222     68.8760
   786.5000      0.0000    794.8179      7.9581     66.4402
   786.7500      0.0000    783.0477      8.1270     62.9254
   787.0000      0.0000    773.4469      8.2132     59.4246
   787.2500      0.0000    766.6842      8.2196     56.8696
   787.5000      0.0000    761.1738      8.1709     55.4916
   787.7500      0.0000    755.7603      8.1057     55.2942
   788.0000      0.0000    751.1838      8.0554     56.2548
   788.2500      0.0000    748.7610      8.0294     57.9151
   788.5000      0.0000    748.6123      8.0097     59.4040
   788.7500      0.0000    749.9689      7.9639     59.9132
   789.0000      0.0000    752.9253      7.8771     58.9537
   789.2500      0.0000    758.8206      7.7624     56.5641
   789.5000      0.0000    768.2048      7.6362     53.6475
   789.7500      0.0000    779.1249      7.4980     51.7194
   790.0000      0.0000    788.5727      7.3486     51.9563
   790.2500      0.0000    795.4047      7.2166     54.4129
   790.5000      0.0000    800.7734      7.1412     57.9720
   790.7500      0.0000    805.8960      7.1272     60.9439
   791.0000      0.0000    810.6540      7.1272     62.0394
   791.2500      0.0000    814.5203      7.0713     61.2027
   791.5000      0.0000    817.6849      6.9079     59.6436
   791.7500      0.0000    820.4109      6.6315     58.9858
   792.0000      0.0000    821.5475      6.2902     60.1985
   792.2500      0.0000    818.8904      5.9691     62.9956
   792.5000      0.0000    812.0374      5.7479     65.9924
   792.7500      0.0000    804.1530      5.6572     67.5376
   793.0000      0.0000    799.3275      5.6671     66.9349
   793.2500      0.0000    798.6455      5.7142     65.2374
   793.5000      0.0000    800.4999      5.7448     64.7243
   793.7500      0.0000    803.9694      5.7456     67.1640
   794.0000      0.0000    809.6560      5.7406     72.3478
   794.2500      0.0000    817.4430      5.7561     78.3746
   794.5000      0.0000    825.2037      5.7951     83.4635
   794.7500      0.0000    830.0126      5.8440     87.3310
   795.0000      0.0000    830.1072      5.8952     90.7916
   795.2500      0.0000    825.9207      5.9479     94.5794
   795.5000      0.0000    819.6425      5.9905     98.9376
   795.7500      0.0000    813.7612      5.9951    103.9085
   796.0000      0.0000    809.5444      5.9414    109.3285
   796.2500      0.0000    806.3812      5.8506    114.6722
