~Version Information
VERS.                      2.0: CWLS Log ASCII Standard - VERSION 2.0
WRAP.                       NO: One line per depth step
~Well Information Block
STRT.FT                -8.2500: 
STOP.FT               836.2500: 
STEP.FT                 0.2500: 
NULL.                -999.2500: 
COMP.          Pioneer Natural Res.: COMPANY
WELL.            Hustler 12-17: WELL
FLD.           Purgatorie River: FIELD
LOC.           2150' FNL & 450' FWL----------: LOCATION
PROV.                       CO: PROVINCE
CNTY.               Las Animas: COUNTRY
SRVC.                Patterson: SERVICE COMPANY
DATE.          Wed Dec 29 13:37:10 2004: LOG DATE
UWI.           05 071 08236 00: UNIQUE WELL ID
~Curve Information Block
DEPT.FT            0 000 00 00: Depth
AMP3.mV                       : CBL 3' Amplitude
CCL.                          : Casing Collar Locator
GR.GAPI                       : Gamma Ray
TT3.usec                      : CBL 3' Travel Time
~Parameter Information Block
~A  Depth       AMP3        CCL          GR         TT3     
# ...
   594.7500     12.7860      0.0000     87.7543    757.2067
   595.0000     12.6861      0.0000     83.9921    766.2581
   595.2500     12.4867      0.0000     79.8189    772.9399
   595.5000     12.1393      0.0000     77.6930    777.9627
   595.7500     11.6570      0.0000     78.7885    781.9011
   596.0000     11.1016      0.0000     82.2588    784.3135
   596.2500     10.5202      0.0000     86.6825    785.7899
   596.5000      9.8884      0.0000     91.6475    789.7654
   596.7500      9.1478      0.0000     97.2054    800.1831
   597.0000      8.3239      0.0000    101.9220    816.6995
   597.2500      7.5639      0.0000    102.7431    833.2986
   597.5000      7.0140      0.0000     97.7156    842.4391
   597.7500      6.6875      2.0000     88.3452    840.6655
   598.0000      6.4729     -2.0000     78.5005    831.0821
   598.2500      6.2312      0.0000     71.3545    820.9167
   598.5000      5.8785      0.0000     67.8100    815.4241
   598.7500      5.4335      0.0000     67.0212    813.3849
   599.0000      5.0213      0.0000     67.3610    809.6713
   599.2500      4.7906      0.0000     67.2632    802.4075
   599.5000      4.7955      0.0000     66.1915    795.5654
   599.7500      4.9671      0.0000     65.0134    794.0192
   600.0000      5.1993      0.0000     65.0025    798.2864
   600.2500      5.4321      0.0000     66.4533    805.3171
   600.5000      5.6535      0.0000     68.4542    812.2178
   600.7500      5.8562      0.0000     69.8570    817.3992
   601.0000      6.0137      0.0000     70.2768    820.2171
   601.2500      6.0940      0.0000     70.2328    822.0263
   601.5000      6.0886      0.0000     70.4767    826.0619
   601.7500      6.0282      0.0000     71.2248    833.8030
   602.0000      5.9706      0.0000     72.0160    842.5081
   602.2500      5.9602      0.0000     72.2419    848.1407
   602.5000      5.9934      0.0000     71.6889    849.6194
   602.7500      6.0222      0.0000     70.6095    848.8663
   603.0000      5.9964      0.0000     69.5629    847.8947
   603.2500      5.9088      0.0000     69.2931    847.1555
   603.5000      5.8052      0.0000     70.3621    845.9059
   603.7500      5.7536      0.0000     72.4760    843.0666
   604.0000      5.7993      0.0000     74.2713    838.0666
   604.2500      5.9371      0.0000     74.2714    831.6235
   604.5000      6.1175      0.0000     72.3314    825.6573
   604.7500      6.2744      0.0000     69.9512    822.0070
   605.0000      6.3579      0.0000     68.9080    820.8464
   605.2500      6.3575      0.0000     69.6999    820.2171
   605.5000      6.3143      0.0000     71.5415    817.2051
   605.7500      6.3099      0.0000     73.5676    809.8186
   606.0000      6.4269      0.0000     75.4212    798.2632
   606.2500      6.6920      0.0000     76.6764    784.9391
   606.5000      7.0500      0.0000     76.3492    773.4236
   606.7500      7.4000      0.0000     73.4456    767.1646
   607.0000      7.6701      0.0000     68.0318    768.1890
   607.2500      7.8616      0.0000     61.7136    775.7344
   607.5000      8.0257      0.0000     56.9669    785.8181
   607.7500      8.2097      0.0000     55.7679    793.2994
   608.0000      8.4291      0.0000     58.6529    795.6564
   608.2500      8.6769      0.0000     65.0155    794.7375
   608.5000      8.9414      0.0000     74.0868    794.0952
   608.7500      9.2059      0.0000     85.0755    794.7263
   609.0000      9.4320      0.0000     96.2266    794.3177
   609.2500      9.5566      0.0000    104.6839    790.3077
   609.5000      9.5119      0.0000    108.2272    782.5192
   609.7500      9.2564      0.0000    106.9305    773.1706
   610.0000      8.8037      0.0000    102.6882    765.4042
   610.2500      8.2353      0.0000     97.5194    761.4759
   610.5000      7.6732      0.0000     92.7308    761.4065
   610.7500      7.2154      0.0000     88.9868    763.0847
   611.0000      6.8906      0.0000     86.2497    763.9172
   611.2500      6.6717      0.0000     83.8109    762.7583
   611.5000      6.5252      0.0000     80.9383    760.9268
   611.7500      6.4453      0.0000     77.4756    761.7157
   612.0000      6.4452      0.0000     73.7171    768.3421
   612.2500      6.5293      0.0000     70.0134    781.3685
   612.5000      6.6810      0.0000     66.6574    797.7694
   612.7500      6.8782      0.0000     63.9144    812.8400
   613.0000      7.1099      0.0000     61.9976    823.3268
   613.2500      7.3735      0.0000     61.1197    828.7960
   613.5000      7.6561      0.0000     61.5172    830.4052
   613.7500      7.9292      0.0000     63.1419    828.9291
   614.0000      8.1614      0.0000     65.3820    823.9723
   614.2500      8.3318      0.0000     67.4610    814.9868
   614.5000      8.4283      0.0000     69.1518    803.1195
   614.7500      8.4357      0.0000     70.7311    791.6981
   615.0000      8.3372      0.0000     72.2331    784.1661
   615.2500      8.1366      0.0000     73.1920    781.4973
   615.5000      7.8755      0.0000     73.2461    781.9841
   615.7500      7.6150      0.0000     72.5773    783.2349
   616.0000      7.3943      0.0000     71.5568    784.2592
   616.2500      7.2180      0.0000     70.3569    786.0712
   616.5000      7.0894      0.0000     69.0914    790.0417
   616.7500      7.0391      0.0000     67.9955    795.4033
   617.0000      7.1039      0.0000     67.2600    799.3082
   617.2500      7.2845      0.0000     66.9402    799.7456
   617.5000      7.5347      0.0000     67.1020    797.4185
   617.7500      7.7895      0.0000     67.7755    794.4512
   618.0000      7.9940      0.0000     68.6883    792.1892
   618.2500      8.1056      0.0000     69.3485    790.5353
   618.5000      8.0886      0.0000     69.4477    788.7084
   618.7500      7.9288      0.0000     68.9659    786.3403
   619.0000      7.6561      0.0000     67.9094    784.1818
   619.2500      7.3394      0.0000     66.2126    783.7021
   619.5000      7.0504      0.0000     64.0373    785.5801
   619.7500      6.8319      0.0000     62.1569    788.2618
   620.0000      6.7022      0.0000     61.8734    788.4214
   620.2500      6.6792      0.0000     64.1439    784.0850
   620.5000      6.7793      0.0000     68.5730    778.0515
   620.7500      6.9874      0.0000     73.5207    776.6675
   621.0000      7.2492      0.0000     77.3661    783.1827
   621.2500      7.5014      0.0000     79.5800    793.2449
   621.5000      7.7039      0.0000     80.6462    799.0199
   621.7500      7.8462      0.0000     81.3311    797.1357
   622.0000      7.9350      0.0000     82.1386    791.1058
   622.2500      7.9769      0.0000     83.1033    786.6363
   622.5000      7.9750      0.0000     83.8263    785.9629
   622.7500      7.9377      0.0000     83.8760    786.5483
   623.0000      7.8797      0.0000     83.3951    784.0021
   623.2500      7.8087      0.0000     83.3312    776.0893
   623.5000      7.7198      0.0000     84.8898    764.7670
   623.7500      7.6083      0.0000     88.5220    754.7158
   624.0000      7.4878      0.0000     93.2604    750.0674
   624.2500      7.3995      0.0000     96.9895    752.5420
   624.5000      7.3875      0.0000     97.6497    761.5884
   624.7500      7.4517      0.0000     94.6949    774.9882
   625.0000      7.5286      0.0000     89.6011    789.4365
   625.2500      7.5320      0.0000     84.6982    801.5935
   625.5000      7.4131      0.0000     81.3907    809.6947
   625.7500      7.1886      0.0000     79.6313    814.7964
   626.0000      6.9325      0.0000     78.8438    819.8339
   626.2500      6.7467      0.0000     78.7366    826.4406
   626.5000      6.7153      0.0000     79.0514    833.1193
   626.7500      6.8619      0.0000     79.0094    837.2628
   627.0000      7.1305      0.0000     77.6286    838.1340
   627.2500      7.4099      0.0000     74.6775    837.1028
   627.5000      7.5958      0.0000     70.9871    835.7916
   627.7500      7.6496      0.0000     67.6227    834.8995
   628.0000      7.6126      0.0000     64.9279    834.3742
