~Version Information
VERS.                      2.0: CWLS Log ASCII Standard - VERSION 2.0
WRAP.                       NO: One line per depth step
~Well Information Block
STRT.FT               440.0000: 
STOP.FT              2735.2000: 
STEP.FT                 0.1000: 
NULL.                -999.2500: 
COMP.          Pioneer Natural Resources: COMPANY
WELL.              Cluck 21-25: WELL
FLD.           Purgatoire River: FIELD
LOC.           91' FNL & 1834' FWL--: LOCATION
PROV.                 Colorado: PROVINCE
CNTY.               Las Animas: COUNTRY
SRVC.                Patterson: SERVICE COMPANY
DATE.          Tue Jun 07 07:26:19 2005: LOG DATE
UWI.           05 071 08397 00: UNIQUE WELL ID
~Curve Information Block
DEPT.FT            0 000 00 00: Depth
DCAL.in                       : CDL Caliper
RHOB.g/cc                     : CDL Bulk Density
RHOC.g/cc                     : CDL Density Correction
DPOR.pu                       : CDL Density Porosity
NPOR.pu                       : Neutron Porosity
GR.GAPI                       : Gamma Ray
~Parameter Information Block
SNDERRM.mmho-m          0.0000: Medium Sonde Error Correction
~A  Depth       DCAL        RHOB        RHOC        DPOR        NPOR         GR     
# ...
  1947.2000      8.1919      2.6201      0.1667      1.8146     29.5442    165.2207
  1947.3000      8.1975      2.6046      0.1511      2.7523     29.3480    154.9544
  1947.4000      8.1975      2.5696      0.0822      4.8712     29.1426    150.5470
  1947.5000      8.1830      2.5404      0.0527      6.6416     28.8979    147.5384
  1947.6000      8.1830      2.5355      0.0880      6.9404     28.8285    143.3901
  1947.7000      8.1830      2.5519      0.0605      5.9453     29.1640    143.8510
  1947.8000      8.1620      2.5727      0.0884      4.6861     29.5542    150.7201
  1947.9000      8.1620      2.5780      0.0875      4.3663     29.4686    151.8413
  1948.0000      8.1584      2.5620      0.0445      5.3357     28.9551    141.3019
  1948.1000      8.1584      2.5359      0.0340      6.9152     28.6102    131.1893
  1948.2000      8.1584      2.5127      0.0636      8.3233     28.9858    131.4044
  1948.3000      8.1757      2.5018      0.0405      8.9816     29.7398    136.9161
  1948.4000      8.1757      2.5110      0.0559      8.4222     29.8505    142.7926
  1948.5000      8.1838      2.5319      0.0839      7.1596     29.1631    146.9608
  1948.6000      8.1838      2.5471      0.0634      6.2337     28.5430    144.7120
  1948.7000      8.1838      2.5545      0.1040      5.7850     28.3281    136.5573
  1948.8000      8.1661      2.5553      0.1055      5.7412     28.2321    131.3754
  1948.9000      8.1661      2.5463      0.1066      6.2822     28.4287    134.9760
  1949.0000      8.1498      2.5338      0.0751      7.0420     28.9023    143.3976
  1949.1000      8.1498      2.5314      0.0716      7.1870     29.0560    148.3815
  1949.2000      8.1498      2.5452      0.0765      6.3488     28.8772    146.0548
  1949.3000      8.1503      2.5687      0.1539      4.9296     28.8150    141.0510
  1949.4000      8.1503      2.5872      0.1272      3.8078     28.8207    136.2115
  1949.5000      8.1605      2.5919      0.1456      3.5203     28.6012    133.6082
  1949.6000      8.1605      2.5887      0.0645      3.7123     28.3168    138.2004
  1949.7000      8.1605      2.5888      0.0754      3.7109     28.4099    146.3623
  1949.8000      8.1667      2.5883      0.0921      3.7378     28.9142    148.1106
  1949.9000      8.1667      2.5801      0.0653      4.2370     29.3210    138.9470
  1950.0000      8.1692      2.5727      0.0537      4.6829     29.3643    127.6885
  1950.1000      8.1692      2.5751      0.0668      4.5416     29.1588    129.0557
  1950.2000      8.1692      2.5819      0.0617      4.1282     28.8265    140.3287
  1950.3000      8.1748      2.5879      0.0772      3.7642     28.5680    145.5045
  1950.4000      8.1748      2.5940      0.0867      3.3938     28.6315    143.8318
  1950.5000      8.1867      2.5971      0.0873      3.2042     28.9572    142.9079
  1950.6000      8.1867      2.5894      0.1184      3.6729     28.9818    142.0985
  1950.7000      8.1867      2.5717      0.0805      4.7484     28.5641    143.9839
  1950.8000      8.2037      2.5561      0.0443      5.6918     28.2346    149.2450
  1950.9000      8.2037      2.5458      0.0771      6.3181     28.2498    149.8305
  1951.0000      8.2134      2.5323      0.0332      7.1324     28.4122    142.2449
  1951.1000      8.2134      2.5135      0.0469      8.2723     28.1661    132.6026
  1951.2000      8.2134      2.4889      0.0369      9.7650     27.6702    128.2394
  1951.3000      8.2147      2.4601      0.0237     11.5089     27.9869    130.5189
  1951.4000      8.2147      2.4378      0.0048     12.8633     29.2681    137.8234
  1951.5000      8.2151      2.4309      0.0060     13.2799     30.2946    145.7060
  1951.6000      8.2151      2.4404      0.0283     12.7020     30.4130    149.0645
  1951.7000      8.2151      2.4616      0.0496     11.4156     30.2740    148.1516
  1951.8000      8.2155      2.4858      0.0936      9.9489     30.3693    146.2098
  1951.9000      8.2155      2.5020      0.1280      8.9718     30.5498    146.0804
  1952.0000      8.2149      2.5088      0.1062      8.5604     30.5493    148.9152
  1952.1000      8.2149      2.5178      0.1581      8.0141     30.3252    155.5814
  1952.2000      8.2149      2.5336      0.1814      7.0548     29.9758    164.2954
  1952.3000      8.2153      2.5456      0.2068      6.3284     29.5752    166.4151
  1952.4000      8.2153      2.5476      0.1766      6.2084     29.2345    158.0152
  1952.5000      8.2141      2.5464      0.1799      6.2813     29.2046    149.3665
  1952.6000      8.2141      2.5441      0.1581      6.4152     29.5153    151.3962
  1952.7000      8.2141      2.5373      0.1533      6.8307     29.8944    160.6411
  1952.8000      8.1924      2.5228      0.1374      7.7118     30.3773    167.5033
  1952.9000      8.1924      2.5006      0.1061      9.0562     30.8064    168.1160
  1953.0000      8.1474      2.4768      0.0861     10.4956     30.5594    162.6066
  1953.1000      8.1474      2.4579      0.0728     11.6404     29.7479    156.7836
  1953.2000      8.1474      2.4529      0.0100     11.9470     29.1521    158.4343
  1953.3000      8.1183      2.4636      0.0631     11.2947     29.1406    163.3393
  1953.4000      8.1183      2.4774      0.0495     10.4587     29.6044    162.2104
  1953.5000      8.1123      2.4862      0.0727      9.9282     30.1495    157.9442
  1953.6000      8.1123      2.4934      0.0618      9.4925     30.3296    158.5532
  1953.7000      8.1123      2.4992      0.1250      9.1401     30.2071    164.0473
  1953.8000      8.1141      2.4908      0.1634      9.6455     30.0664    169.5754
  1953.9000      8.1141      2.4696      0.0999     10.9320     30.0410    171.7980
  1954.0000      8.1186      2.4577      0.1260     11.6560     30.1094    171.5386
  1954.1000      8.1186      2.4595      0.1539     11.5437     30.3115    169.6671
  1954.2000      8.1186      2.4596      0.1194     11.5397     30.8230    164.1173
  1954.3000      8.1259      2.4525      0.0887     11.9693     31.3240    158.7821
  1954.4000      8.1259      2.4428      0.0665     12.5602     31.3096    159.1640
  1954.5000      8.1404      2.4285      0.0915     13.4258     31.0745    162.0625
  1954.6000      8.1404      2.4120      0.0546     14.4229     30.9581    162.3186
  1954.7000      8.1404      2.4061      0.0895     14.7845     30.9338    159.0428
  1954.8000      8.1662      2.4151      0.0706     14.2364     31.0917    151.4280
  1954.9000      8.1662      2.4399      0.1075     12.7353     31.2404    140.8610
  1955.0000      8.2027      2.4795      0.1517     10.3326     31.2120    135.0003
  1955.1000      8.2027      2.5155      0.1879      8.1497     31.3277    139.5525
  1955.2000      8.2027      2.5291      0.1577      7.3297     31.6377    149.3920
  1955.3000      8.2394      2.5312      0.1501      7.2016     31.4584    153.3960
  1955.4000      8.2394      2.5460      0.1644      6.3025     30.7144    148.5850
  1955.5000      8.2595      2.5726      0.2528      4.6896     30.1543    141.7283
  1955.6000      8.2595      2.5757      0.2782      4.5042     29.9846    138.1758
  1955.7000      8.2595      2.5266      0.1967      7.4815     30.0984    136.5713
  1955.8000      8.2650      2.4400      0.0962     12.7288     30.6094    134.4308
  1955.9000      8.2650      2.3516      0.0466     18.0828     31.3977    131.9308
  1956.0000      8.2682      2.2818      0.0178     22.3165     31.9965    133.0395
  1956.1000      8.2682      2.2297      0.0085     25.4704     32.1701    139.5374
  1956.2000      8.2682      2.1908     -0.0545     27.8323     31.9502    143.8845
  1956.3000      8.2801      2.1689     -0.0495     29.1562     31.4512    138.3930
  1956.4000      8.2801      2.1633      0.0250     29.4946     30.9199    126.4815
  1956.5000      8.3258      2.1744      0.0158     28.8261     30.3646    117.4394
  1956.6000      8.3258      2.2241      0.0661     25.8142     29.6314    112.6823
  1956.7000      8.3258      2.3174      0.2188     20.1555     28.8684    107.7862
