~Version Information
VERS.                      2.0: CWLS Log ASCII Standard - VERSION 2.0
WRAP.                       NO: One line per depth step
~Well Information Block
STRT.FT               185.2500: 
STOP.FT              2109.7500: 
STEP.FT                 0.2500: 
NULL.                -999.2500: 
COMP.    Petrogulf Corporation: COMPANY
WELL.             State 16-44V: WELL
FLD.          Purgatorie River: FIELD
LOC.       320' FSL & 320' FEL: LOCATION
PROV.                 Colorado: PROVINCE
CNTY.               Las Animas: COUNTRY
SRVC.                Patterson: SERVICE COMPANY
DATE. Thu Aug 11 12:58:04 2005: LOG DATE
UWI.               071-08263  : UNIQUE WELL ID
~Curve Information Block
DEPT.FT            0 000 00 00: Depth
GR.GAPI                       : Gamma Ray
CCL.                          : Casing Collar Locator
TT3.usec                      : CBL 3' Travel Time
AMP3.mV                       : CBL 3' Amplitude
~Parameter Information Block
~A  Depth        GR         CCL         TT3         AMP3    
# ...
  1190.2500    146.1193      0.0000    697.2609     15.9889
  1190.5000    146.3322      0.0000    698.8611     15.2623
  1190.7500    146.7554      0.0000    698.7018     14.7706
  1191.0000    146.6751      0.0000    694.8848     14.2872
  1191.2500    145.7613      0.0000    686.9928     13.6002
  1191.5000    144.3938      0.0000    681.9915     12.7333
  1191.7500    143.0961      0.0000    685.3660     11.8995
  1192.0000    142.0427      0.0000    694.9675     11.2222
  1192.2500    141.2880      0.0000    704.7206     10.6814
  1192.5000    140.9689      0.0000    710.0437     10.2645
  1192.7500    140.9176      0.0000    710.7322     10.0360
  1193.0000    140.4758      0.0000    708.0378     10.1080
  1193.2500    139.1282      0.0000    702.1485     10.5650
  1193.5000    137.1847      0.0000    695.4396     11.3272
  1193.7500    135.6589      0.0000    693.4225     12.1171
  1194.0000    135.5426      0.0000    698.5306     12.6654
  1194.2500    137.0587      0.0000    705.3040     12.8973
  1194.5000    139.3171      0.0000    705.6603     12.9014
  1194.7500    140.7438      0.0000    698.5594     12.8540
  1195.0000    140.2262      0.0000    689.9711     12.9659
  1195.2500    138.1001      0.0000    684.1644     13.3770
  1195.5000    135.9541      0.0000    679.7753     14.0870
  1195.7500    135.2624      0.0000    673.0320     14.9958
  1196.0000    136.0892      0.0000    662.6597     15.9586
  1196.2500    137.1277      0.0000    652.6805     16.7289
  1196.5000    136.9911      0.0000    648.0999     16.9992
  1196.7500    135.5489      0.0000    648.0043     16.7223
  1197.0000    134.0856      0.0000    648.5967     16.1766
  1197.2500    134.1857      0.0000    649.4108     15.6202
  1197.5000    136.3307      0.0000    650.8548     15.1429
  1197.7500    139.3560      0.0000    650.8240     14.8149
  1198.0000    141.2856      0.0000    647.4578     14.7391
  1198.2500    140.9371      0.0000    644.0917     14.9106
  1198.5000    138.7472      0.0000    644.5314     15.1372
  1198.7500    135.9763      0.0000    639.9640     15.1468
  1199.0000    133.2650      0.0000    620.7468     14.7533
  1199.2500    130.1707      0.0000    604.2739     13.9813
  1199.5000    126.0861      0.0000    615.2438     13.0002
  1199.7500    121.3315      0.0000    646.6464     11.9447
  1200.0000    116.8024      0.0000    674.9035     10.9933
  1200.2500    112.6169      0.0000    686.9879     10.4132
  1200.5000    108.0589      0.0000    679.1712     10.2380
  1200.7500    103.2873      0.0000    658.8575     10.2157
  1201.0000    100.2053      0.0000    644.4199     10.1282
  1201.2500    100.9700     -2.0000    646.5461      9.9140
  1201.5000    105.9278      0.0000    657.3868      9.6015
  1201.7500    113.2240      0.0000    663.4645      9.4141
  1202.0000    120.0507      0.0000    661.2283      9.8231
  1202.2500    124.2579      0.0000    656.7056     10.9444
  1202.5000    125.3305      0.0000    656.3733     12.0621
  1202.7500    124.2968      0.0000    660.9017     12.5028
  1203.0000    122.8580      0.0000    665.4070     12.4258
  1203.2500    122.5401      0.0000    666.0688     12.1763
  1203.5000    124.0347      0.0000    664.3321     11.7725
  1203.7500    126.5510      0.0000    663.1005     11.1870
  1204.0000    127.8504      0.0000    662.7804     10.5204
  1204.2500    125.7560      0.0000    661.9185      9.9402
  1204.5000    119.9710      0.0000    660.1202      9.5983
  1204.7500    112.3187      0.0000    661.5345      9.5545
  1205.0000    105.3972      0.0000    673.9178      9.7431
  1205.2500    101.1150      0.0000    698.4509      9.9964
  1205.5000     99.9970      0.0000    720.8015     10.1385
  1205.7500    101.2736      0.0000    722.7593     10.0935
  1206.0000    103.4727      0.0000    704.6229      9.9041
  1206.2500    105.1783      0.0000    683.3650      9.6807
  1206.5000    105.7054      0.0000    670.6917      9.5320
  1206.7500    105.5528      0.0000    665.8989      9.4950
  1207.0000    106.1505      0.0000    664.6193      9.5385
  1207.2500    108.6277      0.0000    664.3591      9.6232
  1207.5000    112.7095      0.0000    664.2411      9.7147
  1207.7500    117.0830      0.0000    664.0446      9.7654
  1208.0000    120.6604      0.0000    663.7467      9.7338
  1208.2500    123.1666      0.0000    663.2764      9.6059
  1208.5000    124.6908      0.0000    662.3644      9.3714
  1208.7500    125.0389      0.0000    660.0012      8.9811
  1209.0000    123.5553      0.0000    653.9156      8.3783
  1209.2500    119.6118      0.0000    642.4137      7.5891
  1209.5000    113.4489      0.0000    627.8577      6.7256
  1209.7500    106.4913      0.0000    615.5309      5.8928
  1210.0000    100.6305      0.0000    608.0807      5.1372
  1210.2500     97.0528      0.0000    604.0906      4.4611
  1210.5000     95.7086      0.0000    601.5071      3.8511
  1210.7500     95.8981      0.0000    599.9919      3.3080
  1211.0000     97.2928      0.0000    600.5150      2.8556
  1211.2500    100.0243      0.0000    603.3517      2.5179
  1211.5000    103.6987      0.0000    606.5162      2.2907
  1211.7500    106.9227      0.0000    608.0259      2.1443
  1212.0000    108.4841      0.0000    609.6652      2.0550
  1212.2500    108.7474      0.0000    613.5264      2.0147
  1212.5000    109.1412      0.0000    615.8677      2.0160
  1212.7500    110.3520      0.0000    612.9586      2.0396
  1213.0000    111.7475      0.0000    609.3373      2.0534
  1213.2500    112.4674      0.0000    610.7429      2.0346
  1213.5000    112.3289      0.0000    615.3692      1.9996
  1213.7500    111.6064      0.0000    618.5424      1.9795
  1214.0000    110.5371      0.0000    619.0131      1.9764
  1214.2500    109.1627      0.0000    617.4432      1.9725
  1214.5000    107.2191      0.0000    614.0056      1.9588
  1214.7500    104.1763      0.0000    609.9058      1.9379
  1215.0000     99.9000      0.0000    608.3513      1.9160
  1215.2500     95.3372      0.0000    610.2374      1.9010
  1215.5000     92.1185      0.0000    612.1899      1.8948
  1215.7500     91.2372      0.0000    611.6898      1.8904
  1216.0000     92.3422      0.0000    610.3933      1.8917
  1216.2500     94.3037      0.0000    611.5713      1.9128
  1216.5000     96.0730      0.0000    616.5612      1.9625
  1216.7500     96.9780      0.0000    623.3303      2.0433
  1217.0000     96.7269      0.0000    627.9044      2.1423
  1217.2500     95.4987      0.0000    627.6136      2.2262
  1217.5000     93.9968      0.0000    622.8466      2.2710
  1217.7500     93.2001      0.0000    617.0961      2.3016
  1218.0000     93.7347      0.0000    614.9781      2.3775
  1218.2500     95.2514      0.0000    618.4548      2.5262
  1218.5000     96.5518      0.0000    625.2734      2.7136
  1218.7500     96.6862      0.0000    631.6285      2.8857
  1219.0000     95.9821      0.0000    635.5332      3.0146
  1219.2500     95.6411      0.0000    636.7166      3.1058
  1219.5000     96.2064      0.0000    635.3854      3.1736
  1219.7500     96.8162      0.0000    632.3387      3.2239
  1220.0000     96.1966      0.0000    627.2982      3.2614
  1220.2500     93.9909      0.0000    621.1988      3.3013
  1220.5000     90.9175      0.0000    622.0058      3.3506
  1220.7500     88.0616      0.0000    637.8274      3.3772
  1221.0000     86.3153      0.0000    662.0493      3.3242
  1221.2500     86.1248      0.0000    675.0534      3.1726
  1221.5000     87.3136      0.0000    665.6787      2.9685
  1221.7500     89.1288      0.0000    642.4708      2.7770
  1222.0000     90.6854      0.0000    621.2048      2.6251
  1222.2500     91.6236      0.0000    611.7272      2.5114
  1222.5000     92.4515      0.0000    614.7045      2.4383
  1222.7500     94.0332      0.0000    622.4580      2.3963
  1223.0000     96.3780      0.0000    625.3888      2.3592
  1223.2500     98.0655      0.0000    621.3677      2.3140
  1223.5000     97.3293      0.0000    616.2429      2.2703
