~Version Information
VERS.                      2.0: CWLS Log ASCII Standard - VERSION 2.0
WRAP.                       NO: One line per depth step
~Well Information Block
STRT.FT               548.0000: 
STOP.FT              1916.0000: 
STEP.FT                 0.2500: 
NULL.                -999.2500: 
COMP.          Pioneer Natural Resources: COMPANY
WELL.          Blackjack 32-11 Tr: WELL
FLD.           Purgatorie River: FIELD
LOC.           2066' FNL & 1453' FEL: LOCATION
PROV.                 Colorado: PROVINCE
CNTY.               Las Animas: COUNTRY
SRVC.                Patterson: SERVICE COMPANY
DATE.          Tue Aug 16 12:08:23 2005: LOG DATE
UWI.                          : UNIQUE WELL ID
~Curve Information Block
DEPT.FT            0 000 00 00: Depth
SN.Ohm-m                      : IEL Short Normal
SP.mV                         : IEL Spontaneous Potential
DIR.Ohm-m                     : IEL Induction Resistivity
GR.GAPI                       : Gamma Ray
~Parameter Information Block
~A  Depth        SN          SP         DIR          GR     
# ...
  1720.5000     35.1948     19.7286     28.7150    110.7625
  1720.7500     35.7327     19.6075     28.9892    116.8049
  1721.0000     35.9743     19.9804     25.4164    100.1708
  1721.2500     35.5583     20.0566     28.9636    110.6566
  1721.5000     35.2012     20.6608     31.2659    108.1472
  1721.7500     34.8079     19.8000     31.5778    113.1328
  1722.0000     34.5934     19.3328     33.2067    112.5393
  1722.2500     34.6603     18.8576     33.0381    108.3783
  1722.5000     34.8803     18.5118     31.6666    103.8010
  1722.7500     34.6765     17.9616     30.1341    101.1389
  1723.0000     34.1901     16.7532     30.9582    107.7435
  1723.2500     33.8482     15.8531     28.1869     98.7799
  1723.5000     33.3026     15.5587     27.2624    100.4999
  1723.7500     33.0268     14.5599     26.5428     99.2863
  1724.0000     32.7419     14.5134     25.6408     99.8874
  1724.2500     32.2900     14.6874     23.9716     91.7256
  1724.5000     30.3515     14.1676     22.4219     98.6326
  1724.7500     28.9396     13.5088     21.0471    104.8346
  1725.0000     26.7422     13.4723     21.4557    111.7120
  1725.2500     25.3798     13.8193     20.3479    121.2916
  1725.5000     23.9503     13.9879     19.4060    146.8347
  1725.7500     23.5225     13.5636     20.8317    151.2745
  1726.0000     22.9458     11.7938     21.1019    154.0919
  1726.2500     22.9316     11.4819     19.2255    159.9346
  1726.5000     22.3805     11.5342     19.9464    168.4547
  1726.7500     22.2563     11.1812     22.0623    167.2378
  1727.0000     22.9887     12.1232     22.7238    153.0920
  1727.2500     23.9845     12.0490     22.0977    146.5599
  1727.5000     25.3183     10.7926     21.6417    126.7592
  1727.7500     26.1564     10.2699     21.3005    115.9392
  1728.0000     28.5860      9.7170     20.9580     92.9026
  1728.2500     30.4924      9.2525     23.5673     80.5279
  1728.5000     35.3323      9.4840     25.0866     78.5710
  1728.7500     37.3446      9.0006     22.3012     76.1458
  1729.0000     40.2531      8.3121     28.6558     70.1492
  1729.2500     41.0519      7.5017     30.6291     75.8764
  1729.5000     42.6009      7.6780     26.3849     74.0274
  1729.7500     43.6358      6.5496     36.6210     72.3972
  1730.0000     44.6559      4.6966     42.2350     72.5143
  1730.2500     45.3887      1.2973     41.2350     77.3936
  1730.5000     46.0356      3.6395     30.1901     65.8898
  1730.7500     46.7169      4.6566     38.3893     66.0848
  1731.0000     47.0009      3.2988     39.6199     60.3002
  1731.2500     47.2647      2.1588     41.5312     64.0363
  1731.5000     47.6730      0.7334     40.2497     72.7153
  1731.7500     48.2345     -0.5504     44.9313     74.5965
  1732.0000     48.5326     -1.1637     48.3777     72.2773
  1732.2500     48.7942     -1.8947     37.1846     71.3389
  1732.5000     48.7700     -1.1911     43.5314     73.8073
  1732.7500     49.4529      0.4656     54.0184     66.8789
  1733.0000     49.2916     -1.1774     47.5608     61.9808
  1733.2500     48.6415     -4.7672     44.1118     65.2626
  1733.5000     48.3609     -6.2568     29.0995     69.8801
  1733.7500     47.7943     -7.4183     26.7583     67.2462
  1734.0000     48.0311     -6.9117     38.3882     71.5369
  1734.2500     48.3111     -6.9984     40.8350     73.0661
  1734.5000     49.0231     -6.7330     46.7079     69.1126
  1734.7500     49.9227     -7.3129     51.3750     67.6464
  1735.0000     51.6760     -7.7047     52.8785     64.1367
  1735.2500     51.9401     -7.2439     48.9516     64.6782
  1735.5000     52.2642     -8.2873     47.0960     60.5045
  1735.7500     52.6852     -8.7305     47.3540     65.9701
  1736.0000     52.9793     -8.2703     40.0718     71.9759
  1736.2500     53.3107     -7.6765     45.1217     67.7116
  1736.5000     54.0634     -7.7705     47.0949     70.9193
  1736.7500     54.9176     -7.4312     46.1177     65.7470
  1737.0000     55.6523     -7.8580     39.0311     60.2261
  1737.2500     56.1545     -7.6208     37.7431     55.6174
  1737.5000     56.5945     -7.5917     39.9919     52.0928
  1737.7500     56.9917     -7.6638     44.1579     51.8801
  1738.0000     57.7313     -7.0196     42.7090     54.3595
  1738.2500     57.9080     -6.9271     38.0681     57.3481
  1738.5000     57.6548     -7.1073     44.7779     51.7496
  1738.7500     57.4258     -7.0978     46.8775     56.6279
  1739.0000     56.6877     -7.2612     37.3966     66.6066
  1739.2500     56.3937     -7.4063     34.7987     73.7297
  1739.5000     55.7893     -8.0400     44.7371     79.5970
  1739.7500     55.5983     -9.2780     38.6245     77.1864
  1740.0000     54.5403    -10.2197     32.2624     76.1614
  1740.2500     53.6611    -11.0671     36.4263     67.3094
  1740.5000     53.2484    -12.7056     41.1235     70.1561
  1740.7500     53.0828    -14.0253     41.7634     64.6954
  1741.0000     53.3243    -14.8135     47.3649     71.2537
  1741.2500     53.5798    -15.2910     41.3987     68.7173
  1741.5000     53.8408    -15.5038     43.1300     74.2788
  1741.7500     54.2180    -15.5412     43.7720     75.9506
  1742.0000     54.9638    -15.7315     44.6617     70.8953
  1742.2500     56.2321    -15.8245     44.9586     76.3085
  1742.5000     56.7749    -15.7690     39.4710     87.5793
  1742.7500     57.9364    -15.1774     43.3897     84.1778
  1743.0000     58.3516    -14.6853     39.7342     69.1999
  1743.2500     58.8399    -13.9797     41.6258     69.2045
  1743.5000     58.5699    -13.3123     45.9538     65.3346
  1743.7500     58.8053    -11.8418     49.6643     69.3478
  1744.0000     59.3045    -11.1094     57.7373     72.1981
  1744.2500     61.3378    -10.8052     51.4517     73.4552
  1744.5000     62.9825    -10.2076     53.6518     66.8416
  1744.7500     64.0943     -9.6059     54.4667     70.6001
  1745.0000     64.7782     -9.1381     59.1954     69.3261
  1745.2500     65.1784     -8.4239     56.8272     74.5240
  1745.5000     65.8116     -7.8933     56.9266     64.3864
  1745.7500     66.5226     -6.9896     56.9412     71.9213
  1746.0000     67.8239     -5.8572     40.3082     72.7411
  1746.2500     69.1056     -4.3192     41.0551     65.0059
  1746.5000     69.2624     -2.6858     43.6678     62.6379
  1746.7500     68.3574     -1.4814     35.4063     59.8964
  1747.0000     66.2931     -0.2091     41.5725     69.3366
  1747.2500     63.5040      1.5264     35.6198     67.1773
  1747.5000     58.9254      2.8707     34.2447     74.1835
  1747.7500     53.6788      4.5955     31.0366     78.3152
  1748.0000     46.0927      5.6703     29.2039     91.0656
  1748.2500     41.2299      6.9685     25.6204    102.9771
  1748.5000     35.7964      8.3731     21.5611    138.3024
  1748.7500     32.7652      9.6312     22.1054    139.2897
  1749.0000     28.6439     10.4937     20.9664    154.5063
  1749.2500     26.5579     11.7520     19.4670    156.2410
  1749.5000     23.4421     12.6285     17.7719    160.0167
  1749.7500     22.0080     12.9340     17.7880    158.5198
  1750.0000     20.4435     13.0703     16.0874    153.2616
  1750.2500     19.5139     14.0125     15.2509    149.8368
  1750.5000     18.6928     14.7115     14.9566    155.6577
  1750.7500     18.3582     14.8455     13.8928    158.4695
  1751.0000     17.8625     15.4888     13.9789    145.2632
  1751.2500     17.6287     15.8201     13.9633    152.6819
  1751.5000     17.3324     16.0251     12.9699    156.9494
  1751.7500     17.0044     17.0210     13.6282    154.6793
  1752.0000     15.9575     18.2554     13.3468    156.6090
  1752.2500     15.5467     18.9447     12.6334    158.7670
  1752.5000     14.5926     19.6686     12.7185    157.6385
  1752.7500     14.0632     20.6318     12.9145    145.9245
  1753.0000     14.5791     21.8632     12.4173    148.8935
  1753.2500     14.7331     23.2960     12.3708    150.4756
  1753.5000     15.7469     23.4490     11.7232    159.8380
  1753.7500     16.1902     23.8956     12.1348    156.1193
