~Version Information
VERS.                      2.0: CWLS Log ASCII Standard - VERSION 2.0
WRAP.                       NO: One line per depth step
~Well Information Block
STRT.FT               380.0000: 
STOP.FT               899.2000: 
STEP.FT                 0.1000: 
NULL.                -999.2500: 
COMP.          Pioneer Natural Resources: COMPANY
WELL.          Prospector 12-19: WELL
FLD.           Purgatoire River: FIELD
LOC.           2262' FNL & 634' FWL: LOCATION
PROV.                 Colorado: PROVINCE
CNTY.               Las Animas: COUNTRY
SRVC.                Patterson: SERVICE COMPANY
DATE.          Mon Apr 25 09:33:09 2005: LOG DATE
UWI.           05 071 08191 00: UNIQUE WELL ID
~Curve Information Block
DEPT.FT            0 000 00 00: Depth
DCAL.in                       : CDL Caliper
RHOB.g/cc                     : CDL Bulk Density
RHOC.g/cc                     : CDL Density Correction
DPOR.pu                       : CDL Density Porosity
GR.GAPI                       : Gamma Ray
NPOR.pu                       : Neutron Porosity
~Parameter Information Block
~A  Depth       DCAL        RHOB        RHOC        DPOR         GR         NPOR    
# ...
   648.8000      8.3192      2.0183      0.1659     38.2856     75.5456     33.0011
   648.9000      8.3192      2.1047      0.2004     33.0502     78.0777     33.6187
   649.0000      8.3119      2.1651      0.1671     29.3876     78.8284     33.5034
   649.1000      8.3119      2.2000      0.0887     27.2749     79.8552     33.1395
   649.2000      8.3119      2.2297      0.0121     25.4745     83.6480     33.4203
   649.3000      8.2087      2.2697      0.0495     23.0478     90.6432     33.4870
   649.4000      8.2087      2.3231      0.0484     19.8127     97.5022     32.3589
   649.5000      8.0926      2.3852      0.1092     16.0455     99.2179     30.8976
   649.6000      8.0926      2.4364      0.1268     12.9453     95.9128     30.0650
   649.7000      8.0926      2.4630      0.1259     11.3333     91.2359     29.5604
   649.8000      8.0812      2.4813      0.0613     10.2226     87.7541     28.6865
   649.9000      8.0812      2.5015      0.1023      8.9974     89.1087     27.2773
   650.0000      8.0735      2.5132      0.0675      8.2902     95.6578     26.2656
   650.1000      8.0735      2.5210      0.0424      7.8163    102.1509     26.2604
   650.2000      8.0735      2.5387      0.0619      6.7452    104.4807     26.4205
   650.3000      8.0317      2.5573      0.1013      5.6170    103.4681     26.1200
   650.4000      8.0317      2.5519      0.0844      5.9473    100.5381     25.7890
   650.5000      7.9829      2.5213      0.0189      7.8020     95.9053     25.4887
   650.6000      7.9829      2.4923      0.0455      9.5556     90.1187     24.6839
   650.7000      7.9829      2.4816      0.0145     10.2079     83.5507     23.4718
   650.8000      7.9870      2.4876      0.0413      9.8438     81.0477     22.7173
   650.9000      7.9870      2.5022      0.0283      8.9604     86.6310     22.6958
   651.0000      7.9581      2.5175      0.0479      8.0303     95.1373     22.8777
   651.1000      7.9581      2.5278      0.0353      7.4075     98.7202     22.8959
   651.2000      7.9581      2.5268      0.0443      7.4645     94.3100     22.2149
   651.3000      7.9530      2.5178      0.0360      8.0099     85.6533     21.1998
   651.4000      7.9530      2.5095      0.0510      8.5161     77.9107     21.4297
   651.5000      7.9452      2.5055      0.0364      8.7582     73.3059     22.8006
   651.6000      7.9452      2.5065      0.0297      8.6996     74.4994     23.4504
   651.7000      7.9452      2.5078      0.0331      8.6177     84.1729     22.7346
   651.8000      7.9542      2.5092      0.0343      8.5324     98.3573     21.6427
   651.9000      7.9542      2.5205      0.0534      7.8472    107.6790     21.5443
   652.0000      7.9221      2.5444      0.0724      6.4025    108.2934     22.7383
   652.1000      7.9221      2.5730      0.0908      4.6667    103.5739     23.8666
   652.2000      7.9221      2.5994      0.1139      3.0637     97.1756     23.9770
   652.3000      7.9218      2.6149      0.1361      2.1286     92.8444     23.3807
   652.4000      7.9218      2.6092      0.1341      2.4725     91.8652     22.3816
   652.5000      7.9251      2.5835      0.0917      4.0278     90.8829     21.6085
   652.6000      7.9251      2.5558      0.0431      5.7121     89.2731     21.7645
   652.7000      7.9251      2.5394      0.0810      6.7005     86.9751     22.6117
   652.8000      7.9403      2.5314      0.0331      7.1901     84.5337     23.4510
   652.9000      7.9403      2.5337      0.0515      7.0482     86.3544     23.6865
   653.0000      7.9496      2.5511      0.0922      5.9963     93.2529     23.1533
   653.1000      7.9496      2.5792      0.0761      4.2897     98.7279     22.6875
   653.2000      7.9496      2.6166      0.0833      2.0264     97.6226     22.8316
   653.3000      7.8981      2.6628      0.0906     -0.7769     90.1161     23.0307
   653.4000      7.8981      2.7132      0.1259     -3.8307     79.4647     22.7863
   653.5000      7.8776      2.7562      0.1412     -6.4357     71.0907     22.2164
   653.6000      7.8776      2.7783      0.2128     -7.7777     67.7960     21.6857
   653.7000      7.8776      2.7708      0.2084     -7.3203     65.9344     21.7579
   653.8000      7.8795      2.7394      0.1322     -5.4153     61.5683     22.4767
   653.9000      7.8795      2.7004      0.0611     -3.0530     56.7551     22.8035
   654.0000      7.8788      2.6549      0.0538     -0.2949     52.7915     22.4638
   654.1000      7.8788      2.6051     -0.1065      2.7204     48.4266     21.8595
   654.2000      7.8788      2.5866     -0.1003      3.8397     44.4687     20.8545
   654.3000      7.8947      2.6117      0.0673      2.3241     43.9744     19.4830
   654.4000      7.8947      2.6384      0.1446      0.7041     47.7852     18.2204
   654.5000      7.9275      2.6388      0.1350      0.6816     52.2283     17.2777
   654.6000      7.9275      2.6245      0.1736      1.5462     53.4605     16.7677
   654.7000      7.9275      2.6126      0.0964      2.2676     52.2227     16.8133
   654.8000      7.8904      2.6105      0.1228      2.3954     51.2942     17.0849
   654.9000      7.8904      2.6154      0.0989      2.0941     51.1265     17.3360
   655.0000      7.8912      2.6136      0.1297      2.2039     49.8603     18.0271
   655.1000      7.8912      2.5944      0.0716      3.3719     48.2955     19.1590
   655.2000      7.8912      2.5647      0.0360      5.1721     49.4594     19.5460
   655.3000      7.9347      2.5370      0.0275      6.8478     54.0175     18.4561
   655.4000      7.9347      2.5210      0.0010      7.8210     58.3394     17.1791
   655.5000      7.9334      2.5200      0.0346      7.8782     57.8338     17.1024
   655.6000      7.9334      2.5297      0.0253      7.2939     54.6746     17.7944
   655.7000      7.9334      2.5448      0.0440      6.3769     54.2711     18.2638
   655.8000      7.9401      2.5595      0.0475      5.4842     55.7506     18.6606
   655.9000      7.9401      2.5639      0.0960      5.2202     55.8207     19.4464
   656.0000      7.9339      2.5566      0.0886      5.6591     53.5280     20.0755
   656.1000      7.9339      2.5529      0.0457      5.8819     50.1253     19.9959
   656.2000      7.9339      2.5614      0.0246      5.3725     49.5382     19.2723
   656.3000      7.9133      2.5735      0.0341      4.6358     53.3808     18.4196
   656.4000      7.9133      2.5844      0.0776      3.9753     57.9014     18.4213
   656.5000      7.9086      2.5978      0.0892      3.1667     59.2586     19.2807
   656.6000      7.9086      2.6116      0.1001      2.3270     57.4316     19.5986
   656.7000      7.9086      2.6205      0.0824      1.7878     55.5833     19.0914
   656.8000      7.9100      2.6208      0.1060      1.7668     55.6487     19.0684
   656.9000      7.9100      2.6159      0.0594      2.0646     55.8732     19.7004
   657.0000      7.9352      2.6245      0.0487      1.5483     54.6647     19.9749
   657.1000      7.9352      2.6504      0.0710     -0.0247     52.7949     19.5485
   657.2000      7.9352      2.6664      0.1035     -0.9920     52.1024     18.6126
   657.3000      7.9542      2.6500      0.1216      0.0001     52.6828     17.9312
   657.4000      7.9542      2.6083      0.0771      2.5290     51.3814     18.3225
   657.5000      7.9424      2.5589      0.0807      5.5223     47.7632     19.2520
   657.6000      7.9424      2.5175      0.0360      8.0327     45.2039     19.7638
   657.7000      7.9424      2.5032     -0.0344      8.8999     45.2953     19.4462
   657.8000      7.9175      2.5222      0.0233      7.7450     48.0390     18.7419
   657.9000      7.9175      2.5558      0.0526      5.7081     53.1624     18.7247
   658.0000      7.9256      2.5828      0.0359      4.0710     58.3423     19.4960
   658.1000      7.9256      2.5937      0.0656      3.4125     60.5529     20.0388
   658.2000      7.9256      2.5855      0.0865      3.9097     60.3834     19.3272
   658.3000      7.9310      2.5756     -0.0120      4.5110     60.8470     17.6725
