~Version Information
VERS.                      2.0: CWLS Log ASCII Standard - VERSION 2.0
WRAP.                       NO: One line per depth step
~Well Information Block
STRT.FT               480.0000: 
STOP.FT              1994.2500: 
STEP.FT                 0.2500: 
NULL.                -999.2500: 
COMP.          Evergreen Operating Corporation: COMPANY
WELL.          McCullough 34-32 Tr: WELL
FLD.           Purgatoire River: FIELD
LOC.           394' FSL & 2077' FEL: LOCATION
PROV.                 Colorado: PROVINCE
CNTY.               Las Animas: COUNTRY
SRVC.                Patterson: SERVICE COMPANY
DATE.          Sun Sep 19 05:48:59 2004: LOG DATE
UWI.           05 071 08157 00: UNIQUE WELL ID
~Curve Information Block
DEPT.FT            0 000 00 00: Depth
SN.Ohm-m                      : IEL Short Normal
SP.mV                         : IEL Spontaneous Potential
DIR.Ohm-m                     : IEL Induction Resistivity
GR.GAPI                       : Gamma Ray
~Parameter Information Block
~A  Depth        SN          SP         DIR          GR     
# ...
   982.5000     19.0262    268.1798     18.1229    101.3317
   982.7500     18.7343    268.2378     17.9022    102.5695
   983.0000     18.4768    268.2671     17.7764    106.2959
   983.2500     18.2174    268.2728     17.7039    109.2936
   983.5000     17.9340    268.2585     17.6319    112.9595
   983.7500     17.6182    268.2249     17.5164    114.3365
   984.0000     17.2781    268.1700     17.3391    115.3391
   984.2500     16.9362    268.0901     17.1109    116.1620
   984.5000     16.6185    267.9832     16.8586    118.5029
   984.7500     16.3400    267.8517     16.6079    120.4087
   985.0000     16.1025    267.7033     16.3752    122.3809
   985.2500     15.9044    267.5509     16.1685    122.7555
   985.5000     15.7512    267.4088     15.9923    122.4599
   985.7500     15.6562    267.2892     15.8504    122.0784
   986.0000     15.6303    267.1981     15.7453    121.1559
   986.2500     15.6730    267.1327     15.6799    120.0103
   986.5000     15.7678    267.0828     15.6595    117.3819
   986.7500     15.8874    267.0344     15.6924    115.3938
   987.0000     16.0037    266.9756     15.7840    113.0171
   987.2500     16.0987    266.9019     15.9287    112.1406
   987.5000     16.1679    266.8175     16.1071    111.6827
   987.7500     16.2169    266.7337     16.2932    111.7243
   988.0000     16.2576    266.6645     16.4670    112.3191
   988.2500     16.3067    266.6219     16.6209    113.1874
   988.5000     16.3802    266.6129     16.7556    115.0732
   988.7500     16.4819    266.6368     16.8702    116.4533
   989.0000     16.5949    266.6864     16.9560    118.2226
   989.2500     16.6906    266.7500     17.0012    118.9157
   989.5000     16.7498    266.8152     17.0016    118.8139
   989.7500     16.7764    266.8736     16.9689    118.0265
   990.0000     16.7918    266.9239     16.9282    116.4566
   990.2500     16.8165    266.9715     16.9056    115.6153
   990.5000     16.8572    267.0251     16.9139    114.9943
   990.7500     16.9053    267.0908     16.9483    115.0078
   991.0000     16.9466    267.1689     16.9947    115.7288
   991.2500     16.9723    267.2531     17.0423    116.5810
   991.5000     16.9830    267.3327     17.0918    117.4211
   991.7500     16.9850    267.3971     17.1511    116.8757
   992.0000     16.9858    267.4374     17.2277    114.1526
   992.2500     16.9961    267.4482     17.3247    111.9077
   992.5000     17.0298    267.4268     17.4430    109.7318
   992.7500     17.0981    267.3734     17.5814    109.5369
   993.0000     17.1986    267.2914     17.7326    110.6197
   993.2500     17.3155    267.1876     17.8777    111.6206
   993.5000     17.4314    267.0713     17.9876    112.6970
   993.7500     17.5367    266.9518     18.0337    112.9983
   994.0000     17.6270    266.8350     18.0063    113.0596
   994.2500     17.6959    266.7206     17.9273    113.0232
   994.5000     17.7405    266.6023     17.8486    113.0686
   994.7500     17.7749    266.4705     17.8285    113.2158
   995.0000     17.8326    266.3162     17.9020    113.3998
   995.2500     17.9450    266.1359     18.0621    113.1917
   995.5000     18.1151    265.9333     18.2685    112.1501
   995.7500     18.3120    265.7204     18.4754    111.3662
   996.0000     18.4952    265.5138     18.6565    111.2458
   996.2500     18.6431    265.3312     18.8088    112.1242
   996.5000     18.7590    265.1862     18.9396    114.0194
   996.7500     18.8561    265.0850     19.0547    115.0247
   997.0000     18.9433    265.0258     19.1569    116.1073
   997.2500     19.0210    264.9995     19.2512    117.0619
   997.5000     19.0843    264.9942     19.3455    119.4868
   997.7500     19.1243    264.9978     19.4446    121.5882
   998.0000     19.1322    265.0016     19.5397    124.3330
   998.2500     19.1058    265.0015     19.6026    125.1595
   998.5000     19.0501    264.9966     19.5908    124.4578
   998.7500     18.9741    264.9874     19.4680    123.1477
   999.0000     18.8858    264.9740     19.2270    121.2928
   999.2500     18.7909    264.9557     18.9024    120.6685
   999.5000     18.6937    264.9315     18.5637    120.6929
   999.7500     18.5974    264.9008     18.2905    121.1826
  1000.0000     18.5053    264.8634     18.1428    122.3782
  1000.2500     18.4212    264.8188     18.1382    123.0703
  1000.5000     18.3537    264.7653     18.2494    122.7672
  1000.7500     18.3171    264.7005     18.4217    121.4660
  1001.0000     18.3260    264.6225     18.5998    119.2374
  1001.2500     18.3847    264.5324     18.7464    118.6292
  1001.5000     18.4822    264.4358     18.8444    119.2684
  1001.7500     18.5942    264.3429     18.8910    119.8428
  1002.0000     18.6924    264.2660     18.8935    119.2039
  1002.2500     18.7585    264.2162     18.8699    117.4766
  1002.5000     18.7946    264.1996     18.8478    114.0070
  1002.7500     18.8190    264.2156     18.8565    112.2638
  1003.0000     18.8484    264.2574     18.9135    112.0805
  1003.2500     18.8824    264.3138     19.0151    113.6649
  1003.5000     18.9039    264.3733     19.1363    117.1986
  1003.7500     18.8945    264.4259     19.2400    119.1554
  1004.0000     18.8529    264.4659     19.2931    120.1760
  1004.2500     18.8018    264.4933     19.2796    119.5296
  1004.5000     18.7778    264.5143     19.2081    117.4581
  1004.7500     18.8079    264.5398     19.1077    116.0679
  1005.0000     18.8886    264.5818     19.0144    114.8434
  1005.2500     18.9881    264.6490     18.9547    114.7289
  1005.5000     19.0676    264.7426     18.9342    115.4753
  1005.7500     19.1057    264.8553     18.9345    116.4302
  1006.0000     19.1042    264.9735     18.9182    117.9644
  1006.2500     19.0777    265.0830     18.8446    118.5450
  1006.5000     19.0401    265.1738     18.6929    118.2161
  1006.7500     18.9997    265.2438     18.4813    117.3136
  1007.0000     18.9596    265.2979     18.2646    115.5641
  1007.2500     18.9210    265.3446     18.1083    114.4829
  1007.5000     18.8874    265.3919     18.0572    113.4041
  1007.7500     18.8654    265.4431     18.1182    113.1519
  1008.0000     18.8613    265.4970     18.2656    113.3949
  1008.2500     18.8758    265.5489     18.4603    113.9458
  1008.5000     18.9059    265.5931     18.6694    115.5851
  1008.7500     18.9537    265.6255     18.8721    117.2141
  1009.0000     19.0298    265.6436     19.0532    119.5161
  1009.2500     19.1446    265.6456     19.1964    120.0741
  1009.5000     19.2962    265.6287     19.2890    118.6725
  1009.7500     19.4699    265.5895     19.3344    116.6708
  1010.0000     19.6486    265.5251     19.3541    113.7656
  1010.2500     19.8205    265.4359     19.3755    112.7120
  1010.5000     19.9767    265.3271     19.4135    112.5442
  1010.7500     20.1028    265.2085     19.4633    112.6984
  1011.0000     20.1782    265.0922     19.5073    111.9373
  1011.2500     20.1888    264.9893     19.5281    110.4351
  1011.5000     20.1443    264.9074     19.5180    107.3755
  1011.7500     20.0815    264.8498     19.4810    105.7221
  1012.0000     20.0439    264.8164     19.4316    105.4714
  1012.2500     20.0565    264.8057     19.3923    107.2723
  1012.5000     20.1148    264.8159     19.3882    112.3087
  1012.7500     20.1954    264.8456     19.4376    116.1928
  1013.0000     20.2741    264.8941     19.5430    120.9545
  1013.2500     20.3428    264.9606     19.6907    122.7839
  1013.5000     20.4135    265.0438     19.8581    123.4137
  1013.7500     20.5065    265.1407     20.0238    122.7198
  1014.0000     20.6295    265.2456     20.1707    120.4967
  1014.2500     20.7685    265.3506     20.2833    118.4650
  1014.5000     20.8962    265.4464     20.3468    115.5382
  1014.7500     20.9905    265.5258     20.3559    114.5995
  1015.0000     21.0423    265.5858     20.3238    115.8219
  1015.2500     21.0535    265.6276     20.2798    118.0689
  1015.5000     21.0309    265.6548     20.2562    121.6372
  1015.7500     20.9848    265.6709     20.2747    123.0678
