~Version Information
VERS.                      2.0: CWLS Log ASCII Standard - VERSION 2.0
WRAP.                       NO: One line per depth step
~Well Information Block
STRT.FT               400.0000: 
STOP.FT              2201.0000: 
STEP.FT                 0.2500: 
NULL.                -999.2500: 
COMP.          Evergreen Operating Corporation: COMPANY
WELL.            Triumph 13-10: WELL
FLD.           Purgatorie River: FIELD
LOC.           1551' FSL & 522' FWL: LOCATION
PROV.                 Colorado: PROVINCE
CNTY.               Las Animas: COUNTRY
SRVC.                Patterson: SERVICE COMPANY
DATE.          Fri Jul 23 20:28:37 2004: LOG DATE
UWI.           05 071 08108 00: UNIQUE WELL ID
~Curve Information Block
DEPT.FT            0 000 00 00: Depth
SN.Ohm-m                      : IEL Short Normal
SP.mV                         : IEL Spontaneous Potential
DIR.Ohm-m                     : IEL Induction Resistivity
GR.GAPI                       : Gamma Ray
~Parameter Information Block
~A  Depth        SN          SP         DIR          GR     
# ...
  1472.0000     14.7817     53.9872     12.1643    143.3343
  1472.2500     14.3385     54.0481     11.9011    146.8000
  1472.5000     13.9856     54.1211     11.6799    149.5017
  1472.7500     13.7336     54.1831     11.4853    149.7785
  1473.0000     13.6200     54.2152     11.3025    148.4684
  1473.2500     13.6375     54.2109     11.1232    146.8016
  1473.5000     13.7418     54.1780     10.9448    143.9323
  1473.7500     13.8916     54.1340     10.7682    142.3959
  1474.0000     14.0472     54.0985     10.5976    141.1888
  1474.2500     14.1702     54.0868     10.4421    140.6518
  1474.5000     14.2429     54.1084     10.3146    138.6409
  1474.7500     14.2745     54.1707     10.2249    135.9797
  1475.0000     14.2740     54.2844     10.1729    130.7281
  1475.2500     14.2160     54.4618     10.1466    127.4780
  1475.5000     14.0693     54.7054     10.1280    125.0592
  1475.7500     13.8411     54.9880     10.1013    125.9223
  1476.0000     13.5497     55.2439     10.0551    130.8234
  1476.2500     13.2051     55.3915      9.9810    135.4620
  1476.5000     12.8427     55.3826      9.8722    142.1696
  1476.7500     12.5245     55.2340      9.7254    145.5355
  1477.0000     12.2912     55.0141      9.5447    148.4530
  1477.2500     12.1224     54.7981      9.3413    149.2739
  1477.5000     11.9833     54.6322      9.1316    149.8850
  1477.7500     11.8971     54.5260      8.9332    150.3218
  1478.0000     11.9097     54.4647      8.7622    150.6679
  1478.2500     12.0152     54.4232      8.6321    150.1179
  1478.5000     12.1706     54.3783      8.5539    147.8536
  1478.7500     12.3496     54.3185      8.5374    145.8133
  1479.0000     12.5408     54.2487      8.5911    142.8749
  1479.2500     12.7194     54.1867      8.7219    141.3408
  1479.5000     12.8540     54.1514      8.9316    139.9514
  1479.7500     12.9346     54.1493      9.2133    139.5409
  1480.0000     12.9768     54.1694      9.5504    139.0668
  1480.2500     13.0005     54.1878      9.9214    138.4632
  1480.5000     13.0274     54.1778     10.3101    136.7957
  1480.7500     13.1157     54.1175     10.7133    134.9481
  1481.0000     13.3996     53.9947     11.1405    130.2788
  1481.2500     14.1424     53.8117     11.6040    125.6097
  1481.5000     15.7624     53.5919     12.1080    117.2027
  1481.7500     18.6330     53.3794     12.6448    111.9782
  1482.0000     22.5959     53.2254     13.1973    106.8243
  1482.2500     26.7084     53.1690     13.7445    105.6414
  1482.5000     29.7649     53.2253     14.2655    106.7247
  1482.7500     31.1116     53.3861     14.7405    108.7565
  1483.0000     30.8681     53.6275     15.1520    113.1007
  1483.2500     29.5562     53.9184     15.4882    116.7693
  1483.5000     27.7142     54.2278     15.7493    123.1619
  1483.7500     25.7505     54.5285     15.9498    127.5223
  1484.0000     23.9609     54.7998     16.1131    133.3113
  1484.2500     22.5539     55.0307     16.2594    136.6126
  1484.5000     21.6244     55.2200     16.3983    141.3221
  1484.7500     21.1563     55.3721     16.5315    144.4364
  1485.0000     21.0606     55.4898     16.6615    148.2918
  1485.2500     21.2229     55.5715     16.7986    149.5574
  1485.5000     21.5823     55.6137     16.9603    148.5289
  1485.7500     22.1923     55.6182     17.1674    145.6983
  1486.0000     23.1981     55.5966     17.4413    138.3669
  1486.2500     24.7657     55.5635     17.8046    131.6100
  1486.5000     27.0627     55.5256     18.2826    119.0068
  1486.7500     30.2297     55.4792     18.9000    109.3303
  1487.0000     34.2189     55.4190     19.6721     94.4534
  1487.2500     38.6662     55.3467     20.5905     85.6807
  1487.5000     42.9984     55.2721     21.6056     76.3169
  1487.7500     46.6849     55.2062     22.6086     73.0105
  1488.0000     49.4363     55.1561     23.4255     71.4906
  1488.2500     51.2111     55.1264     23.8480     71.5495
  1488.5000     52.0388     55.1229     23.7126     71.1930
  1488.7500     51.8188     55.1510     22.9872     70.1583
  1489.0000     50.3148     55.2078     21.7898     68.1492
  1489.2500     47.4467     55.2814     20.3230     67.4999
  1489.5000     43.5346     55.3607     18.7841     69.2153
  1489.7500     39.0680     55.4453     17.3116     72.7972
  1490.0000     34.3677     55.5428     15.9786     82.2195
  1490.2500     29.6627     55.6589     14.8087     90.9221
  1490.5000     25.2590     55.7908     13.7964    106.1509
  1490.7500     21.4734     55.9253     12.9219    116.5175
  1491.0000     18.4974     56.0422     12.1615    130.2471
  1491.2500     16.3476     56.1229     11.4933    137.1213
  1491.5000     14.9301     56.1629     10.9013    142.6594
  1491.7500     14.0913     56.1761     10.3778    143.0044
  1492.0000     13.6030     56.1855      9.9229    140.1714
  1492.2500     13.2501     56.2075      9.5420    137.9770
  1492.5000     12.9529     56.2418      9.2417    137.1438
  1492.7500     12.7247     56.2765      9.0266    138.6478
  1493.0000     12.5637     56.2987      8.8966    142.4893
  1493.2500     12.4202     56.3037      8.8482    144.8248
  1493.5000     12.2174     56.2970      8.8767    146.7443
  1493.7500     11.9106     56.2943      8.9794    147.0869
  1494.0000     11.5462     56.3175      9.1559    147.2962
  1494.2500     11.2725     56.3822      9.4086    147.8412
  1494.5000     11.2991     56.4804      9.7407    149.4407
  1494.7500     11.8133     56.5755     10.1554    150.5446
  1495.0000     12.9121     56.6232     10.6556    151.0476
  1495.2500     14.6015     56.6053     11.2436    150.0921
  1495.5000     16.8263     56.5468     11.9222    146.3763
  1495.7500     19.4968     56.5029     12.6938    142.4178
  1496.0000     22.4831     56.5241     13.5598    134.6090
  1496.2500     25.5942     56.6204     14.5178    128.4849
  1496.5000     28.6805     56.7503     15.5611    118.5769
  1496.7500     31.7615     56.8510     16.6787    111.8977
  1497.0000     34.9290     56.8854     17.8554    102.4750
  1497.2500     38.1240     56.8607     19.0680     96.8817
  1497.5000     41.0243     56.7999     20.2773     89.5210
  1497.7500     43.1222     56.7112     21.4193     85.1799
  1498.0000     43.9563     56.5992     22.4039     80.2517
  1498.2500     43.4110     56.5031     23.1297     79.2862
  1498.5000     41.8038     56.4979     23.5138     83.4112
  1498.7500     39.6552     56.6366     23.5166     89.8276
  1499.0000     37.4250     56.8901     23.1453    102.2547
  1499.2500     35.3438     57.1544     22.4437    110.1801
  1499.5000     33.3314     57.3255     21.4877    118.3283
  1499.7500     31.1329     57.3707     20.3839    120.3189
  1500.0000     28.7177     57.3364     19.2538    118.8551
  1500.2500     26.4457     57.2999     18.2023    116.7304
  1500.5000     24.6148     57.3187     17.2898    115.6774
  1500.7500     23.1140     57.4107     16.5262    117.6028
  1501.0000     21.7597     57.5623     15.8878    123.2492
  1501.2500     20.6317     57.7457     15.3440    126.9852
  1501.5000     19.8606     57.9330     14.8779    130.1263
  1501.7500     19.3513     58.1045     14.4895    130.4528
  1502.0000     18.8664     58.2504     14.1858    129.4239
  1502.2500     18.2090     58.3679     13.9694    128.2572
  1502.5000     17.3188     58.4550     13.8337    125.8840
  1502.7500     16.3539     58.5107     13.7641    123.8190
  1503.0000     15.6645     58.5408     13.7414    120.3902
  1503.2500     15.5758     58.5574     13.7454    118.3175
  1503.5000     16.1511     58.5707     13.7597    115.7378
  1503.7500     17.1329     58.5827     13.7739    114.0003
  1504.0000     18.0972     58.5950     13.7842    110.8583
  1504.2500     18.7295     58.6193     13.7898    108.9067
  1504.5000     19.0451     58.6759     13.7917    108.3487
  1504.7500     19.3353     58.7754     13.7901    110.5415
  1505.0000     19.8068     58.9036     13.7851    117.0407
  1505.2500     20.3361     59.0252     13.7757    121.9879
