~Version Information
VERS.                      2.0: CWLS Log ASCII Standard - VERSION 2.0
WRAP.                       NO: One line per depth step
~Well Information Block
STRT.FT               423.0000: 
STOP.FT              2306.0000: 
STEP.FT                 0.1000: 
NULL.                -999.2500: 
COMP.          Pioneer Natural Resources: COMPANY
WELL.             Culver 14-12: WELL
FLD.           Purgatoire River: FIELD
LOC.           913' FSL & 1140' FWL: LOCATION
PROV.                 Colorado: PROVINCE
CNTY.               Las Animas: COUNTRY
SRVC.                Patterson: SERVICE COMPANY
DATE.          Tue Jun 07 09:21:05 2005: LOG DATE
UWI.           05 071 08386 00: UNIQUE WELL ID
~Curve Information Block
DEPT.FT            0 000 00 00: Depth
DCAL.in                       : CDL Caliper
RHOB.g/cc                     : CDL Bulk Density
RHOC.g/cc                     : CDL Density Correction
DPOR.pu                       : CDL Density Porosity
GR.GAPI                       : Gamma Ray
NPOR.pu                       : Neutron Porosity
~Parameter Information Block
~A  Depth       DCAL        RHOB        RHOC        DPOR         GR         NPOR    
# ...
  1546.2000      8.6568      2.6330      0.0683      1.0315     82.4182     24.8566
  1546.3000      8.1845      2.6199      0.0456      1.8261     96.2905     23.5862
  1546.4000      8.1845      2.6259      0.0587      1.4598    103.2505     23.3636
  1546.5000      8.1232      2.6370      0.0841      0.7891     99.8812     22.8679
  1546.6000      8.1232      2.6293      0.0410      1.2532     94.5390     21.2308
  1546.7000      8.1232      2.6169      0.0225      2.0082     93.2014     20.0234
  1546.8000      8.1230      2.6210      0.0914      1.7548     94.2719     20.0057
  1546.9000      8.1230      2.6181      0.0896      1.9318     95.9503     20.2799
  1547.0000      8.1143      2.5833      0.0450      4.0424     96.3436     20.5795
  1547.1000      8.1143      2.5400      0.0013      6.6655     94.2565     20.9436
  1547.2000      8.1143      2.5211      0.0317      7.8120     91.4861     20.9457
  1547.3000      8.1121      2.5301      0.0173      7.2671     87.5015     20.5519
  1547.4000      8.1121      2.5551      0.0456      5.7502     80.7035     20.2837
  1547.5000      8.1039      2.5835      0.0450      4.0316     71.8313     20.5733
  1547.6000      8.1039      2.6020      0.0639      2.9095     63.6871     21.2879
  1547.7000      8.1039      2.6002      0.0561      3.0165     61.3020     21.5129
  1547.8000      8.0928      2.5797      0.0578      4.2577     65.4533     20.3438
  1547.9000      8.0928      2.5574      0.0176      5.6127     68.7357     18.5820
  1548.0000      8.0829      2.5524      0.0184      5.9170     68.8953     17.7467
  1548.1000      8.0829      2.5650      0.0866      5.1486     71.4020     18.0738
  1548.2000      8.0829      2.5813      0.0373      4.1660     76.6135     18.7377
  1548.3000      8.0825      2.5964      0.0659      3.2474     78.9463     19.1426
  1548.4000      8.0825      2.6082      0.0892      2.5331     75.9632     19.2892
  1548.5000      8.0748      2.6135      0.1093      2.2134     71.0525     19.5374
  1548.6000      8.0748      2.6102      0.1185      2.4141     67.9638     20.2094
  1548.7000      8.0748      2.5935      0.0997      3.4246     67.9683     20.8355
  1548.8000      8.0738      2.5702      0.0502      4.8394     72.8997     21.1324
  1548.9000      8.0738      2.5577      0.0351      5.5927     81.5407     21.6304
  1549.0000      8.0741      2.5623      0.0692      5.3141     87.9620     22.3529
  1549.1000      8.0741      2.5753      0.1141      4.5269     90.5836     22.7750
  1549.2000      8.0741      2.5926      0.0806      3.4813     94.5133     22.7056
  1549.3000      8.0733      2.6174      0.0590      1.9739    101.7294     22.4109
  1549.4000      8.0733      2.6367      0.1412      0.8044    110.1616     22.5693
  1549.5000      8.0736      2.6344      0.0758      0.9453    117.2458     23.1877
  1549.6000      8.0736      2.6191      0.0772      1.8714    118.4104     23.4557
  1549.7000      8.0736      2.6049      0.0611      2.7363    115.6168     23.4516
  1549.8000      8.0728      2.5961      0.0679      3.2665    115.2157     23.9039
  1549.9000      8.0728      2.5905      0.0655      3.6076    117.5364     25.0995
  1550.0000      8.0661      2.5831      0.0762      4.0518    119.7289     26.5714
  1550.1000      8.0661      2.5767      0.0459      4.4441    118.1499     27.4488
  1550.2000      8.0661      2.5760      0.0657      4.4858    113.4201     27.4796
  1550.3000      8.0677      2.5785      0.0611      4.3337    111.4960     27.3163
  1550.4000      8.0677      2.5877      0.0504      3.7763    112.2888     27.3088
  1550.5000      8.0661      2.6134      0.0452      2.2183    113.2465     27.2006
  1550.6000      8.0661      2.6445      0.1028      0.3357    116.4208     26.8978
  1550.7000      8.0661      2.6537      0.0892     -0.2270    119.0999     26.7690
  1550.8000      8.0649      2.6297      0.0718      1.2306    115.9542     27.0704
  1550.9000      8.0649      2.5862      0.0384      3.8691    112.6432     27.2740
  1551.0000      8.0614      2.5582      0.0078      5.5660    118.0935     27.2018
  1551.1000      8.0614      2.5651      0.0988      5.1474    127.3235     27.5345
  1551.2000      8.0614      2.5873      0.0837      3.7989    130.3446     28.1239
  1551.3000      8.0695      2.6043      0.0977      2.7721    129.0179     27.8814
  1551.4000      8.0695      2.6113      0.1182      2.3475    129.5690     26.6783
  1551.5000      8.0886      2.6086      0.0719      2.5066    132.6540     25.1781
  1551.6000      8.0886      2.5983      0.0824      3.1313    136.3542     23.9478
  1551.7000      8.0886      2.5859      0.1034      3.8851    141.8889     23.6637
  1551.8000      8.0872      2.5766      0.0973      4.4501    150.5081     24.5219
  1551.9000      8.0872      2.5635      0.0786      5.2432    154.1810     25.5515
  1552.0000      8.0816      2.5395      0.0322      6.6997    148.6746     25.7824
  1552.1000      8.0816      2.5140      0.0419      8.2402    145.6282     25.5880
  1552.2000      8.0816      2.5062      0.0559      8.7154    149.7077     26.2337
  1552.3000      8.0807      2.5206      0.1010      7.8443    153.1147     27.7871
  1552.4000      8.0807      2.5339      0.0852      7.0392    151.3469     28.7313
  1552.5000      8.1032      2.5324      0.0415      7.1278    146.9581     28.7277
  1552.6000      8.1032      2.5364      0.0540      6.8825    146.7798     28.8130
  1552.7000      8.1032      2.5534      0.1409      5.8562    150.2748     28.9727
  1552.8000      8.0893      2.5599      0.1864      5.4578    151.6702     28.4981
  1552.9000      8.0893      2.5516      0.1573      5.9650    151.5830     27.7106
  1553.0000      8.1061      2.5569      0.1093      5.6434    150.3103     27.1151
  1553.1000      8.1061      2.5865      0.1961      3.8500    148.8759     26.4737
  1553.2000      8.1061      2.6147      0.2122      2.1413    152.8768     25.7125
  1553.3000      8.0874      2.6212      0.1418      1.7469    162.0242     25.6419
  1553.4000      8.0874      2.6145      0.1094      2.1501    167.5784     26.4391
  1553.5000      8.1636      2.6179      0.0793      1.9446    164.0715     27.2181
  1553.6000      8.1636      2.6372      0.1692      0.7784    154.7108     27.5169
  1553.7000      8.1636      2.6545      0.1473     -0.2752    147.7532     27.5858
  1553.8000      8.1973      2.6581      0.1875     -0.4914    147.2964     27.4408
  1553.9000      8.1973      2.6472      0.1400      0.1681    147.0788     26.9206
  1554.0000      8.1983      2.6241      0.1163      1.5689    140.6956     26.0400
  1554.1000      8.1983      2.5999      0.0720      3.0337    132.0736     24.9415
  1554.2000      8.1983      2.5896      0.0347      3.6631    125.0832     24.1925
  1554.3000      8.1625      2.5891      0.0792      3.6924    118.8927     24.2442
  1554.4000      8.1625      2.5867      0.0328      3.8352    112.7723     24.4581
  1554.5000      8.1251      2.5871      0.0782      3.8146    106.6348     24.1289
  1554.6000      8.1251      2.5977      0.0745      3.1707    101.1833     23.7638
  1554.7000      8.1251      2.6141      0.1166      2.1758     97.9406     23.8898
  1554.8000      8.0295      2.6269      0.0520      1.3982     95.5991     24.1722
  1554.9000      8.0295      2.6310      0.0893      1.1496     89.1675     24.4053
  1555.0000      8.0007      2.6235      0.0642      1.6044     81.6172     24.7502
  1555.1000      8.0007      2.6033      0.0921      2.8273     82.4947     24.7952
  1555.2000      8.0007      2.5755      0.1015      4.5167     91.2783     24.0020
  1555.3000      7.9973      2.5560      0.0565      5.6997     97.3976     23.0352
  1555.4000      7.9973      2.5583      0.0035      5.5569     95.2381     22.6334
  1555.5000      7.9962      2.5676      0.0915      4.9926     90.4622     22.5832
  1555.6000      7.9962      2.5583      0.0656      5.5588     89.5770     22.8371
  1555.7000      7.9962      2.5461     -0.0259      6.2995     91.4678     23.2762
