~Version Information
VERS.                      2.0: CWLS Log ASCII Standard - VERSION 2.0
WRAP.                       NO: One line per depth step
~Well Information Block
STRT.FT                -1.5000: 
STOP.FT              1317.0000: 
STEP.FT                 0.2500: 
NULL.                -999.2500: 
COMP.          Pioneer Natural Resources: COMPANY
WELL.              Border 21-3: WELL
FLD.           Purgatoire River: FIELD
LOC.           865' FNL & 1415' FWL: LOCATION
PROV.                 Colorado: PROVINCE
CNTY.               Las Animas: COUNTRY
SRVC.                Patterson: SERVICE COMPANY
DATE.          Tue Dec 14 14:08:05 2004: LOG DATE
UWI.           05 071 08169 00: UNIQUE WELL ID
~Curve Information Block
DEPT.FT            0 000 00 00: Depth
GR.GAPI                       : Gamma Ray
CCL.                          : Casing Collar Locator
TT3.usec                      : CBL 3' Travel Time
AMP3.mV                       : CBL 3' Amplitude
~Parameter Information Block
~A  Depth        GR         CCL         TT3         AMP3    
# ...
  1271.5000     76.4745      0.0000    655.7737      6.1578
  1271.7500     79.6910      0.0000    669.5007      6.1951
  1272.0000     82.5019      0.0000    678.2793      6.2229
  1272.2500     85.0558      0.0000    684.5779      6.2336
  1272.5000     87.9761      0.0000    689.3260      6.2264
  1272.7500     91.9361      0.0000    692.4930      6.2050
  1273.0000     96.7545      0.0000    693.7192      6.1757
  1273.2500    100.8590      0.0000    692.4380      6.1437
  1273.5000    102.2780      0.0000    687.6672      6.1123
  1273.7500    100.4329      0.0000    678.5752      6.0847
  1274.0000     96.6404      0.0000    665.8607      6.0682
  1274.2500     92.9537      0.0000    652.3201      6.0699
  1274.5000     90.8610      0.0000    641.6726      6.0880
  1274.7500     90.7572      0.0000    636.4844      6.1104
  1275.0000     92.0278      0.0000    636.6063      6.1230
  1275.2500     93.4765      0.0000    639.0460      6.1185
  1275.5000     93.8499      0.0000    639.7762      6.0986
  1275.7500     92.2782      0.0000    636.6599      6.0708
  1276.0000     88.7486      0.0000    630.8268      6.0461
  1276.2500     84.3774      0.0000    625.0304      6.0340
  1276.5000     80.8409      0.0000    621.0994      6.0367
  1276.7500     79.1572      0.0000    619.1481      6.0472
  1277.0000     78.9051      0.0000    618.4481      6.0555
  1277.2500     78.6446      0.0000    618.3298      6.0553
  1277.5000     77.2449      0.0000    618.4287      6.0468
  1277.7500     74.8292      0.0000    618.5839      6.0357
  1278.0000     72.3421      0.0000    618.7455      6.0310
  1278.2500     70.4689      0.0000    618.9319      6.0407
  1278.5000     69.3602      0.0000    619.2624      6.0640
  1278.7500     69.1168      0.0000    620.1211      6.0911
  1279.0000     69.8535      0.0000    622.4424      6.1092
  1279.2500     71.2520      0.0000    627.7119      6.1101
  1279.5000     72.6909      0.0000    637.0260      6.0930
  1279.7500     73.9714      0.0000    649.5184      6.0638
  1280.0000     75.2352      0.0000    662.0860      6.0327
  1280.2500     75.9589      0.0000    671.4491      6.0095
  1280.5000     74.9449      0.0000    676.2922      6.0000
  1280.7500     71.8668      0.0000    676.8923      6.0048
  1281.0000     68.1206      0.0000    673.5394      6.0215
  1281.2500     65.5440      0.0000    666.3319      6.0455
  1281.5000     64.6343      0.0000    656.0310      6.0717
  1281.7500     64.3478      0.0000    644.4481      6.0943
  1282.0000     63.4671      0.0000    633.9551      6.1045
  1282.2500     61.9416      0.0000    626.4592      6.0922
  1282.5000     60.8123      0.0000    622.6796      6.0496
  1282.7500     60.8423      0.0000    622.6014      5.9695
  1283.0000     61.5444      0.0000    626.5120      5.8448
  1283.2500     61.8388      0.0000    635.2145      5.6806
  1283.5000     61.3644      0.0000    649.0530      5.5140
  1283.7500     60.6153      0.0000    666.6877      5.4050
  1284.0000     59.9058      0.0000    684.5162      5.3876
  1284.2500     58.8987      0.0000    697.3748      5.4451
  1284.5000     57.3971      0.0000    701.3816      5.5505
  1284.7500     56.0834      0.0000    697.2260      5.7071
  1285.0000     56.0502      0.0000    689.4124      5.9160
  1285.2500     57.8143      2.0000    681.0574      6.1272
  1285.5000     61.0513     -2.0000    671.2230      6.2608
  1285.7500     64.9755     -2.0000    658.9066      6.2727
  1286.0000     68.5667      0.0000    647.6249      6.1903
  1286.2500     70.7632      0.0000    643.4656      6.0889
  1286.5000     71.1199      0.0000    648.3920      6.0286
  1286.7500     70.2633      0.0000    655.8088      6.0032
  1287.0000     69.2524      0.0000    653.4222      5.9626
  1287.2500     68.4996      0.0000    633.5705      5.8935
  1287.5000     67.6698      0.0000    603.1429      5.8512
  1287.7500     66.5466      0.0000    581.2520      5.8918
  1288.0000     65.5950      0.0000    583.5821      6.0057
  1288.2500     65.5952      0.0000    608.8917      6.1358
  1288.5000     66.8762      0.0000    642.3548      6.2368
  1288.7500     68.9579      0.0000    670.2318      6.2990
  1289.0000     70.9083      0.0000    688.4131      6.3325
  1289.2500     71.9482      0.0000    698.8437      6.3473
  1289.5000     71.7186      0.0000    703.2596      6.3465
  1289.7500     70.2485      0.0000    702.4086      6.3310
  1290.0000     67.8438      0.0000    698.3456      6.3033
  1290.2500     64.8674      0.0000    694.2532      6.2696
  1290.5000     61.5833      0.0000    691.9784      6.2374
  1290.7500     58.2245      0.0000    691.2358      6.2123
  1291.0000     55.0986      0.0000    691.4318      6.1970
  1291.2500     52.5553      0.0000    693.1265      6.1914
  1291.5000     50.8624      0.0000    697.0399      6.1928
  1291.7500     50.0472      0.0000    702.3350      6.1952
  1292.0000     49.8763      0.0000    706.7988      6.1908
  1292.2500     50.1472      0.0000    708.7495      6.1749
  1292.5000     50.9522      0.0000    708.3931      6.1480
  1292.7500     52.5764      0.0000    706.8516      6.1125
  1293.0000     55.2517      0.0000    703.9041      6.0719
  1293.2500     59.0481      0.0000    697.9482      6.0342
  1293.5000     63.8366      0.0000    689.5998      6.0131
  1293.7500     69.3176      0.0000    684.2007      6.0208
  1294.0000     75.1869      0.0000    688.1028      6.0573
  1294.2500     81.2066      0.0000    702.2969      6.1104
  1294.5000     86.8977      0.0000    721.3181      6.1645
  1294.7500     91.2146      0.0000    738.1975      6.2090
  1295.0000     92.8585      0.0000    749.2550      6.2379
  1295.2500     91.1263      0.0000    754.6622      6.2494
  1295.5000     86.5619      0.0000    756.0992      6.2480
  1295.7500     80.9499      0.0000    754.4269      6.2434
  1296.0000     76.6563      0.0000    748.8455      6.2417
  1296.2500     75.5410      0.0000    737.7776      6.2380
  1296.5000     77.9602      0.0000    720.9468      6.2201
  1296.7500     82.5638      0.0000    700.8147      6.1832
  1297.0000     87.1751      0.0000    681.5557      6.1368
  1297.2500     90.1618      0.0000    666.3381      6.0973
  1297.5000     91.1610      0.0000    655.8760      6.0737
  1297.7500     90.7612      0.0000    649.2768      6.0612
  1298.0000     89.8235      0.0000    645.4974      6.0509
  1298.2500     89.0040      0.0000    644.0755      6.0410
  1298.5000     88.4524      0.0000    645.3904      6.0376
  1298.7500     87.8021      0.0000    650.4656      6.0433
  1299.0000     86.6006      0.0000    659.7411      6.0523
  1299.2500     84.7859      0.0000    671.4496      6.0573
  1299.5000     82.6584      0.0000    681.8548      6.0594
  1299.7500     80.4628      0.0000    688.1211      6.0671
  1300.0000     78.1053      0.0000    690.8044      6.0852
  1300.2500     75.3131      0.0000    692.8356      6.1084
  1300.5000     72.0891      0.0000    696.0851      6.1251
  1300.7500     68.9006      0.0000    699.1505      6.1288
  1301.0000     66.2409      0.0000    697.7879      6.1227
  1301.2500     64.1053      0.0000    687.4084      6.1166
  1301.5000     62.1974      0.0000    667.0181      6.1184
  1301.7500     60.5227      0.0000    642.5547      6.1286
  1302.0000     59.4036      0.0000    625.1061      6.1398
  1302.2500     58.9358      0.0000    623.0634      6.1414
  1302.5000     58.7086      0.0000    635.1293      6.1253
  1302.7500     58.1531      0.0000    650.4009      6.0796
  1303.0000     57.1489      0.0000    652.3054      5.9705
  1303.2500     56.2845      0.0000    622.1307      5.7316
  1303.5000     56.4099      0.0000    545.6708      5.2941
  1303.7500     57.7476      0.0000    425.0305      4.6562
  1304.0000     59.3931      0.0000    284.7258      3.9285
  1304.2500     59.8686      0.0000    159.7850      3.2813
  1304.5000     58.3335      0.0000     73.6269      2.8335
  1304.7500     55.2630      0.0000     27.4526      2.5924
