~Version Information
 VERS.                                  2.0 : CWLS LAS VERSION
 WRAP.                                   NO : WRAPING MODE
 SWARE .                 MController 2.5.0J : SOFTWARE VERSION
~Well Information
 WELL.                           Ywam 7-23V : WELL
 COMP.                       Petrogulf Corp : COMPANY
 FLD.                      Purgatorie River : FIELD
 LOC.                 NE/SW Sec 7 T33S R67W : LOCATION
 DATE.                          10/29-30/04 : DATE(S) LOGGED
 SRVC.       Blanco Geological Services LLC : SERVICE COMPANY
 STAT.                                   CO : STATE
 CNTY.                           Las Animas : COUNTY
 CTRY.                                  USA : COUNTRY
 API.                       05-071-08227-00 : API NUMBER
 STRT.FT                             634.00 : START DEPTH
 STOP.FT                            2611.00 : STOP DEPTH
 STEP.FT                               1.00 : DEPTH INCREMENT
 NULL.                                -9999 : NULL VALUE
~Curve information
 DEPTH.FT                                   :
 ROP.MIN/FT                                 :
 GAS.UNITS                                  :
~ASCII Log data
# ...
      2234.0         0.43         49.3 
      2235.0         0.43         50.6 
      2236.0         0.47         60.3 
      2237.0         0.43         65.6 
      2238.0         0.45         67.2 
      2239.0         0.40         62.0 
      2240.0         0.40         52.4 
      2241.0         0.40         42.7 
      2242.0         0.30         37.4 
      2243.0         0.40         48.8 
      2244.0         0.47         54.0 
      2245.0         0.50         59.4 
      2246.0         0.42         69.3 
      2247.0         0.43         70.7 
      2248.0         0.40         63.9 
      2249.0         0.33         60.9 
      2250.0         0.43         66.1 
      2251.0         0.53        260.7 
      2252.0         0.30         48.1 
      2253.0         0.53         33.9 
      2254.0         0.55         36.9 
      2255.0         0.47         56.2 
      2256.0         0.53        200.0 
      2257.0         0.37        181.5 
      2258.0         0.63         64.3 
      2259.0         0.43         21.0 
      2260.0         0.50         30.6 
      2261.0         0.58         54.2 
      2262.0         0.47        104.1 
      2263.0         0.53        133.6 
      2264.0         0.47        132.7 
      2265.0         0.33        118.3 
      2266.0         0.37        104.5 
      2267.0         0.50         75.3 
      2268.0         0.58         66.6 
      2269.0         0.53         57.6 
      2270.0         0.53         49.9 
      2271.0         0.47         53.5 
      2272.0         0.47         60.9 
      2273.0         0.47         63.2 
      2274.0         0.47         63.4 
      2275.0         0.48         62.7 
      2276.0         0.53         63.9 
      2277.0         0.53         67.3 
      2278.0         0.60         55.6 
      2279.0         0.70         52.1 
      2280.0         0.55         66.2 
      2281.0         0.53        249.1 
      2282.0         0.50        148.6 
      2283.0         0.80        147.5 
      2284.0         0.60        106.3 
      2285.0         0.73        102.6 
      2286.0         0.68         51.2 
      2287.0         0.60         27.0 
      2288.0         0.63         17.7 
      2289.0         0.50         45.5 
      2290.0         0.63         59.7 
      2291.0         0.58         82.4 
      2292.0         0.63         83.5 
      2293.0         0.70         85.5 
      2294.0         0.77         73.5 
      2295.0         0.83         60.7 
      2296.0         0.88         57.2 
      2297.0         0.83         55.6 
      2298.0         0.93         53.7 
      2299.0         0.92         52.6 
      2300.0         0.67         52.1 
      2301.0         0.67         64.4 
      2302.0         0.57         65.8 
      2303.0         0.67         59.9 
      2304.0         0.53         37.7 
      2305.0         0.55         61.9 
      2306.0         0.53         79.3 
      2307.0         0.53         68.0 
      2308.0         0.70         49.4 
      2309.0         0.73         61.0 
      2310.0         0.62         77.4 
      2311.0         0.53        262.0 
      2312.0         0.30         36.9 
      2313.0         0.43         68.1 
      2314.0         0.37         76.0 
      2315.0         0.47         76.1 
      2316.0         0.52         54.8 
      2317.0         0.47         69.7 
      2318.0         0.43         78.1 
      2319.0         0.43         80.3 
      2320.0         0.43         71.6 
      2321.0         0.33         36.9 
      2322.0         0.37         24.1 
      2323.0         0.47         34.5 
      2324.0         0.45         64.4 
      2325.0         0.43         81.5 
      2326.0         0.40         89.6 
      2327.0         0.40         92.8 
      2328.0         0.40         80.6 
      2329.0         0.37         64.7 
      2330.0         0.30         57.5 
      2331.0         0.30         57.0 
      2332.0         0.37         57.5 
      2333.0         0.38         63.5 
      2334.0         0.40         70.2 
      2335.0         0.43         69.6 
      2336.0         0.43         62.7 
      2337.0         0.47         61.5 
      2338.0         0.50         63.8 
      2339.0         0.50         60.3 
      2340.0         0.52        272.4 
      2341.0         0.27        142.8 
      2342.0         0.40        137.3 
      2343.0         0.70        117.8 
      2344.0         0.63         69.2 
      2345.0         0.92         68.9 
      2346.0         0.63        100.1 
      2347.0         0.70         86.5 
      2348.0         0.53         26.4 
      2349.0         0.50         19.2 
      2350.0         0.40         17.2 
      2351.0         0.38         16.1 
      2352.0         0.27         14.1 
      2353.0         0.30         15.5 
      2354.0         0.27         18.8 
      2355.0         0.30         33.1 
      2356.0         0.33         57.9 
      2357.0         0.37         75.6 
      2358.0         0.37         87.1 
      2359.0         0.40        109.7 
      2360.0         0.30        111.1 
      2361.0         0.32        100.1 
      2362.0         0.40         93.8 
      2363.0         0.40         77.4 
      2364.0         0.37         84.7 
      2365.0         0.37         90.8 
      2366.0         0.33         79.5 
      2367.0         0.43         77.8 
      2368.0         0.30         53.7 
      2369.0         0.43         48.5 
      2370.0         0.48        302.1 
      2371.0         0.23         83.4 
      2372.0         0.20         83.4 
      2373.0         0.73        115.3 
      2374.0         0.70        108.8 
      2375.0         0.75         77.2 
      2376.0         0.67         54.8 
      2377.0         0.50         48.0 
      2378.0         0.43         48.7 
      2379.0         0.47         44.6 
      2380.0         0.47         66.1 
      2381.0         0.47         80.0 
      2382.0         0.45         79.7 
      2383.0         0.47         71.3 
      2384.0         0.47         63.4 
      2385.0         0.50         53.5 
      2386.0         0.47         50.3 
      2387.0         0.50         44.3 
      2388.0         0.60         37.6 
      2389.0         0.55         40.7 
      2390.0         0.57         38.3 
      2391.0         0.53         47.3 
      2392.0         0.57         48.5 
      2393.0         0.57         43.9 
      2394.0         0.60         45.1 
      2395.0         0.55         43.3 
      2396.0         0.57         53.3 
      2397.0         0.53         59.7 
      2398.0         0.50         60.2 
      2399.0         0.57         57.1 
      2400.0         0.63         53.1 
      2401.0         0.58        315.9 
      2402.0         0.27        287.2 
      2403.0         0.20        265.9 
      2404.0         0.53        206.5 
      2405.0         0.30        103.5 
      2406.0         0.67         63.5 
      2407.0         0.53        105.6 
      2408.0         0.50        137.8 
      2409.0         0.45        135.4 
      2410.0         0.50        115.2 
      2411.0         0.53         85.8 
      2412.0         0.50         94.3 
      2413.0         0.43         91.7 
      2414.0         0.43         77.0 
      2415.0         0.50         55.4 
      2416.0         0.52         31.4 
      2417.0         0.53         21.7 
      2418.0         0.60         21.9 
      2419.0         0.47         19.4 
      2420.0         0.60         23.8 
      2421.0         0.63         49.3 
      2422.0         0.68         57.0 
      2423.0         0.67         52.1 
      2424.0         0.70         52.3 
      2425.0         0.83         64.8 
      2426.0         0.95         60.8 
      2427.0         0.93         50.6 
      2428.0         0.90         67.6 
      2429.0         0.83         67.2 
      2430.0         0.82         61.5 
      2431.0         0.77        296.9 
      2432.0         0.57        326.9 
      2433.0         0.37        293.0 
