~Version Information
VERS.                      2.0: CWLS Log ASCII Standard - VERSION 2.0
WRAP.                       NO: One line per depth step
~Well Information Block
STRT.FT                -9.2500: 
STOP.FT              2685.7500: 
STEP.FT                 0.2500: 
NULL.                -999.2500: 
COMP.          Pioneer Natural Resources: COMPANY
WELL.          Beacon 11-18 Tr: WELL
FLD.           Purgatorie River: FIELD
LOC.           409' FNL & 203' FWL--: LOCATION
PROV.                       CO: PROVINCE
CNTY.               Las Animas: COUNTRY
SRVC.                         : SERVICE COMPANY
DATE.          Fri Jan 21 09:45:44 2005: LOG DATE
UWI.        005 071 08251  : UNIQUE WELL ID
~Curve Information Block
DEPT.FT            0 000 00 00: Depth
CCL.                          : Casing Collar Locator
TT3.usec                      : CBL 3' Travel Time
AMP3.mV                       : CBL 3' Amplitude
GR.GAPI                       : Gamma Ray
~Parameter Information Block
~A  Depth       CCL         TT3         AMP3         GR     
# ...
  2268.7500      0.0000    729.1784      5.5475    124.6606
  2269.0000      0.0000    729.1319      5.3120    118.4147
  2269.2500      0.0000    729.7254      5.3424    113.7248
  2269.5000      0.0000    730.7721      5.6747    111.1871
  2269.7500      0.0000    730.4357      6.2664    110.3386
  2270.0000      0.0000    725.1041      6.9933    110.4653
  2270.2500      0.0000    711.2513      7.6979    111.5151
  2270.5000      0.0000    689.9176      8.2437    114.0026
  2270.7500      0.0000    669.8079      8.5514    117.6819
  2271.0000      0.0000    662.8911      8.6064    120.8111
  2271.2500      0.0000    673.8341      8.4394    121.6833
  2271.5000      0.0000    694.8225      8.0945    120.7332
  2271.7500      0.0000    712.3901      7.6130    120.1658
  2272.0000      0.0000    716.9991      7.0372    121.3934
  2272.2500      0.0000    704.9328      6.4166    123.4322
  2272.5000      0.0000    675.6438      5.8022    123.8833
  2272.7500      0.0000    632.2769      5.2399    121.2920
  2273.0000      0.0000    583.7651      4.7644    116.6077
  2273.2500      0.0000    541.5774      4.3900    112.3307
  2273.5000      0.0000    511.8813      4.0958    110.2521
  2273.7500      0.0000    492.3900      3.8300    110.2870
  2274.0000      0.0000    478.2077      3.5416    111.5195
  2274.2500      0.0000    469.5345      3.2242    113.8144
  2274.5000      0.0000    471.6574      2.9362    117.9239
  2274.7500      0.0000    486.9716      2.7734    124.1101
  2275.0000      0.0000    507.8298      2.8062    131.0639
  2275.2500      0.0000    519.1763      3.0318    136.3498
  2275.5000      0.0000    510.3456      3.3877    137.8279
  2275.7500      0.0000    484.0859      3.8013    134.8334
  2276.0000      0.0000    452.8434      4.2160    128.5051
  2276.2500      0.0000    427.6601      4.5762    121.2244
  2276.5000      0.0000    412.0436      4.8058    115.3375
  2276.7500     -2.0000    404.0706      4.8315    111.7480
  2277.0000      0.0000    400.8372      4.6406    109.4111
  2277.2500      0.0000    400.6948      4.3143    106.4170
  2277.5000      0.0000    403.2907      3.9925    102.0134
  2277.7500      0.0000    408.6025      3.7962     97.7313
  2278.0000      0.0000    415.7121      3.7694     96.2155
  2278.2500      0.0000    422.4585      3.8708     98.7625
  2278.5000      0.0000    426.6354      4.0108    104.4288
  2278.7500      0.0000    427.5354      4.1070    111.4811
  2279.0000      0.0000    426.0819      4.1339    118.6108
  2279.2500      0.0000    423.7301      4.1344    124.3514
  2279.5000      0.0000    421.5540      4.1721    126.7380
  2279.7500      0.0000    419.9939      4.2676    124.7582
  2280.0000      0.0000    418.9585      4.3949    119.7362
  2280.2500      0.0000    418.1111      4.5311    114.5404
  2280.5000      0.0000    417.1696      4.6807    111.4927
  2280.7500      0.0000    416.0123      4.8521    111.1937
  2281.0000      0.0000    414.6181      5.0352    112.9579
  2281.2500      0.0000    413.0050      5.2017    115.8080
  2281.5000      0.0000    411.1969      5.3115    119.0149
  2281.7500      0.0000    409.1674      5.3281    122.1812
  2282.0000      0.0000    406.8174      5.2511    125.0675
  2282.2500      0.0000    404.0596      5.1294    127.1226
  2282.5000      0.0000    400.9751      5.0171    127.2351
  2282.7500      0.0000    397.8781      4.9225    124.5013
  2283.0000      0.0000    395.1862      4.8172    119.3935
  2283.2500      0.0000    393.2323      4.6858    113.7326
  2283.5000      0.0000    392.3189      4.5434    109.3806
  2283.7500      0.0000    393.1898      4.4108    107.0717
  2284.0000      0.0000    397.5467      4.2959    106.2196
  2284.2500      0.0000    407.7023      4.1973    105.5781
  2284.5000      0.0000    424.5344      4.1130    104.5276
  2284.7500      0.0000    445.1103      4.0449    104.0664
  2285.0000      0.0000    463.4555      4.0061    106.1389
  2285.2500      0.0000    475.5278      4.0210    111.6803
  2285.5000      0.0000    483.7882      4.1162    119.6322
  2285.7500      0.0000    495.8801      4.3058    127.9408
  2286.0000      0.0000    518.3459      4.5749    135.0533
  2286.2500      0.0000    551.4337      4.8663    140.1928
  2286.5000      0.0000    589.4216      5.0993    142.5911
  2286.7500      0.0000    625.0715      5.2194    141.3138
  2287.0000      0.0000    653.0402      5.2276    136.3699
  2287.2500      0.0000    669.5159      5.1510    129.6485
  2287.5000      0.0000    670.5170      5.0051    123.9787
  2287.7500      0.0000    652.5901      4.8004    121.0519
  2288.0000      0.0000    616.7733      4.5665    120.4269
  2288.2500      0.0000    572.0309      4.3489    120.3609
  2288.5000      0.0000    532.6438      4.1887    119.2601
  2288.7500      0.0000    510.2005      4.1203    116.3685
  2289.0000      0.0000    507.9178      4.1653    111.3880
  2289.2500      0.0000    522.2858      4.3051    104.0654
  2289.5000      0.0000    548.0630      4.4680     94.8230
  2289.7500      0.0000    580.2661      4.5740     85.6863
  2290.0000      0.0000    613.0188      4.5957     79.7270
  2290.2500      0.0000    639.5419      4.5614     79.0407
  2290.5000      0.0000    654.3178      4.5120     83.3041
  2290.7500      0.0000    654.4170      4.4742     90.2289
  2291.0000      0.0000    639.2515      4.4593     97.2230
  2291.2500      0.0000    611.1095      4.4616    102.8085
  2291.5000      0.0000    576.3038      4.4605    107.0071
  2291.7500      0.0000    543.6048      4.4382    110.7640
  2292.0000      0.0000    519.7677      4.3884    114.8729
  2292.2500      0.0000    506.5308      4.3116    119.2080
  2292.5000      0.0000    501.7694      4.2180    122.9257
  2292.7500      0.0000    502.4926      4.1372    125.3354
  2293.0000      0.0000    506.3967      4.1047    126.4758
  2293.2500      0.0000    511.7382      4.1264    127.0088
  2293.5000      0.0000    517.6096      4.1663    127.6717
  2293.7500      0.0000    524.9178      4.1842    128.5660
  2294.0000      0.0000    535.3539      4.1861    128.9039
  2294.2500      0.0000    547.7805      4.2222    127.8536
  2294.5000      0.0000    556.9489      4.3321    125.7286
  2294.7500      0.0000    557.8367      4.4975    123.9321
  2295.0000      0.0000    550.4495      4.6471    123.5984
  2295.2500      0.0000    539.0267      4.7028    124.5360
  2295.5000      0.0000    527.6729      4.6377    125.5458
  2295.7500      0.0000    518.0098      4.5058    125.4662
  2296.0000      0.0000    510.0721      4.4032    123.9034
  2296.2500      0.0000    503.8391      4.3878    121.4213
  2296.5000      0.0000    499.5366      4.4408    119.3442
  2296.7500      0.0000    497.1479      4.5123    118.9825
  2297.0000      0.0000    496.2170      4.5850    120.3933
  2297.2500      0.0000    496.1222      4.6756    121.9448
  2297.5000      0.0000    496.3759      4.7783    121.6419
  2297.7500      0.0000    496.6508      4.8355    118.9098
  2298.0000      0.0000    496.6651      4.7839    114.8276
  2298.2500      0.0000    496.0997      4.6207    111.0190
  2298.5000      0.0000    494.6876      4.4101    108.9383
  2298.7500      0.0000    492.5891      4.2325    109.7646
  2299.0000      0.0000    490.7437      4.1458    113.8514
  2299.2500      0.0000    490.5296      4.1787    119.9469
  2299.5000      0.0000    492.6961      4.3256    125.5791
  2299.7500      0.0000    496.7594      4.5407    128.5198
  2300.0000      0.0000    501.4909      4.7641    128.0218
  2300.2500      0.0000    505.4043      4.9646    125.2050
  2300.5000      0.0000    506.3108      5.1459    122.5118
  2300.7500      0.0000    501.1291      5.3049    122.0627
  2301.0000      0.0000    487.5174      5.3992    123.9937
  2301.2500      0.0000    466.4146      5.3758    126.7018
  2301.5000      0.0000    442.6111      5.2338    128.6796
  2301.7500      0.0000    422.0843      5.0490    129.5492
  2302.0000      0.0000    408.3971      4.9251    129.5228
