~Version Information
VERS.                      2.0: CWLS Log ASCII Standard - VERSION 2.0
WRAP.                       NO: One line per depth step
~Well Information Block
STRT.FT               954.0000: 
STOP.FT              2517.0000: 
STEP.FT                 0.2500: 
NULL.                -999.2500: 
COMP.          Petrogulf Corporation: COMPANY
WELL.             Royal 8-33 V: WELL
FLD.           Purgatoire River: FIELD
LOC.           2365' FSL & 2336' FEL: LOCATION
PROV.                 Colorado: PROVINCE
CNTY.               Las Animas: COUNTRY
SRVC.                Patterson: SERVICE COMPANY
DATE.          Fri Dec 05 04:39:41 2003: LOG DATE
UWI.                          : UNIQUE WELL ID
~Curve Information Block
DEPT.FT            0 000 00 00: Depth
SP.mV                         : DIL Spontaneous Potential
RILD.Ohm-m                    : DIL Deep Resistivity
RILM.Ohm-m                    : DIL Medium Resistivity
RLL3.Ohm-m                    : DIL Shallow Resistivity
GR.GAPI                       : Gamma Ray
~Parameter Information Block
~A  Depth        SP         RILD        RILM        RLL3         GR     
# ...
  2102.0000    -77.8073     11.6814     14.6674     17.1423    103.7706
  2102.2500    -77.4060     11.6344     14.8850     18.7871    104.5348
  2102.5000    -76.9809     11.6441     15.0617     20.9647    102.0401
  2102.7500    -76.4949     11.7192     15.1645     22.9342     97.8509
  2103.0000    -75.8935     11.8685     15.1972     23.7048     89.5910
  2103.2500    -75.1400     12.0963     15.2056     22.8272     84.3955
  2103.5000    -74.2391     12.3978     15.2627     20.8703     78.9208
  2103.7500    -73.2308     12.7557     15.4434     19.0355     76.8815
  2104.0000    -72.1557     13.1413     15.8004     18.3081     75.3985
  2104.2500    -71.0245     13.5200     16.3490     18.9341     75.0063
  2104.5000    -69.8219     13.8601     17.0575     20.5160     74.8785
  2104.7500    -68.5413     14.1426     17.8464     22.4455     74.9914
  2105.0000    -67.2256     14.3662     18.6055     24.2643     75.5167
  2105.2500    -65.9956     14.5447     19.2312     25.7285     76.1845
  2105.5000    -65.0483     14.6949     19.6688     26.6541     77.5507
  2105.7500    -64.6142     14.8244     19.9290     26.8350     78.5859
  2106.0000    -64.8823     14.9262     20.0658     26.2037     80.5531
  2106.2500    -65.9220     14.9849     20.1381     25.0448     82.4613
  2106.5000    -67.6386     14.9888     20.1820     23.9464     86.1771
  2106.7500    -69.7868     14.9375     20.2011     23.4573     88.5829
  2107.0000    -72.0377     14.8411     20.1631     23.7373     90.7082
  2107.2500    -74.0760     14.7148     20.0046     24.4680     90.8902
  2107.5000    -75.6898     14.5737     19.6558     25.0581     90.3104
  2107.7500    -76.8189     14.4319     19.0872     24.9893     90.3010
  2108.0000    -77.5408     14.3034     18.3479     24.0710     91.7481
  2108.2500    -78.0065     14.2008     17.5561     22.4657     93.4696
  2108.5000    -78.3708     14.1335     16.8476     20.5521     96.1076
  2108.7500    -78.7530     14.1063     16.3239     18.7674     97.3743
  2109.0000    -79.2267     14.1211     16.0294     17.4816     98.2569
  2109.2500    -79.8174     14.1790     15.9564     16.8987     98.3017
  2109.5000    -80.4941     14.2809     16.0644     17.0163     97.9184
  2109.7500    -81.1671     14.4244     16.3047     17.6576     97.5717
  2110.0000    -81.7165     14.6010     16.6431     18.5713     97.3657
  2110.2500    -82.0573     14.7976     17.0713     19.5917     97.6586
  2110.5000    -82.1988     15.0038     17.6043     20.7949     98.5443
  2110.7500    -82.2291     15.2192     18.2649     22.4985     98.9695
  2111.0000    -82.2274     15.4557     19.0616     25.0373     98.5519
  2111.2500    -82.1983     15.7327     19.9683     28.4394     97.2410
  2111.5000    -82.0883     16.0685     20.9146     32.2091     93.3716
  2111.7500    -81.8503     16.4739     21.7968     35.3963     89.6625
  2112.0000    -81.4957     16.9498     22.5118     37.0228     83.7000
  2112.2500    -81.1021     17.4864     22.9987     36.6642     80.5544
  2112.5000    -80.7751     18.0618     23.2643     34.7335     78.3175
  2112.7500    -80.5955     18.6383     23.3788     32.1922     78.5239
  2113.0000    -80.5871     19.1624     23.4518     29.9387     80.7335
  2113.2500    -80.7104     19.5734     23.6018     28.3807     82.9411
  2113.5000    -80.8754     19.8209     23.9270     27.4487     86.1950
  2113.7500    -80.9711     19.8871     24.4831     26.9401     87.5661
  2114.0000    -80.9085     19.7983     25.2704     26.9623     87.5325
  2114.2500    -80.6541     19.6122     26.2310     28.3145     86.0524
  2114.5000    -80.2289     19.3845     27.2435     32.6151     82.1292
  2114.7500    -79.6737     19.1402     28.1135     41.7801     78.8105
  2115.0000    -79.0010     18.8729     28.5819     56.3873     73.6922
  2115.2500    -78.1667     18.5737     28.4059     73.4970     70.7812
  2115.5000    -77.0836     18.2557     27.5070     86.3531     67.9161
  2115.7500    -75.6698     17.9529     26.0616     88.0677     67.1108
  2116.0000    -73.9024     17.6947     24.4115     77.0667     67.3808
  2116.2500    -71.8401     17.4855     22.8810     58.6927     68.4233
  2116.5000    -69.6122     17.2997     21.6620     40.9527     70.9416
  2116.7500    -67.3952     17.0952     20.8066     28.9744     72.8535
  2117.0000    -65.3945     16.8351     20.2689     23.2562     75.3543
  2117.2500    -63.8285     16.5055     19.9515     21.6368     76.6347
  2117.5000    -62.9028     16.1207     19.7441     21.7772     78.1187
  2117.7500    -62.7737     15.7137     19.5590     22.2644     78.8834
  2118.0000    -63.5098     15.3214     19.3526     22.5697     79.6970
  2118.2500    -65.0655     14.9748     19.1265     22.6448     80.1239
  2118.5000    -67.2727     14.6957     18.9081     22.5750     81.0923
  2118.7500    -69.8608     14.4951     18.7270     22.4078     82.3692
  2119.0000    -72.5107     14.3735     18.6027     22.1320     85.8288
  2119.2500    -74.9310     14.3227     18.5444     21.7487     89.1277
  2119.5000    -76.9242     14.3303     18.5542     21.3443     94.3712
  2119.7500    -78.4126     14.3835     18.6285     21.0786     97.0024
  2120.0000    -79.4208     14.4718     18.7535     21.0750     98.5301
  2120.2500    -80.0349     14.5880     18.9034     21.3167     98.1151
  2120.5000    -80.3629     14.7248     19.0454     21.6601     96.7293
  2120.7500    -80.5087     14.8720     19.1538     21.9538     96.2794
  2121.0000    -80.5610     15.0165     19.2280     22.1497     97.4042
  2121.2500    -80.5978     15.1462     19.3002     22.3150     99.1568
  2121.5000    -80.7036     15.2550     19.4210     22.5482    101.3641
  2121.7500    -80.9871     15.3414     19.6297     22.8829    101.2593
  2122.0000    -81.5758     15.4037     19.9264     23.2597     98.3235
  2122.2500    -82.5704     15.4391     20.2706     23.5725     95.6051
  2122.5000    -83.9881     15.4483     20.6111     23.7386     92.5934
  2122.7500    -85.7449     15.4404     20.9221     23.7344     91.6163
  2123.0000    -87.6954     15.4302     21.2076     23.5744     90.7965
  2123.2500    -89.6934     15.4271     21.4604     23.2848     90.2841
  2123.5000    -91.6231     15.4266     21.6238     22.9298     89.9371
  2123.7500    -93.3936     15.4121     21.6093     22.6391     90.3835
  2124.0000    -94.9203     15.3680     21.3674     22.5284     92.0655
  2124.2500    -96.1186     15.2919     20.9348     22.5620     93.4182
  2124.5000    -96.9224     15.1944     20.4022     22.5404     94.9617
  2124.7500    -97.3224     15.0891     19.8489     22.2530     95.4998
  2125.0000    -97.3904     14.9811     19.3175     21.6294     95.8126
  2125.2500    -97.2581     14.8631     18.8370     20.7598     95.8812
  2125.5000    -97.0593     14.7168     18.4456     19.8313     95.9035
  2125.7500    -96.8722     14.5170     18.1856     19.0655     95.8909
  2126.0000    -96.6827     14.2373     18.0786     18.6797     96.0335
  2126.2500    -96.3757     13.8583     18.0990     18.8665     96.5136
  2126.5000    -95.7620     13.3789     18.1562     19.7615     98.2260
  2126.7500    -94.6429     12.8215     18.0972     21.3129     99.7614
  2127.0000    -92.8992     12.2256     17.7527     23.0634    101.0603
  2127.2500    -90.5682     11.6318     17.0320     24.1269    100.4537
  2127.5000    -87.8621     11.0677     15.9937     23.6492     98.0243
  2127.7500    -85.1084     10.5429     14.8095     21.4942     96.8601
  2128.0000    -82.6385     10.0551     13.6550     18.4314     97.8990
  2128.2500    -80.6803      9.5982     12.6348     15.5552    100.5416
  2128.5000    -79.2998      9.1664     11.7778     13.5400    105.9035
  2128.7500    -78.4114      8.7538     11.0666     12.4130    109.1612
  2129.0000    -77.8511      8.3545     10.4672     11.8378    111.8220
  2129.2500    -77.4743      7.9643      9.9464     11.4694    111.6833
  2129.5000    -77.2203      7.5844      9.4804     11.1151    109.2115
  2129.7500    -77.1082      7.2221      9.0559     10.7314    107.0667
