~Version Information
VERS.                      2.0: CWLS Log ASCII Standard - VERSION 2.0
WRAP.                       NO: One line per depth step
~Well Information Block
STRT.FT               494.2500: 
STOP.FT              1992.0000: 
STEP.FT                 0.2500: 
NULL.                -999.2500: 
COMP.          Petrogulf Corporation: COMPANY
WELL.               Furu 6-23R: WELL
FLD.           Purgatoire River: FIELD
LOC.           2211' FSL & 1780' FWL--: LOCATION
CNTY.               Las Animas: COUNTY
SRVC.                Patterson: SERVICE COMPANY
DATE.          Wed Jun 21 14:57:59 2006: LOG DATE
UWI.           05 071 08266 00: UNIQUE WELL ID
STAT.                 Colorado: STATE
~Curve Information Block
DEPT.FT            0 000 00 00: Depth
GR.GAPI                       : Gamma Ray
RILD.Ohm-m                    : DIL Deep Resistivity
RILM.Ohm-m                    : DIL Medium Resistivity
RLL3.Ohm-m                    : DIL Shallow Resistivity
SP.mV                         : DIL Spontaneous Potential
~Parameter Information Block
~A  Depth        GR         RILD        RILM        RLL3         SP     
# ...
   606.2500    114.3037     20.9671     21.7409   2000.0000   2020.0000
   606.5000    119.2648     21.0882     21.7039   2000.0000   2020.0000
   606.7500    122.6582     21.1512     21.6511   2000.0000   2020.0000
   607.0000    126.8209     21.1455     21.5919   2000.0000   2020.0000
   607.2500    128.8496     21.0744     21.5121   2000.0000   2020.0000
   607.5000    131.2526     20.9580     21.3869   2000.0000   2020.0000
   607.7500    132.8950     20.8285     21.1997   2000.0000   2020.0000
   608.0000    136.0647     20.7199     20.9547   2000.0000   2020.0000
   608.2500    138.6183     20.6576     20.6747   2000.0000   2020.0000
   608.5000    142.0598     20.6531     20.3894   2000.0000   2020.0000
   608.7500    143.1809     20.7046     20.1256   2000.0000   2020.0000
   609.0000    142.2175     20.8007     19.9043   2000.0000   2020.0000
   609.2500    140.1586     20.9254     19.7428   2000.0000   2020.0000
   609.5000    136.5637     21.0631     19.6551   2000.0000   2020.0000
   609.7500    134.6233     21.2041     19.6498   2000.0000   2020.0000
   610.0000    132.7150     21.3488     19.7277   2000.0000   2020.0000
   610.2500    131.9710     21.5050     19.8811   2000.0000   2020.0000
   610.5000    131.7244     21.6826     20.0962   2000.0000   2020.0000
   610.7500    132.3909     21.8865     20.3569   2000.0000   2020.0000
   611.0000    134.6324     22.1144     20.6522   2000.0000   2020.0000
   611.2500    136.4036     22.3563     20.9868   2000.0000   2020.0000
   611.5000    138.0610     22.5973     21.3876   2000.0000   2020.0000
   611.7500    137.9848     22.8246     21.8994   2000.0000   2020.0000
   612.0000    136.2864     23.0351     22.5689   2000.0000   2020.0000
   612.2500    134.4917     23.2357     23.4247   2000.0000   2020.0000
   612.5000    131.0186     23.4336     24.4592   2000.0000   2020.0000
   612.7500    128.0262     23.6249     25.6166   2000.0000   2020.0000
   613.0000    122.6864     23.7948     26.7903   2000.0000   2020.0000
   613.2500    119.2380     23.9310     27.8420   2000.0000   2020.0000
   613.5000    115.7991     24.0391     28.6460   2000.0000   2020.0000
   613.7500    115.1446     24.1462     29.1409   2000.0000   2020.0000
   614.0000    116.1033     24.2898     29.3500   2000.0000   2020.0000
   614.2500    117.2340     24.5020     29.3533   2000.0000   2020.0000
   614.5000    118.4510     24.7983     29.2348   2000.0000   2020.0000
   614.7500    118.7171     25.1772     29.0470   2000.0000   2020.0000
   615.0000    118.9191     25.6269     28.8080   2000.0000   2020.0000
   615.2500    119.6055     26.1332     28.5300   2000.0000   2020.0000
   615.5000    122.1621     26.6841     28.2564   2000.0000   2020.0000
   615.7500    124.6000     27.2737     28.0810   2000.0000   2020.0000
   616.0000    127.7828     27.9059     28.1327   2000.0000   2020.0000
   616.2500    128.4633     28.5952     28.5361   2000.0000   2020.0000
   616.5000    125.9441     29.3638     29.3771   2000.0000   2020.0000
   616.7500    121.7482     30.2359     30.6915   2000.0000   2020.0000
   617.0000    112.4301     31.2337     32.4748   2000.0000   2020.0000
   617.2500    104.8935     32.3784     34.7051   2000.0000   2020.0000
   617.5000     92.8718     33.6911     37.3636   2000.0000   2020.0000
   617.7500     85.1907     35.1909     40.4382   2000.0000   2020.0000
   618.0000     75.5046     36.8893     43.9068   2000.0000   2020.0000
   618.2500     70.7667     38.7816     47.7082   2000.0000   2020.0000
   618.5000     66.4039     40.8339     51.7271   2000.0000   2020.0000
   618.7500     65.1466     42.9635     55.8129   2000.0000   2020.0000
   619.0000     65.0713     45.0194     59.8228   2000.0000   2020.0000
   619.2500     65.5526     46.7786     63.6332   2000.0000   2020.0000
   619.5000     65.7074     47.9873     67.0590   2000.0000   2020.0000
   619.7500     65.0134     48.4498     69.7311   2000.0000   2020.0000
   620.0000     63.3628     48.1214     71.0769   2000.0000   2020.0000
   620.2500     62.7239     47.1268     70.5305   2000.0000   2020.0000
   620.5000     63.8576     45.6875     67.8812   2000.0000   2020.0000
   620.7500     66.5162     44.0211     63.4710   2000.0000   2020.0000
   621.0000     73.7949     42.2820     58.0441   2000.0000   2020.0000
   621.2500     80.7904     40.5567     52.4007   2000.0000   2020.0000
   621.5000     93.5529     38.8849     47.1342   2000.0000   2020.0000
   621.7500    102.6006     37.2836     42.5613   2000.0000   2020.0000
   622.0000    115.2532     35.7647     38.7798   2000.0000   2020.0000
   622.2500    122.3253     34.3410     35.7533   2000.0000   2020.0000
   622.5000    130.2808     33.0219     33.3769   2000.0000   2020.0000
   622.7500    133.9007     31.8055     31.5160   2000.0000   2020.0000
   623.0000    137.4651     30.6763     30.0308   2000.0000   2020.0000
   623.2500    139.0419     29.6139     28.7955   2000.0000   2020.0000
   623.5000    140.9874     28.6063     27.7147   2000.0000   2020.0000
   623.7500    142.4757     27.6609     26.7347   2000.0000   2020.0000
   624.0000    145.3617     26.8028     25.8429   2000.0000   2020.0000
   624.2500    147.4496     26.0636     25.0558   2000.0000   2020.0000
   624.5000    149.9951     25.4659     24.3989   2000.0000   2020.0000
   624.7500    151.0551     25.0116     23.8884   2000.0000   2020.0000
   625.0000    151.9451     24.6774     23.5201   2000.0000   2020.0000
   625.2500    152.4998     24.4171     23.2703   2000.0000   2020.0000
   625.5000    154.1494     24.1708     23.1049   2000.0000   2020.0000
   625.7500    156.0447     23.8804     22.9891   2000.0000   2020.0000
   626.0000    159.3364     23.5065     22.8916   2000.0000   2020.0000
   626.2500    160.8719     23.0374     22.7820   2000.0000   2020.0000
   626.5000    161.2415     22.4891     22.6286   2000.0000   2020.0000
   626.7500    160.6788     21.8975     22.4030   2000.0000   2020.0000
   627.0000    160.3856     21.3085     22.0879   2000.0000   2020.0000
   627.2500    161.0845     20.7681     21.6817   2000.0000   2020.0000
   627.5000    162.7001     20.3129     21.1974   2000.0000   2020.0000
   627.7500    163.3229     19.9624     20.6585   2000.0000   2020.0000
   628.0000    163.0747     19.7153     20.0959   2000.0000   2020.0000
   628.2500    162.5095     19.5507     19.5462   2000.0000   2020.0000
   628.5000    161.6696     19.4355     19.0462   2000.0000   2020.0000
   628.7500    160.8981     19.3343     18.6267   2000.0000   2020.0000
   629.0000    158.5665     19.2188     18.3065   2000.0000   2020.0000
   629.2500    156.1233     19.0744     18.0905   2000.0000   2020.0000
   629.5000    151.8919     18.9006     17.9699   2000.0000   2020.0000
   629.7500    149.1821     18.7072     17.9244   2000.0000   2020.0000
   630.0000    145.5226     18.5080     17.9265   2000.0000   2020.0000
   630.2500    143.3711     18.3167     17.9489   2000.0000   2020.0000
   630.5000    140.9956     18.1457     17.9736   2000.0000   2020.0000
   630.7500    140.3445     18.0067     17.9970   2000.0000   2020.0000
   631.0000    140.9507     17.9102     18.0269   2000.0000   2020.0000
   631.2500    142.1209     17.8628     18.0753   2000.0000   2020.0000
   631.5000    144.1065     17.8629     18.1496   2000.0000   2020.0000
   631.7500    145.1029     17.8992     18.2493   2000.0000   2020.0000
   632.0000    145.9442     17.9524     18.3647   2000.0000   2020.0000
   632.2500    146.3359     18.0014     18.4788   2000.0000   2020.0000
   632.5000    146.9792     18.0296     18.5713   2000.0000   2020.0000
   632.7500    147.2463     18.0288     18.6234   2000.0000   2020.0000
   633.0000    146.9362     17.9992     18.6220   2000.0000   2020.0000
   633.2500    146.3310     17.9478     18.5632   2000.0000   2020.0000
   633.5000    145.3063     17.8882     18.4527   2000.0000   2020.0000
   633.7500    144.5633     17.8386     18.3045   2000.0000   2020.0000
   634.0000    142.9550     17.8172     18.1382   2000.0000   2020.0000
