~Version Information
VERS.                      2.0: CWLS Log ASCII Standard - VERSION 2.0
WRAP.                       NO: One line per depth step
~Well Information Block
STRT.FT                -9.7500: 
STOP.FT              2612.5000: 
STEP.FT                 0.2500: 
NULL.                -999.2500: 
COMP.                         : COMPANY
WELL.                         : WELL
FLD.                          : FIELD
LOC.                          : LOCATION
CNTY.                         : COUNTY
SRVC.                         : SERVICE COMPANY
DATE.          Mon Nov 17 14:56:03 2003: LOG DATE
UWI.                          : UNIQUE WELL ID
STAT.                         : STATE
~Curve Information Block
DEPT.FT            0 000 00 00: Depth
CCL.                          : Casing Collar Locator
TT3.usec                      : CBL 3' Travel Time
AMP3.mV                       : CBL 3' Amplitude
GR.GAPI                       : Gamma Ray
~Parameter Information Block
~A  Depth       CCL         TT3         AMP3         GR     
# ...
  2234.7500      0.0000    262.7176     71.0076    121.3865
  2235.0000      0.0000    262.7586     70.7826    121.7665
  2235.2500      0.0000    262.7615     70.7186    123.5287
  2235.5000      0.0000    262.7200     70.8820    125.2656
  2235.7500      0.0000    262.6545     71.2021    126.0743
  2236.0000      0.0000    262.6006     71.5081    125.9509
  2236.2500      0.0000    262.5797     71.6738    125.5272
  2236.5000      0.0000    262.5808     71.7196    125.5746
  2236.7500      0.0000    262.5728     71.7695    126.5175
  2237.0000      0.0000    262.5363     71.9177    128.2113
  2237.2500      0.0000    262.4818     72.1420    129.9635
  2237.5000      0.0000    262.4376     72.3358    130.5191
  2237.7500      0.0000    262.4264     72.4058    128.4532
  2238.0000      0.0000    262.4526     72.3353    123.4518
  2238.2500      0.0000    262.5069     72.1688    117.3707
  2238.5000      0.0000    262.5746     71.9618    113.3424
  2238.7500      0.0000    262.6395     71.7590    113.3398
  2239.0000      0.0000    262.6871     71.5954    116.5961
  2239.2500      0.0000    262.7117     71.4905    120.4291
  2239.5000      0.0000    262.7188     71.4362    122.5411
  2239.7500      0.0000    262.7168     71.4087    122.5736
  2240.0000      0.0000    262.7064     71.4093    121.8448
  2240.2500      0.0000    262.6795     71.4811    122.0382
  2240.5000      0.0000    262.6373     71.6565    124.0115
  2240.7500      0.0000    262.6061     71.8836    127.2342
  2241.0000      0.0000    262.6603     72.0149    130.0844
  2241.2500      0.0000    262.9662     71.8654    131.0141
  2241.5000      0.0000    263.8708     71.2459    129.8367
  2241.7500      0.0000    265.9225     69.9416    127.8981
  2242.0000      0.0000    269.6501     67.6994    126.7444
  2242.2500      0.0000    275.1787     64.2970    126.5318
  2242.5000      0.0000    282.0644     59.7397    125.8820
  2242.7500      0.0000    289.4849     54.5328    123.3824
  2243.0000      0.0000    296.4771     49.7257    119.0095
  2243.2500      0.0000    302.1250     46.3931    113.9116
  2243.5000      0.0000    305.8907     44.8839    109.2493
  2243.7500      0.0000    307.8777     44.6639    105.8031
  2244.0000     -2.0000    308.6559     44.9099    104.5090
  2244.2500     -2.0000    308.7902     45.1046    106.4237
  2244.5000      0.0000    308.5048     45.1378    111.4997
  2244.7500      0.0000    307.5909     45.2036    117.8218
  2245.0000      0.0000    305.5245     45.7835    122.8450
  2245.2500      0.0000    301.7982     47.4980    125.3762
  2245.5000      0.0000    296.3358     50.6614    125.9981
  2245.7500      0.0000    289.6058     54.9613    125.8466
  2246.0000      0.0000    282.3782     59.6414    125.4805
  2246.2500      0.0000    275.5139     63.9297    124.7359
  2246.5000      0.0000    269.8665     67.2971    123.0513
  2246.7500      0.0000    265.9998     69.5274    119.8416
  2247.0000      0.0000    263.8819     70.7100    114.9460
  2247.2500      0.0000    262.9886     71.1493    108.8146
  2247.5000      0.0000    262.7173     71.1990    102.2774
  2247.7500      0.0000    262.6729     71.1120     96.4350
  2248.0000      0.0000    262.6832     70.9959     92.8168
  2248.2500      0.0000    262.6910     70.8854     92.8184
  2248.5000      0.0000    262.6757     70.8345     96.2138
  2248.7500      0.0000    262.6271     70.9185    100.4051
  2249.0000      0.0000    262.5588     71.1450    101.9072
  2249.2500      0.0000    262.5046     71.4071     98.9785
  2249.5000      0.0000    262.4928     71.5641     92.8146
  2249.7500      0.0000    262.5206     71.5664     86.4201
  2250.0000      0.0000    262.5602     71.4809     82.6321
  2250.2500      0.0000    262.5896     71.3915     82.7685
  2250.5000      0.0000    262.6102     71.3099     86.2954
  2250.7500      0.0000    262.6330     71.2092     91.4841
  2251.0000      0.0000    262.6555     71.1154     96.7646
  2251.2500      0.0000    262.6629     71.1189    101.7102
  2251.5000      0.0000    262.6465     71.2860    106.7557
  2251.7500      0.0000    262.6129     71.5863    112.1761
  2252.0000      0.0000    262.5759     71.9121    117.5951
  2252.2500      0.0000    262.5463     72.1540    122.3951
  2252.5000      0.0000    262.5304     72.2613    126.2410
  2252.7500      0.0000    262.5305     72.2495    128.9876
  2253.0000      0.0000    262.5457     72.1621    130.2917
  2253.2500      0.0000    262.5732     72.0218    129.6663
  2253.5000      0.0000    262.6107     71.8217    127.0187
  2253.7500      0.0000    262.6537     71.5692    123.2626
  2254.0000      0.0000    262.6882     71.3360    120.5125
  2254.2500      0.0000    262.6905     71.2476    121.2027
  2254.5000      0.0000    262.6441     71.3904    126.2194
  2254.7500      0.0000    262.5596     71.7225    133.8087
  2255.0000      0.0000    262.4716     72.0989    140.9075
  2255.2500      0.0000    262.4126     72.3839    145.7805
  2255.5000      0.0000    262.3915     72.5213    149.0809
  2255.7500      0.0000    262.3939     72.5244    152.1645
  2256.0000      0.0000    262.3985     72.4478    154.7069
  2256.2500      0.0000    262.3945     72.3658    154.5181
  2256.5000      0.0000    262.3884     72.3353    149.9140
  2256.7500      0.0000    262.3945     72.3613    141.9829
  2257.0000      0.0000    262.4212     72.3939    134.0592
  2257.2500      0.0000    262.4669     72.3628    129.0334
  2257.5000      0.0000    262.5222     72.2286    127.4667
  2257.7500      0.0000    262.5732     72.0211    127.7471
  2258.0000      0.0000    262.6056     71.8321    126.9531
  2258.2500      0.0000    262.6095     71.7569    121.9214
  2258.5000      0.0000    262.5857     71.8227    111.2633
  2258.7500      0.0000    262.5444     71.9726     97.0933
  2259.0000      0.0000    262.5000     72.1156     84.0261
  2259.2500      0.0000    262.4674     72.1843     75.9039
  2259.5000      0.0000    262.4539     72.1671     73.3646
  2259.7500      0.0000    262.4520     72.1104     74.1656
  2260.0000      0.0000    262.4478     72.0770     75.3653
  2260.2500      0.0000    262.4398     72.0813     75.2782
  2260.5000      0.0000    262.4424     72.0720     73.9224
  2260.7500      0.0000    262.4659     71.9892     72.2037
  2261.0000      0.0000    262.5014     71.8290     70.8628
  2261.2500      0.0000    262.5292     71.6548     69.8345
  2261.5000      0.0000    262.5373     71.5497     68.3037
  2261.7500      0.0000    262.5294     71.5566     65.5462
  2262.0000      0.0000    262.5196     71.6482     61.8291
  2262.2500      0.0000    262.5220     71.7433     58.4482
  2262.5000      0.0000    262.5399     71.7667     57.0176
  2262.7500      0.0000    262.5606     71.7142     58.6872
  2263.0000      0.0000    262.5619     71.6667     63.6131
  2263.2500      0.0000    262.5322     71.7249     70.7588
  2263.5000      0.0000    262.4930     71.9062     78.2399
  2263.7500      0.0000    262.5323     72.0772     84.1805
  2264.0000      0.0000    262.8766     71.9389     87.5169
  2264.2500      0.0000    263.9920     71.0542     88.2842
  2264.5000      0.0000    266.5668     68.9750     87.2862
  2264.7500      0.0000    271.1136     65.5822     85.3514
  2265.0000      0.0000    277.3334     61.4246     82.7595
  2265.2500      0.0000    284.0403     57.5053     79.3577
  2265.5000      0.0000    290.0773     54.4627     75.1223
  2265.7500      0.0000    295.1877     52.1121     70.4524
  2266.0000      0.0000    299.6695     50.0030     65.9587
  2266.2500      0.0000    303.5003     48.1280     62.1331
  2266.5000      0.0000    306.2909     46.7819     59.2479
  2266.7500      0.0000    307.8806     46.0012     57.4954
  2267.0000      0.0000    308.5330     45.4958     57.1840
  2267.2500      0.0000    308.5927     45.0318     58.8080
  2267.5000      0.0000    308.0819     44.7751     62.7623
  2267.7500      0.0000    306.5465     45.3406     68.5833
  2268.0000      0.0000    303.2733     47.4589     74.3892
