~Version Information
VERS.                      2.0: CWLS Log ASCII Standard - VERSION 2.0
WRAP.                       NO: One line per depth step
~Well Information Block
STRT.FT               866.0000: 
STOP.FT              2027.5000: 
STEP.FT                 0.1000: 
NULL.                -999.2500: 
COMP.          Petrogulf Corporation: COMPANY
WELL.             State 16-21R: WELL
FLD.           Purgatorie River: FIELD
LOC.           203' FNL & 1560' FWL: LOCATION
PROV.                 Colorado: PROVINCE
CNTY.               Las Animas: COUNTRY
SRVC.                Patterson: SERVICE COMPANY
DATE.          Tue Aug 16 13:32:09 2005: LOG DATE
UWI.                071 08313 : UNIQUE WELL ID
~Curve Information Block
DEPT.FT            0 000 00 00: Depth
DCAL.in                       : CDL Caliper
RHOB.g/cc                     : CDL Bulk Density
RHOC.g/cc                     : CDL Density Correction
DPOR.pu                       : CDL Density Porosity
GR.GAPI                       : Gamma Ray
NPOR.pu                       : Neutron Porosity
~Parameter Information Block
~A  Depth       DCAL        RHOB        RHOC        DPOR         GR         NPOR    
# ...
  1854.8000      7.9740      2.5144      0.0966      8.2170    101.1732     28.9816
  1854.9000      7.9740      2.4967      0.1055      9.2914     99.8011     28.7317
  1855.0000      7.9966      2.4801      0.0980     10.2985    100.6215     28.2755
  1855.1000      7.9966      2.4736      0.0872     10.6909    102.1289     27.4302
  1855.2000      7.9966      2.4834      0.0687     10.0946    101.8142     26.8209
  1855.3000      7.9923      2.4985      0.1193      9.1802     99.9378     26.9053
  1855.4000      7.9923      2.5071      0.0566      8.6605     98.0447     27.1441
  1855.5000      8.0348      2.5216      0.0491      7.7843     97.3340     26.8080
  1855.6000      8.0348      2.5460      0.1453      6.3058     96.2270     25.9863
  1855.7000      8.0348      2.5585      0.1504      5.5475     94.6873     25.2635
  1855.8000      7.9995      2.5563      0.1087      5.6800     94.5281     24.8972
  1855.9000      7.9995      2.5556      0.1354      5.7203     93.9585     24.9283
  1856.0000      7.9676      2.5529      0.1601      5.8836     92.2202     25.4026
  1856.1000      7.9676      2.5386      0.1171      6.7527     92.5591     25.9587
  1856.2000      7.9676      2.5221      0.0763      7.7499     96.4347     26.1406
  1856.3000      7.9087      2.5137      0.1090      8.2593    100.4613     25.9164
  1856.4000      7.9087      2.5118      0.0942      8.3753    100.9253     25.3766
  1856.5000      7.8699      2.5165      0.0925      8.0922     98.0179     24.6403
  1856.6000      7.8699      2.5336      0.1073      7.0554     94.6532     23.9160
  1856.7000      7.8699      2.5608      0.1643      5.4044     92.0665     23.4866
  1856.8000      7.9114      2.5859      0.1506      3.8840     88.9461     23.6474
  1856.9000      7.9114      2.6057      0.1592      2.6861     85.9654     24.3994
  1857.0000      7.9193      2.6250      0.1714      1.5161     84.0836     25.3095
  1857.1000      7.9193      2.6440      0.1743      0.3637     83.0696     25.8585
  1857.2000      7.9193      2.6553      0.1881     -0.3210     82.3405     25.7022
  1857.3000      7.8966      2.6527      0.1815     -0.1639     81.2253     25.0154
  1857.4000      7.8966      2.6422      0.1565      0.4748     79.8370     24.4085
  1857.5000      7.9118      2.6306      0.1743      1.1787     78.1572     24.1354
  1857.6000      7.9118      2.6190      0.1018      1.8793     75.1009     24.0657
  1857.7000      7.9118      2.6081      0.1064      2.5377     71.9452     24.2316
  1857.8000      7.9034      2.5908      0.1408      3.5878     72.1889     24.5562
  1857.9000      7.9034      2.5669      0.0845      5.0353     75.4737     24.7691
  1858.0000      7.9401      2.5501      0.1367      6.0525     79.5133     25.0108
  1858.1000      7.9401      2.5440      0.0970      6.4214     83.4087     25.5041
  1858.2000      7.9401      2.5441      0.0974      6.4175     87.0743     25.9450
  1858.3000      7.9207      2.5490      0.0646      6.1195     90.3131     25.9706
  1858.4000      7.9207      2.5563      0.0976      5.6811     93.1284     25.7864
  1858.5000      7.9600      2.5540      0.1133      5.8203     95.0979     25.7779
  1858.6000      7.9600      2.5292      0.1111      7.3187     94.6790     26.0830
  1858.7000      7.9600      2.4915      0.0796      9.6030     94.0673     26.5923
  1858.8000      7.9479      2.4711      0.0500     10.8447     96.7083     27.0541
  1858.9000      7.9479      2.4787      0.1259     10.3824    100.5913     27.4020
  1859.0000      7.9207      2.4873      0.1500      9.8598    103.6345     27.6744
  1859.1000      7.9207      2.4720      0.1103     10.7855    106.4135     27.8187
  1859.2000      7.9207      2.4406      0.0914     12.6887    108.3529     27.9566
  1859.3000      7.8134      2.4061      0.1057     14.7843    109.6128     28.2908
  1859.4000      7.8134      2.3661      0.1072     17.2050    110.8205     28.6895
  1859.5000      7.8937      2.3213      0.0644     19.9215    111.1640     28.9737
  1859.6000      7.8937      2.2807      0.0530     22.3804    110.8662     29.0787
  1859.7000      7.8937      2.2458      0.0487     24.4987    110.9358     29.0679
  1859.8000      8.0295      2.2144      0.0356     26.4029    112.2685     29.0923
  1859.9000      8.0295      2.1975      0.0327     27.4240    114.7129     29.2146
  1860.0000      8.0372      2.2105      0.0660     26.6352    114.3997     29.5735
  1860.1000      8.0372      2.2498      0.1345     24.2526    108.9817     30.2188
  1860.2000      8.0372      2.2994      0.1408     21.2491    104.2440     30.9232
  1860.3000      8.1397      2.3488      0.1581     18.2563    106.5755     31.5374
  1860.4000      8.1397      2.3862      0.2086     15.9852    113.4257     31.9145
  1860.5000      8.1009      2.3991      0.2420     15.2081    118.1830     31.9977
  1860.6000      8.1009      2.3896      0.2247     15.7803    119.7095     31.8719
  1860.7000      8.1009      2.3740      0.2054     16.7272    119.7467     31.5413
  1860.8000      8.1037      2.3601      0.2304     17.5707    116.8395     31.1152
  1860.9000      8.1037      2.3484      0.1532     18.2806    111.2920     30.8066
  1861.0000      8.3657      2.3506      0.1212     18.1477    108.7733     30.4768
  1861.1000      8.3657      2.3780      0.1153     16.4834    112.7385     29.9051
  1861.2000      8.3657      2.4301      0.1622     13.3299    119.9552     29.3390
  1861.3000      8.6330      2.4962      0.2500      9.3188    123.1774     29.1115
  1861.4000      8.6330      2.5585      0.3861      5.5455    119.7007     29.3109
  1861.5000      8.7994      2.6016      0.3888      2.9359    114.2197     29.6043
  1861.6000      8.7994      2.6168      0.4105      2.0145    110.6441     29.6175
  1861.7000      8.7994      2.5937      0.3580      3.4117    109.3252     29.5889
  1861.8000      8.6231      2.5343      0.2589      7.0109    110.0444     29.6849
  1861.9000      8.6231      2.4530      0.2428     11.9394    112.2919     29.6601
  1862.0000      8.3554      2.3553      0.1657     17.8588    113.3413     29.4810
  1862.1000      8.3554      2.2504      0.0948     24.2156    112.0488     29.3668
  1862.2000      8.3554      2.1602      0.0635     29.6840    109.3682     29.3221
  1862.3000      8.2303      2.1070      0.0501     32.9091    106.4172     29.2282
  1862.4000      8.2303      2.1041      0.0638     33.0866    104.7448     29.3962
  1862.5000      8.2683      2.1437      0.1646     30.6820    105.6597     30.1086
  1862.6000      8.2683      2.2010      0.2149     27.2137    109.0071     31.0142
  1862.7000      8.2683      2.2556      0.3052     23.9010    112.3152     31.5794
  1862.8000      8.5201      2.2981      0.3882     21.3254    114.3596     31.6959
  1862.9000      8.5201      2.3210      0.4058     19.9387    115.8744     31.5784
  1863.0000      9.0511      2.3236      0.3648     19.7835    117.5853     31.5414
  1863.1000      9.0511      2.3216      0.3118     19.9047    118.8428     31.6647
  1863.2000      9.0511      2.3331      0.3261     19.2060    118.3677     31.7249
  1863.3000      9.8115      2.3598      0.2973     17.5871    116.6053     31.7108
  1863.4000      9.8115      2.3961      0.3128     15.3866    114.8065     31.7199
  1863.5000      9.9164      2.4407      0.3094     12.6839    113.7841     31.6308
  1863.6000      9.9164      2.4888      0.3705      9.7715    111.4874     31.3374
  1863.7000      9.9164      2.5232      0.4092      7.6838    105.8200     30.8879
  1863.8000      9.5476      2.5322      0.4143      7.1413    100.4934     30.3820
  1863.9000      9.5476      2.5280      0.3633      7.3962    100.2107     29.8795
  1864.0000      9.0655      2.5301      0.3748      7.2690    104.8801     29.4350
  1864.1000      9.0655      2.5398      0.3340      6.6780    111.0920     29.4057
  1864.2000      9.0655      2.5515      0.2999      5.9678    114.4622     29.9386
  1864.3000      8.7598      2.5696      0.2688      4.8718    112.4432     30.2678
