~Version Information
VERS.                      2.0: CWLS Log ASCII Standard - VERSION 2.0
WRAP.                       NO: One line per depth step
~Well Information Block
STRT.FT               430.0000: 
STOP.FT              1910.2500: 
STEP.FT                 0.2500: 
NULL.                -999.2500: 
COMP.          Pioneer Natural Resources: COMPANY
WELL.          Formula 23-11 Tr: WELL
FLD.           Purgatoire River: FIELD
LOC.           1976' FSL & 1935' FWL--: LOCATION
PROV.                 Colorado: PROVINCE
CNTY.               Las Animas: COUNTRY
SRVC.                Patterson: SERVICE COMPANY
DATE.          Fri Jun 10 22:41:39 2005: LOG DATE
UWI.           05 071 08399 00: UNIQUE WELL ID
~Curve Information Block
DEPT.FT            0 000 00 00: Depth
SN.Ohm-m                      : IEL Short Normal
SP.mV                         : IEL Spontaneous Potential
DIR.Ohm-m                     : IEL Induction Resistivity
GR.GAPI                       : Gamma Ray
~Parameter Information Block
~A  Depth        SN          SP         DIR          GR     
# ...
   798.5000   2000.0000   2000.0000     34.6901     79.3325
   798.7500   2000.0000   2000.0000     31.9939     85.9186
   799.0000   2000.0000   2000.0000     29.4472     96.4452
   799.2500   2000.0000   2000.0000     27.0837    103.6072
   799.5000   2000.0000   2000.0000     24.9289    113.6379
   799.7500   2000.0000   2000.0000     23.0085    119.0296
   800.0000   2000.0000   2000.0000     21.3415    124.1915
   800.2500   2000.0000   2000.0000     19.9306    125.7880
   800.5000   2000.0000   2000.0000     18.7637    126.4391
   800.7500   2000.0000   2000.0000     17.8237    126.2608
   801.0000   2000.0000   2000.0000     17.0977    125.5063
   801.2500   2000.0000   2000.0000     16.5788    124.8419
   801.5000   2000.0000   2000.0000     16.2597    123.9324
   801.7500   2000.0000   2000.0000     16.1260    123.3134
   802.0000   2000.0000   2000.0000     16.1519    121.5254
   802.2500   2000.0000   2000.0000     16.3012    119.2736
   802.5000   2000.0000   2000.0000     16.5326    114.4494
   802.7500   2000.0000   2000.0000     16.8097    110.9419
   803.0000   2000.0000   2000.0000     17.1097    106.7364
   803.2500   2000.0000   2000.0000     17.4281    105.3180
   803.5000   2000.0000   2000.0000     17.7737    105.5871
   803.7500   2000.0000   2000.0000     18.1588    106.9916
   804.0000   2000.0000   2000.0000     18.5894    109.7011
   804.2500   2000.0000   2000.0000     19.0597    111.1372
   804.5000   2000.0000   2000.0000     19.5507    111.7330
   804.7500   2000.0000   2000.0000     20.0333    110.8545
   805.0000   2000.0000   2000.0000     20.4751    107.9467
   805.2500   2000.0000   2000.0000     20.8520    105.4461
   805.5000   2000.0000   2000.0000     21.1583    101.8528
   805.7500   2000.0000   2000.0000     21.4084    100.1223
   806.0000   2000.0000   2000.0000     21.6258     99.3470
   806.2500   2000.0000   2000.0000     21.8276    100.3205
   806.5000   2000.0000   2000.0000     22.0143    103.9427
   806.7500   2000.0000   2000.0000     22.1653    107.4325
   807.0000   2000.0000   2000.0000     22.2437    113.1371
   807.2500   2000.0000   2000.0000     22.2064    116.3968
   807.5000   2000.0000   2000.0000     22.0211    119.3519
   807.7500   2000.0000   2000.0000     21.6821    119.9967
   808.0000   2000.0000   2000.0000     21.2173    119.8806
   808.2500   2000.0000   2000.0000     20.6815    119.6417
   808.5000   2000.0000   2000.0000     20.1384    119.3832
   808.7500   2000.0000   2000.0000     19.6416    119.2668
   809.0000   2000.0000   2000.0000     19.2193    119.3000
   809.2500   2000.0000   2000.0000     18.8691    119.5040
   809.5000   2000.0000   2000.0000     18.5623    119.7210
   809.7500   2000.0000   2000.0000     18.2592    119.5547
   810.0000   2000.0000   2000.0000     17.9293    119.1155
   810.2500   2000.0000   2000.0000     17.5686    119.2403
   810.5000   2000.0000   2000.0000     17.2034    120.7392
   810.7500   2000.0000   2000.0000     16.8817    122.5027
   811.0000   2000.0000   2000.0000     16.6566    125.2974
   811.2500   2000.0000   2000.0000     16.5706    126.5192
   811.5000   2000.0000   2000.0000     16.6461    126.5873
   811.7500   2000.0000   2000.0000     16.8841    125.4548
   812.0000   2000.0000   2000.0000     17.2701    122.3204
   812.2500   2000.0000   2000.0000     17.7835    119.2208
   812.5000   2000.0000   2000.0000     18.4077    112.5696
   812.7500   2000.0000   2000.0000     19.1364    106.9063
   813.0000   2000.0000   2000.0000     19.9742     98.2241
   813.2500   2000.0000   2000.0000     20.9338     93.6910
   813.5000   2000.0000   2000.0000     22.0292     90.0828
   813.7500   2000.0000   2000.0000     23.2611     89.5180
   814.0000   2000.0000   2000.0000     24.5933     89.9834
   814.2500   2000.0000   2000.0000     25.9298     90.5572
   814.5000   2000.0000   2000.0000     27.1148     91.8581
   814.7500   2000.0000   2000.0000     27.9729     93.4245
   815.0000   2000.0000   2000.0000     28.3740     97.1419
   815.2500   2000.0000   2000.0000     28.2799    100.2098
   815.5000   2000.0000   2000.0000     27.7508    104.7690
   815.7500   2000.0000   2000.0000     26.9222    107.5609
   816.0000   2000.0000   2000.0000     25.9616    111.8903
   816.2500   2000.0000   2000.0000     25.0154    115.2274
   816.5000   2000.0000   2000.0000     24.1675    120.6060
   816.7500   2000.0000   2000.0000     23.4328    123.7811
   817.0000   2000.0000   2000.0000     22.7801    126.9893
   817.2500   2000.0000   2000.0000     22.1640    128.0424
   817.5000   2000.0000   2000.0000     21.5459    128.6483
   817.7500   2000.0000   2000.0000     20.9041    129.0351
   818.0000   2000.0000   2000.0000     20.2385    130.7849
   818.2500   2000.0000   2000.0000     19.5696    133.1649
   818.5000   2000.0000   2000.0000     18.9287    138.1518
   818.7500   2000.0000   2000.0000     18.3421    141.5443
   819.0000   2000.0000   2000.0000     17.8210    144.9941
   819.2500   2000.0000   2000.0000     17.3627    145.5560
   819.5000   2000.0000   2000.0000     16.9599    143.7834
   819.7500   2000.0000   2000.0000     16.6078    141.4502
   820.0000   2000.0000   2000.0000     16.3073    137.6513
   820.2500   2000.0000   2000.0000     16.0636    135.5403
   820.5000   2000.0000   2000.0000     15.8863    133.3150
   820.7500   2000.0000   2000.0000     15.7879    132.3120
   821.0000   2000.0000   2000.0000     15.7798    131.0076
   821.2500   2000.0000   2000.0000     15.8667    129.8329
   821.5000   2000.0000   2000.0000     16.0393    126.8514
   821.7500   2000.0000   2000.0000     16.2713    123.9263
   822.0000   2000.0000   2000.0000     16.5211    118.9493
   822.2500   2000.0000   2000.0000     16.7396    116.1174
   822.5000   2000.0000   2000.0000     16.8860    113.8470
   822.7500   2000.0000   2000.0000     16.9426    113.9172
   823.0000   2000.0000   2000.0000     16.9180    116.2969
   823.2500   2000.0000   2000.0000     16.8371    119.2013
   823.5000   2000.0000   2000.0000     16.7263    124.7670
   823.7500   2000.0000   2000.0000     16.6044    128.4426
   824.0000   2000.0000   2000.0000     16.4822    132.3153
   824.2500   2000.0000   2000.0000     16.3655    133.4300
   824.5000   2000.0000   2000.0000     16.2595    133.7973
   824.7500   2000.0000   2000.0000     16.1718    134.0988
   825.0000   2000.0000   2000.0000     16.1157    135.2435
   825.2500   2000.0000   2000.0000     16.1100    135.8806
   825.5000   2000.0000   2000.0000     16.1741    135.0830
   825.7500   2000.0000   2000.0000     16.3196    133.0238
   826.0000   2000.0000   2000.0000     16.5402    128.4820
   826.2500   2000.0000   2000.0000     16.8069    125.3588
   826.5000   2000.0000   2000.0000     17.0731    121.6497
   826.7500   2000.0000   2000.0000     17.2877    120.1097
   827.0000   2000.0000   2000.0000     17.4121    119.2673
   827.2500   2000.0000   2000.0000     17.4321    119.4992
   827.5000   2000.0000   2000.0000     17.3606    120.2643
   827.7500   2000.0000   2000.0000     17.2327    120.5378
   828.0000   2000.0000   2000.0000     17.0956    120.2463
   828.2500   2000.0000   2000.0000     16.9971    119.7526
   828.5000   2000.0000   2000.0000     16.9765    118.9875
   828.7500   2000.0000   2000.0000     17.0590    118.5473
   829.0000   2000.0000   2000.0000     17.2582    117.8003
   829.2500   2000.0000   2000.0000     17.5837    117.0101
   829.5000   2000.0000   2000.0000     18.0527    115.0259
   829.7500   2000.0000   2000.0000     18.6981    113.1009
   830.0000   2000.0000   2000.0000     19.5704    109.3381
   830.2500   2000.0000   2000.0000     20.7306    106.2739
   830.5000   2000.0000   2000.0000     22.2379    101.0409
   830.7500   2000.0000   2000.0000     24.1332     97.4044
   831.0000   2000.0000   2000.0000     26.4235     92.2736
   831.2500   2000.0000   2000.0000     29.0723     89.2346
   831.5000   2000.0000   2000.0000     32.0005     85.1224
   831.7500   2000.0000   2000.0000     35.1044     82.4820
