~Version Information
 VERS.                                  2.0 : CWLS LAS VERSION
 WRAP.                                   NO : WRAPING MODE
 SWARE .                 MController 2.5.0N : SOFTWARE VERSION
~Well Information
 WELL.                           Zink 44-10 : WELL
 COMP.    Pioneer Natural Resources USA Inc : COMPANY
 FLD.                      Purgatoire River : FIELD
 LOC.                SE/SE Sec 10 T32S R66W : LOCATION
 DATE.                              5/29/05 : DATE(S) LOGGED
 SRVC.       Blanco Geological Services LLC : SERVICE COMPANY
 STAT.                                   CO : STATE
 CNTY.                           Las Animas : COUNTY
 CTRY.                                  USA : COUNTRY
 API.                       05-071-08380-00 : API NUMBER
 STRT.FT                             620.00 : START DEPTH
 STOP.FT                            2635.00 : STOP DEPTH
 STEP.FT                               1.00 : DEPTH INCREMENT
 NULL.                                -9999 : NULL VALUE
~Curve information
 DEPTH.FT                                   :
 ROP.MIN/FT                                 :
 GAS.UNITS                                  :
~ASCII Log data
# ...
      1220.0         0.20         23.9 
      1221.0         0.23         24.8 
      1222.0         0.17         26.4 
      1223.0         0.17         27.6 
      1224.0         0.13         27.7 
      1225.0         0.13         27.2 
      1226.0         9.82         44.6 
      1227.0         0.30          9.6 
      1228.0         0.38          9.9 
      1229.0         0.37         11.9 
      1230.0         0.37         16.0 
      1231.0         0.30         18.2 
      1232.0         0.23         18.2 
      1233.0         0.27          2.7 
      1234.0         0.23          4.3 
      1235.0         0.23          5.0 
      1236.0         0.23          5.6 
      1237.0         0.37         12.6 
      1238.0         0.33         23.0 
      1239.0         0.22         35.8 
      1240.0         0.27         45.0 
      1241.0         0.23         46.4 
      1242.0         0.17         46.7 
      1243.0         0.17         46.5 
      1244.0         0.20         46.1 
      1245.0         0.27         46.2 
      1246.0         0.23         53.8 
      1247.0         0.20         55.5 
      1248.0         0.20         53.6 
      1249.0         0.17         48.0 
      1250.0         0.13         43.2 
      1251.0         0.20         40.8 
      1252.0         0.17         35.5 
      1253.0         0.30         33.1 
      1254.0         0.32         28.4 
      1255.0         0.27         29.0 
      1256.0         2.20        129.4 
      1257.0         0.33         76.1 
      1258.0         0.30         63.7 
      1259.0         0.28         58.3 
      1260.0         0.27         59.6 
      1261.0         0.23         59.7 
      1262.0         0.23         59.0 
      1263.0         0.23         56.6 
      1264.0         0.27         54.7 
      1265.0         0.17         52.0 
      1266.0         0.20         50.9 
      1267.0         0.33         49.6 
      1268.0         0.23         46.1 
      1269.0         0.27         45.0 
      1270.0         0.23         44.5 
      1271.0         0.20         43.0 
      1272.0         0.27         41.9 
      1273.0         0.25         44.9 
      1274.0         0.20         49.2 
      1275.0         0.20         48.3 
      1276.0         0.23         41.9 
      1277.0         0.23         37.2 
      1278.0         0.20         34.6 
      1279.0         0.17         33.4 
      1280.0         0.23         31.4 
      1281.0         0.23         29.3 
      1282.0         0.23         27.4 
      1283.0         0.17         28.6 
      1284.0         0.13         31.7 
      1285.0         0.23         39.8 
      1286.0         1.55        142.2 
      1287.0         0.40        103.0 
      1288.0         0.40         74.6 
      1289.0         0.27         57.8 
      1290.0         0.37         52.1 
      1291.0         0.27         54.3 
      1292.0         0.10         54.5 
      1293.0         0.10         54.9 
      1294.0         0.20         55.0 
      1295.0         0.27         54.0 
      1296.0         0.28         51.8 
      1297.0         0.27         48.1 
      1298.0         0.27         45.4 
      1299.0         0.23         43.2 
      1300.0         0.27         41.3 
      1301.0         0.17         40.2 
      1302.0         0.23         39.4 
      1303.0         0.20         43.7 
      1304.0         0.20         47.9 
      1305.0         0.17         46.3 
      1306.0         0.23         41.2 
      1307.0         0.17         37.5 
      1308.0         0.13         35.7 
      1309.0         0.20         34.9 
      1310.0         0.20         32.4 
      1311.0         0.13         29.6 
      1312.0         0.22         28.2 
      1313.0         0.17         27.4 
      1314.0         0.20         25.7 
      1315.0         0.13         28.5 
      1316.0         1.60        103.6 
      1317.0         0.27         94.7 
      1318.0         0.33         82.8 
      1319.0         0.17         70.1 
      1320.0         0.23         64.4 
      1321.0         0.15         58.3 
      1322.0         0.10         56.4 
      1323.0         0.07         56.0 
      1324.0         0.10         56.0 
      1325.0         0.13         55.8 
      1326.0         0.20         54.1 
      1327.0         0.23         52.3 
      1328.0         0.33         51.2 
      1329.0         0.30         45.9 
      1330.0         0.33         43.2 
      1331.0         0.23         41.8 
      1332.0         0.23         41.6 
      1333.0         0.20         40.0 
      1334.0         0.17         39.4 
      1335.0         0.23         39.7 
      1336.0         0.27         38.8 
      1337.0         0.28         44.5 
      1338.0         0.27         41.9 
      1339.0         0.27         37.7 
      1340.0         0.23         34.5 
      1341.0         0.23         31.9 
      1342.0         0.30         30.3 
      1343.0         0.27         27.2 
      1344.0         0.23         24.5 
      1345.0         0.27         24.4 
      1346.0         2.05        108.4 
      1347.0         0.37         93.2 
      1348.0         0.40         75.6 
      1349.0         0.27         59.3 
      1350.0         0.27         52.1 
      1351.0         0.27         49.0 
      1352.0         0.27         47.1 
      1353.0         0.27         45.9 
      1354.0         0.30         44.4 
      1355.0         0.32         42.0 
      1356.0         0.23         38.9 
      1357.0         0.27         37.2 
      1358.0         0.27         36.6 
      1359.0         0.27         36.3 
      1360.0         0.20         34.9 
      1361.0         0.23         34.6 
      1362.0         0.20         34.4 
      1363.0         0.23         34.2 
      1364.0         0.23         34.0 
      1365.0         0.20         35.7 
      1366.0         0.20         40.0 
      1367.0         0.23         39.9 
      1368.0         0.17         36.5 
      1369.0         0.18         33.5 
      1370.0         0.17         32.4 
      1371.0         0.27         31.3 
      1372.0         0.27         28.7 
      1373.0         0.17         26.1 
      1374.0         0.27         24.7 
      1375.0         0.40         24.2 
      1376.0         1.88         94.2 
      1377.0         0.27         73.6 
      1378.0         0.30         63.0 
      1379.0         0.27         52.7 
      1380.0         0.27         46.9 
      1381.0         0.23         44.0 
      1382.0         0.23         42.2 
      1383.0         0.23         41.2 
      1384.0         0.27         41.2 
      1385.0         0.23         40.8 
      1386.0         0.23         40.0 
      1387.0         0.20         38.5 
      1388.0         0.20         37.3 
      1389.0         0.20         36.2 
      1390.0         0.22         35.1 
      1391.0         0.17         34.8 
      1392.0         0.20         34.9 
      1393.0         0.20         37.8 
      1394.0         0.23         40.3 
      1395.0         0.23         39.6 
      1396.0         0.23         34.1 
      1397.0         0.27         28.8 
      1398.0         0.27         26.8 
      1399.0         0.23         24.2 
      1400.0         0.20         22.8 
      1401.0         0.13         21.7 
      1402.0         0.10         21.9 
      1403.0         0.07         21.7 
      1404.0         0.13         24.6 
      1405.0         0.23         30.3 
      1406.0         2.18        137.5 
      1407.0         0.23         97.8 
      1408.0         0.33         81.4 
      1409.0         0.30         62.5 
      1410.0         0.33         52.3 
      1411.0         0.28         47.1 
      1412.0         0.27         45.5 
      1413.0         0.30         43.4 
      1414.0         0.23         40.3 
      1415.0         0.27         39.3 
      1416.0         0.23         37.2 
      1417.0         0.20         37.4 
      1418.0         0.20         35.9 
      1419.0         0.17         33.9 
