~Version Information
VERS.                      2.0: CWLS Log ASCII Standard - VERSION 2.0
WRAP.                       NO: One line per depth step
~Well Information Block
STRT.FT               362.0000: 
STOP.FT               983.0000: 
STEP.FT                 0.1000: 
NULL.                -999.2500: 
COMP.          Pioneer Natural Resources: COMPANY
WELL.             Tomcat 32-10: WELL
FLD.           Purgatoire River: FIELD
LOC.           2286' FNL & 2463' FEL: LOCATION
PROV.                 Colorado: PROVINCE
CNTY.               Las Animas: COUNTRY
SRVC.                Patterson: SERVICE COMPANY
DATE.          Tue Mar 22 11:24:45 2005: LOG DATE
UWI.           05 071 08301 00: UNIQUE WELL ID
~Curve Information Block
DEPT.FT            0 000 00 00: Depth
DCAL.in                       : CDL Caliper
RHOB.g/cc                     : CDL Bulk Density
RHOC.g/cc                     : CDL Density Correction
DPOR.pu                       : CDL Density Porosity
GR.GAPI                       : Gamma Ray
NPOR.pu                       : Neutron Porosity
~Parameter Information Block
~A  Depth       DCAL        RHOB        RHOC        DPOR         GR         NPOR    
# ...
   525.2000      8.1087      2.5021      0.0055      8.9618    138.0778     27.2290
   525.3000      8.1023      2.5159      0.0349      8.1299    135.3378     27.5724
   525.4000      8.1023      2.5219      0.0108      7.7653    133.3795     27.5661
   525.5000      8.1084      2.5116      0.0134      8.3850    135.5002     27.1900
   525.6000      8.1084      2.4906     -0.0011      9.6578    137.5932     26.9491
   525.7000      8.1084      2.4588      0.0048     11.5890    137.6903     27.0742
   525.8000      8.1052      2.4197     -0.0476     13.9592    138.7408     27.2532
   525.9000      8.1052      2.3869     -0.0566     15.9433    140.1944     27.3854
   526.0000      8.1060      2.3722     -0.0662     16.8394    137.8991     27.5743
   526.1000      8.1060      2.3807     -0.0543     16.3225    132.1969     27.7225
   526.2000      8.1060      2.4017     -0.0348     15.0455    129.9980     27.7097
   526.3000      8.1173      2.4105     -0.0181     14.5151    134.0955     27.6060
   526.4000      8.1173      2.4012     -0.0601     15.0798    140.4384     27.5193
   526.5000      8.1036      2.3952     -0.0120     15.4448    144.9519     27.3663
   526.6000      8.1036      2.4083      0.0092     14.6484    146.4699     27.1943
   526.7000      8.1036      2.4350      0.0079     13.0285    145.2932     27.3227
   526.8000      8.0745      2.4583      0.0174     11.6192    139.3420     27.5959
   526.9000      8.0745      2.4641      0.0431     11.2679    129.5694     27.4538
   527.0000      8.0243      2.4499      0.0270     12.1270    122.0984     26.9834
   527.1000      8.0243      2.4266      0.0506     13.5390    117.2728     26.6456
   527.2000      8.0243      2.4129      0.0111     14.3717    108.6516     26.5089
   527.3000      8.0105      2.4172      0.0459     14.1067     98.0291     26.2703
   527.4000      8.0105      2.4262      0.0382     13.5658     92.0695     25.7833
   527.5000      8.0182      2.4324      0.0266     13.1887     88.7828     25.1703
   527.6000      8.0182      2.4476      0.0357     12.2647     83.3085     24.6343
   527.7000      8.0182      2.4766      0.0303     10.5077     76.4378     24.2817
   527.8000      7.9669      2.5079      0.0830      8.6131     71.0107     24.1349
   527.9000      7.9669      2.5345      0.0711      6.9991     67.8453     24.1906
   528.0000      7.9597      2.5603      0.0642      5.4369     66.1185     24.3816
   528.1000      7.9597      2.5761      0.1259      4.4775     66.1565     24.5192
   528.2000      7.9597      2.5670      0.0533      5.0331     67.5194     24.3816
   528.3000      7.9417      2.5407     -0.0245      6.6232     68.3482     24.0258
   528.4000      7.9417      2.5133     -0.0433      8.2867     70.5060     23.8027
   528.5000      7.9537      2.4976     -0.0278      9.2339     75.0426     24.0247
   528.6000      7.9537      2.5078     -0.0068      8.6165     79.6988     24.7149
   528.7000      7.9537      2.5347      0.0647      6.9875     83.7804     25.4746
   528.8000      7.9632      2.5553     -0.0320      5.7424     88.1584     25.8858
   528.9000      7.9632      2.5676      0.0269      4.9929     92.1831     25.9010
   529.0000      7.9614      2.5825      0.0079      4.0892     95.7220     25.7613
   529.1000      7.9614      2.6048      0.0515      2.7377    101.1531     25.8699
   529.2000      7.9614      2.6188      0.1760      1.8886    110.2897     26.4084
   529.3000      7.9565      2.6031      0.1044      2.8411    120.5390     26.9645
   529.4000      7.9565      2.5703      0.0735      4.8309    127.5374     27.1696
   529.5000      7.9837      2.5428      0.0710      6.4999    130.5104     27.3920
   529.6000      7.9837      2.5219     -0.0159      7.7627    130.9676     27.8861
   529.7000      7.9837      2.5083     -0.0614      8.5890    133.9071     28.3264
   529.8000      8.0440      2.5034      0.0079      8.8852    140.1770     28.5690
   529.9000      8.0440      2.5003      0.0094      9.0752    143.8735     28.7975
   530.0000      8.0869      2.4973     -0.0019      9.2560    142.8333     28.9365
   530.1000      8.0869      2.4974      0.0113      9.2456    138.3300     28.8239
   530.2000      8.0869      2.5000      0.0262      9.0885    130.0473     28.5134
   530.3000      8.0910      2.5106     -0.0149      8.4499    122.0715     28.1071
   530.4000      8.0910      2.5234      0.0412      7.6721    120.4173     27.8538
   530.5000      8.1071      2.5196     -0.0115      7.9006    124.2236     27.6644
   530.6000      8.1071      2.5038     -0.0132      8.8595    131.8114     27.1403
   530.7000      8.1071      2.4929     -0.0305      9.5198    140.4262     26.7290
   530.8000      8.1197      2.4984     -0.0209      9.1907    143.1677     26.9248
   530.9000      8.1197      2.5209     -0.0172      7.8255    139.3227     27.1784
   531.0000      8.1197      2.5428      0.0456      6.4965    133.7751     27.1322
   531.1000      8.1197      2.5432      0.0156      6.4710    131.4205     27.1133
   531.2000      8.1197      2.5189      0.0194      7.9442    133.1508     27.2079
   531.3000      8.1212      2.4856     -0.0540      9.9637    132.3512     27.2141
   531.4000      8.1212      2.4672     -0.0254     11.0789    128.1900     27.1594
   531.5000      8.1140      2.4680     -0.0110     11.0326    129.4293     27.2661
   531.6000      8.1140      2.4783     -0.0534     10.4070    136.5015     27.4210
   531.7000      8.1140      2.4946     -0.0036      9.4182    141.7574     27.2977
   531.8000      8.1142      2.5082      0.0484      8.5968    141.1155     27.0722
   531.9000      8.1142      2.5091      0.0325      8.5398    137.1419     27.1310
   532.0000      8.0996      2.5018     -0.0055      8.9791    135.2808     27.3481
   532.1000      8.0996      2.4990     -0.0296      9.1488    137.6541     27.3943
   532.2000      8.0996      2.5087     -0.0090      8.5639    141.0373     27.3539
   532.3000      8.0964      2.5270      0.0174      7.4528    142.3318     27.4591
   532.4000      8.0964      2.5397      0.0604      6.6876    141.1307     27.6410
   532.5000      8.1166      2.5332      0.0497      7.0762    140.1817     27.7363
   532.6000      8.1166      2.5163     -0.0171      8.1024    139.4662     27.6221
   532.7000      8.1166      2.5025      0.0731      8.9397    135.8874     27.2129
   532.8000      8.1087      2.4849      0.0012     10.0034    134.0905     26.9121
   532.9000      8.1087      2.4706     -0.0330     10.8701    138.7804     27.1616
   533.0000      8.0889      2.4709      0.0197     10.8536    145.2657     27.7322
   533.1000      8.0889      2.4696      0.0032     10.9335    148.2404     28.0945
   533.2000      8.0889      2.4546     -0.0225     11.8452    147.3031     27.9009
   533.3000      8.0595      2.4377     -0.0424     12.8638    145.1326     27.2374
   533.4000      8.0595      2.4377     -0.0683     12.8669    144.5011     26.7042
   533.5000      8.0490      2.4595     -0.0286     11.5432    143.4367     26.7339
   533.6000      8.0490      2.4941     -0.0206      9.4478    139.1011     27.0028
   533.7000      8.0490      2.5277      0.0208      7.4114    130.0673     27.2219
   533.8000      8.0864      2.5434      0.0301      6.4627    118.2219     27.5435
   533.9000      8.0864      2.5399     -0.0046      6.6743    112.1818     27.7273
   534.0000      8.0900      2.5323      0.0146      7.1307    114.7062     27.6762
   534.1000      8.0900      2.5221      0.0578      7.7518    119.3183     27.7757
   534.2000      8.0900      2.5015      0.0118      8.9986    121.4442     27.9876
   534.3000      8.0697      2.4823      0.0004     10.1640    121.8523     28.0314
   534.4000      8.0697      2.4922     -0.0860      9.5614    122.2871     27.9564
   534.5000      8.0609      2.5379      0.0169      6.7935    123.3103     27.8774
   534.6000      8.0609      2.5850      0.0759      3.9365    125.0102     27.6091
   534.7000      8.0609      2.5964      0.0951      3.2462    128.5097     27.1003
