~Version Information
VERS.                      2.0: CWLS Log ASCII Standard - VERSION 2.0
WRAP.                       NO: One line per depth step
~Well Information Block
STRT.FT                -8.0000: 
STOP.FT              2410.0000: 
STEP.FT                 0.2500: 
NULL.                -999.2500: 
COMP.          Petrogulf Corporation: COMPANY
WELL.            Torcom 17-33V: WELL
FLD.           Purgatorie River: FIELD
LOC.           1544' FSL & 1746' FEL--: LOCATION
PROV.                       CO: PROVINCE
CNTY.               Las Animas: COUNTRY
SRVC.          Patterson Wireline: SERVICE COMPANY
DATE.          Wed Dec 10 17:24:27 2003: LOG DATE
UWI.                          : UNIQUE WELL ID
~Curve Information Block
DEPT.FT            0 000 00 00: Depth
CCL.                          : Casing Collar Locator
TT3.usec                      : CBL 3' Travel Time
AMP3.mV                       : CBL 3' Amplitude
GR.GAPI                       : Gamma Ray
~Parameter Information Block
~A  Depth       CCL         TT3         AMP3         GR     
# ...
   628.5000      0.0000    724.7104      3.3407     70.5336
   628.7500      0.0000    720.2781      3.3493     72.2892
   629.0000      0.0000    715.8134      3.3653     74.2055
   629.2500      0.0000    714.2225      3.3741     76.3371
   629.5000      0.0000    717.3013      3.3301     78.4742
   629.7500      0.0000    725.2447      3.1999     80.2537
   630.0000      0.0000    736.8116      3.0205     81.5819
   630.2500      0.0000    749.5302      2.8805     82.6559
   630.5000      0.0000    760.0035      2.8294     83.7858
   630.7500      0.0000    764.8499      2.8303     85.2920
   631.0000      0.0000    762.2984      2.8218     87.1151
   631.2500      0.0000    753.6245      2.8001     88.3420
   631.5000      0.0000    743.3554      2.8083     87.7141
   631.7500      0.0000    737.5071      2.8618     85.0028
   632.0000      0.0000    740.5023      2.9220     81.6124
   632.2500      0.0000    753.0564      2.9511     79.5741
   632.5000      0.0000    772.5162      2.9588     80.0106
   632.7500      0.0000    794.3647      2.9720     82.5289
   633.0000      0.0000    813.5992      2.9744     85.7830
   633.2500      0.0000    826.5524      2.9130     88.4381
   633.5000      0.0000    832.9455      2.7720     89.8175
   633.7500      0.0000    835.6399      2.6133     89.9988
   634.0000      0.0000    837.0025      2.5210     89.4958
   634.2500      0.0000    835.7440      2.5201     88.8656
   634.5000      0.0000    828.5964      2.5694     88.5727
   634.7500      0.0000    815.2922      2.6230     88.9260
   635.0000      0.0000    800.7992      2.6758     89.8813
   635.2500      0.0000    791.4959      2.7407     91.0951
   635.5000      0.0000    789.5958      2.8025     92.4434
   635.7500      0.0000    792.3655      2.8237     94.1699
   636.0000      0.0000    795.2933      2.7949     96.2282
   636.2500      0.0000    793.7728      2.7487     97.8552
   636.5000      0.0000    783.7144      2.7117     98.1924
   636.7500      0.0000    764.0189      2.6681     97.2385
   637.0000      0.0000    738.1876      2.5908     95.9859
   637.2500      0.0000    712.2151      2.4794     95.6482
   637.5000      0.0000    692.0120      2.3529     96.8406
   637.7500      0.0000    683.0089      2.2340     99.2037
   638.0000      0.0000    689.4026      2.1599    101.4563
   638.2500      0.0000    711.2355      2.1793    102.1163
   638.5000      0.0000    741.9091      2.3098    100.6911
   638.7500      0.0000    769.8005      2.5182     98.0070
   639.0000      0.0000    784.3208      2.7518     95.1342
   639.2500      0.0000    782.5747      2.9657     92.3787
   639.5000      0.0000    771.0327      3.1152     89.5769
   639.7500      0.0000    760.2961      3.1572     86.7824
   640.0000      0.0000    757.4627      3.0861     84.1159
   640.2500      0.0000    762.4015      2.9509     81.3816
   640.5000      0.0000    769.6339      2.8169     78.4767
   640.7500      0.0000    773.0027      2.7138     76.0406
   641.0000      0.0000    770.2437      2.6308     75.2523
   641.2500      0.0000    764.9285      2.5519     76.9709
   641.5000      0.0000    763.4649      2.4882     81.0549
   641.7500      0.0000    769.0370      2.4788     86.0660
   642.0000      0.0000    778.6678      2.5555     89.7157
   642.2500      0.0000    786.3283      2.6931     90.4721
   642.5000      0.0000    787.7901      2.8091     89.0165
   642.7500      0.0000    782.2288      2.8349     87.4901
   643.0000      0.0000    771.0936      2.7847     87.2741
   643.2500      0.0000    757.2590      2.7337     88.0592
   643.5000      0.0000    744.7055      2.7357     88.7795
   643.7500      0.0000    737.2977      2.7817     88.6677
   644.0000      0.0000    736.9855      2.8323     87.4947
   644.2500      0.0000    743.1863      2.8625     85.5851
   644.5000      0.0000    754.0235      2.8725     83.7720
   644.7500      0.0000    767.8976      2.8711     82.8527
   645.0000      0.0000    783.4146      2.8537     82.7813
   645.2500      0.0000    797.8940      2.8021     82.5857
   645.5000      0.0000    807.0491      2.7157     81.2724
   645.7500      0.0000    807.5335      2.6391     78.6565
   646.0000      0.0000    800.3529      2.6316     75.3164
   646.2500      0.0000    790.9099      2.7062     72.0882
   646.5000      0.0000    784.2205      2.8121     69.7820
   646.7500      0.0000    779.9256      2.8769     69.0321
   647.0000      0.0000    773.0406      2.8571     69.9057
   647.2500      0.0000    759.9303      2.7606     71.4440
   647.5000      0.0000    743.1826      2.6378     71.9228
   647.7500      0.0000    730.8749      2.5375     69.9835
   648.0000      0.0000    731.3542      2.4662     65.6419
   648.2500      0.0000    747.7888      2.3942     60.3118
   648.5000      0.0000    775.9885      2.3020     55.8944
   648.7500      0.0000    806.7180      2.2045     53.5798
   649.0000      0.0000    831.1707      2.1343     53.1772
   649.2500      0.0000    845.5006      2.1157     53.5403
   649.5000      0.0000    850.7191      2.1520     53.5984
   649.7500      0.0000    849.3619      2.2224     53.0013
   650.0000      0.0000    843.5189      2.2855     52.1609
   650.2500      0.0000    835.5891      2.3003     52.0618
   650.5000      0.0000    828.6036      2.2564     53.8231
   650.7500      0.0000    823.9208      2.1924     57.8925
   651.0000      0.0000    818.8818      2.1802     63.4854
   651.2500      0.0000    808.7175      2.2680     69.0487
   651.5000      0.0000    791.5049      2.4313     73.4778
   651.7500      0.0000    770.1522      2.5922     76.7958
   652.0000      0.0000    749.4626      2.6864     79.6737
   652.2500      0.0000    732.6089      2.6984     82.5880
   652.5000      0.0000    720.2617      2.6559     85.5109
   652.7500      0.0000    711.5988      2.6148     88.1700
   653.0000      0.0000    705.0652      2.6319     90.4354
   653.2500      0.0000    698.5043      2.7230     92.4115
   653.5000      0.0000    690.0278      2.8515     94.1284
   653.7500      0.0000    679.9644      2.9667     95.3610
   654.0000      0.0000    671.4415      3.0431     95.8956
   654.2500      0.0000    667.8113      3.0816     95.6847
   654.5000      0.0000    669.5399      3.0858     94.5628
   654.7500      0.0000    674.3594      3.0524     92.3468
   655.0000      0.0000    680.2576      2.9918     89.6599
   655.2500      0.0000    687.4209      2.9386     88.0501
   655.5000      0.0000    696.8242      2.9231     88.5221
   655.7500      0.0000    707.6968      2.9410     90.3109
   656.0000      0.0000    717.3060      2.9705     91.7742
   656.2500      0.0000    723.1052      3.0013     91.9775
   656.5000      0.0000    724.6109      3.0337     90.8582
   656.7500      0.0000    723.3580      3.0604     88.7347
   657.0000      0.0000    721.3839      3.0607     86.4461
   657.2500      0.0000    719.8961      3.0113     85.1649
   657.5000      0.0000    719.0309      2.9069     85.2604
   657.7500      0.0000    718.2910      2.7763     85.9171
   658.0000      0.0000    716.8538      2.6698     86.3996
   658.2500      0.0000    713.6862      2.6253     87.0425
   658.5000      0.0000    707.9705      2.6451     88.3888
   658.7500      0.0000    699.8766      2.6976     89.7988
   659.0000      0.0000    690.8967      2.7395     89.6363
   659.2500      0.0000    683.0622      2.7383     86.9217
   659.5000      0.0000    677.6385      2.6819     82.6175
   659.7500      0.0000    674.6129      2.5859     79.2204
   660.0000      0.0000    673.2866      2.4954     79.1138
   660.2500      0.0000    673.0845      2.4650     83.0482
   660.5000      0.0000    673.9224      2.5207     89.7271
   660.7500      0.0000    676.0851      2.6404     96.5603
   661.0000      0.0000    679.7644      2.7667    101.1238
   661.2500      0.0000    684.5487      2.8421    102.4933
   661.5000      0.0000    689.4744      2.8456    101.5163
   661.7500      0.0000    693.8057      2.8053     99.6910
