~Version Information
VERS.                      2.0: CWLS Log ASCII Standard - VERSION 2.0
WRAP.                       NO: One line per depth step
~Well Information Block
STRT.FT               456.0000: 
STOP.FT              1700.7000: 
STEP.FT                 0.1000: 
NULL.                -999.2500: 
COMP.          Pioneer Natural Resources: COMPANY
WELL.                Mead 11-9: WELL
FLD.           Purgatoire River: FIELD
LOC.           1127' FNL & 668' FWL: LOCATION
PROV.                 Colorado: PROVINCE
CNTY.               Las Animas: COUNTRY
SRVC.                Patterson: SERVICE COMPANY
DATE.          Sat Feb 19 09:18:18 2005: LOG DATE
UWI.           05 071 08160 00: UNIQUE WELL ID
~Curve Information Block
DEPT.FT            0 000 00 00: Depth
DCAL.in                       : CDL Caliper
RHOB.g/cc                     : CDL Bulk Density
RHOC.g/cc                     : CDL Density Correction
DPOR.pu                       : CDL Density Porosity
GR.GAPI                       : Gamma Ray
NPOR.pu                       : Neutron Porosity
~Parameter Information Block
~A  Depth       DCAL        RHOB        RHOC        DPOR         GR         NPOR    
# ...
  1598.4000      7.8742      2.5063      0.0585      8.7078     63.6645     15.8581
  1598.5000      7.8749      2.4979      0.0484      9.2163     64.0238     16.5556
  1598.6000      7.8749      2.5103      0.0035      8.4677     64.7651     17.2106
  1598.7000      7.8749      2.5392      0.0798      6.7155     69.7423     17.5673
  1598.8000      7.8635      2.5494      0.0938      6.0955     75.9758     17.9527
  1598.9000      7.8635      2.5307      0.0606      7.2311     76.8121     18.3159
  1599.0000      7.8542      2.5033      0.0375      8.8905     73.0399     18.1522
  1599.1000      7.8542      2.4817      0.0082     10.2017     69.0387     17.4677
  1599.2000      7.8542      2.4761      0.0071     10.5405     65.9784     16.9406
  1599.3000      7.8525      2.4850      0.0202     10.0017     63.6302     16.9869
  1599.4000      7.8525      2.4883      0.0209      9.7984     61.4573     17.3229
  1599.5000      7.8555      2.4792     -0.0187     10.3519     60.5768     17.6088
  1599.6000      7.8555      2.4677      0.0149     11.0509     62.0954     17.8475
  1599.7000      7.8555      2.4668     -0.0229     11.1024     64.6263     17.8653
  1599.8000      7.8619      2.4869      0.0175      9.8861     67.8288     17.1699
  1599.9000      7.8619      2.5157      0.0648      8.1403     70.0109     16.3321
  1600.0000      7.8684      2.5331      0.0587      7.0839     67.2535     16.2881
  1600.1000      7.8684      2.5388      0.0668      6.7368     60.8695     16.7040
  1600.2000      7.8684      2.5345      0.0788      7.0010     58.7704     17.2154
  1600.3000      7.8711      2.5153      0.0876      8.1647     63.2684     17.9531
  1600.4000      7.8711      2.4898      0.0244      9.7072     66.6315     18.4910
  1600.5000      7.8695      2.4704      0.0231     10.8868     64.3175     18.4775
  1600.6000      7.8695      2.4516      0.0244     12.0271     61.0709     18.0269
  1600.7000      7.8695      2.4308     -0.0182     13.2858     61.3428     17.2231
  1600.8000      7.8677      2.4197      0.0409     13.9574     62.9311     16.6629
  1600.9000      7.8677      2.4276     -0.0217     13.4813     62.2349     16.9590
  1601.0000      7.8676      2.4570      0.0367     11.6969     59.6100     17.7897
  1601.1000      7.8676      2.4871      0.0482      9.8734     56.9927     18.3734
  1601.2000      7.8676      2.4893      0.0646      9.7378     54.6245     18.2874
  1601.3000      7.8693      2.4760      0.0077     10.5479     52.5706     17.7335
  1601.4000      7.8693      2.4804      0.0656     10.2775     52.8310     17.1538
  1601.5000      7.8644      2.4987      0.0910      9.1696     54.2963     16.7415
  1601.6000      7.8644      2.5008      0.1161      9.0414     54.0980     16.7672
  1601.7000      7.8644      2.4810      0.0488     10.2404     53.3504     17.3091
  1601.8000      7.8435      2.4658     -0.0082     11.1627     54.3431     17.7228
  1601.9000      7.8435      2.4723      0.0473     10.7675     55.1975     17.6291
  1602.0000      7.8213      2.4887      0.0750      9.7748     54.4427     17.2148
  1602.1000      7.8213      2.4981      0.0668      9.2073     54.8073     16.8256
  1602.2000      7.8213      2.4997      0.1148      9.1066     56.3707     16.8025
  1602.3000      7.8149      2.4992      0.0834      9.1411     57.6677     17.0599
  1602.4000      7.8149      2.4914      0.0958      9.6147     59.3438     17.0702
  1602.5000      7.8319      2.4729     -0.0068     10.7340     59.5717     16.5777
  1602.6000      7.8319      2.4580     -0.0048     11.6388     58.4005     15.9884
  1602.7000      7.8319      2.4542      0.0157     11.8649     58.6086     15.8579
  1602.8000      7.8588      2.4542      0.0303     11.8669     58.3955     16.0862
  1602.9000      7.8588      2.4526      0.0205     11.9648     56.0877     16.2853
  1603.0000      7.8671      2.4430      0.0540     12.5470     54.7261     16.4781
  1603.1000      7.8671      2.4274     -0.0084     13.4888     56.5121     16.4924
  1603.2000      7.8671      2.4211      0.0251     13.8753     60.6944     16.5279
  1603.3000      7.8536      2.4278      0.0390     13.4660     64.2364     17.4318
  1603.4000      7.8536      2.4384      0.0212     12.8252     64.6856     19.0669
  1603.5000      7.8297      2.4413      0.0675     12.6502     64.1200     20.4194
  1603.6000      7.8297      2.4352      0.0675     13.0190     65.0089     21.2225
  1603.7000      7.8297      2.4339      0.0372     13.0941     65.8370     21.5429
  1603.8000      7.8040      2.4514      0.0940     12.0368     66.6291     21.6558
  1603.9000      7.8040      2.4882      0.0962      9.8081     71.7686     22.3646
  1604.0000      7.7924      2.5326      0.1603      7.1169     82.4916     23.7802
  1604.1000      7.7924      2.5651      0.1807      5.1441     91.7766     24.8421
  1604.2000      7.7924      2.5797      0.1609      4.2632     92.6007     24.8542
  1604.3000      7.8175      2.5836      0.1954      4.0248     87.4266     24.4347
  1604.4000      7.8175      2.5710      0.2309      4.7905     84.7884     24.0403
  1604.5000      7.8776      2.5362      0.1249      6.8991     88.8654     23.6177
  1604.6000      7.8776      2.4912      0.1531      9.6273     94.4347     23.3408
  1604.7000      7.8776      2.4470      0.0739     12.3053     95.0454     23.2233
  1604.8000      7.9158      2.4225      0.0185     13.7864     91.8650     23.1089
  1604.9000      7.9158      2.4304      0.0450     13.3078     89.1299     22.9076
  1605.0000      7.9143      2.4528      0.0609     11.9496     87.0051     22.3534
  1605.1000      7.9143      2.4744      0.0406     10.6447     83.4378     21.3380
  1605.2000      7.9143      2.4962      0.0868      9.3229     78.0270     20.5601
  1605.3000      7.9152      2.5061      0.1205      8.7216     70.3793     20.4334
  1605.4000      7.9152      2.4937      0.0793      9.4697     62.3794     20.4770
  1605.5000      7.9122      2.4806      0.0178     10.2676     57.2776     20.1700
  1605.6000      7.9122      2.4803      0.0794     10.2856     55.1710     19.4291
  1605.7000      7.9122      2.4748      0.0586     10.6179     55.1248     18.4657
  1605.8000      7.8821      2.4587      0.0288     11.5952     55.9136     17.6805
  1605.9000      7.8821      2.4434      0.0054     12.5201     56.7041     17.3800
  1606.0000      7.8494      2.4317      0.0432     13.2310     56.9767     17.3538
  1606.1000      7.8494      2.4281      0.0178     13.4505     55.8493     17.2733
  1606.2000      7.8494      2.4390      0.1132     12.7849     55.1977     17.3822
  1606.3000      7.8248      2.4509      0.0975     12.0659     57.0787     17.8792
  1606.4000      7.8248      2.4541      0.0622     11.8717     60.4542     18.2528
  1606.5000      7.8083      2.4562      0.1001     11.7468     61.1704     18.3651
  1606.6000      7.8083      2.4600      0.0545     11.5179     56.6026     18.8102
  1606.7000      7.8083      2.4663      0.0514     11.1345     51.2082     19.3672
  1606.8000      7.8155      2.4715      0.0807     10.8188     49.8273     19.4091
  1606.9000      7.8155      2.4701      0.0329     10.9051     50.1646     19.2094
  1607.0000      7.8320      2.4662      0.0686     11.1418     50.2305     19.1403
  1607.1000      7.8320      2.4657      0.0544     11.1682     52.7469     19.2364
  1607.2000      7.8320      2.4697      0.0731     10.9287     56.6329     19.1069
  1607.3000      7.8410      2.4769      0.0357     10.4938     58.1427     18.3655
  1607.4000      7.8410      2.4860      0.0666      9.9379     58.2702     17.5226
  1607.5000      7.8387      2.4923      0.0708      9.5571     58.9809     17.1724
  1607.6000      7.8387      2.4901      0.0923      9.6892     60.5587     17.2747
  1607.7000      7.8387      2.4758      0.0994     10.5600     63.1012     17.6180
  1607.8000      7.8354      2.4530      0.0378     11.9420     65.9260     18.1120
  1607.9000      7.8354      2.4326      0.0138     13.1729     67.4477     18.7466
