~Version Information
VERS.                      2.0: CWLS Log ASCII Standard - VERSION 2.0
WRAP.                       NO: One line per depth step
~Well Information Block
STRT.FT               -14.5000: 
STOP.FT              2676.5000: 
STEP.FT                 0.1000: 
NULL.                -999.2500: 
COMP.          Petrogulf Corporation: COMPANY
WELL.          Latiluppe 8-13V: WELL
FLD.           Purgatorie River: FIELD
LOC.           1069' FWL & 1647' FSL: LOCATION
CNTY.               Las Animas: COUNTY
SRVC.                         : SERVICE COMPANY
DATE.          Tue Nov 18 16:12:50 2003: LOG DATE
UWI.                          : UNIQUE WELL ID
STAT.                 Colorado: STATE
~Curve Information Block
DEPT.FT            0 000 00 00: Depth
CCL.                          : Casing Collar Locator
TT3.usec                      : CBL 3' Travel Time
AMP3.mV                       : CBL 3' Amplitude
GR.GAPI                       : Gamma Ray
~Parameter Information Block
~A  Depth       CCL         TT3         AMP3         GR     
# ...
  1767.7000      0.0000    786.7731      2.8313    135.2280
  1767.8000      0.0000    803.6223      2.8989    140.8856
  1767.9000      0.0000    803.6223      2.8989    140.8856
  1768.0000      0.0000    829.2453      2.8376    146.5201
  1768.1000      0.0000    829.2453      2.8376    146.5201
  1768.2000      0.0000    829.2453      2.8376    146.5201
  1768.3000      0.0000    855.4575      2.6632    150.4802
  1768.4000      0.0000    855.4575      2.6632    150.4802
  1768.5000      0.0000    872.6818      2.4528    152.0842
  1768.6000      0.0000    872.6818      2.4528    152.0842
  1768.7000      0.0000    872.6818      2.4528    152.0842
  1768.8000      0.0000    874.5475      2.3036    152.1170
  1768.9000      0.0000    874.5475      2.3036    152.1170
  1769.0000      0.0000    861.2359      2.2828    152.2305
  1769.1000      0.0000    861.2359      2.2828    152.2305
  1769.2000      0.0000    861.2359      2.2828    152.2305
  1769.3000      0.0000    839.2230      2.3863    153.4657
  1769.4000      0.0000    839.2230      2.3863    153.4657
  1769.5000      0.0000    817.7517      2.5459    155.3560
  1769.6000      0.0000    817.7517      2.5459    155.3560
  1769.7000      0.0000    817.7517      2.5459    155.3560
  1769.8000      0.0000    804.3700      2.6837    156.3602
  1769.9000      0.0000    804.3700      2.6837    156.3602
  1770.0000      0.0000    802.3337      2.7545    155.3002
  1770.1000      0.0000    802.3337      2.7545    155.3002
  1770.2000      0.0000    802.3337      2.7545    155.3002
  1770.3000      0.0000    810.3629      2.7448    152.7129
  1770.4000      0.0000    810.3629      2.7448    152.7129
  1770.5000      0.0000    823.3881      2.6596    150.5965
  1770.6000      0.0000    823.3881      2.6596    150.5965
  1770.7000      0.0000    823.3881      2.6596    150.5965
  1770.8000      0.0000    834.3397      2.5266    150.5576
  1770.9000      0.0000    834.3397      2.5266    150.5576
  1771.0000      0.0000    837.8987      2.4090    152.5541
  1771.1000      0.0000    837.8987      2.4090    152.5541
  1771.2000      0.0000    837.8987      2.4090    152.5541
  1771.3000      0.0000    834.2098      2.3961    155.3998
  1771.4000      0.0000    834.2098      2.3961    155.3998
  1771.5000      0.0000    828.4402      2.5446    157.8013
  1771.6000      0.0000    828.4402      2.5446    157.8013
  1771.7000      0.0000    828.4402      2.5446    157.8013
  1771.8000      0.0000    825.6417      2.8089    158.9999
  1771.9000      0.0000    825.6417      2.8089    158.9999
  1772.0000      0.0000    825.7293      3.0598    159.1525
  1772.1000      0.0000    825.7293      3.0598    159.1525
  1772.2000      0.0000    825.7293      3.0598    159.1525
  1772.3000      0.0000    823.7114      3.1927    159.0322
  1772.4000      0.0000    823.7114      3.1927    159.0322
  1772.5000      0.0000    815.2500      3.1951    159.0795
  1772.6000      0.0000    815.2500      3.1951    159.0795
  1772.7000      0.0000    815.2500      3.1951    159.0795
  1772.8000      0.0000    801.8396      3.1098    159.0441
  1772.9000      0.0000    801.8396      3.1098    159.0441
  1773.0000      0.0000    789.9163      2.9878    158.6438
  1773.1000      0.0000    789.9163      2.9878    158.6438
  1773.2000      0.0000    789.9163      2.9878    158.6438
  1773.3000      0.0000    784.9979      2.8856    158.0885
  1773.4000      0.0000    784.9979      2.8856    158.0885
  1773.5000      0.0000    787.1963      2.8517    157.5958
  1773.6000      0.0000    787.1963      2.8517    157.5958
  1773.7000      0.0000    787.1963      2.8517    157.5958
  1773.8000      0.0000    792.2163      2.8868    156.4727
  1773.9000      0.0000    792.2163      2.8868    156.4727
  1774.0000      0.0000    795.9119      2.9469    153.0435
  1774.1000      0.0000    795.9119      2.9469    153.0435
  1774.2000      0.0000    795.9119      2.9469    153.0435
  1774.3000      0.0000    797.4650      2.9904    145.9120
  1774.4000      0.0000    797.4650      2.9904    145.9120
  1774.5000      0.0000    798.5233      3.0012    135.4522
  1774.6000      0.0000    798.5233      3.0012    135.4522
  1774.7000      0.0000    798.5233      3.0012    135.4522
  1774.8000      0.0000    800.0669      2.9807    123.8960
  1774.9000      0.0000    800.0669      2.9807    123.8960
  1775.0000     -2.0000    800.7375      2.9443    113.9039
  1775.1000      2.0000    800.7375      2.9443    113.9039
  1775.2000      2.0000    800.7375      2.9443    113.9039
  1775.3000     -2.0000    798.0810      2.9198    107.1280
  1775.4000      2.0000    798.0810      2.9198    107.1280
  1775.5000      2.0000    790.7524      2.9300    103.8980
  1775.6000     -2.0000    790.7524      2.9300    103.8980
  1775.7000      0.0000    790.7524      2.9300    103.8980
  1775.8000      0.0000    779.7020      2.9738    103.6791
  1775.9000      0.0000    779.7020      2.9738    103.6791
  1776.0000      0.0000    768.1349      3.0215    105.5002
  1776.1000      0.0000    768.1349      3.0215    105.5002
  1776.2000      0.0000    768.1349      3.0215    105.5002
  1776.3000      0.0000    760.2456      3.0262    108.1757
  1776.4000      0.0000    760.2456      3.0262    108.1757
  1776.5000      0.0000    758.8013      2.9504    110.7029
  1776.6000      0.0000    758.8013      2.9504    110.7029
  1776.7000      0.0000    758.8013      2.9504    110.7029
  1776.8000      0.0000    763.2990      2.7899    112.7460
  1776.9000      0.0000    763.2990      2.7899    112.7460
  1777.0000      0.0000    770.4153      2.5780    114.7370
  1777.1000      0.0000    770.4153      2.5780    114.7370
  1777.2000      0.0000    770.4153      2.5780    114.7370
  1777.3000      0.0000    776.0615      2.3693    117.6308
  1777.4000      0.0000    776.0615      2.3693    117.6308
  1777.5000      0.0000    777.1888      2.2140    122.4891
  1777.6000      0.0000    777.1888      2.2140    122.4891
  1777.7000      0.0000    777.1888      2.2140    122.4891
  1777.8000      0.0000    772.8688      2.1391    129.6629
  1777.9000      0.0000    772.8688      2.1391    129.6629
  1778.0000      0.0000    764.7032      2.1503    137.8455
  1778.1000      0.0000    764.7032      2.1503    137.8455
  1778.2000      0.0000    764.7032      2.1503    137.8455
  1778.3000      0.0000    755.9155      2.2380    144.2957
  1778.4000      0.0000    755.9155      2.2380    144.2957
  1778.5000      0.0000    749.2326      2.3710    146.7619
  1778.6000      0.0000    749.2326      2.3710    146.7619
  1778.7000      0.0000    749.2326      2.3710    146.7619
  1778.8000      0.0000    745.4193      2.5043    145.2800
  1778.9000      0.0000    745.4193      2.5043    145.2800
  1779.0000      0.0000    743.6540      2.6081    141.7822
  1779.1000      0.0000    743.6540      2.6081    141.7822
  1779.2000      0.0000    743.6540      2.6081    141.7822
  1779.3000      0.0000    742.8457      2.6815    138.2527
  1779.4000      0.0000    742.8457      2.6815    138.2527
  1779.5000      0.0000    742.4993      2.7371    135.6618
  1779.6000      0.0000    742.4993      2.7371    135.6618
  1779.7000      0.0000    742.4993      2.7371    135.6618
  1779.8000      0.0000    742.8836      2.7822    134.2886
  1779.9000      0.0000    742.8836      2.7822    134.2886
  1780.0000      0.0000    744.8715      2.8067    134.3250
  1780.1000      0.0000    744.8715      2.8067    134.3250
  1780.2000      0.0000    744.8715      2.8067    134.3250
  1780.3000      0.0000    749.5747      2.7803    135.9184
  1780.4000      0.0000    749.5747      2.7803    135.9184
  1780.5000      0.0000    757.7094      2.6722    138.7798
  1780.6000      0.0000    757.7094      2.6722    138.7798
  1780.7000      0.0000    757.7094      2.6722    138.7798
  1780.8000      0.0000    768.9588      2.4873    142.0163
  1780.9000      0.0000    768.9588      2.4873    142.0163
  1781.0000      0.0000    781.9159      2.2792    144.7102
