~Version Information
VERS.                      2.0: CWLS Log ASCII Standard - VERSION 2.0
WRAP.                       NO: One line per depth step
~Well Information Block
STRT.FT               250.0000: 
STOP.FT              1687.7000: 
STEP.FT                 0.1000: 
NULL.                -999.2500: 
COMP.          Pioneer Natural Resources: COMPANY
WELL.          Moneypenny 31-36: WELL
FLD.           Purgatoire River: FIELD
LOC.           280' FNL & 1976' FEL: LOCATION
PROV.                 Colorado: PROVINCE
CNTY.               Las Animas: COUNTRY
SRVC.                Patterson: SERVICE COMPANY
DATE.          Fri Oct 01 13:54:40 2004: LOG DATE
UWI.           05 071 08183 00: UNIQUE WELL ID
~Curve Information Block
DEPT.FT            0 000 00 00: Depth
DCAL.in                       : CDL Caliper
RHOB.g/cc                     : CDL Bulk Density
RHOC.g/cc                     : CDL Density Correction
DPOR.pu                       : CDL Density Porosity
NPOR.pu                       : Neutron Porosity
GR.GAPI                       : Gamma Ray
~Parameter Information Block
~A  Depth       DCAL        RHOB        RHOC        DPOR        NPOR         GR     
# ...
  1190.8000      7.9875      2.5287      0.1173      7.3519     18.8069     84.7518
  1190.9000      7.9875      2.5398      0.1021      6.6796     19.0555     85.1835
  1191.0000      7.9977      2.5426      0.0497      6.5093     18.8542     86.7150
  1191.1000      7.9977      2.5426      0.0769      6.5065     18.7000     93.0995
  1191.2000      7.9977      2.5451      0.0142      6.3556     18.8331    101.2147
  1191.3000      8.0069      2.5572      0.0641      5.6241     19.0811    104.7380
  1191.4000      8.0069      2.5683      0.1214      4.9498     19.4699    102.9881
  1191.5000      8.0201      2.5685      0.1001      4.9369     20.3516    100.3690
  1191.6000      8.0201      2.5685      0.0513      4.9403     21.6481    102.7305
  1191.7000      8.0201      2.5747      0.0502      4.5650     22.5794    111.7969
  1191.8000      8.0357      2.5757      0.0850      4.5004     22.7565    120.5390
  1191.9000      8.0357      2.5584      0.0645      5.5525     22.5682    123.7946
  1192.0000      8.0406      2.5262      0.0076      7.5004     22.1828    127.4220
  1192.1000      8.0406      2.4991     -0.0431      9.1451     21.5983    137.4792
  1192.2000      8.0406      2.4898      0.0011      9.7071     21.0493    147.5823
  1192.3000      8.0386      2.4885      0.0473      9.7881     20.6705    151.1856
  1192.4000      8.0386      2.4810      0.0278     10.2415     20.4590    151.3493
  1192.5000      8.0355      2.4737      0.0094     10.6875     20.3608    150.5123
  1192.6000      8.0355      2.4806     -0.0088     10.2650     20.5306    148.7139
  1192.7000      8.0355      2.5014      0.0353      9.0065     21.0150    144.1046
  1192.8000      8.0339      2.5225      0.0395      7.7282     21.2437    135.8839
  1192.9000      8.0339      2.5321      0.0428      7.1482     21.0054    131.1782
  1193.0000      8.0341      2.5293      0.0148      7.3149     21.0055    132.0983
  1193.1000      8.0341      2.5183      0.0670      7.9822     21.4570    132.3892
  1193.2000      8.0341      2.5007      0.0403      9.0481     21.7783    131.2154
  1193.3000      8.0347      2.4818      0.0270     10.1915     21.6462    129.2958
  1193.4000      8.0347      2.4684      0.0143     11.0065     21.2808    127.4963
  1193.5000      8.0355      2.4655      0.0200     11.1795     20.9172    130.7269
  1193.6000      8.0355      2.4652      0.0731     11.1997     20.5098    137.2989
  1193.7000      8.0355      2.4473      0.0257     12.2878     20.1063    142.3099
  1193.8000      8.0362      2.4151     -0.0357     14.2353     20.0043    145.1239
  1193.9000      8.0362      2.3888      0.0183     15.8306     20.2437    144.8305
  1194.0000      8.0353      2.3766     -0.0138     16.5718     20.5908    139.6458
  1194.1000      8.0353      2.3833     -0.0104     16.1622     20.6910    131.4767
  1194.2000      8.0353      2.4021      0.0226     15.0246     20.3294    124.2628
  1194.3000      8.0329      2.4092      0.0367     14.5928     19.9641    119.9668
  1194.4000      8.0329      2.3993      0.0134     15.1916     20.0351    121.7388
  1194.5000      8.0263      2.3892      0.0123     15.8034     20.0955    129.8262
  1194.6000      8.0263      2.3900      0.0158     15.7570     19.6970    138.0453
  1194.7000      8.0263      2.4042      0.0310     14.8975     19.1913    138.4011
  1194.8000      8.0143      2.4240      0.0445     13.6955     18.9288    129.3485
  1194.9000      8.0143      2.4353      0.0768     13.0100     18.7850    120.5214
  1195.0000      8.0051      2.4378      0.0394     12.8586     18.8125    122.3727
  1195.1000      8.0051      2.4401      0.0668     12.7219     19.0656    130.5617
  1195.2000      8.0051      2.4427      0.0432     12.5619     19.3279    135.0957
  1195.3000      8.0031      2.4465      0.0486     12.3331     19.5458    136.2603
  1195.4000      8.0031      2.4567      0.0632     11.7135     19.8221    136.6974
  1195.5000      8.0050      2.4752      0.0768     10.5925     20.0622    132.6210
  1195.6000      8.0050      2.4938      0.1173      9.4661     20.0065    123.5111
  1195.7000      8.0050      2.4992      0.1149      9.1411     19.7898    118.2689
  1195.8000      8.0068      2.4845      0.0888     10.0291     19.8480    120.3599
  1195.9000      8.0068      2.4639      0.0448     11.2795     20.1976    123.9073
  1196.0000      8.0073      2.4642      0.0477     11.2581     20.3288    126.6567
  1196.1000      8.0073      2.4923      0.0600      9.5598     20.1756    129.7384
  1196.2000      8.0073      2.5267      0.0980      7.4739     20.1893    132.1283
  1196.3000      8.0062      2.5423      0.0911      6.5256     20.4533    134.6472
  1196.4000      8.0062      2.5341      0.0546      7.0259     20.5605    137.6450
  1196.5000      8.0049      2.5118      0.0786      8.3736     20.4066    140.3639
  1196.6000      8.0049      2.4861      0.0155      9.9305     20.1717    142.8882
  1196.7000      8.0049      2.4698      0.0135     10.9186     19.9365    144.2238
  1196.8000      8.0029      2.4677      0.0650     11.0478     19.9240    143.3083
  1196.9000      8.0029      2.4660      0.0425     11.1503     20.2981    141.1029
  1197.0000      7.9983      2.4559      0.0326     11.7663     20.9545    139.9373
  1197.1000      7.9983      2.4524      0.0181     11.9780     21.6164    141.2884
  1197.2000      7.9983      2.4685      0.0331     11.0002     21.9863    143.7852
  1197.3000      7.9934      2.4847      0.0856     10.0170     22.0842    144.9008
  1197.4000      7.9934      2.4789      0.0775     10.3710     22.0446    143.3323
  1197.5000      7.9946      2.4654      0.0181     11.1907     21.9363    138.9259
  1197.6000      7.9946      2.4686      0.0261     10.9964     21.8210    132.6494
  1197.7000      7.9946      2.4840      0.0623     10.0616     21.6859    127.4315
  1197.8000      7.9957      2.4937      0.0518      9.4750     21.4057    127.4427
  1197.9000      7.9957      2.4954      0.0405      9.3726     21.1012    131.9537
  1198.0000      7.9927      2.4964      0.0215      9.3113     21.1471    137.1904
  1198.1000      7.9927      2.4966      0.0530      9.2958     21.5426    141.5275
  1198.2000      7.9927      2.4934      0.0375      9.4930     21.8766    144.4287
  1198.3000      7.9907      2.4917      0.0284      9.5917     21.7593    144.9349
  1198.4000      7.9907      2.4895      0.0739      9.7275     21.1784    142.7917
  1198.5000      7.9867      2.4746      0.0355     10.6283     20.7351    139.9879
  1198.6000      7.9867      2.4529      0.0284     11.9482     20.8095    137.2583
  1198.7000      7.9867      2.4448      0.0115     12.4344     20.9562    135.9779
  1198.8000      7.9819      2.4586      0.0220     11.5984     20.6436    137.2873
  1198.9000      7.9819      2.4804      0.0570     10.2769     20.0179    137.0708
  1199.0000      7.9786      2.4935      0.0428      9.4819     19.6796    133.6831
  1199.1000      7.9786      2.4932      0.0605      9.5025     19.7491    132.5353
  1199.2000      7.9786      2.4845      0.0309     10.0326     19.8450    136.2723
  1199.3000      7.9751      2.4775      0.0636     10.4530     20.0322    142.8004
  1199.4000      7.9751      2.4695      0.0624     10.9392     20.4862    150.2788
  1199.5000      7.9681      2.4526      0.0710     11.9652     20.8753    153.8931
  1199.6000      7.9681      2.4379      0.0481     12.8571     20.8608    148.5470
  1199.7000      7.9681      2.4488      0.0286     12.1964     20.6477    136.1214
  1199.8000      7.9588      2.4864      0.1005      9.9171     20.7920    126.0924
  1199.9000      7.9588      2.5140      0.1198      8.2446     21.2439    126.4730
  1200.0000      7.9543      2.5056      0.0847      8.7520     21.5456    134.2369
  1200.1000      7.9543      2.4745      0.0753     10.6369     21.6664    142.6515
  1200.2000      7.9543      2.4430      0.0364     12.5485     21.4842    145.2692
  1200.3000      7.9554      2.4308      0.0338     13.2866     20.9126    138.1781
