~Version Information
VERS.                      2.0: CWLS Log ASCII Standard - VERSION 2.0
WRAP.                       NO: One line per depth step
~Well Information Block
STRT.FT               910.3000: 
STOP.FT              1932.5000: 
STEP.FT                 0.1000: 
NULL.                -999.2500: 
COMP.          Petrogulf Corporation: COMPANY
WELL.             State 16-34R: WELL
FLD.           Purgatorie River: FIELD
LOC.           1095' FSL & 1498' FEL: LOCATION
CNTY.               Las Animas: COUNTY
SRVC.                         : SERVICE COMPANY
DATE.          Thu May 06 14:28:18 2004: LOG DATE
UWI.           05 071 08032 00: UNIQUE WELL ID
STAT.                 Colorado: STATE
~Curve Information Block
DEPT.FT            0 000 00 00: Depth
DCAL.in                       : CDL Caliper
RHOB.g/cc                     : CDL Bulk Density
RHOC.g/cc                     : CDL Density Correction
DPOR.pu                       : CDL Density Porosity
NPOR.pu                       : Neutron Porosity
GR.GAPI                       : Gamma Ray
~Parameter Information Block
~A  Depth       DCAL        RHOB        RHOC        DPOR        NPOR         GR     
# ...
  1764.7000      7.8867      2.5082      0.0229      8.5919     22.9279    140.2666
  1764.8000      7.8933      2.4826     -0.0023     10.1470     22.7013    136.5193
  1764.9000      7.8933      2.4726      0.0253     10.7514     23.1458    132.1078
  1765.0000      7.9053      2.4703      0.0544     10.8922     23.5615    134.2001
  1765.1000      7.9053      2.4591      0.0789     11.5703     23.3779    138.9188
  1765.2000      7.9053      2.4378      0.0116     12.8585     22.8217    137.8452
  1765.3000      7.9165      2.4144      0.0593     14.2767     22.2951    132.7475
  1765.4000      7.9165      2.3864     -0.0000     15.9735     21.9036    128.0185
  1765.5000      7.9206      2.3536      0.0062     17.9659     21.4978    125.3062
  1765.6000      7.9206      2.3184      0.0066     20.0953     20.8482    124.3389
  1765.7000      7.9206      2.2749      0.0334     22.7331     20.0911    123.7113
  1765.8000      7.9318      2.2227      0.0180     25.8979     19.5474    126.1063
  1765.9000      7.9318      2.1772      0.0124     28.6533     19.2163    132.2928
  1766.0000      7.9362      2.1438      0.0202     30.6786     18.9343    135.6969
  1766.1000      7.9362      2.1038      0.0400     33.1024     18.3749    134.6507
  1766.2000      7.9362      2.0429      0.0213     36.7942     17.4121    132.0410
  1766.3000      7.9495      1.9708      0.0409     41.1635     16.2275    129.2849
  1766.4000      7.9495      1.9078      0.0087     44.9846     14.6470    127.2543
  1766.5000      7.9581      1.8728     -0.0022     47.1024     12.7658    124.6604
  1766.6000      7.9581      1.8771      0.0080     46.8432     11.3402    119.9716
  1766.7000      7.9581      1.9158      0.0510     44.4965     10.5419    114.6013
  1766.8000      7.9621      1.9692      0.1239     41.2627     10.0151    110.6168
  1766.9000      7.9621      2.0224      0.1108     38.0360      9.7583    109.2918
  1767.0000      8.0020      2.0829      0.1723     34.3676     10.0096    112.8943
  1767.1000      8.0020      2.1616      0.2323     29.5986     10.7338    120.5291
  1767.2000      8.0020      2.2480      0.2860     24.3622     11.6841    124.7261
  1767.3000      8.0586      2.3185      0.2530     20.0937     12.7489    125.0968
  1767.4000      8.0586      2.3673      0.1532     17.1351     14.0636    128.6181
  1767.5000      8.0049      2.4042      0.1295     14.8984     15.7266    135.5034
  1767.6000      8.0049      2.4346      0.0639     13.0570     17.4077    142.4601
  1767.7000      8.0049      2.4634      0.0470     11.3080     18.5028    148.0603
  1767.8000      7.9383      2.4881      0.0733      9.8110     18.8080    151.9083
  1767.9000      7.9383      2.5041      0.0520      8.8422     18.9814    154.0607
  1768.0000      7.9262      2.5217      0.0261      7.7759     19.7968    153.5551
  1768.1000      7.9262      2.5425      0.0479      6.5147     21.1516    148.7015
  1768.2000      7.9262      2.5495      0.0510      6.0930     22.5377    142.3378
  1768.3000      7.9080      2.5396      0.0040      6.6900     23.7938    140.8682
  1768.4000      7.9080      2.5326     -0.0297      7.1156     24.9062    143.7707
  1768.5000      7.8647      2.5381      0.0259      6.7822     25.6859    144.7554
  1768.6000      7.8647      2.5443      0.0833      6.4079     25.8794    141.8282
  1768.7000      7.8647      2.5466      0.0147      6.2662     25.8049    139.0476
  1768.8000      7.8903      2.5562      0.0015      5.6820     26.1049    141.7918
  1768.9000      7.8903      2.5714      0.0465      4.7617     26.6945    148.2728
  1769.0000      7.8604      2.5773      0.0575      4.4075     26.9426    151.2780
  1769.1000      7.8604      2.5670      0.0191      5.0282     26.6878    151.8851
  1769.2000      7.8604      2.5458      0.0031      6.3169     26.3511    155.4869
  1769.3000      7.8819      2.5258     -0.0162      7.5297     26.3100    158.5534
  1769.4000      7.8819      2.5191     -0.0091      7.9356     26.6199    159.6067
  1769.5000      7.8897      2.5254      0.0100      7.5506     27.0723    161.4137
  1769.6000      7.8897      2.5288      0.0252      7.3461     27.4418    162.3141
  1769.7000      7.8897      2.5230      0.0004      7.6971     27.6706    164.3791
  1769.8000      7.9013      2.5303     -0.0489      7.2544     27.9450    168.8073
  1769.9000      7.9013      2.5604      0.0151      5.4305     28.2313    171.1657
  1770.0000      7.9255      2.5816      0.0637      4.1425     28.2993    169.1766
  1770.1000      7.9255      2.5731      0.0215      4.6602     28.2250    165.4029
  1770.2000      7.9255      2.5622     -0.0303      5.3230     28.1026    166.0248
  1770.3000      7.9110      2.5721      0.0320      4.7226     27.8506    172.0776
  1770.4000      7.9110      2.5885      0.0573      3.7302     27.4995    173.1048
  1770.5000      7.9133      2.5962      0.0134      3.2622     27.1191    163.4058
  1770.6000      7.9133      2.5909      0.0471      3.5831     26.8079    152.3821
  1770.7000      7.9133      2.5679      0.0317      4.9785     26.6182    148.4020
  1770.8000      7.9193      2.5383     -0.0034      6.7703     26.4360    152.1080
  1770.9000      7.9193      2.5186      0.0103      7.9648     26.2219    159.1897
  1771.0000      7.9392      2.5079      0.0155      8.6105     25.9390    164.1469
  1771.1000      7.9392      2.5030      0.0033      8.9063     25.4385    167.4879
  1771.2000      7.9392      2.5012      0.0443      9.0188     24.8532    170.6736
  1771.3000      7.9356      2.4988      0.0400      9.1650     24.4600    170.3938
  1771.4000      7.9356      2.5030     -0.0089      8.9108     24.3190    164.4549
  1771.5000      7.9396      2.5150      0.0407      8.1790     24.3229    158.9410
  1771.6000      7.9396      2.5268      0.0204      7.4697     24.2106    157.9565
  1771.7000      7.9396      2.5396      0.0363      6.6889     24.1810    155.2035
  1771.8000      7.9386      2.5511      0.0537      5.9921     24.4973    148.2986
  1771.9000      7.9386      2.5485      0.0816      6.1535     24.7525    142.4567
  1772.0000      7.9346      2.5348      0.0386      6.9820     24.7177    142.4536
  1772.1000      7.9346      2.5324     -0.0147      7.1268     24.8104    150.6946
  1772.2000      7.9346      2.5440      0.0496      6.4267     25.1931    162.9555
  1772.3000      7.9276      2.5454      0.0268      6.3377     25.3913    169.9996
  1772.4000      7.9276      2.5287      0.0266      7.3504     25.1545    168.3930
  1772.5000      7.9447      2.5127     -0.0162      8.3225     24.7941    162.6948
  1772.6000      7.9447      2.5166      0.0006      8.0865     24.4841    156.8448
  1772.7000      7.9447      2.5381      0.0140      6.7830     24.1412    154.0424
  1772.8000      7.9240      2.5550      0.0355      5.7579     23.8632    155.9503
  1772.9000      7.9240      2.5442      0.0390      6.4150     23.8201    158.8917
  1773.0000      7.9305      2.5125      0.0014      8.3320     23.8889    160.3523
  1773.1000      7.9305      2.4925      0.0204      9.5427     23.7041    159.5796
  1773.2000      7.9305      2.4973      0.0525      9.2541     23.1208    156.5755
  1773.3000      7.9286      2.5119      0.0503      8.3720     22.5686    153.4396
  1773.4000      7.9286      2.5122      0.0422      8.3494     22.2015    151.0191
  1773.5000      7.9261      2.4857      0.0415      9.9575     21.8255    149.5690
  1773.6000      7.9261      2.4470     -0.0087     12.3028     21.5233    148.0760
  1773.7000      7.9261      2.4157      0.0262     14.1989     21.1381    147.2023
  1773.8000      7.9158      2.3864     -0.0071     15.9783     20.4967    146.5321
  1773.9000      7.9158      2.3456      0.0132     18.4480     19.9703    142.3805
  1774.0000      7.9140      2.2977     -0.0311     21.3524     19.9105    138.9388
  1774.1000      7.9140      2.2647     -0.0672     23.3507     20.1738    142.0264
  1774.2000      7.9140      2.2622     -0.0147     23.5020     20.2355    145.9134
