~Version Information
VERS.                      2.0: CWLS Log ASCII Standard - VERSION 2.0
WRAP.                       NO: One line per depth step
~Well Information Block
STRT.FT               575.0000: 
STOP.FT              2016.2000: 
STEP.FT                 0.1000: 
NULL.                -999.2500: 
COMP.          Pioneer Natural Resources: COMPANY
WELL.          Bucksnort 41-35: WELL
FLD.           Purgatoire River: FIELD
LOC.           117' FNL & 463' FEL--: LOCATION
PROV.                 Colorado: PROVINCE
CNTY.               Las Animas: COUNTRY
SRVC.                Patterson: SERVICE COMPANY
DATE.          Thu Jul 21 15:01:23 2005: LOG DATE
UWI.           05 071 08401 00: UNIQUE WELL ID
~Curve Information Block
DEPT.FT            0 000 00 00: Depth
DCAL.in                       : CDL Caliper
RHOB.g/cc                     : CDL Bulk Density
RHOC.g/cc                     : CDL Density Correction
DPOR.pu                       : CDL Density Porosity
NPOR.pu                       : Neutron Porosity
GR.GAPI                       : Gamma Ray
~Parameter Information Block
~A  Depth       DCAL        RHOB        RHOC        DPOR        NPOR         GR     
# ...
   767.0000      8.1194      2.5052      0.1607      8.7765     23.0168    129.7532
   767.1000      8.1194      2.5100      0.1185      8.4832     23.6206    135.8268
   767.2000      8.1194      2.4989      0.0811      9.1551     24.0897    139.9361
   767.3000      8.1080      2.4905      0.0417      9.6692     24.3801    135.9273
   767.4000      8.1080      2.4971      0.0427      9.2689     24.4544    127.7322
   767.5000      8.0873      2.5105      0.0575      8.4530     24.4271    125.0191
   767.6000      8.0873      2.5109      0.0621      8.4291     24.4129    130.7760
   767.7000      8.0873      2.5044      0.0297      8.8263     24.4756    138.4735
   767.8000      8.0761      2.5203      0.0332      7.8584     24.5569    141.2333
   767.9000      8.0761      2.5579      0.0928      5.5812     24.4745    139.8871
   768.0000      8.0688      2.5864      0.0862      3.8515     24.2813    137.3930
   768.1000      8.0688      2.5944      0.0972      3.3699     24.2654    135.7672
   768.2000      8.0688      2.5961      0.0588      3.2655     24.5419    136.4518
   768.3000      8.0568      2.6015      0.1059      2.9381     24.8858    137.3982
   768.4000      8.0568      2.6044      0.1045      2.7623     25.3462    138.3948
   768.5000      8.0485      2.6056      0.0845      2.6884     26.1990    141.0176
   768.6000      8.0485      2.6080      0.0894      2.5481     27.1861    142.1030
   768.7000      8.0485      2.6033      0.0760      2.8329     28.0581    137.0684
   768.8000      8.0489      2.5951      0.0476      3.3263     28.8173    126.7503
   768.9000      8.0489      2.5965      0.0792      3.2440     29.1980    116.6658
   769.0000      8.0501      2.6019      0.0614      2.9166     28.9155    110.4115
   769.1000      8.0501      2.5930      0.0853      3.4567     28.3893    108.1690
   769.2000      8.0501      2.5672      0.0242      5.0194     28.2557    108.8448
   769.3000      8.0430      2.5504      0.0090      6.0358     28.4530    112.3792
   769.4000      8.0430      2.5562      0.0680      5.6860     28.5913    117.8955
   769.5000      8.0300      2.5667      0.0678      5.0505     28.5268    121.9083
   769.6000      8.0300      2.5725      0.0298      4.6976     28.3200    124.2156
   769.7000      8.0300      2.5789      0.0654      4.3095     28.0081    127.5156
   769.8000      8.0218      2.5837      0.0665      4.0190     27.9712    132.0681
   769.9000      8.0218      2.5837      0.0692      4.0206     28.3964    136.1662
   770.0000      8.0207      2.5844      0.0191      3.9784     28.4779    137.4227
   770.1000      8.0207      2.5902      0.0640      3.6221     27.8883    135.3654
   770.2000      8.0207      2.5966      0.0767      3.2358     27.0999    132.3993
   770.3000      8.0225      2.6010      0.0522      2.9708     26.2868    132.8864
   770.4000      8.0225      2.6048      0.0681      2.7404     25.7787    136.5900
   770.5000      8.0241      2.6066      0.0631      2.6317     26.0414    136.0529
   770.6000      8.0241      2.6113      0.0560      2.3464     26.6135    129.3054
   770.7000      8.0241      2.6288      0.0600      1.2827     26.6988    123.2186
   770.8000      8.0234      2.6506      0.0952     -0.0350     26.5332    123.3953
   770.9000      8.0234      2.6596      0.1005     -0.5835     26.7607    126.9648
   771.0000      8.0222      2.6605      0.0568     -0.6333     27.5934    127.0409
   771.1000      8.0222      2.6538      0.0922     -0.2305     28.7797    124.9982
   771.2000      8.0222      2.6162      0.0659      2.0499     29.6884    127.7520
   771.3000      8.0231      2.5397     -0.0032      6.6828     30.0343    134.5785
   771.4000      8.0231      2.4397     -0.0578     12.7477     29.9020    137.5867
   771.5000      8.0237      2.3318     -0.0904     19.2856     29.4561    134.3309
   771.6000      8.0237      2.2427     -0.1565     24.6860     28.9468    129.0194
   771.7000      8.0237      2.1999     -0.1212     27.2789     28.3910    126.9583
   771.8000      8.0226      2.1980     -0.0878     27.3964     27.5518    130.5641
   771.9000      8.0226      2.2027     -0.0462     27.1099     26.3470    136.0269
   772.0000      8.0212      2.1878     -0.0534     28.0097     25.0548    138.3998
   772.1000      8.0212      2.1483      0.0400     30.4083     23.7993    136.8232
   772.2000      8.0212      2.0965      0.0849     33.5456     22.2221    132.2990
   772.3000      8.0205      2.0812      0.1000     34.4750     20.3309    128.5125
   772.4000      8.0205      2.1504      0.2861     30.2769     18.7456    129.3900
   772.5000      8.0217      2.2671      0.4348     23.2064     17.5697    132.5333
   772.6000      8.0217      2.3335      0.4524     19.1828     16.2000    133.3794
   772.7000      8.0217      2.3047      0.3742     20.9294     14.6033    132.7704
   772.8000      8.0439      2.2450      0.2269     24.5457     13.4501    133.6317
   772.9000      8.0439      2.2632      0.2376     23.4447     12.9444    136.6234
   773.0000      8.1560      2.3870      0.4102     15.9424     12.5940    139.8598
   773.1000      8.1560      2.5412      0.5476      6.5953     12.1802    140.2241
   773.2000      8.1560      2.6417      0.5470      0.5047     12.1115    137.8272
   773.3000      8.3972      2.6600      0.5315     -0.6081     12.5988    133.0939
   773.4000      8.3972      2.6209      0.4057      1.7616     13.5434    125.4557
   773.5000      8.5990      2.5809      0.3129      4.1873     14.9900    118.9228
   773.6000      8.5990      2.5787      0.3398      4.3206     16.7846    119.2268
   773.7000      8.5990      2.5999      0.3319      3.0382     18.3368    124.8764
   773.8000      8.5060      2.6127      0.2665      2.2589     19.4452    128.5906
   773.9000      8.5060      2.6065      0.1859      2.6387     20.4323    130.6524
   774.0000      8.2007      2.5805      0.1329      4.2136     21.5364    134.7233
   774.1000      8.2007      2.5409      0.0886      6.6126     22.9258    138.0758
   774.2000      8.2007      2.5065      0.0815      8.6964     24.2915    139.1461
   774.3000      8.0115      2.4893      0.0855      9.7364     25.0487    137.7175
   774.4000      8.0115      2.4831      0.1250     10.1145     25.2498    134.1731
   774.5000      7.9712      2.4905      0.0534      9.6648     25.2877    134.0637
   774.6000      7.9712      2.5238      0.1358      7.6500     24.9671    138.1742
   774.7000      7.9712      2.5628      0.1471      5.2847     24.3629    138.8207
   774.8000      7.9676      2.5755      0.0970      4.5178     24.3275    134.8478
   774.9000      7.9676      2.5596      0.0927      5.4779     24.9928    131.0576
   775.0000      7.9662      2.5372      0.0337      6.8342     25.7404    127.8846
   775.1000      7.9662      2.5255      0.0683      7.5451     26.2041    124.9920
   775.2000      7.9662      2.5184      0.0399      7.9776     26.4885    125.1736
   775.3000      7.9635      2.5105      0.0355      8.4537     26.6824    130.0561
   775.4000      7.9635      2.5021      0.0838      8.9647     26.6546    137.6316
   775.5000      7.9570      2.4858      0.0537      9.9533     26.4371    142.4437
   775.6000      7.9570      2.4612      0.0211     11.4397     25.7748    144.3935
   775.7000      7.9570      2.4317      0.0383     13.2292     24.4732    148.5016
   775.8000      7.9488      2.3968      0.0391     15.3483     23.1255    152.3765
   775.9000      7.9488      2.3702      0.0010     16.9605     22.1499    148.4294
   776.0000      7.9449      2.3728      0.0471     16.7990     21.1574    138.2360
   776.1000      7.9449      2.4031      0.0642     14.9624     19.7850    130.5810
   776.2000      7.9449      2.4418      0.0771     12.6210     18.5735    126.5853
   776.3000      7.9451      2.4769      0.0845     10.4938     18.1752    124.9585
   776.4000      7.9451      2.5060      0.0941      8.7270     18.2938    129.1465
   776.5000      7.9450      2.5190      0.1668      7.9370     18.2227    135.2412
