~Version Information
VERS.                      2.0: CWLS Log ASCII Standard - VERSION 2.0
WRAP.                       NO: One line per depth step
~Well Information Block
STRT.FT               955.2500: 
STOP.FT              2226.0000: 
STEP.FT                 0.2500: 
NULL.                -999.2500: 
COMP.          Petrogulf Corporation: COMPANY
WELL.             Burson 8-13R: WELL
FLD.           Purgatorie River: FIELD
LOC.           1045' FNL & 2189' FEL: LOCATION
CNTY.               Las Animas: COUNTY
SRVC.                         : SERVICE COMPANY
DATE.          Fri Apr 30 04:52:15 2004: LOG DATE
UWI.           05 071 08039 00: UNIQUE WELL ID
STAT.                 Colorado: STATE
~Curve Information Block
DEPT.FT            0 000 00 00: Depth
SP.mV                         : DIL Spontaneous Potential
RILD.Ohm-m                    : DIL Deep Resistivity
RILM.Ohm-m                    : DIL Medium Resistivity
RLL3.Ohm-m                    : DIL Shallow Resistivity
~Parameter Information Block
~A  Depth        SP         RILD        RILM        RLL3    
# ...
  2027.2500    137.5657      6.8272      7.6546     10.1045
  2027.5000    137.6120      6.9704      7.8425     10.0870
  2027.7500    137.6047      7.0961      8.0283     10.0999
  2028.0000    137.5509      7.2027      8.2038     10.1962
  2028.2500    137.4681      7.2902      8.3576     10.4032
  2028.5000    137.3741      7.3588      8.4786     10.6899
  2028.7500    137.2808      7.4094      8.5602     10.9664
  2029.0000    137.1950      7.4449      8.6032     11.1255
  2029.2500    137.1208      7.4711      8.6147     11.1066
  2029.5000    137.0631      7.4965      8.6040     10.9417
  2029.7500    137.0257      7.5290      8.5794     10.7416
  2030.0000    137.0071      7.5733      8.5481     10.6128
  2030.2500    136.9969      7.6289      8.5174     10.5612
  2030.5000    136.9782      7.6899      8.4964     10.4750
  2030.7500    136.9380      7.7473      8.4969     10.2230
  2031.0000    136.8742      7.7913      8.5315      9.8165
  2031.2500    136.7957      7.8147      8.6095      9.5299
  2031.5000    136.7163      7.8143      8.7309      9.8763
  2031.7500    136.6489      7.7915      8.8804     11.3466
  2032.0000    136.6030      7.7531      9.0255     13.9462
  2032.2500    136.5836      7.7092      9.1241     16.8669
  2032.5000    136.5896      7.6701      9.1408     18.7935
  2032.7500    136.6136      7.6423      9.0636     18.8229
  2033.0000    136.6441      7.6262      8.9105     17.1592
  2033.2500    136.6702      7.6176      8.7181     14.8464
  2033.5000    136.6865      7.6122      8.5243     12.8926
  2033.7500    136.6966      7.6085      8.3546     11.7066
  2034.0000    136.7121      7.6083      8.2172     11.1732
  2034.2500    136.7480      7.6131      8.1068     10.9892
  2034.5000    136.8162      7.6202      8.0129     10.8873
  2034.7500    136.9181      7.6222      7.9284     10.7058
  2035.0000    137.0394      7.6110      7.8549     10.3982
  2035.2500    137.1530      7.5840      7.8031     10.0311
  2035.5000    137.2363      7.5461      7.7872      9.7699
  2035.7500    137.2884      7.5060      7.8177      9.8488
  2036.0000    137.3309      7.4706      7.8949     10.5312
  2036.2500    137.3903      7.4443      8.0061     12.0214
  2036.5000    137.4819      7.4299      8.1271     14.2482
  2036.7500    137.6070      7.4311      8.2302     16.6256
  2037.0000    137.7565      7.4516      8.2941     18.1717
  2037.2500    137.9149      7.4944      8.3129     18.1452
  2037.5000    138.0643      7.5612      8.2968     16.6610
  2037.7500    138.1900      7.6519      8.2677     14.5853
  2038.0000    138.2840      7.7635      8.2496     12.8221
  2038.2500    138.3424      7.8892      8.2604     11.7635
  2038.5000    138.3623      8.0179      8.3077     11.3165
  2038.7500    138.3420      8.1378      8.3878     11.2325
  2039.0000    138.2851      8.2408      8.4900     11.3398
  2039.2500    138.2054      8.3270      8.6032     11.5742
  2039.5000    138.1259      8.4045      8.7214     11.9161
  2039.7500    138.0720      8.4860      8.8464     12.3462
  2040.0000    138.0594      8.5829      8.9868     12.8465
  2040.2500    138.0848      8.7030      9.1523     13.4113
  2040.5000    138.1280      8.8506      9.3491     14.0396
  2040.7500    138.1638      9.0286      9.5765     14.7233
  2041.0000    138.1740      9.2403      9.8283     15.4602
  2041.2500    138.1519      9.4897     10.0966     16.2868
  2041.5000    138.1014      9.7789     10.3756     17.2911
  2041.7500    138.0328     10.1047     10.6638     18.5681
  2042.0000    137.9585     10.4552     10.9640     20.1295
  2042.2500    137.8879     10.8116     11.2838     21.8215
  2042.5000    137.8234     11.1563     11.6334     23.3090
  2042.7500    137.7597     11.4834     12.0208     24.2005
  2043.0000    137.6871     11.8022     12.4472     24.3189
  2043.2500    137.5999     12.1305     12.9047     23.9116
  2043.5000    137.5042     12.4833     13.3822     23.5415
  2043.7500    137.4176     12.8668     13.8736     23.7215
  2044.0000    137.3577     13.2798     14.3840     24.6485
  2044.2500    137.3293     13.7176     14.9308     26.2074
  2044.5000    137.3219     14.1754     15.5384     28.0989
  2044.7500    137.3201     14.6482     16.2276     29.9923
  2045.0000    137.3163     15.1293     17.0005     31.7785
  2045.2500    137.3114     15.6104     17.8290     33.8024
  2045.5000    137.3029     16.0855     18.6570     36.7256
  2045.7500    137.2725     16.5529     19.4268     40.9833
  2046.0000    137.1931     17.0149     20.1119     46.3270
  2046.2500    137.0521     17.4725     20.7281     51.9084
  2046.5000    136.8635     17.9227     21.3128     56.7621
  2046.7500    136.6520     18.3614     21.8958     60.1808
  2047.0000    136.4323     18.7874     22.4830     61.7840
  2047.2500    136.2076     19.2022     23.0608     61.5419
  2047.5000    135.9838     19.6021     23.6121     59.9249
  2047.7500    135.7759     19.9703     24.1308     57.9273
  2048.0000    135.6043     20.2735     24.6231     56.6909
  2048.2500    135.4865     20.4668     25.0926     56.9160
  2048.5000    135.4320     20.5087     25.5253     58.5631
  2048.7500    135.4404     20.3808     25.8858     61.0962
  2049.0000    135.5033     20.1024     26.1292     63.9913
  2049.2500    135.6110     19.7219     26.2095     67.0385
  2049.5000    135.7618     19.2915     26.0769     70.2620
  2049.7500    135.9648     18.8463     25.6745     73.6328
  2050.0000    136.2305     18.4088     24.9566     76.7658
  2050.2500    136.5546     18.0072     23.9219     78.6834
  2050.5000    136.9107     17.6824     22.6355     77.8466
  2050.7500    137.2618     17.4721     21.2186     72.7911
  2051.0000    137.5773     17.3862     19.8161     63.2513
  2051.2500    137.8433     17.3998     18.5622     50.8537
  2051.5000    138.0644     17.4680     17.5571     38.5008
  2051.7500    138.2570     17.5496     16.8588     28.8018
  2052.0000    138.4343     17.6132     16.4844     22.9268
  2052.2500    138.5886     17.6272     16.4166     20.7371
  2052.5000    138.6901     17.5601     16.6139     21.6829
  2052.7500    138.7055     17.4075     17.0213     25.3960
  2053.0000    138.6199     17.2162     17.5853     31.5626
  2053.2500    138.4452     17.0704     18.2653     39.5150
  2053.5000    138.2153     17.0469     19.0375     48.1294
  2053.7500    137.9775     17.1798     19.8856     56.1545
  2054.0000    137.7815     17.4559     20.7843     62.7448
  2054.2500    137.6609     17.8340     21.6898     67.8940
  2054.5000    137.6176     18.2692     22.5469     72.3387
  2054.7500    137.6232     18.7259     23.3099     76.7262
  2055.0000    137.6441     19.1765     23.9536     80.7128
  2055.2500    137.6667     19.5905     24.4613     83.0675
  2055.5000    137.7001     19.9275     24.8072     82.7377
  2055.7500    137.7596     20.1410     24.9609     79.5554
  2056.0000    137.8497     20.1939     24.9096     73.8900
  2056.2500    137.9593     20.0699     24.6726     66.1840
  2056.5000    138.0690     19.7708     24.2907     57.2469
  2056.7500    138.1594     19.3018     23.8046     48.6441
  2057.0000    138.2186     18.6656     23.2371     42.1712
  2057.2500    138.2455     17.8753     22.5852     38.7518
  2057.5000    138.2505     16.9711     21.8197     37.9347
  2057.7500    138.2509     16.0182     20.8945     38.4217
  2058.0000    138.2651     15.0846     19.7728     38.9337
  2058.2500    138.3059     14.2181     18.4596     38.5898
  2058.5000    138.3764     13.4391     17.0201     36.7999
  2058.7500    138.4702     12.7466     15.5614     33.2907
  2059.0000    138.5751     12.1295     14.1899     28.4259
  2059.2500    138.6783     11.5749     12.9758     23.2364
  2059.5000    138.7714     11.0732     11.9460     18.8283
  2059.7500    138.8509     10.6190     11.0965     15.7161
  2060.0000    138.9162     10.2099     10.4085     13.7336
  2060.2500    138.9664      9.8439      9.8590     12.4509
  2060.5000    139.0015      9.5185      9.4249     11.5732
