~Version Information
VERS.                      2.0: CWLS Log ASCII Standard - VERSION 2.0
WRAP.                       NO: One line per depth step
~Well Information Block
STRT.FT               380.0000: 
STOP.FT               899.2000: 
STEP.FT                 0.1000: 
NULL.                -999.2500: 
COMP.          Pioneer Natural Resources: COMPANY
WELL.          Prospector 12-19: WELL
FLD.           Purgatoire River: FIELD
LOC.           2262' FNL & 634' FWL: LOCATION
PROV.                 Colorado: PROVINCE
CNTY.               Las Animas: COUNTRY
SRVC.                Patterson: SERVICE COMPANY
DATE.          Mon Apr 25 09:33:09 2005: LOG DATE
UWI.           05 071 08191 00: UNIQUE WELL ID
~Curve Information Block
DEPT.FT            0 000 00 00: Depth
DCAL.in                       : CDL Caliper
RHOB.g/cc                     : CDL Bulk Density
RHOC.g/cc                     : CDL Density Correction
DPOR.pu                       : CDL Density Porosity
GR.GAPI                       : Gamma Ray
NPOR.pu                       : Neutron Porosity
~Parameter Information Block
~A  Depth       DCAL        RHOB        RHOC        DPOR         GR         NPOR    
# ...
   888.8000      7.8156      2.5610      0.1284      5.3956   -999.2500   -999.2500
   888.9000      7.8156      2.5463      0.0860      6.2842   -999.2500   -999.2500
   889.0000      7.8074      2.5225      0.0106      7.7266   -999.2500   -999.2500
   889.1000      7.8074      2.5110      0.0643      8.4262   -999.2500   -999.2500
   889.2000      7.8074      2.5104      0.0259      8.4598   -999.2500   -999.2500
   889.3000      7.8094      2.5039      0.0255      8.8574   -999.2500   -999.2500
   889.4000      7.8094      2.4924      0.0061      9.5528   -999.2500   -999.2500
   889.5000      7.8350      2.4912      0.0586      9.6232   -999.2500   -999.2500
   889.6000      7.8350      2.5041      0.0329      8.8409   -999.2500   -999.2500
   889.7000      7.8350      2.5194      0.0744      7.9124   -999.2500   -999.2500
   889.8000      7.8389      2.5253      0.0981      7.5603   -999.2500   -999.2500
   889.9000      7.8389      2.5310      0.0616      7.2144   -999.2500   -999.2500
   890.0000      7.8157      2.5426      0.1156      6.5110   -999.2500   -999.2500
   890.1000      7.8157      2.5423      0.1384      6.5278   -999.2500   -999.2500
   890.2000      7.8157      2.5284      0.0706      7.3727   -999.2500   -999.2500
   890.3000      7.7699      2.5177      0.0698      8.0165   -999.2500   -999.2500
   890.4000      7.7699      2.5170      0.0628      8.0595   -999.2500   -999.2500
   890.5000      7.7830      2.5295      0.0229      7.3043   -999.2500   -999.2500
   890.6000      7.7830      2.5594      0.0938      5.4927   -999.2500   -999.2500
   890.7000      7.7830      2.5899      0.1160      3.6425   -999.2500   -999.2500
   890.8000      7.7952      2.5982      0.1442      3.1402   -999.2500   -999.2500
   890.9000      7.7952      2.5895      0.0908      3.6686   -999.2500   -999.2500
   891.0000      7.8143      2.5828      0.0853      4.0731   -999.2500   -999.2500
   891.1000      7.8143      2.5838      0.0894      4.0147   -999.2500   -999.2500
   891.2000      7.8143      2.5862      0.1259      3.8646   -999.2500   -999.2500
   891.3000      7.8261      2.5817      0.0915      4.1389   -999.2500   -999.2500
   891.4000      7.8261      2.5731      0.0709      4.6605   -999.2500   -999.2500
   891.5000      7.8317      2.5695      0.0564      4.8789   -999.2500   -999.2500
   891.6000      7.8317      2.5670      0.0652      5.0283   -999.2500   -999.2500
   891.7000      7.8317      2.5532      0.0726      5.8683   -999.2500   -999.2500
   891.8000      7.8352      2.5323     -0.0189      7.1310   -999.2500   -999.2500
   891.9000      7.8352      2.5251      0.0453      7.5689   -999.2500   -999.2500
   892.0000      7.8454      2.5331      0.0360      7.0867   -999.2500   -999.2500
   892.1000      7.8454      2.5402      0.0575      6.6561   -999.2500   -999.2500
   892.2000      7.8454      2.5412      0.0579      6.5955   -999.2500   -999.2500
   892.3000      7.8369      2.5434      0.0636      6.4603   -999.2500   -999.2500
   892.4000      7.8369      2.5523      0.0370      5.9184   -999.2500   -999.2500
   892.5000      7.8266      2.5637      0.0611      5.2306   -999.2500   -999.2500
   892.6000      7.8266      2.5712      0.0475      4.7769   -999.2500   -999.2500
   892.7000      7.8266      2.5772      0.0768      4.4106   -999.2500   -999.2500
   892.8000      7.7993      2.5860      0.0528      3.8773   -999.2500   -999.2500
   892.9000      7.7993      2.5974      0.0727      3.1889   -999.2500   -999.2500
   893.0000      7.8116      2.6030      0.0665      2.8461   -999.2500   -999.2500
   893.1000      7.8116      2.5956      0.0669      3.2969   -999.2500   -999.2500
   893.2000      7.8116      2.5785      0.0766      4.3315   -999.2500   -999.2500
   893.3000      7.8185      2.5574      0.0753      5.6108   -999.2500   -999.2500
   893.4000      7.8185      2.5360      0.0180      6.9118   -999.2500   -999.2500
   893.5000      7.8199      2.5223      0.0395      7.7394   -999.2500   -999.2500
   893.6000      7.8199      2.5193      0.0539      7.9233   -999.2500   -999.2500
   893.7000      7.8199      2.5245      0.0252      7.6072   -999.2500   -999.2500
   893.8000      7.8184      2.5322      0.0669      7.1384   -999.2500   -999.2500
   893.9000      7.8184      2.5301      0.0129      7.2654   -999.2500   -999.2500
   894.0000      7.8120      2.5210     -0.0275      7.8208   -999.2500   -999.2500
   894.1000      7.8120      2.5170      0.0491      8.0580   -999.2500   -999.2500
   894.2000      7.8120      2.5202     -0.0144      7.8644   -999.2500   -999.2500
   894.3000      7.8075      2.5260      0.0371      7.5179   -999.2500   -999.2500
   894.4000      7.8075      2.5271     -0.0064      7.4509   -999.2500   -999.2500
   894.5000      7.8101      2.5221      0.0439      7.7538   -999.2500   -999.2500
   894.6000      7.8101      2.5184     -0.0004      7.9747   -999.2500   -999.2500
   894.7000      7.8101      2.5238     -0.0129      7.6500   -999.2500   -999.2500
   894.8000      7.8090      2.5370      0.0409      6.8465   -999.2500   -999.2500
   894.9000      7.8090      2.5578      0.0377      5.5875   -999.2500   -999.2500
   895.0000      7.8028      2.5835      0.0682      4.0313   -999.2500   -999.2500
   895.1000      7.8028      2.5993     -0.0015      3.0704   -999.2500   -999.2500
   895.2000      7.8028      2.5974      0.0299      3.1881   -999.2500   -999.2500
   895.3000      7.7873      2.5814      0.0443      4.1591   -999.2500   -999.2500
   895.4000      7.7873      2.5598      0.0000      5.4693   -999.2500   -999.2500
   895.5000      7.7744      2.5426      0.0268      6.5079   -999.2500   -999.2500
   895.6000      7.7744      2.5515      0.0003      5.9670   -999.2500   -999.2500
   895.7000      7.7744      2.6267      0.0303      1.4116   -999.2500   -999.2500
   895.8000      7.7380      2.6575      0.0272     -0.4555   -999.2500   -999.2500
   895.9000      7.7380      2.2283      0.5037     25.5549   -999.2500   -999.2500
   896.0000      7.4397      1.2683      0.0200     83.7412   -999.2500   -999.2500
   896.1000      7.4397      0.4308      0.0200    134.4987   -999.2500   -999.2500
   896.2000      7.4397      0.0819   -999.2500    155.6435   -999.2500   -999.2500
   896.3000      6.5035      0.0084   -999.2500    160.0942   -999.2500   -999.2500
   896.4000      6.5035      0.0005   -999.2500    160.5782   -999.2500   -999.2500
   896.5000      5.2495      0.0000   -999.2500    160.6061   -999.2500   -999.2500
   896.6000      5.2495      0.0000   -999.2500    160.6061   -999.2500   -999.2500
   896.7000      5.2495   -999.2500   -999.2500   -999.2500   -999.2500   -999.2500
   896.8000      5.0934   -999.2500   -999.2500   -999.2500   -999.2500   -999.2500
   896.9000      5.0934   -999.2500   -999.2500   -999.2500   -999.2500   -999.2500
   897.0000   -999.2500   -999.2500   -999.2500   -999.2500   -999.2500   -999.2500
   897.1000   -999.2500   -999.2500   -999.2500   -999.2500   -999.2500   -999.2500
   897.2000   -999.2500   -999.2500   -999.2500   -999.2500   -999.2500   -999.2500
   897.3000   -999.2500   -999.2500   -999.2500   -999.2500   -999.2500   -999.2500
   897.4000   -999.2500   -999.2500   -999.2500   -999.2500   -999.2500   -999.2500
   897.5000   -999.2500   -999.2500   -999.2500   -999.2500   -999.2500   -999.2500
   897.6000   -999.2500   -999.2500   -999.2500   -999.2500   -999.2500   -999.2500
   897.7000   -999.2500   -999.2500   -999.2500   -999.2500   -999.2500   -999.2500
   897.8000   -999.2500   -999.2500   -999.2500   -999.2500   -999.2500   -999.2500
   897.9000   -999.2500   -999.2500   -999.2500   -999.2500   -999.2500   -999.2500
   898.0000   -999.2500   -999.2500   -999.2500   -999.2500   -999.2500   -999.2500
   898.1000   -999.2500   -999.2500   -999.2500   -999.2500   -999.2500   -999.2500
   898.2000   -999.2500   -999.2500   -999.2500   -999.2500   -999.2500   -999.2500
   898.3000   -999.2500   -999.2500   -999.2500   -999.2500   -999.2500   -999.2500
