~Version Information
VERS.                      2.0: CWLS Log ASCII Standard - VERSION 2.0
WRAP.                       NO: One line per depth step
~Well Information Block
STRT.FT               890.0000: 
STOP.FT              1588.2000: 
STEP.FT                 0.1000: 
NULL.                -999.2500: 
COMP.          Evergreen Operating Corporation: COMPANY
WELL.            Tomahawk 44-9: WELL
FLD.           Purgatorie River: FIELD
LOC.           434' FSL & 491' FEL: LOCATION
PROV.                 Colorado: PROVINCE
CNTY.               Las Animas: COUNTRY
SRVC.                         : SERVICE COMPANY
DATE.          Mon Sep 13 10:07:57 2004: LOG DATE
UWI.           05 071 08133 00: UNIQUE WELL ID
~Curve Information Block
DEPT.FT            0 000 00 00: Depth
LTEN.lb                       : Surface Line Tension
DCAL.in                       : CDL Caliper
RHOB.g/cc                     : CDL Bulk Density
RHOC.g/cc                     : CDL Density Correction
DPOR.pu                       : CDL Density Porosity
GR.GAPI                       : Gamma Ray
NPOR.pu                       : Neutron Porosity
~Parameter Information Block
~A  Depth       LTEN        DCAL        RHOB        RHOC        DPOR         GR         NPOR    
   890.0000    896.9429      2.7207      1.7378     -0.9051     55.2835     68.2063     35.7735
   890.1000    896.9429      2.7207      1.5789     -1.0815     64.9154     80.8188     35.2475
   890.2000    896.9429      2.7207      1.4209     -1.2714     74.4908     87.5057     33.7688
   890.3000    894.8257      2.7206      1.3423     -1.4967     79.2551     82.2933     31.6995
   890.4000    894.8257      2.7206      1.3796     -1.5954     76.9929     77.6458     29.9839
   890.5000    896.5807      2.7195      1.4995     -1.6097     69.7262     80.4101     28.8104
   890.6000    896.5807      2.7195      1.6358     -1.4981     61.4679     82.0367     28.0362
   890.7000    896.5807      2.7195      1.7401     -1.3857     55.1468     81.2203     28.0207
   890.8000    899.7245      2.7166      1.8116     -1.3937     50.8128     85.3796     28.2320
   890.9000    899.7245      2.7166      1.8769     -1.2439     46.8575     95.0818     27.6333
   891.0000    887.0222      2.7192      1.9351     -0.8940     43.3288    104.6218     26.5226
   891.1000    887.0222      2.7192      1.9579     -0.8291     41.9473    109.9998     25.7841
   891.2000    887.0222      2.7192      1.9477     -0.8545     42.5650    112.1332     25.5820
   891.3000    901.7659      2.7188      1.9235     -0.7811     44.0294    113.7539     25.6949
   891.4000    901.7659      2.7188      1.8847     -0.8241     46.3816    112.2336     26.0152
   891.5000    887.7457      2.7207      1.8471     -0.8681     48.6606    104.7451     26.1442
   891.6000    887.7457      2.7207      1.8366     -0.7848     49.2973    100.8701     25.8340
   891.7000    887.7457      2.7207      1.8434     -0.7468     48.8878    107.4483     25.5658
   891.8000    899.4813      2.7224      1.8476     -0.7494     48.6319    116.2093     25.6515
   891.9000    899.4813      2.7224      1.8634     -0.8357     47.6697    121.4561     25.9884
   892.0000    888.4166      2.7229      1.9119     -0.7642     44.7303    125.6724     26.5890
   892.1000    888.4166      2.7229      1.9778     -0.7082     40.7418    130.9088     27.1562
   892.2000    888.4166      2.7229      2.0386     -0.7102     37.0524    135.6128     26.9059
   892.3000    912.3149      2.7227      2.0926     -0.6722     33.7792    136.5222     25.8392
   892.4000    912.3149      2.7227      2.1329     -0.6353     31.3365    135.3120     24.9776
   892.5000    897.5132      2.7235      2.1528     -0.6327     30.1328    136.2903     24.6602
   892.6000    897.5132      2.7235      2.1665     -0.6762     29.3015    139.2007     24.4953
   892.7000    897.5132      2.7235      2.1829     -0.5999     28.3065    142.3468     24.1988
   892.8000    890.2579      2.7216      2.1875     -0.6214     28.0304    146.9884     23.8334
   892.9000    890.2579      2.7216      2.1735     -0.5934     28.8774    155.1207     23.5431
   893.0000    900.7297      2.7196      2.1517     -0.6406     30.1996    163.2794     23.0889
   893.1000    900.7297      2.7196      2.1353     -0.6941     31.1938    165.4367     22.5102
   893.2000    900.7297      2.7196      2.1240     -0.6446     31.8805    162.3317     22.4776
   893.3000    881.3153      2.7221      2.1183     -0.7611     32.2271    159.0980     23.1480
   893.4000    881.3153      2.7221      2.1335     -0.6557     31.3045    157.2827     23.7204
   893.5000    907.4895      2.7220      2.1690     -0.6852     29.1541    155.2095     23.6713
   893.6000    907.4895      2.7220      2.2029     -0.6289     27.0944    154.4934     23.4349
   893.7000    907.4895      2.7220      2.2123     -0.5956     26.5268    161.1084     23.0996
   893.8000    894.7706      2.7211      2.1894     -0.6314     27.9150    175.2133     22.3598
   893.9000    894.7706      2.7211      2.1499     -0.6625     30.3086    183.8284     21.1815
   894.0000    897.1425      2.7201      2.1252     -0.7001     31.8072    178.2135     20.1237
   894.1000    897.1425      2.7201      2.1311     -0.5981     31.4487    166.3866     19.9844
   894.2000    897.1425      2.7201      2.1532     -0.6099     30.1073    157.6263     20.4084
   894.3000    894.2781      2.7212      2.1770     -0.5869     28.6656    149.8525     20.6031
   894.4000    894.2781      2.7212      2.2053     -0.5754     26.9538    139.2106     20.4523
   894.5000    890.2059      2.7223      2.2360     -0.4813     25.0920    129.4248     20.3117
   894.6000    890.2059      2.7223      2.2586     -0.5067     23.7224    122.0338     20.7473
   894.7000    890.2059      2.7223      2.2771     -0.4697     22.5981    116.9389     21.5316
   894.8000    897.6801      2.7224      2.2918     -0.4906     21.7109    119.8276     21.6512
   894.9000    897.6801      2.7224      2.2862     -0.4761     22.0461    126.4297     20.9473
   895.0000    882.2869      2.7241      2.2602     -0.5167     23.6251    120.9968     20.6736
   895.1000    882.2869      2.7241      2.2412     -0.5462     24.7785    104.4459     21.3324
   895.2000    882.2869      2.7241      2.2434     -0.5748     24.6424     93.4146     21.8654
   895.3000    900.9614      2.7238      2.2519     -0.5988     24.1260     93.5985     21.9054
   895.4000    900.9614      2.7238      2.2467     -0.5762     24.4418     97.1584     21.7571
   895.5000    890.6839      2.7223      2.2249     -0.6588     25.7666     98.2464     21.2398
   895.6000    890.6839      2.7223      2.2021     -0.5834     27.1484     99.3852     20.3884
   895.7000    890.6839      2.7223      2.1961     -0.6405     27.5114    103.9571     19.6881
   895.8000    901.0846      2.7225      2.2095     -0.4956     26.6995    111.4639     19.2845
   895.9000    901.0846      2.7225      2.2254     -0.5241     25.7363    118.6890     19.1358
   896.0000    886.6654      2.7229      2.2324     -0.5532     25.3074    125.3347     19.2271
   896.1000    886.6654      2.7229      2.2289     -0.5365     25.5198    132.0942     19.4064
   896.2000    886.6654      2.7229      2.2091     -0.4924     26.7193    136.5141     19.6516
   896.3000    893.8436      2.7223      2.1781     -0.5730     28.5997    139.4826     20.0890
   896.4000    893.8436      2.7223      2.1569     -0.5652     29.8832    142.3160     20.2508
   896.5000    893.4738      2.7231      2.1569     -0.6219     29.8834    140.9554     19.6629
   896.6000    893.4738      2.7231      2.1719     -0.5489     28.9729    137.6599     18.8300
   896.7000    893.4738      2.7231      2.1856     -0.4963     28.1435    138.4091     18.3919
   896.8000    891.8631      2.7219      2.1845     -0.5087     28.2102    137.8766     18.2333
   896.9000    891.8631      2.7219      2.1807     -0.5842     28.4440    129.8087     17.8537
   897.0000    906.7303      2.7224      2.1915     -0.5199     27.7908    120.5508     17.7968
   897.1000    906.7303      2.7224      2.1955     -0.5101     27.5470    114.7971     18.8402
   897.2000    906.7303      2.7224      2.1726     -0.6387     28.9317    110.6652     20.1871
   897.3000    886.0771      2.7246      2.1391     -0.6059     30.9612    109.0613     20.7380
   897.4000    886.0771      2.7246      2.1128     -0.5674     32.5595    110.2235     20.5315
   897.5000    899.0136      2.7230      2.1074     -0.6184     32.8878    112.5060     19.9730
   897.6000    899.0136      2.7230      2.1273     -0.5807     31.6800    114.4934     19.1564
   897.7000    899.0136      2.7230      2.1465     -0.5380     30.5127    107.7907     18.4134
   897.8000    885.4880      2.7238      2.1388     -0.5281     30.9844    110.5190     18.1263
   897.9000    885.4880      2.7238      2.1129     -0.5489     32.5544    114.3596     18.0828
   898.0000    898.4550      2.7238      2.0991     -0.6098     33.3907    116.1754     18.1378
   898.1000    898.4550      2.7238      2.1048     -0.5214     33.0405    113.7681     18.4468
   898.2000    898.4550      2.7238      2.1049     -0.5654     33.0386    112.4402     19.0922
   898.3000    892.8081      2.7230      2.0811     -0.5632     34.4795    117.7151     19.9883
