~Version Information
VERS.                      2.0: CWLS Log ASCII Standard - VERSION 2.0
WRAP.                       NO: One line per depth step
~Well Information Block
STRT.FT               450.0000: 
STOP.FT              1642.0000: 
STEP.FT                 0.1000: 
NULL.                -999.2500: 
COMP.          Pioneer Natural Resources: COMPANY
WELL.           Buckhorn 12-21: WELL
FLD.           Purgatoire River: FIELD
LOC.           2450' FNL & 608' FWL: LOCATION
PROV.                 Colorado: PROVINCE
CNTY.               Las Animas: COUNTRY
SRVC.                Patterson: SERVICE COMPANY
DATE.          Wed Dec 01 15:08:21 2004: LOG DATE
UWI.           05 071 08129 00: UNIQUE WELL ID
~Curve Information Block
DEPT.FT            0 000 00 00: Depth
NPOR.pu                       : Neutron Porosity
CCL.                          : Casing Collar Locator
GR.GAPI                       : Gamma Ray
~Parameter Information Block
~A  Depth       NPOR        CCL          GR     
# ...
  1468.7000     32.2629      0.0000     69.3383
  1468.8000     32.8890      0.0000     62.9009
  1468.9000     32.8890      0.0000     62.9009
  1469.0000     33.1441      0.0000     56.0187
  1469.1000     33.1441      0.0000     56.0187
  1469.2000     33.1441      0.0000     56.0187
  1469.3000     33.1444      0.0000     49.5337
  1469.4000     33.1444      0.0000     49.5337
  1469.5000     32.9163      0.0000     44.0427
  1469.6000     32.9163      0.0000     44.0427
  1469.7000     32.9163      0.0000     44.0427
  1469.8000     32.5038      0.0000     40.0840
  1469.9000     32.5038      0.0000     40.0840
  1470.0000     32.0135      0.0000     38.2275
  1470.1000     32.0135      0.0000     38.2275
  1470.2000     32.0135      0.0000     38.2275
  1470.3000     31.5123      0.0000     38.6138
  1470.4000     31.5123      0.0000     38.6138
  1470.5000     30.9686      0.0000     40.5823
  1470.6000     30.9686      0.0000     40.5823
  1470.7000     30.9686      0.0000     40.5823
  1470.8000     30.3447      0.0000     43.0640
  1470.9000     30.3447      0.0000     43.0640
  1471.0000     29.6777      0.0000     45.2435
  1471.1000     29.6777      0.0000     45.2435
  1471.2000     29.6777      0.0000     45.2435
  1471.3000     29.0183      0.0000     46.8515
  1471.4000     29.0183      0.0000     46.8515
  1471.5000     28.3346      0.0000     48.2250
  1471.6000     28.3346      0.0000     48.2250
  1471.7000     28.3346      0.0000     48.2250
  1471.8000     27.5015      0.0000     50.2684
  1471.9000     27.5015      0.0000     50.2684
  1472.0000     26.3581      0.0000     54.1008
  1472.1000     26.3581      0.0000     54.1008
  1472.2000     26.3581      0.0000     54.1008
  1472.3000     24.7989      0.0000     60.4137
  1472.4000     24.7989      0.0000     60.4137
  1472.5000     22.8887      0.0000     68.8901
  1472.6000     22.8887      0.0000     68.8901
  1472.7000     22.8887      0.0000     68.8901
  1472.8000     20.9158      0.0000     78.0089
  1472.9000     20.9158      0.0000     78.0089
  1473.0000     19.2918      0.0000     85.5710
  1473.1000     19.2918      0.0000     85.5710
  1473.2000     19.2918      0.0000     85.5710
  1473.3000     18.3674      0.0000     89.8349
  1473.4000     18.3674      0.0000     89.8349
  1473.5000     18.3305      0.0000     90.4047
  1473.6000     18.3305      0.0000     90.4047
  1473.7000     18.3305      0.0000     90.4047
  1473.8000     19.2147      0.0000     88.0037
  1473.9000     19.2147      0.0000     88.0037
  1474.0000     20.9203      0.0000     83.4611
  1474.1000     20.9203      0.0000     83.4611
  1474.2000     20.9203      0.0000     83.4611
  1474.3000     23.1947      0.0000     77.1546
  1474.4000     23.1947      0.0000     77.1546
  1474.5000     25.6441      0.0000     69.4598
  1474.6000     25.6441      0.0000     69.4598
  1474.7000     25.6441      0.0000     69.4598
  1474.8000     27.8556      0.0000     61.3370
  1474.9000     27.8556      0.0000     61.3370
  1475.0000     29.5699      0.0000     54.0663
  1475.1000     29.5699      0.0000     54.0663
  1475.2000     29.5699      0.0000     54.0663
  1475.3000     30.7538      0.0000     48.3562
  1475.4000     30.7538      0.0000     48.3562
  1475.5000     31.5284      0.0000     43.8997
  1475.6000     31.5284      0.0000     43.8997
  1475.7000     31.5284      0.0000     43.8997
  1475.8000     32.0534      0.0000     39.8738
  1475.9000     32.0534      0.0000     39.8738
  1476.0000     32.4635      0.0000     35.7940
  1476.1000     32.4635      0.0000     35.7940
  1476.2000     32.4635      0.0000     35.7940
  1476.3000     32.8648      0.0000     31.9042
  1476.4000     32.8648      0.0000     31.9042
  1476.5000     33.3411      0.0000     28.8726
  1476.6000     33.3411      0.0000     28.8726
  1476.7000     33.3411      0.0000     28.8726
  1476.8000     33.9147      0.0000     27.0950
  1476.9000     33.9147      0.0000     27.0950
  1477.0000     34.4985      0.0000     26.2405
  1477.1000     34.4985      0.0000     26.2405
  1477.2000     34.4985      0.0000     26.2405
  1477.3000     34.9481      0.0000     25.4698
  1477.4000     34.9481      0.0000     25.4698
  1477.5000     35.2066      0.0000     24.0561
  1477.6000     35.2066      0.0000     24.0561
  1477.7000     35.2066      0.0000     24.0561
  1477.8000     35.3688      0.0000     21.8530
  1477.9000     35.3688      0.0000     21.8530
  1478.0000     35.5893      0.0000     19.3969
  1478.1000     35.5893      0.0000     19.3969
  1478.2000     35.5893      0.0000     19.3969
  1478.3000     35.9485      0.0000     17.6018
  1478.4000     35.9485      0.0000     17.6018
  1478.5000     36.3935      0.0000     17.1679
  1478.6000     36.3935      0.0000     17.1679
  1478.7000     36.3935      0.0000     17.1679
  1478.8000     36.7698      0.0000     18.2261
  1478.9000     36.7698      0.0000     18.2261
  1479.0000     36.9238      0.0000     20.5387
  1479.1000     36.9238      0.0000     20.5387
  1479.2000     36.9238      0.0000     20.5387
  1479.3000     36.8148      0.0000     23.8278
  1479.4000     36.8148      0.0000     23.8278
  1479.5000     36.5392      0.0000     27.8011
  1479.6000     36.5392      0.0000     27.8011
  1479.7000     36.5392      0.0000     27.8011
  1479.8000     36.2481      0.0000     32.0732
  1479.9000     36.2481      0.0000     32.0732
  1480.0000     36.0469      0.0000     36.2364
  1480.1000     36.0469      0.0000     36.2364
  1480.2000     36.0469      0.0000     36.2364
  1480.3000     35.9633      0.0000     39.8697
  1480.4000     35.9633      0.0000     39.8697
  1480.5000     35.9875      0.0000     42.4264
  1480.6000     35.9875      0.0000     42.4264
  1480.7000     35.9875      0.0000     42.4264
  1480.8000     36.1269      0.0000     43.4426
  1480.9000     36.1269      0.0000     43.4426
  1481.0000     36.4023      0.0000     43.1289
  1481.1000     36.4023      0.0000     43.1289
  1481.2000     36.4023      0.0000     43.1289
  1481.3000     36.7881      0.0000     42.5689
  1481.4000     36.7881      0.0000     42.5689
  1481.5000     37.1791      0.0000     43.1351
  1481.6000     37.1791      0.0000     43.1351
  1481.7000     37.1791      0.0000     43.1351
  1481.8000     37.4491      0.0000     45.8486
  1481.9000     37.4491      0.0000     45.8486
  1482.0000     37.5375      0.0000     51.2248
  1482.1000     37.5375      0.0000     51.2248
  1482.2000     37.5375      0.0000     51.2248
  1482.3000     37.4514      0.0000     59.2324
  1482.4000     37.4514      0.0000     59.2324
  1482.5000     37.2060      0.0000     69.1406
  1482.6000     37.2060      0.0000     69.1406
  1482.7000     37.2060      0.0000     69.1406
  1482.8000     36.8097      0.0000     79.7186
  1482.9000     36.8097      0.0000     79.7186
  1483.0000     36.3142      0.0000     89.9698
  1483.1000     36.3142      0.0000     89.9698
  1483.2000     36.3142      0.0000     89.9698
  1483.3000     35.8343      0.0000     99.6545
  1483.4000     35.8343      0.0000     99.6545
  1483.5000     35.4848      0.0000    108.7883
  1483.6000     35.4848      0.0000    108.7883
  1483.7000     35.4848      0.0000    108.7883
  1483.8000     35.3069      0.0000    116.5974
  1483.9000     35.3069      0.0000    116.5974
  1484.0000     35.2663      0.0000    121.3890
  1484.1000     35.2663      0.0000    121.3890
  1484.2000     35.2663      0.0000    121.3890
  1484.3000     35.3062      0.0000    121.8149
  1484.4000     35.3062      0.0000    121.8149
  1484.5000     35.3908      0.0000    118.1572
  1484.6000     35.3908      0.0000    118.1572
  1484.7000     35.3908      0.0000    118.1572
  1484.8000     35.5155      0.0000    112.2125
  1484.9000     35.5155      0.0000    112.2125
  1485.0000     35.7007      0.0000    106.0247
  1485.1000     35.7007      0.0000    106.0247
  1485.2000     35.7007      0.0000    106.0247
  1485.3000     35.9654      0.0000    100.7642
