~Version Information
VERS.                      2.0: CWLS Log ASCII Standard - VERSION 2.0
WRAP.                       NO: One line per depth step
~Well Information Block
STRT.FT               423.0000: 
STOP.FT              2306.0000: 
STEP.FT                 0.1000: 
NULL.                -999.2500: 
COMP.          Pioneer Natural Resources: COMPANY
WELL.             Culver 14-12: WELL
FLD.           Purgatoire River: FIELD
LOC.           913' FSL & 1140' FWL: LOCATION
PROV.                 Colorado: PROVINCE
CNTY.               Las Animas: COUNTRY
SRVC.                Patterson: SERVICE COMPANY
DATE.          Tue Jun 07 09:21:05 2005: LOG DATE
UWI.           05 071 08386 00: UNIQUE WELL ID
~Curve Information Block
DEPT.FT            0 000 00 00: Depth
DCAL.in                       : CDL Caliper
RHOB.g/cc                     : CDL Bulk Density
RHOC.g/cc                     : CDL Density Correction
DPOR.pu                       : CDL Density Porosity
GR.GAPI                       : Gamma Ray
NPOR.pu                       : Neutron Porosity
~Parameter Information Block
~A  Depth       DCAL        RHOB        RHOC        DPOR         GR         NPOR    
# ...
  2170.2000      7.9763      2.5301      0.0618      7.2650     60.2305     18.2998
  2170.3000      7.9893      2.5204      0.0299      7.8552     60.3763     17.7273
  2170.4000      7.9893      2.5223      0.0446      7.7393     64.7619     17.1948
  2170.5000      7.9764      2.5337      0.0446      7.0496     67.3010     17.2453
  2170.6000      7.9764      2.5405      0.0690      6.6378     65.9723     17.6712
  2170.7000      7.9764      2.5433      0.0713      6.4688     62.8042     17.4754
  2170.8000      7.9795      2.5511      0.0603      5.9917     60.8704     16.2823
  2170.9000      7.9795      2.5494      0.1225      6.0958     60.4499     15.1281
  2171.0000      7.9773      2.5248      0.0333      7.5879     61.8927     14.8884
  2171.1000      7.9773      2.5113     -0.0060      8.4041     65.7909     15.6582
  2171.2000      7.9773      2.5309      0.0760      7.2192     68.3039     17.1892
  2171.3000      7.9784      2.5467      0.0674      6.2624     67.9907     18.5526
  2171.4000      7.9784      2.5315      0.0387      7.1823     69.6195     18.7393
  2171.5000      7.9708      2.5043      0.0193      8.8299     73.0396     18.0448
  2171.6000      7.9708      2.4891      0.0302      9.7543     72.1164     17.2931
  2171.7000      7.9708      2.4861      0.0646      9.9357     63.8017     16.9677
  2171.8000      7.9791      2.4907     -0.0016      9.6544     53.7905     17.3633
  2171.9000      7.9791      2.5131     -0.0126      8.2969     50.5939     18.1045
  2172.0000      7.9742      2.5538      0.0414      5.8329     54.3337     18.4196
  2172.1000      7.9742      2.5951      0.1245      3.3260     59.0657     18.1586
  2172.2000      7.9742      2.6213      0.1037      1.7394     62.3855     17.4512
  2172.3000      7.9692      2.6174      0.1436      1.9753     64.9405     16.5017
  2172.4000      7.9692      2.5844      0.0572      3.9740     68.2453     16.2867
  2172.5000      7.9725      2.5492      0.0340      6.1103     74.8318     17.2929
  2172.6000      7.9725      2.5234      0.0473      7.6749     80.4957     18.7645
  2172.7000      7.9725      2.5096      0.0057      8.5096     79.0277     19.8929
  2172.8000      7.9776      2.5190      0.0239      7.9392     72.0316     20.2706
  2172.9000      7.9776      2.5413      0.0846      6.5899     66.4534     20.2322
  2173.0000      7.9786      2.5563      0.1024      5.6788     67.1749     20.2565
  2173.1000      7.9786      2.5657      0.1377      5.1092     69.1679     20.3549
  2173.2000      7.9786      2.5792      0.0960      4.2923     66.1406     20.9486
  2173.3000      7.9844      2.5904      0.1362      3.6106     61.1136     22.0923
  2173.4000      7.9844      2.5842      0.1457      3.9863     59.5141     22.7283
  2173.5000      7.9792      2.5705      0.0788      4.8197     59.9636     22.5468
  2173.6000      7.9792      2.5677      0.0878      4.9849     60.6178     22.7395
  2173.7000      7.9792      2.5606      0.1120      5.4160     63.2834     23.7876
  2173.8000      7.9759      2.5382      0.0177      6.7771     65.4849     24.4195
  2173.9000      7.9759      2.5235      0.0555      7.6693     66.4490     23.7361
  2174.0000      7.9768      2.5254      0.0825      7.5539     68.8321     22.2524
  2174.1000      7.9768      2.5312      0.0192      7.2016     68.5560     20.9128
  2174.2000      7.9768      2.5305      0.1176      7.2448     62.9433     20.3604
  2174.3000      7.9738      2.5202      0.0694      7.8650     59.1641     20.5210
  2174.4000      7.9738      2.5101      0.0549      8.4777     60.6329     20.9845
  2174.5000      7.9802      2.5021      0.0625      8.9631     62.8330     21.1397
  2174.6000      7.9802      2.4905      0.0015      9.6650     64.4318     20.6039
  2174.7000      7.9802      2.4870      0.0443      9.8793     67.1503     19.7088
  2174.8000      7.9805      2.5055      0.0594      8.7583     70.2296     19.0659
  2174.9000      7.9805      2.5375      0.0568      6.8178     70.9224     19.1411
  2175.0000      7.9791      2.5601      0.1088      5.4473     69.7369     19.9842
  2175.1000      7.9791      2.5619      0.1046      5.3386     70.0129     21.3829
  2175.2000      7.9791      2.5446      0.1022      6.3903     69.5141     22.6208
  2175.3000      7.9822      2.5153      0.0593      8.1666     65.7120     22.8750
  2175.4000      7.9822      2.4913      0.0260      9.6190     62.2776     22.2250
  2175.5000      7.9775      2.4886     -0.0184      9.7821     61.6336     21.6079
  2175.6000      7.9775      2.5015      0.0883      8.9988     60.4942     21.8550
  2175.7000      7.9775      2.5112      0.0484      8.4151     56.4390     22.4900
  2175.8000      7.9822      2.5101      0.0990      8.4795     52.6714     22.4439
  2175.9000      7.9822      2.5082      0.0511      8.5926     53.3332     21.5378
  2176.0000      7.9824      2.5172      0.0764      8.0507     57.9210     20.6515
  2176.1000      7.9824      2.5241      0.0420      7.6324     62.7562     20.2844
  2176.2000      7.9824      2.5139      0.0839      8.2501     65.2657     19.6315
  2176.3000      7.9846      2.5031      0.0166      8.9017     66.0936     18.3428
  2176.4000      7.9846      2.5122      0.0573      8.3538     64.7831     17.4357
  2176.5000      7.9812      2.5340      0.0600      7.0329     59.8957     17.3742
  2176.6000      7.9812      2.5501      0.0883      6.0549     54.9329     17.3833
  2176.7000      7.9812      2.5501      0.0374      6.0560     55.0270     17.0214
  2176.8000      7.9771      2.5382      0.0508      6.7781     59.2722     16.6883
  2176.9000      7.9771      2.5269      0.0804      7.4596     62.4539     16.5270
  2177.0000      7.9773      2.5286      0.0378      7.3592     63.1299     16.6214
  2177.1000      7.9773      2.5464      0.0900      6.2817     63.1100     17.0819
  2177.2000      7.9773      2.5602      0.0818      5.4396     62.2230     17.6665
  2177.3000      7.9792      2.5532      0.0474      5.8653     60.3522     17.9935
  2177.4000      7.9792      2.5355      0.0292      6.9416     60.4455     17.8898
  2177.5000      7.9805      2.5208      0.0439      7.8280     61.4854     17.7587
  2177.6000      7.9805      2.5160      0.0542      8.1237     58.8439     18.3090
  2177.7000      7.9805      2.5231      0.0803      7.6910     54.3231     19.6715
  2177.8000      7.9875      2.5312      0.0871      7.2020     53.1608     20.9837
  2177.9000      7.9875      2.5248      0.0812      7.5909     56.5004     21.2289
  2178.0000      7.9806      2.5106      0.0215      8.4498     62.2583     20.5160
  2178.1000      7.9806      2.5099      0.0572      8.4902     66.5682     19.5992
  2178.2000      7.9806      2.5247      0.0712      7.5954     66.0607     19.3700
  2178.3000      7.9763      2.5429      0.0610      6.4915     62.8065     19.9925
  2178.4000      7.9763      2.5531      0.0779      5.8749     61.9837     20.2012
  2178.5000      7.9736      2.5482      0.0634      6.1706     62.0210     19.1352
  2178.6000      7.9736      2.5378      0.0591      6.8025     59.7950     17.9018
  2178.7000      7.9736      2.5382      0.0422      6.7752     57.1977     17.5310
  2178.8000      7.9601      2.5511      0.0489      5.9960     55.4412     18.0435
  2178.9000      7.9601      2.5694      0.0811      4.8856     53.6418     19.0705
  2179.0000      7.9517      2.5941      0.1146      3.3879     52.2034     19.5322
  2179.1000      7.9517      2.6217      0.0811      1.7158     52.1625     18.7746
  2179.2000      7.9517      2.6333      0.0847      1.0095     53.1116     17.7066
  2179.3000      7.9486      2.6217      0.0469      1.7153     55.0103     17.1822
  2179.4000      7.9486      2.6076      0.0189      2.5674     57.4464     16.8478
  2179.5000      7.9625      2.6021      0.0979      2.9005     58.6948     16.2438
  2179.6000      7.9625      2.5990      0.0296      3.0925     57.4851     15.6968
  2179.7000      7.9625      2.6052     -0.0122      2.7165     54.9730     15.5929
