~Version Information
VERS.                      2.0: CWLS Log ASCII Standard - VERSION 2.0
WRAP.                       NO: One line per depth step
~Well Information Block
STRT.FT               453.5000: 
STOP.FT              1386.0000: 
STEP.FT                 0.1000: 
NULL.                -999.2500: 
COMP.          Petrogulf Corporation: COMPANY
WELL.          Great Plains 22-22R: WELL
FLD.           Purgatoire River: FIELD
LOC.           2042' FNL & 1657' FWL--: LOCATION
PROV.                 Colorado: PROVINCE
CNTY.               Las Animas: COUNTRY
SRVC.                Patterson: SERVICE COMPANY
DATE.          Fri Sep 09 14:42:42 2005: LOG DATE
UWI.           05 071 08028 00: UNIQUE WELL ID
~Curve Information Block
DEPT.FT            0 000 00 00: Depth
DCAL.in                       : CDL Caliper
RHOB.g/cc                     : CDL Bulk Density
RHOC.g/cc                     : CDL Density Correction
DPOR.pu                       : CDL Density Porosity
NPOR.pu                       : Neutron Porosity
GR.GAPI                       : Gamma Ray
~Parameter Information Block
~A  Depth       DCAL        RHOB        RHOC        DPOR        NPOR         GR     
# ...
  1365.5000      7.8888      2.5878      0.0318      3.7714     18.1533    105.6313
  1365.6000      7.8888      2.5671      0.0112      5.0238     18.4459     98.7187
  1365.7000      7.8888      2.5447      0.0164      6.3797     18.8597     91.8007
  1365.8000      7.8894      2.5359      0.0180      6.9134     18.9063     90.9645
  1365.9000      7.8894      2.5368      0.0169      6.8587     18.5960     97.2336
  1366.0000      7.8914      2.5362      0.0148      6.8961     18.1257    107.5084
  1366.1000      7.8914      2.5325     -0.0101      7.1236     17.7298    114.4030
  1366.2000      7.8914      2.5291      0.0238      7.3266     17.6694    112.7478
  1366.3000      7.8975      2.5293     -0.0205      7.3152     17.9630    106.9901
  1366.4000      7.8975      2.5410     -0.0453      6.6036     18.2985    103.8235
  1366.5000      7.9070      2.5657      0.0039      5.1120     18.2246    103.0322
  1366.6000      7.9070      2.5828      0.0497      4.0727     17.8767     98.6040
  1366.7000      7.9070      2.5749      0.0518      4.5526     17.7760     86.2920
  1366.8000      7.9110      2.5553     -0.0201      5.7400     18.0103     72.1805
  1366.9000      7.9110      2.5478      0.0432      6.1935     18.2149     68.5009
  1367.0000      7.9073      2.5572      0.0408      5.6256     18.2335     74.0393
  1367.1000      7.9073      2.5750      0.0708      4.5477     18.0410     77.3904
  1367.2000      7.9073      2.5861      0.0805      3.8722     17.7637     74.5449
  1367.3000      7.9010      2.5781      0.0767      4.3571     17.9434     70.8025
  1367.4000      7.9010      2.5519      0.0801      5.9455     18.5822     70.5785
  1367.5000      7.8974      2.5215      0.0201      7.7882     19.0165     72.8346
  1367.6000      7.8974      2.5032     -0.0021      8.8987     18.8860     75.6001
  1367.7000      7.8974      2.4980      0.0214      9.2124     18.4770     76.1892
  1367.8000      7.9040      2.4957      0.0096      9.3529     18.2960     70.2131
  1367.9000      7.9040      2.4938     -0.0022      9.4657     18.6611     52.8722
  1368.0000      7.9172      2.4897      0.0235      9.7131     19.4444     27.8810
  1368.1000      7.9172      2.4771     -0.0062     10.4810     19.9593      9.0609
  1368.2000      7.9172      2.4655     -0.0114     11.1813     19.5773      1.6817
  1368.3000      7.9284      2.4688     -0.0034     10.9838     18.8637      0.1712
  1368.4000      7.9284      2.4864      0.0074      9.9159     18.7273      0.0092
  1368.5000      7.9340      2.5106      0.0106      8.4467     18.8650      0.0000
  1368.6000      7.9340      2.5300      0.0457      7.2708     18.6851   -999.2500
  1368.7000      7.9340      2.5368      0.0344      6.8610     18.5015   -999.2500
  1368.8000      7.9346      2.5357      0.0431      6.9266     18.4155   -999.2500
  1368.9000      7.9346      2.5306      0.0479      7.2376     18.2550   -999.2500
  1369.0000      7.9348      2.5216      0.0236      7.7789     18.3273   -999.2500
  1369.1000      7.9348      2.5143      0.0130      8.2241     18.5070   -999.2500
  1369.2000      7.9348      2.5072      0.0531      8.6559     18.5298   -999.2500
  1369.3000      7.9358      2.4944      0.0208      9.4315     18.6200   -999.2500
  1369.4000      7.9358      2.4872     -0.0161      9.8694     18.6468   -999.2500
  1369.5000      7.9364      2.4945      0.0379      9.4271     18.3418   -999.2500
  1369.6000      7.9364      2.5046      0.0365      8.8119     17.8997   -999.2500
  1369.7000      7.9364      2.5067      0.0486      8.6869     17.4513   -999.2500
  1369.8000      7.9379      2.4994      0.0218      9.1251     17.1155   -999.2500
  1369.9000      7.9379      2.4905      0.0118      9.6649     17.0139   -999.2500
  1370.0000      7.9391      2.4925      0.0419      9.5438     17.2313   -999.2500
  1370.1000      7.9391      2.5077      0.0560      8.6234     17.4918   -999.2500
  1370.2000      7.9391      2.5256      0.0630      7.5418     17.3180   -999.2500
  1370.3000      7.9371      2.5414      0.0551      6.5832     17.0129   -999.2500
  1370.4000      7.9371      2.5538      0.0832      5.8293     16.9398   -999.2500
  1370.5000      7.9319      2.5520      0.0761      5.9391     16.8967   -999.2500
  1370.6000      7.9319      2.5319      0.0668      7.1587     16.7871   -999.2500
  1370.7000      7.9319      2.5099      0.0045      8.4926     16.7881   -999.2500
  1370.8000      7.9277      2.5042      0.0450      8.8370     16.9046   -999.2500
  1370.9000      7.9277      2.5129      0.0167      8.3108     16.9611   -999.2500
  1371.0000      7.9308      2.5219      0.0495      7.7628     17.0111   -999.2500
  1371.1000      7.9308      2.5217      0.0365      7.7777     17.3322   -999.2500
  1371.2000      7.9308      2.5111      0.0426      8.4193     18.0516   -999.2500
  1371.3000      7.9361      2.4944      0.0178      9.4312     18.8237   -999.2500
  1371.4000      7.9361      2.4820      0.0068     10.1835     18.9311   -999.2500
  1371.5000      7.9346      2.4795      0.0160     10.3307     17.9886   -999.2500
  1371.6000      7.9346      2.4796      0.0370     10.3286     16.3513   -999.2500
  1371.7000      7.9346      2.4775      0.0029     10.4523     14.7945   -999.2500
  1371.8000      7.9259      2.4740      0.0502     10.6667     13.7852   -999.2500
  1371.9000      7.9259      2.4657      0.0321     11.1715     13.2769   -999.2500
  1372.0000      7.9188      2.4600      0.0116     11.5133     12.9216   -999.2500
  1372.1000      7.9188      2.4679      0.0135     11.0387     12.3463   -999.2500
  1372.2000      7.9188      2.4802      0.0424     10.2917     11.5074   -999.2500
  1372.3000      7.9222      2.4827      0.0161     10.1402     10.7760   -999.2500
  1372.4000      7.9222      2.4792      0.0170     10.3508     10.5612   -999.2500
  1372.5000      7.9306      2.4835     -0.0015     10.0932     10.8106   -999.2500
  1372.6000      7.9306      2.4948      0.0291      9.4034     10.9236   -999.2500
  1372.7000      7.9306      2.5024      0.0177      8.9425     10.4229   -999.2500
  1372.8000      7.9356      2.5044      0.0218      8.8239      9.5794   -999.2500
  1372.9000      7.9356      2.4999      0.0573      9.0966      9.0021   -999.2500
  1373.0000      7.9386      2.4943     -0.0046      9.4346      8.8582   -999.2500
  1373.1000      7.9386      2.5020      0.0325      8.9695      8.8123   -999.2500
  1373.2000      7.9386      2.5189      0.0176      7.9442      8.5356   -999.2500
  1373.3000      7.9394      2.5273      0.0676      7.4356      8.4278   -999.2500
  1373.4000      7.9394      2.5172      0.0509      8.0456     10.2698   -999.2500
  1373.5000      7.9376      2.4955      0.0192      9.3664     18.4776   -999.2500
  1373.6000      7.9376      2.4756      0.0096     10.5680     34.3332   -999.2500
  1373.7000      7.9376      2.4691     -0.0300     10.9619     46.5028   -999.2500
  1373.8000      7.9347      2.4775      0.0220     10.4552     50.8311   -999.2500
  1373.9000      7.9347      2.4802      0.0239     10.2921     51.6658   -999.2500
  1374.0000      7.9260      2.4646     -0.0098     11.2340     51.7538   -999.2500
  1374.1000      7.9260      2.4529     -0.0280     11.9476     51.7587   -999.2500
  1374.2000      7.9260      2.4687     -0.0022     10.9905   -999.2500   -999.2500
  1374.3000      7.9084      2.5035      0.0526      8.8808   -999.2500   -999.2500
  1374.4000      7.9084      2.5274      0.0877      7.4291   -999.2500   -999.2500
  1374.5000      7.8922      2.5313      0.0134      7.1913   -999.2500   -999.2500
  1374.6000      7.8922      2.5320      0.0535      7.1497   -999.2500   -999.2500
  1374.7000      7.8922      2.5334      0.0389      7.0650   -999.2500   -999.2500
  1374.8000      7.8852      2.5274      0.0259      7.4282   -999.2500   -999.2500
  1374.9000      7.8852      2.5084      0.0244      8.5794   -999.2500   -999.2500
  1375.0000      7.8843      2.4788      0.0113     10.3776   -999.2500   -999.2500
