~Version Information
VERS.                      2.0: CWLS Log ASCII Standard - VERSION 2.0
WRAP.                       NO: One line per depth step
~Well Information Block
STRT.FT                -8.2500: 
STOP.FT              1795.0000: 
STEP.FT                 0.2500: 
NULL.                -999.2500: 
COMP.          Petrogulf Corporation: COMPANY
WELL.           Montoya 7-21 R: WELL
FLD.           Purgatoire River: FIELD
LOC.           445' FNL & 1942' FWL----: LOCATION
PROV.                 Colorado: PROVINCE
CNTY.               Las Animas: COUNTRY
SRVC.                         : SERVICE COMPANY
DATE.          Fri Sep 30 15:33:54 2005: LOG DATE
UWI.                          : UNIQUE WELL ID
~Curve Information Block
DEPT.FT            0 000 00 00: Depth
GR.GAPI                       : Gamma Ray
CCL.                          : Casing Collar Locator
TT3.usec                      : CBL 3' Travel Time
AMP3.mV                       : CBL 3' Amplitude
~Parameter Information Block
~A  Depth        GR         CCL         TT3         AMP3    
# ...
   594.7500     96.3294      0.0000    301.8528     21.7476
   595.0000     96.2132      0.0000    297.6941     22.1351
   595.2500     99.0744      0.0000    297.3881     22.0294
   595.5000    103.4113      0.0000    300.6064     21.6376
   595.7500    106.3440      0.0000    304.6598     21.4935
   596.0000    106.3898      0.0000    306.2463     22.1546
   596.2500    104.3603      0.0000    303.6986     23.8876
   596.5000    101.8771      0.0000    297.9796     26.5455
   596.7500    100.1917      0.0000    291.6306     29.6885
   597.0000    100.4270      0.0000    286.8712     32.8080
   597.2500    103.4682      0.0000    284.6728     35.4562
   597.5000    108.7464      0.0000    285.2452     37.2160
   597.7500    113.8578      0.0000    288.6680     37.6875
   598.0000    116.4050      0.0000    294.4626     36.6747
   598.2500    116.2769      0.0000    300.6534     34.4328
   598.5000    115.5863      0.0000    304.2433     31.6296
   598.7500    116.3502      0.0000    303.5150     28.9547
   599.0000    118.6878      0.0000    299.5968     26.7466
   599.2500    121.3517      0.0000    295.2305     24.9723
   599.5000    123.4250      0.0000    292.3842     23.4768
   599.7500    124.9978      0.0000    291.4168     22.2034
   600.0000    126.4844      0.0000    291.9178     21.2385
   600.2500    128.0862     -1.0016    293.5470     20.7642
   600.5000    130.0336      0.0000    295.9264     21.0614
   600.7500    132.5416      0.0000    298.0890     22.5325
   601.0000    135.1823      0.0000    298.6091     25.5524
   601.2500    136.9357      0.0000    296.6323     30.1466
   601.5000    137.1918      0.0000    292.6027     35.8332
   601.7500    136.2792      0.0000    287.6323     41.8836
   602.0000    134.8265      0.0000    282.3006     47.7617
   602.2500    132.9246      0.0000    276.3683     53.3212
   602.5000    130.0795      0.0000    269.6080     58.6544
   602.7500    125.8771      0.0000    262.6099     63.8087
   603.0000    120.6341      0.0000    256.5741     68.6247
   603.2500    115.3720      0.0000    252.3903     72.8068
   603.5000    111.1367      0.0000    250.0826     76.1321
   603.7500    108.3939      0.0000    249.0628     78.5881
   604.0000    107.1080      0.0000    248.6910     80.3346
   604.2500    107.1882      0.0000    248.5684     81.5735
   604.5000    108.5871      0.0000    248.5223     82.4562
   604.7500    111.0777      0.0000    248.4975     83.0614
   605.0000    114.2066      0.0000    248.4813     83.4156
   605.2500    117.4404      0.0000    248.4734     83.5351
   605.5000    120.1932      0.0000    248.4753     83.4671
   605.7500    121.8107      0.0000    248.4856     83.2948
   606.0000    121.8553      0.0000    248.4991     83.0974
   606.2500    120.5485      0.0000    248.5102     82.9043
   606.5000    118.7603      0.0000    248.5161     82.6854
   606.7500    117.3474      0.0000    248.5176     82.3834
   607.0000    116.6202      0.0000    248.5176     81.9508
   607.2500    116.6126      0.0000    248.5233     81.3503
   607.5000    117.5359      0.0000    248.5524     80.5154
   607.7500    119.4521      0.0000    248.6647     79.3149
   608.0000    121.5796      0.0000    249.0371     77.5560
   608.2500    122.6732      0.0000    250.0732     75.0164
   608.5000    122.5309      0.0000    252.4137     71.5067
   608.7500    122.4593      0.0000    256.6272     66.9825
   609.0000    123.4862      0.0000    262.6245     61.6634
   609.2500    124.7244      0.0000    269.3576     56.0445
   609.5000    124.3914      0.0000    275.3362     50.7395
   609.7500    121.9418      0.0000    279.5807     46.2413
   610.0000    118.2688      0.0000    282.0562     42.7575
   610.2500    114.2502      0.0000    283.3050     40.2180
   610.5000    110.3867      0.0000    283.8759     38.4286
   610.7500    107.8783      0.0000    284.0789     37.2438
   611.0000    108.7028      0.0000    284.0397     36.6241
   611.2500    113.9278      0.0000    283.8156     36.5581
   611.5000    122.5275      0.0000    283.4599     36.9679
   611.7500    132.2178      0.0000    283.0419     37.7270
   612.0000    141.0126      0.0000    282.6404     38.7910
   612.2500    147.8867      0.0000    282.3288     40.2936
   612.5000    152.6033      0.0000    282.1570     42.4435
   612.7500    155.4556      0.0000    282.1104     45.2544
   613.0000    157.1208      0.0000    282.0515     48.3873
   613.2500    158.4797      0.0000    281.6873     51.3117
   613.5000    160.2863      0.0000    280.6913     53.6171
   613.7500    162.8351      0.0000    279.0470     55.1242
   614.0000    165.7584      0.0000    277.3515     55.7260
   614.2500    168.0599      0.0000    276.5558     55.2258
   614.5000    168.6115      0.0000    277.1513     53.4216
   614.7500    166.9410      0.0000    278.7038     50.3757
   615.0000    163.5904      0.0000    280.3408     46.5723
   615.2500    159.7768      0.0000    281.5803     42.7363
   615.5000    156.7048      0.0000    282.6442     39.3982
   615.7500    154.9691      0.0000    284.2815     36.5685
   616.0000    154.4217      0.0000    287.4773     33.8411
   616.2500    154.6121      0.0000    293.0026     30.8259
   616.5000    155.2901      0.0000    300.7330     27.4988
   616.7500    156.5109      0.0000    309.3076     24.2090
   617.0000    158.4643      0.0000    316.7827     21.4320
   617.2500    161.0923      0.0000    321.8405     19.4975
   617.5000    163.5777      0.0000    324.3884     18.4529
   617.7500    164.6095      0.0000    325.1626     18.1026
   618.0000    163.8023      0.0000    325.0229     18.1512
   618.2500    162.5897      0.0000    324.5843     18.3268
   618.5000    163.0304      0.0000    324.2009     18.4354
   618.7500    165.6700      0.0000    324.0487     18.3786
   619.0000    168.8108      0.0000    324.1673     18.1596
   619.2500    169.7559      0.0000    324.4888     17.8598
   619.5000    166.6940      0.0000    324.9105     17.5758
   619.7500    159.7889      0.0000    325.4313     17.3583
   620.0000    150.9279      0.0000    326.2482     17.1916
   620.2500    142.4197      0.0000    327.7157     17.0250
   620.5000    135.5521      0.0000    330.0939     16.8322
   620.7500    130.2874      0.0000    333.1050     16.6566
   621.0000    126.4020      0.0000    335.6544     16.5962
   621.2500    124.5644      0.0000    336.3040     16.7315
   621.5000    125.8845      0.0000    334.3502     17.0811
   621.7500    130.5096      0.0000    330.2537     17.6470
   622.0000    136.9289      0.0000    324.7942     18.4949
   622.2500    142.6180      0.0000    318.1831     19.7529
   622.5000    145.4025      0.0000    310.4131     21.5200
   622.7500    144.6906      0.0000    302.1645     23.7825
   623.0000    141.6949      0.0000    294.7999     26.4009
   623.2500    138.3190      0.0000    289.4180     29.1321
   623.5000    135.8343      0.0000    286.1845     31.6629
   623.7500    134.6534      0.0000    284.5485     33.6926
   624.0000    134.8219      0.0000    283.8085     35.0646
   624.2500    135.9913      0.0000    283.4445     35.8451
   624.5000    137.1154      0.0000    283.1640     36.2622
   624.7500    137.1247      0.0000    282.8570     36.5468
   625.0000    136.0788      0.0000    282.5378     36.7962
   625.2500    134.9355      0.0000    282.2774     36.9546
   625.5000    134.1005      0.0000    282.1453     36.9190
   625.7500    133.0386      0.0000    282.1714     36.6798
   626.0000    131.5863      0.0000    282.3333     36.3732
   626.2500    130.8280      0.0000    282.5691     36.2062
   626.5000    132.1269      0.0000    282.8079     36.3350
   626.7500    135.6451      0.0000    282.9952     36.7852
   627.0000    140.1358      0.0000    283.0992     37.4400
   627.2500    143.9836      0.0000    283.1079     38.1052
   627.5000    146.1571      0.0000    283.0287     38.6552
   627.7500    146.1924      0.0000    282.8802     39.1813
   628.0000    143.6599      0.0000    282.6811     39.9990
