~Version Information
VERS.                      2.0: CWLS Log ASCII Standard - VERSION 2.0
WRAP.                       NO: One line per depth step
~Well Information Block
STRT.FT               480.1000: 
STOP.FT              2029.0000: 
STEP.FT                 0.1000: 
NULL.                -999.2500: 
COMP.          Petrogulf Corporation: COMPANY
WELL.            Montoya 7-12R: WELL
FLD.           Purgatorie River: FIELD
LOC.           1769' FNL & 658' FWL: LOCATION
CNTY.               Las Animas: COUNTY
SRVC.                         : SERVICE COMPANY
DATE.          Mon Nov 22 07:21:54 2004: LOG DATE
UWI.           05 071 08240 00: UNIQUE WELL ID
STAT.                 Colorado: STATE
~Curve Information Block
DEPT.FT            0 000 00 00: Depth
DCAL.in                       : CDL Caliper
RHOB.g/cc                     : CDL Bulk Density
RHOC.g/cc                     : CDL Density Correction
DPOR.pu                       : CDL Density Porosity
GR.GAPI                       : Gamma Ray
NPOR.pu                       : Neutron Porosity
~Parameter Information Block
~A  Depth       DCAL        RHOB        RHOC        DPOR         GR         NPOR    
# ...
  1209.7000      7.9646      2.6296      0.0324      1.2384     82.2789     23.5094
  1209.8000      8.0001      2.6503     -0.0005     -0.0180     78.9351     23.5239
  1209.9000      8.0001      2.6798      0.0671     -1.8061     76.3033     22.2149
  1210.0000      7.9591      2.7165      0.0314     -4.0305     76.1525     21.3138
  1210.1000      7.9591      2.7578      0.1194     -6.5308     79.8916     21.8607
  1210.2000      7.9591      2.7909      0.1205     -8.5388     84.1549     23.7410
  1210.3000      7.9588      2.8058      0.1139     -9.4411     83.9225     25.9583
  1210.4000      7.9588      2.8060      0.0757     -9.4515     79.4228     27.3446
  1210.5000      7.9410      2.7937      0.0669     -8.7083     73.3576     27.4675
  1210.6000      7.9410      2.7591      0.0353     -6.6113     67.6703     27.0460
  1210.7000      7.9410      2.6997     -0.0174     -3.0135     65.6524     27.0235
  1210.8000      7.9417      2.6364     -0.0422      0.8263     69.6186     27.2525
  1210.9000      7.9417      2.5926     -0.0965      3.4781     77.6668     27.3362
  1211.0000      7.9504      2.5668     -0.0769      5.0434     84.6766     27.6456
  1211.1000      7.9504      2.5454     -0.1116      6.3368     87.4474     28.6651
  1211.2000      7.9504      2.5358     -0.0756      6.9223     89.2875     29.9665
  1211.3000      7.9985      2.5411      0.0053      6.5989     94.4847     30.6126
  1211.4000      7.9985      2.5478      0.0135      6.1951    105.6856     30.2235
  1211.5000      8.0623      2.5586      0.0004      5.5395    121.7667     29.4696
  1211.6000      8.0623      2.5903      0.0227      3.6170    134.5043     29.2525
  1211.7000      8.0623      2.6342      0.0705      0.9554    139.6279     29.2622
  1211.8000      8.0518      2.6596      0.0940     -0.5818    141.0332     29.2308
  1211.9000      8.0518      2.6579      0.0431     -0.4787    141.0657     29.6417
  1212.0000      8.0112      2.6437      0.0460      0.3826    136.2385     30.2959
  1212.1000      8.0112      2.6300     -0.0219      1.2094    127.7461     30.6224
  1212.2000      8.0112      2.6212      0.0063      1.7440    126.5131     30.5322
  1212.3000      8.0031      2.6070     -0.0096      2.6032    133.8279     30.2561
  1212.4000      8.0031      2.5801     -0.0196      4.2348    143.0329     30.1927
  1212.5000      8.0166      2.5496      0.0309      6.0827    151.5946     30.3714
  1212.6000      8.0166      2.5188      0.0377      7.9489    154.8430     30.5972
  1212.7000      8.0166      2.4717      0.0599     10.8087    150.2582     30.7512
  1212.8000      7.9978      2.4030      0.0114     14.9690    143.2101     31.0187
  1212.9000      7.9978      2.3467     -0.0453     18.3803    139.0392     31.5671
  1213.0000      8.0045      2.3386     -0.0201     18.8744    137.3761     32.1288
  1213.1000      8.0045      2.3665      0.0703     17.1808    134.6949     32.3447
  1213.2000      8.0045      2.4126      0.0227     14.3872    128.6482     32.1677
  1213.3000      7.9958      2.4996      0.0803      9.1154    123.9000     31.8622
  1213.4000      7.9958      2.6323      0.2513      1.0708    127.9763     31.7479
  1213.5000      7.9900      2.7620      0.3633     -6.7908    140.6784     31.9599
  1213.6000      7.9900      2.8425      0.4094    -11.6651    152.6071     32.3530
  1213.7000      7.9900      2.8678      0.3581    -13.1976    152.1249     32.4542
  1213.8000      7.9890      2.8553      0.2792    -12.4449    140.0976     31.8128
  1213.9000      7.9890      2.8270      0.1528    -10.7260    129.6530     30.5138
  1214.0000      7.9933      2.8015      0.0924     -9.1825    125.1463     28.5421
  1214.1000      7.9933      2.7798      0.0346     -7.8680    119.8853     26.4915
  1214.2000      7.9933      2.7445      0.0004     -5.7285    113.5191     25.7992
  1214.3000      8.0036      2.6834     -0.0206     -2.0250    110.8374     26.8886
  1214.4000      8.0036      2.6121     -0.0223      2.2945    111.6682     28.4113
  1214.5000      8.0681      2.5602     -0.0210      5.4403    112.5070     28.5873
  1214.6000      8.0681      2.5448     -0.0373      6.3743    111.5891     27.5657
  1214.7000      8.0681      2.5648      0.0022      5.1656    111.4190     26.9213
  1214.8000      8.0478      2.6045      0.0321      2.7593    114.5948     27.1654
  1214.9000      8.0478      2.6401      0.0605      0.5988    118.8798     27.8361
  1215.0000      8.0287      2.6507      0.0909     -0.0404    120.0811     28.6453
  1215.1000      8.0287      2.6350      0.0537      0.9091    118.6978     29.3698
  1215.2000      8.0287      2.6176      0.0399      1.9656    120.7121     30.0583
  1215.3000      8.0482      2.6172      0.0632      1.9902    126.9709     30.5992
  1215.4000      8.0482      2.6205      0.0951      1.7852    130.0550     30.7171
  1215.5000      8.0500      2.6086      0.0424      2.5100    127.4300     30.5782
  1215.6000      8.0500      2.5906      0.0446      3.6001    124.5256     30.2518
  1215.7000      8.0500      2.5867      0.0553      3.8388    125.5654     29.9430
  1215.8000      8.0237      2.6023      0.0604      2.8905    130.8417     30.1943
  1215.9000      8.0237      2.6255      0.1020      1.4864    139.1299     31.2280
  1216.0000      7.9915      2.6409      0.0675      0.5500    147.0096     32.1537
  1216.1000      7.9915      2.6417      0.1245      0.5029    151.0809     31.5738
  1216.2000      7.9915      2.6296      0.0592      1.2371    151.0578     29.9681
  1216.3000      7.9883      2.6221      0.0364      1.6907    149.6082     29.2284
  1216.4000      7.9883      2.6331      0.0241      1.0264    147.1562     30.0898
  1216.5000      8.0076      2.6424      0.1133      0.4594    142.1118     31.6799
  1216.6000      8.0076      2.6267      0.0494      1.4107    136.9615     32.7929
  1216.7000      8.0076      2.6001      0.0367      3.0268    132.3637     32.8976
  1216.8000      8.0296      2.5787      0.0353      4.3183    126.3948     31.9053
  1216.9000      8.0296      2.5568      0.1110      5.6471    122.0132     30.3781
  1217.0000      8.0075      2.5284      0.0608      7.3707    122.9187     29.2641
  1217.1000      8.0075      2.5061      0.0272      8.7215    127.1230     28.4835
  1217.2000      8.0075      2.5113      0.0624      8.4073    130.4969     28.1737
  1217.3000      8.0017      2.5473      0.0614      6.2234    130.6390     28.9945
  1217.4000      8.0017      2.5971      0.1150      3.2035    128.8289     29.6781
  1217.5000      7.9916      2.6369      0.1404      0.7962    128.4480     28.8343
  1217.6000      7.9916      2.6480      0.1278      0.1196    129.3264     27.5922
  1217.7000      7.9916      2.6329      0.1348      1.0356    129.2928     27.2810
  1217.8000      7.9965      2.6125      0.0956      2.2752    130.6271     27.5357
  1217.9000      7.9965      2.5992      0.1215      3.0765    132.0315     27.3778
  1218.0000      8.0133      2.5906      0.0902      3.6021    128.5891     26.5637
  1218.1000      8.0133      2.5931      0.0549      3.4505    123.0808     25.6608
  1218.2000      8.0133      2.6216      0.0157      1.7196    118.5024     25.0949
  1218.3000      8.0255      2.6626      0.0694     -0.7637    112.6919     24.5806
  1218.4000      8.0255      2.6790      0.0780     -1.7569    107.0498     23.9850
  1218.5000      8.0077      2.6606      0.0690     -0.6415    105.2991     23.6668
  1218.6000      8.0077      2.6328      0.0133      1.0406    105.5322     24.0410
  1218.7000      8.0077      2.6196      0.0632      1.8395    103.4099     25.0218
  1218.8000      8.0106      2.6218      0.0203      1.7093     99.6962     25.7381
  1218.9000      8.0106      2.6286      0.0982      1.2981     97.6826     25.6620
  1219.0000      8.0179      2.6229      0.0474      1.6415     96.6229     25.0350
  1219.1000      8.0179      2.6023      0.0054      2.8922     96.0929     23.8735
  1219.2000      8.0179      2.5837      0.0136      4.0195     96.8823     22.3195
