~Version Information
VERS.                      2.0: CWLS Log ASCII Standard - VERSION 2.0
WRAP.                       NO: One line per depth step
~Well Information Block
STRT.FT                -3.0000: 
STOP.FT              1828.0000: 
STEP.FT                 0.2500: 
NULL.                -999.2500: 
COMP.          Pioneer Natural Resources: COMPANY
WELL.           Guajardo 24-16: WELL
FLD.           Purgatorie River: FIELD
LOC.           883' FSL & 2147' FWL--: LOCATION
PROV.                       CO: PROVINCE
CNTY.               Las Animas: COUNTRY
SRVC.          Patterson Wireline: SERVICE COMPANY
DATE.          Wed Aug 10 11:02:25 2005: LOG DATE
UWI.           05 071 08377 00: UNIQUE WELL ID
~Curve Information Block
DEPT.FT            0 000 00 00: Depth
CCL.                          : Casing Collar Locator
TT3.usec                      : CBL 3' Travel Time
AMP3.mV                       : CBL 3' Amplitude
GR.GAPI                       : Gamma Ray
~Parameter Information Block
~A  Depth       CCL         TT3         AMP3         GR     
# ...
   968.5000      0.0000    799.8743     11.4719    129.2773
   968.7500      0.0000    799.9822     11.4764    129.2720
   969.0000      0.0000    800.0615     11.4589    128.3705
   969.2500      0.0000    800.2016     11.4259    127.4174
   969.5000      0.0000    800.3858     11.3851    126.7521
   969.7500      0.0000    800.5738     11.3411    125.6927
   970.0000      0.0000    800.7311     11.2945    123.6490
   970.2500      0.0000    800.8372     11.2446    121.0690
   970.5000      0.0000    800.8779     11.1902    118.9869
   970.7500      0.0000    800.8372     11.1324    118.0422
   971.0000      0.0000    800.5887     11.0829    118.0940
   971.2500      0.0000    799.6739     11.0690    118.6337
   971.5000      0.0000    797.1298     11.1216    119.4359
   971.7500      0.0000    791.9827     11.2523    120.6933
   972.0000      0.0000    784.8885     11.4273    122.4891
   972.2500      0.0000    779.6156     11.5452    124.4106
   972.5000      0.0000    781.5988     11.4613    125.8071
   972.7500      0.0000    793.5145     11.0987    126.0674
   973.0000      0.0000    812.7434     10.5511    124.5000
   973.2500      0.0000    833.9116     10.0294    120.5101
   973.5000      1.4240    852.6192      9.6884    114.4902
   973.7500     -2.0000    865.9888      9.5384    108.3088
   974.0000     -2.0000    871.9818      9.5041    104.0654
   974.2500      1.8292    870.2651      9.5203    102.2828
   974.5000      0.0000    862.4982      9.5811    102.0159
   974.7500      0.0000    850.6151      9.7436    102.5854
   975.0000      0.0000    836.2059     10.0824    104.2948
   975.2500      0.0000    821.8276     10.6009    107.3816
   975.5000      0.0000    810.6878     11.1857    111.1583
   975.7500      0.0000    804.3282     11.6735    114.5174
   976.0000      0.0000    801.7965     11.9611    116.8962
   976.2500      0.0000    801.1932     12.0489    118.6136
   976.5000      0.0000    801.2265     12.0071    120.6760
   976.7500      0.0000    801.4162     11.9154    124.3776
   977.0000      0.0000    801.6581     11.8187    130.4369
   977.2500      0.0000    801.9207     11.7194    138.0135
   977.5000      0.0000    802.1784     11.6028    144.9479
   977.7500      0.0000    802.4670     11.4656    149.3758
   978.0000      0.0000    802.9753     11.3185    150.8279
   978.2500      0.0000    804.1674     11.1731    149.8047
   978.5000      0.0000    806.7783     11.0343    146.9369
   978.7500      0.0000    811.3656     10.9022    142.7496
   979.0000      0.0000    817.4240     10.7761    137.8118
   979.2500      0.0000    822.9077     10.6545    132.8654
   979.5000      0.0000    825.1790     10.5346    128.8575
   979.7500      0.0000    822.9749     10.4131    126.6580
   980.0000      0.0000    817.5088     10.2886    126.4416
   980.2500      0.0000    811.5411     10.1640    127.2865
   980.5000      0.0000    807.4868     10.0450    127.7032
   980.7500      0.0000    806.2969      9.9360    126.7270
   981.0000      0.0000    807.4420      9.8361    124.5544
   981.2500      0.0000    809.3621      9.7385    122.1584
   981.5000      0.0000    810.2690      9.6371    120.3496
   981.7500      0.0000    809.2737      9.5321    119.3119
   982.0000      0.0000    806.8592      9.4312    118.9876
   982.2500      0.0000    804.0183      9.3442    119.5711
   982.5000      0.0000    800.9907      9.2804    121.3276
   982.7500      0.0000    797.1340      9.2482    123.9321
   983.0000      0.0000    792.1630      9.2554    126.0700
   983.2500      0.0000    787.3893      9.3055    125.9384
   983.5000      0.0000    785.1932      9.3972    122.6256
   983.7500      0.0000    786.8206      9.5243    117.2496
   984.0000      0.0000    791.0548      9.6766    112.3610
   984.2500      0.0000    795.4504      9.8401    109.7986
   984.5000      0.0000    798.4445     10.0008    109.3727
   984.7500      0.0000    800.0081     10.1487    109.7531
   985.0000      0.0000    800.9274     10.2771    110.0217
   985.2500      0.0000    802.0674     10.3833    109.9861
   985.5000      0.0000    804.0161     10.4699    109.7478
   985.7500      0.0000    806.7371     10.5421    109.4975
   986.0000      0.0000    809.3188     10.5993    109.2180
   986.2500      0.0000    810.5018     10.6308    108.3280
   986.5000      0.0000    809.9094     10.6224    106.2208
   986.7500      0.0000    808.7318     10.5649    103.5400
   987.0000      0.0000    808.9584     10.4608    102.4956
   987.2500      0.0000    811.8714     10.3271    105.2844
   987.5000      0.0000    816.9811     10.1917    112.1052
   987.7500      0.0000    822.0233     10.0849    120.9970
   988.0000      0.0000    824.2310     10.0297    129.5090
   988.2500      0.0000    822.2675     10.0379    136.0837
   988.5000      0.0000    817.1782     10.1104    140.1223
   988.7500      0.0000    811.3813     10.2375    141.6537
   989.0000      0.0000    806.7208     10.4023    141.2780
   989.2500      0.0000    803.3674     10.5866    139.7751
   989.5000      0.0000    800.0274     10.7780    137.3748
   989.7500      0.0000    794.8710     10.9741    133.8176
   990.0000      0.0000    786.9479     11.1827    129.3731
   990.2500      0.0000    777.7693     11.4174    125.3563
   990.5000      0.0000    771.3482     11.6904    123.2742
   990.7500      0.0000    771.3706     12.0038    123.5447
   991.0000      0.0000    777.7792     12.3454    125.1629
   991.2500      0.0000    786.7839     12.6932    126.6627
   991.5000      0.0000    794.2764     13.0218    127.5642
   991.7500      0.0000    798.6033     13.3058    128.7740
   992.0000      0.0000    800.3861     13.5211    131.2044
   992.2500      0.0000    800.8901     13.6506    134.1809
   992.5000      0.0000    800.9881     13.6937    136.0307
   992.7500      0.0000    801.0550     13.6666    136.3202
   993.0000      0.0000    801.2129     13.5863    136.6231
   993.2500      0.0000    801.5876     13.4493    138.6793
   993.5000      0.0000    802.5165     13.2183    142.3010
   993.7500      0.0000    804.4619     12.8266    145.3300
   994.0000      0.0000    807.2967     12.2087    145.4386
   994.2500      0.0000    809.2449     11.3437    142.1413
   994.5000      0.0000    807.0881     10.2842    137.4926
   994.7500      0.0000    798.8323      9.1391    134.5730
   995.0000      0.0000    786.6408      8.0201    134.4570
   995.2500      0.0000    775.7318      6.9976    134.4210
   995.5000      0.0000    769.3106      6.1013    129.8359
   995.7500      0.0000    765.5926      5.3477    118.3119
   996.0000      0.0000    760.7313      4.7562    101.7281
   996.2500      0.0000    753.6174      4.3390     84.3793
   996.5000      0.0000    746.9576      4.0886     70.0346
   996.7500      0.0000    744.7150      3.9845     60.6075
   997.0000      0.0000    749.2818      4.0119     56.3012
   997.2500      0.0000    760.0125      4.1773     56.4128
   997.5000      0.0000    773.3813      4.5043     60.4420
   997.7500      0.0000    785.3332      5.0169     68.5460
   998.0000      0.0000    794.9707      5.7248     80.6435
   998.2500      0.0000    805.6864      6.6224     95.2697
   998.5000      0.0000    821.1133      7.6929    109.9666
   998.7500      0.0000    839.5851      8.9084    122.9987
   999.0000      0.0000    854.2651     10.2269    134.3339
   999.2500      0.0000    859.6910     11.5793    144.6609
   999.5000      0.0000    856.8148     12.8541    153.7259
   999.7500      0.0000    850.8923     13.9086    160.2754
  1000.0000      0.0000    846.1683     14.6255    163.5968
  1000.2500      0.0000    843.6023     14.9714    164.2462
  1000.5000      0.0000    842.1050     15.0008    162.8995
  1000.7500      0.0000    840.3904     14.8103    159.3126
  1001.0000      0.0000    838.0170     14.4947    153.0680
  1001.2500      0.0000    835.6895     14.1319    144.9897
  1001.5000      0.0000    834.7066     13.7802    137.3931
  1001.7500      0.0000    835.7444     13.4772    132.7828
