~Version Information
VERS.                      2.0: CWLS Log ASCII Standard - VERSION 2.0
WRAP.                       NO: One line per depth step
~Well Information Block
STRT.FT                 0.5000: 
STOP.FT              2891.5000: 
STEP.FT                 0.2500: 
NULL.                -999.2500: 
COMP.          Petrogulf Corporation: COMPANY
WELL.            Montoya 1-41V: WELL
FLD.           Purgatoire River: FIELD
LOC.           610' FNL & 1205' FEL--: LOCATION
PROV.                 Colorado: PROVINCE
CNTY.               Las Animas: COUNTRY
SRVC.                Patterson: SERVICE COMPANY
DATE.          Mon Sep 12 11:42:30 2005: LOG DATE
UWI.           05 071 08144 00: UNIQUE WELL ID
~Curve Information Block
DEPT.FT            0 000 00 00: Depth
CCL.                          : Casing Collar Locator
TT3.usec                      : CBL 3' Travel Time
AMP3.mV                       : CBL 3' Amplitude
GR.GAPI                       : Gamma Ray
~Parameter Information Block
~A  Depth       CCL         TT3         AMP3         GR     
# ...
  2077.5000      0.0000    645.7548      1.8525     93.7006
  2077.7500      0.0000    646.1326      1.8073     99.3890
  2078.0000      0.0000    646.9487      1.7294    106.7752
  2078.2500      0.0000    648.4567      1.6327    115.4759
  2078.5000      0.0000    650.7324      1.5389    125.0722
  2078.7500      0.0000    653.4129      1.4697    135.0712
  2079.0000      0.0000    655.5366      1.4349    144.8719
  2079.2500      0.0000    656.0022      1.4273    153.7675
  2079.5000      0.0000    654.5241      1.4302    160.9269
  2079.7500      0.0000    651.9971      1.4295    165.4151
  2080.0000      0.0000    649.7204      1.4204    166.3940
  2080.2500      0.0000    648.4050      1.4053    163.6114
  2080.5000      0.0000    647.9785      1.3898    157.9672
  2080.7500      0.0000    648.0339      1.3811    151.4352
  2081.0000      0.0000    648.2440      1.3859    145.9674
  2081.2500      0.0000    648.4739      1.4058    142.3430
  2081.5000      0.0000    648.7293      1.4343    140.1276
  2081.7500      0.0000    649.1282      1.4628    138.5978
  2082.0000      0.0000    650.0054      1.4875    137.5952
  2082.2500      0.0000    652.1990      1.5077    137.6411
  2082.5000      0.0000    657.3214      1.5192    139.3599
  2082.7500      0.0000    667.4716      1.5169    142.7812
  2083.0000      0.0000    683.9514      1.5049    147.0779
  2083.2500      0.0000    705.6121      1.4988    150.7534
  2083.5000      0.0000    728.4055      1.5148    152.1536
  2083.7500      0.0000    746.8689      1.5573    150.2605
  2084.0000      0.0000    756.2639      1.6182    145.2448
  2084.2500      0.0000    753.8533      1.6855    138.2710
  2084.5000      0.0000    739.4739      1.7515    130.8820
  2084.7500      0.0000    716.0284      1.8133    124.4258
  2085.0000      0.0000    689.0522      1.8697    119.5309
  2085.2500      0.0000    664.4868      1.9193    115.9410
  2085.5000      0.0000    646.0577      1.9591    113.2078
  2085.7500      0.0000    634.4215      1.9826    111.7425
  2086.0000      0.0000    628.2010      1.9822    112.8197
  2086.2500      0.0000    625.4327      1.9573    117.1647
  2086.5000      0.0000    624.4252      1.9192    123.6142
  2086.7500      0.0000    624.0236      1.8851    129.4823
  2087.0000      0.0000    623.5863      1.8660    132.4646
  2087.2500      0.0000    622.8578      1.8603    132.2524
  2087.5000      0.0000    621.8030      1.8586    130.4454
  2087.7500      0.0000    620.4697      1.8522    129.0787
  2088.0000      0.0000    618.9287      1.8360    129.2345
  2088.2500      0.0000    617.2745      1.8084    130.6665
  2088.5000      0.0000    615.6204      1.7728    132.2185
  2088.7500      0.0000    614.1051      1.7386    132.6151
  2089.0000      0.0000    612.9740      1.7147    131.3146
  2089.2500      0.0000    612.7444      1.7027    128.7995
  2089.5000      0.0000    614.2696      1.6987    125.8866
  2089.7500      0.0000    618.3686      1.7008    122.7512
  2090.0000      0.0000    625.0179      1.7107    118.8690
  2090.2500      0.0000    632.8649      1.7277    114.0215
  2090.5000      0.0000    639.8807      1.7448    109.1733
  2090.7500      0.0000    644.7465      1.7512    105.9649
  2091.0000      0.0000    647.6067      1.7428    105.2436
  2091.2500      0.0000    649.6525      1.7328    106.4071
  2091.5000      0.0000    652.1854      1.7523    108.2918
  2091.7500      0.0000    655.9136      1.8302    110.4194
  2092.0000      0.0000    660.7158      1.9623    113.1972
  2092.2500      0.0000    666.0370      2.1040    116.9086
  2092.5000      0.0000    671.6990      2.2070    120.7306
  2092.7500      0.0000    678.1981      2.2608    123.1639
  2093.0000      0.0000    685.9691      2.2941    123.6227
  2093.2500      0.0000    694.6353      2.3408    123.2927
  2093.5000      0.0000    703.1672      2.4137    124.1947
  2093.7500      2.0000    710.1768      2.5043    127.6688
  2094.0000      0.0000    713.7570      2.5991    133.5937
  2094.2500      0.0000    712.1694      2.6905    140.3448
  2094.5000      0.0000    705.6912      2.7708    145.5438
  2094.7500      0.0000    697.1235      2.8135    147.5684
  2095.0000      0.0000    689.7173      2.7796    146.5991
  2095.2500      0.0000    684.9785      2.6576    144.0433
  2095.5000      0.0000    682.7405      2.4858    141.1492
  2095.7500      0.0000    682.7610      2.3190    138.4809
  2096.0000      0.0000    685.9823      2.1829    136.2999
  2096.2500      0.0000    694.2240      2.0724    134.6970
  2096.5000      0.0000    707.8227      1.9762    133.3825
  2096.7500      0.0000    722.9359      1.8889    132.0381
  2097.0000      0.0000    732.5040      1.8092    131.1163
  2097.2500      0.0000    731.6999      1.7395    131.8028
  2097.5000      0.0000    721.9574      1.6836    134.6004
  2097.7500      0.0000    708.6848      1.6400    138.0299
  2098.0000      0.0000    696.4327      1.5985    139.4004
  2098.2500      0.0000    687.6046      1.5489    137.3286
  2098.5000      0.0000    684.1830      1.4941    133.2861
  2098.7500      0.0000    688.1339      1.4495    130.3215
  2099.0000      0.0000    699.4891      1.4294    130.1664
  2099.2500      0.0000    715.0616      1.4376    131.5242
  2099.5000      0.0000    730.1464      1.4708    131.0199
  2099.7500      0.0000    742.3152      1.5269    125.9356
  2100.0000      0.0000    753.3726      1.6074    116.3797
  2100.2500      0.0000    765.9462      1.7120    105.1532
  2100.5000      0.0000    777.4869      1.8285     95.8954
  2100.7500      0.0000    780.1390      1.9323     91.5233
  2101.0000      0.0000    769.1956      1.9998     93.5706
  2101.2500      0.0000    750.3318      2.0212    101.7223
  2101.5000      0.0000    735.6584      2.0018    113.6775
  2101.7500      0.0000    732.8920      1.9538    126.2432
  2102.0000      0.0000    739.5310      1.8905    137.0679
  2102.2500      0.0000    746.3756      1.8228    145.3367
  2102.5000      0.0000    745.4150      1.7607    151.0836
  2102.7500      0.0000    735.0781      1.7158    154.2391
  2103.0000      0.0000    719.5466      1.6999    154.2676
  2103.2500      0.0000    704.4529      1.7179    150.5749
  2103.5000      0.0000    693.5916      1.7609    143.4888
  2103.7500      0.0000    688.5955      1.8143    134.9090
  2104.0000      0.0000    689.8797      1.8696    127.5961
  2104.2500      0.0000    696.8857      1.9296    123.4929
  2104.5000      0.0000    707.1606      1.9993    122.6665
  2104.7500      0.0000    715.7770      2.0760    123.8215
  2105.0000      0.0000    717.5452      2.1472    125.6736
  2105.2500      0.0000    711.4183      2.1965    127.9408
  2105.5000      0.0000    702.1244      2.2116    131.3083
  2105.7500      0.0000    696.1395      2.1897    136.4077
  2106.0000      0.0000    695.9946      2.1379    142.5336
  2106.2500      0.0000    698.6535      2.0712    147.4156
  2106.5000      0.0000    698.5492      2.0084    148.5804
  2106.7500      0.0000    691.7963      1.9645    145.1031
  2107.0000      0.0000    678.8165      1.9453    138.1373
  2107.2500      0.0000    664.3940      1.9501    129.9721
  2107.5000      0.0000    655.0625      1.9781    122.7381
  2107.7500      0.0000    655.1206      2.0288    117.7025
  2108.0000      0.0000    663.8276      2.0981    115.1212
  2108.2500      0.0000    675.9152      2.1782    114.3545
  2108.5000      0.0000    685.3108      2.2615    114.4034
  2108.7500      0.0000    689.1486      2.3421    114.7382
  2109.0000      0.0000    688.6260      2.4118    115.4645
  2109.2500      0.0000    686.6036      2.4607    116.5721
  2109.5000      0.0000    685.0790      2.4864    117.4948
  2109.7500      0.0000    684.7346      2.4986    117.6874
  2110.0000      0.0000    685.9207      2.5096    117.1415
  2110.2500      0.0000    689.4410      2.5219    116.0935
  2110.5000      0.0000    696.2212      2.5280    114.8671
  2110.7500      0.0000    706.0291      2.5173    114.2736
