~Version Information
VERS.                      2.0: CWLS Log ASCII Standard - VERSION 2.0
WRAP.                       NO: One line per depth step
~Well Information Block
STRT.FT              2246.0000: 
STOP.FT              2472.6000: 
STEP.FT                 0.1000: 
NULL.                -999.2500: 
COMP.          Petrogulf Corporation: COMPANY
WELL.           Schedler 9-23V: WELL
FLD.           Purgatorie River: FIELD
LOC.           2185' FSL & 2328' FWL: LOCATION
CNTY.               Las Animas: COUNTY
SRVC.                         : SERVICE COMPANY
DATE.          Thu Jul 10 10:29:30 2003: LOG DATE
UWI.           05 071 07876 00: UNIQUE WELL ID
STAT.                 Colorado: STATE
~Curve Information Block
DEPT.FT            0 000 00 00: Depth
DCAL.in                       : CDL Caliper
RHOB.g/cc                     : CDL Bulk Density
RHOC.g/cc                     : CDL Density Correction
DPOR.pu                       : CDL Density Porosity
GR.GAPI                       : Gamma Ray
NPOR.pu                       : Neutron Porosity
~Parameter Information Block
~A  Depth       DCAL        RHOB        RHOC        DPOR         GR         NPOR    
# ...
  2409.2000      7.8060      2.5962      0.1019      3.2613     85.6970     19.3906
  2409.3000      7.7951      2.5978      0.0970      3.1647     83.9500     18.8807
  2409.4000      7.7951      2.5991      0.0917      3.0839     82.4630     18.3488
  2409.5000      7.8074      2.6002      0.0866      3.0175     81.2558     17.8054
  2409.6000      7.8074      2.6011      0.0820      2.9637     80.3289     17.2609
  2409.7000      7.8074      2.6018      0.0782      2.9204     79.6637     16.7254
  2409.8000      7.8306      2.6024      0.0754      2.8853     79.2267     16.2081
  2409.9000      7.8306      2.6029      0.0736      2.8564     78.9730     15.7163
  2410.0000      7.8403      2.6033      0.0726      2.8317     78.8501     15.2554
  2410.1000      7.8403      2.6036      0.0722      2.8095     78.7994     14.8288
  2410.2000      7.8403      2.6040      0.0719      2.7886     78.7610     14.4376
  2410.3000      7.8386      2.6043      0.0715      2.7679     78.6779     14.0808
  2410.4000      7.8386      2.6047      0.0707      2.7466     78.4970     13.7566
  2410.5000      7.8397      2.6050      0.0694      2.7245     78.1768     13.4616
  2410.6000      7.8397      2.6054      0.0676      2.7013     77.6910     13.1921
  2410.7000      7.8397      2.6058      0.0654      2.6775     77.0281     12.9440
  2410.8000      7.8435      2.6062      0.0628      2.6538     76.1961     12.7129
  2410.9000      7.8435      2.6066      0.0601      2.6315     75.2205     12.4950
  2411.0000      7.8439      2.6069      0.0574      2.6121     74.1406     12.2872
  2411.1000      7.8439      2.6071      0.0549      2.5979     73.0066     12.0879
  2411.2000      7.8439      2.6072      0.0525      2.5912     71.8752     11.8975
  2411.3000      7.8438      2.6072      0.0504      2.5945     70.8011     11.7185
  2411.4000      7.8438      2.6069      0.0484      2.6104     69.8348     11.5562
  2411.5000      7.8453      2.6064      0.0467      2.6414     69.0172     11.4178
  2411.6000      7.8453      2.6056      0.0450      2.6896     68.3778     11.3116
  2411.7000      7.8453      2.6045      0.0434      2.7566     67.9378     11.2463
  2411.8000      7.8497      2.6031      0.0420      2.8433     67.7087     11.2292
  2411.9000      7.8497      2.6013      0.0407      2.9501     67.6960     11.2659
  2412.0000      7.8525      2.5992      0.0396      3.0764     67.9011     11.3588
  2412.1000      7.8525      2.5969      0.0386      3.2211     68.3218     11.5071
  2412.2000      7.8525      2.5942      0.0379      3.3823     68.9492     11.7065
  2412.3000      7.8516      2.5913      0.0374      3.5573     69.7675     11.9505
  2412.4000      7.8516      2.5882      0.0372      3.7432     70.7498     12.2305
  2412.5000      7.8471      2.5850      0.0373      3.9366     71.8577     12.5370
  2412.6000      7.8471      2.5818      0.0378      4.1337     73.0418     12.8614
  2412.7000      7.8471      2.5785      0.0387      4.3309     74.2437     13.1963
  2412.8000      7.8401      2.5753      0.0401      4.5249     75.4030     13.5370
  2412.9000      7.8401      2.5722      0.0419      4.7126     76.4614     13.8817
  2413.0000      7.8374      2.5693      0.0442      4.8917     77.3674     14.2307
  2413.1000      7.8374      2.5665      0.0471      5.0608     78.0855     14.5860
  2413.2000      7.8374      2.5639      0.0504      5.2190     78.5962     14.9506
  2413.3000      7.8419      2.5614      0.0541      5.3668     78.8964     15.3266
  2413.4000      7.8419      2.5592      0.0580      5.5050     79.0037     15.7147
  2413.5000      7.8510      2.5570      0.0620      5.6353     78.9496     16.1134
  2413.6000      7.8510      2.5550      0.0660      5.7600     78.7817     16.5182
  2413.7000      7.8510      2.5530      0.0697      5.8813     78.5566     16.9225
  2413.8000      7.8634      2.5510      0.0729      6.0015     78.3383     17.3170
  2413.9000      7.8634      2.5490      0.0757      6.1224     78.1901     17.6912
  2414.0000      7.8758      2.5469      0.0778      6.2456     78.1706     18.0336
  2414.1000      7.8758      2.5449      0.0793      6.3720     78.3263     18.3326
  2414.2000      7.8758      2.5427      0.0803      6.5020     78.6871     18.5773
  2414.3000      7.8627      2.5405      0.0808      6.6351     79.2583     18.7581
  2414.4000      7.8627      2.5383      0.0810      6.7707     80.0194     18.8678
  2414.5000      7.8224      2.5360      0.0808      6.9077     80.9227     18.9018
  2414.6000      7.8224      2.5338      0.0803      7.0448     81.8904     18.8594
  2414.7000      7.8224      2.5315      0.0796      7.1809     82.8240     18.7436
  2414.8000      7.7984      2.5293      0.0785      7.3147     83.6113     18.5619
  2414.9000      7.7984      2.5272      0.0771      7.4454     84.1370     18.3255
  2415.0000      7.8045      2.5251      0.0754      7.5721     84.2973     18.0491
  2415.1000      7.8045      2.5230      0.0733      7.6947     84.0171     17.7490
  2415.2000      7.8045      2.5211      0.0711      7.8131     83.2596     17.4425
  2415.3000      7.8274      2.5192      0.0688      7.9278     82.0352     17.1455
  2415.4000      7.8274      2.5174      0.0664      8.0394     80.4058     16.8713
  2415.5000      7.8520      2.5155      0.0641      8.1488     78.4749     16.6296
  2415.6000      7.8520      2.5138      0.0620      8.2571     76.3787     16.4263
  2415.7000      7.8520      2.5120      0.0601      8.3653     74.2662     16.2625
  2415.8000      7.8664      2.5102      0.0585      8.4744     72.2812     16.1365
  2415.9000      7.8664      2.5083      0.0570      8.5851     70.5467     16.0444
  2416.0000      7.8650      2.5065      0.0557      8.6976     69.1506     15.9811
  2416.1000      7.8650      2.5046      0.0546      8.8117     68.1412     15.9427
  2416.2000      7.8650      2.5027      0.0536      8.9268     67.5253     15.9275
  2416.3000      7.8566      2.5008      0.0528      9.0414     67.2754     15.9367
  2416.4000      7.8566      2.4990      0.0520      9.1537     67.3357     15.9741
  2416.5000      7.8501      2.4972      0.0514      9.2614     67.6312     16.0463
  2416.6000      7.8501      2.4955      0.0509      9.3620     68.0794     16.1602
  2416.7000      7.8501      2.4940      0.0506      9.4526     68.5971     16.3217
  2416.8000      7.8504      2.4927      0.0504      9.5306     69.1081     16.5341
  2416.9000      7.8504      2.4917      0.0504      9.5935     69.5487     16.7963
  2417.0000      7.8626      2.4910      0.0507      9.6392     69.8723     17.1022
  2417.1000      7.8626      2.4905      0.0510      9.6659     70.0524     17.4410
  2417.2000      7.8626      2.4904      0.0516      9.6725     70.0806     17.7980
  2417.3000      7.8782      2.4906      0.0522      9.6582     69.9664     18.1564
  2417.4000      7.8782      2.4912      0.0530      9.6228     69.7333     18.4999
  2417.5000      7.8868      2.4922      0.0538      9.5667     69.4127     18.8143
  2417.6000      7.8868      2.4934      0.0547      9.4905     69.0395     19.0893
  2417.7000      7.8868      2.4950      0.0555      9.3955     68.6451     19.3200
  2417.8000      7.8916      2.4968      0.0563      9.2834     68.2567     19.5055
  2417.9000      7.8916      2.4989      0.0570      9.1563     67.8928     19.6488
  2418.0000      7.8956      2.5012      0.0576      9.0169     67.5668     19.7549
  2418.1000      7.8956      2.5037      0.0582      8.8682     67.2857     19.8287
  2418.2000      7.8956      2.5062      0.0588      8.7140     67.0534     19.8741
  2418.3000      7.8964      2.5088      0.0595      8.5585     66.8716     19.8930
  2418.4000      7.8964      2.5113      0.0604      8.4060     66.7434     19.8846
  2418.5000      7.8917      2.5137      0.0614      8.2611     66.6721     19.8462
  2418.6000      7.8917      2.5159      0.0626      8.1283     66.6616     19.7735
  2418.7000      7.8917      2.5178      0.0640      8.0119     66.7150     19.6621
