~Version Information
VERS.                      2.0: CWLS Log ASCII Standard - VERSION 2.0
WRAP.                       NO: One line per depth step
~Well Information Block
STRT.FT               -12.0000: 
STOP.FT              2137.5000: 
STEP.FT                 0.2500: 
NULL.                -999.2500: 
COMP.          Pioneer Natural Resources: COMPANY
WELL.           Ogallela 44-12: WELL
FLD.           Purgatorie River: FIELD
LOC.           610' FSL & 671' FEL------------: LOCATION
PROV.                       CO: PROVINCE
CNTY.               Las Animas: COUNTRY
SRVC.          Patterson Wireline: SERVICE COMPANY
DATE.          Thu Apr 07 14:25:46 2005: LOG DATE
UWI.           05 071 08283 00: UNIQUE WELL ID
~Curve Information Block
DEPT.FT            0 000 00 00: Depth
CCL.                          : Casing Collar Locator
TT3.usec                      : CBL 3' Travel Time
AMP3.mV                       : CBL 3' Amplitude
ATT3.db/ft                    : CBL 3' Attenuation
GR.GAPI                       : Gamma Ray
~Parameter Information Block
~A  Depth       CCL         TT3         AMP3        ATT3         GR     
# ...
  1836.0000      0.0000    481.3607     15.2663     -5.2875    116.4205
  1836.2500      0.0000    455.2518     16.1033     -5.1329    106.9465
  1836.5000      0.0000    467.1802     16.9161     -4.9904     95.5743
  1836.7500      0.0000    505.4837     17.6890     -4.8610     83.3332
  1837.0000      0.0000    547.9390     18.3329     -4.7575     71.0333
  1837.2500      0.0000    576.2474     18.6542     -4.7072     59.9437
  1837.5000      0.0000    589.9524     18.4233     -4.7433     51.6718
  1837.7500      0.0000    605.3443     17.5376     -4.8859     47.0133
  1838.0000      0.0000    637.1735     16.1362     -5.1270     45.7704
  1838.2500      0.0000    682.8758     14.5151     -5.4336     48.0579
  1838.5000      0.0000    726.8904     12.9352     -5.7672     54.8684
  1838.7500      0.0000    756.7769     11.5533     -6.0943     66.6029
  1839.0000      0.0000    771.5295     10.4761     -6.3777     81.5689
  1839.2500      0.0000    777.4718      9.7621     -6.5821     96.7076
  1839.5000      0.0000    781.2358      9.3594     -6.7041    109.6918
  1839.7500     -2.0000    786.1351      9.1187     -6.7795    119.7247
  1840.0000     -2.0000    790.9765      8.9004     -6.8496    126.4544
  1840.2500      0.0000    790.2592      8.6722     -6.9249    129.1561
  1840.5000      0.0000    777.9824      8.5293     -6.9730    127.6135
  1840.7500      0.0000    754.3566      8.6309     -6.9387    123.2364
  1841.0000      0.0000    728.2554      9.0808     -6.7916    118.4611
  1841.2500      0.0000    711.0006      9.8423     -6.5584    115.0261
  1841.5000      0.0000    707.8978     10.7658     -6.2987    113.2360
  1841.7500      0.0000    716.0519     11.6663     -6.0662    112.8042
  1842.0000      0.0000    728.3967     12.3582     -5.8993    113.7669
  1842.2500      0.0000    738.7113     12.6791     -5.8251    116.1965
  1842.5000      0.0000    744.2935     12.5596     -5.8525    119.3803
  1842.7500      0.0000    745.8919     12.0787     -5.9656    121.8216
  1843.0000      0.0000    745.7617     11.4339     -6.1244    122.0948
  1843.2500      0.0000    745.2495     10.8458     -6.2773    119.4905
  1843.5000      0.0000    743.4814     10.4626     -6.3814    113.9633
  1843.7500      0.0000    738.7264     10.3065     -6.4250    105.7513
  1844.0000      0.0000    731.8058     10.2858     -6.4308     95.2466
  1844.2500      0.0000    727.1863     10.2759     -6.4336     83.3956
  1844.5000      0.0000    729.2218     10.2182     -6.4499     72.1547
  1844.7500      0.0000    737.6755     10.1680     -6.4641     64.0224
  1845.0000      0.0000    747.7801     10.2560     -6.4392     60.5678
  1845.2500      0.0000    754.4522     10.6005     -6.3435     61.3340
  1845.5000      0.0000    755.9275     11.2273     -6.1772     64.2885
  1845.7500      0.0000    753.5148     12.0348     -5.9761     67.3684
  1846.0000      0.0000    748.9402     12.8218     -5.7927     69.5892
  1846.2500      0.0000    743.0175     13.3771     -5.6700     70.8296
  1846.5000      0.0000    736.2032     13.5841     -5.6255     70.9107
  1846.7500      0.0000    728.7858     13.4735     -5.6492     69.3269
  1847.0000      0.0000    720.5997     13.1898     -5.7108     65.8950
  1847.2500      0.0000    711.9885     12.8934     -5.7766     61.2220
  1847.5000      0.0000    704.9127     12.6647     -5.8284     56.3204
  1847.7500      0.0000    701.7241     12.4710     -5.8730     52.0230
  1848.0000      0.0000    702.7429     12.2092     -5.9345     48.9793
  1848.2500      0.0000    705.9345     11.7889     -6.0359     47.9592
  1848.5000      0.0000    708.9070     11.2102     -6.1816     49.8377
  1848.7500      0.0000    710.5810     10.5917     -6.3459     55.2802
  1849.0000      0.0000    711.1617     10.1133     -6.4797     64.5005
  1849.2500      0.0000    711.3915      9.8902     -6.5443     77.1346
  1849.5000      0.0000    712.2106      9.8793     -6.5475     92.0279
  1849.7500      0.0000    714.7050      9.9191     -6.5359    107.0624
  1850.0000      0.0000    719.5867      9.8754     -6.5487    119.4170
  1850.2500      0.0000    726.1445      9.7438     -6.5875    126.5045
  1850.5000      0.0000    731.9203      9.6194     -6.6247    127.4011
  1850.7500      0.0000    734.2209      9.5777     -6.6373    123.7437
  1851.0000      0.0000    732.3681      9.5935     -6.6325    118.7568
  1851.2500      0.0000    728.2269      9.5733     -6.6386    114.9540
  1851.5000      0.0000    724.5563      9.4646     -6.6717    112.8330
  1851.7500      0.0000    723.1178      9.3286     -6.7136    111.5755
  1852.0000      0.0000    723.9556      9.2969     -6.7235    110.2499
  1852.2500      0.0000    725.5930      9.4436     -6.6781    108.0720
  1852.5000      0.0000    725.7504      9.7032     -6.5996    104.1605
  1852.7500      0.0000    722.5510      9.9337     -6.5316     97.7036
  1853.0000      0.0000    715.6264     10.0644     -6.4938     88.5908
  1853.2500      0.0000    706.3078     10.1648     -6.4650     77.8684
  1853.5000      0.0000    696.8737     10.3556     -6.4112     67.4542
  1853.7500      0.0000    689.4066     10.6665     -6.3256     59.1751
  1854.0000      0.0000    684.9260     11.0014     -6.2361     53.7409
  1854.2500      0.0000    683.4258     11.2533     -6.1705     50.4549
  1854.5000      0.0000    684.7820     11.4372     -6.1236     48.0591
  1854.7500      0.0000    689.6617     11.6794     -6.0629     45.9195
  1855.0000      0.0000    699.3719     12.0712     -5.9674     44.2653
  1855.2500      0.0000    714.3477     12.5627     -5.8518     43.5260
  1855.5000      0.0000    732.4783     13.0259     -5.7470     43.9245
  1855.7500      0.0000    749.0822     13.3910     -5.6669     45.8059
  1856.0000      0.0000    758.8991     13.6734     -5.6065     50.1055
  1856.2500      0.0000    758.7122     13.8889     -5.5613     58.2036
  1856.5000      0.0000    749.3710     14.0139     -5.5353     70.9239
  1856.7500      0.0000    736.2340     14.0420     -5.5295     87.4828
  1857.0000      0.0000    726.6843     14.0152     -5.5351    105.6580
  1857.2500      0.0000    725.2841     13.9602     -5.5464    122.7364
  1857.5000      0.0000    730.3201     13.8313     -5.5733    135.7317
  1857.7500      0.0000    735.1957     13.5585     -5.6310    141.2895
  1858.0000      0.0000    734.0333     13.1392     -5.7219    137.0203
  1858.2500      0.0000    726.8235     12.6584     -5.8299    123.5922
  1858.5000      0.0000    719.4353     12.2355     -5.9282    104.9595
  1858.7500      0.0000    718.6981     11.9652     -5.9929     86.1840
  1859.0000      0.0000    727.3113     11.8818     -6.0132     70.9692
  1859.2500      0.0000    742.2819     11.9557     -5.9952     60.6867
  1859.5000      0.0000    756.9250     12.1253     -5.9544     54.9249
  1859.7500      0.0000    764.9671     12.3289     -5.9062     52.7052
  1860.0000      0.0000    764.6481     12.5152     -5.8628     53.4381
  1860.2500      0.0000    759.8762     12.6441     -5.8331     57.0560
  1860.5000      0.0000    757.0824     12.6855     -5.8237     63.4764
  1860.7500      0.0000    759.9344     12.6188     -5.8389     72.0049
  1861.0000      0.0000    766.2531     12.4433     -5.8795     81.2404
  1861.2500      0.0000    770.1030     12.1873     -5.9397     89.7353
  1861.5000      0.0000    767.3412     11.8841     -6.0126     97.0841
  1861.7500      0.0000    759.2704     11.5392     -6.0979    104.3261
  1862.0000      0.0000    751.1077     11.1410     -6.1995    112.8643
  1862.2500      0.0000    747.5207     10.6936     -6.3182    122.9057
  1862.5000      0.0000    749.7979     10.2159     -6.4505    133.1366
  1862.7500      0.0000    756.0583      9.7241     -6.5934    141.5959
  1863.0000      0.0000    762.5876      9.2398     -6.7413    146.5028
  1863.2500      0.0000    765.2234      8.8080     -6.8799    146.8125
  1863.5000      0.0000    761.3932      8.4941     -6.9849    142.8534
  1863.7500      0.0000    751.9694      8.3629     -7.0300    136.4302
