~Version Information
VERS.                      2.0: CWLS Log ASCII Standard - VERSION 2.0
WRAP.                       NO: One line per depth step
~Well Information Block
STRT.FT               780.0000: 
STOP.FT              1557.5000: 
STEP.FT                 0.1000: 
NULL.                -999.2500: 
COMP.          Pioneer Natural Resources: COMPANY
WELL.          Bunner's 13-26 Tr: WELL
FLD.           Purgatoire River: FIELD
LOC.           1843' FSL & 456' FWL----: LOCATION
PROV.                 Colorado: PROVINCE
CNTY.               Las Animas: COUNTRY
SRVC.                Patterson: SERVICE COMPANY
DATE.          Tue Mar 29 07:41:16 2005: LOG DATE
UWI.           05 071 08331 00: UNIQUE WELL ID
~Curve Information Block
DEPT.FT            0 000 00 00: Depth
DCAL.in                       : CDL Caliper
RHOB.g/cc                     : CDL Bulk Density
RHOC.g/cc                     : CDL Density Correction
DPOR.pu                       : CDL Density Porosity
NPOR.pu                       : Neutron Porosity
GR.GAPI                       : Gamma Ray
~Parameter Information Block
~A  Depth       DCAL        RHOB        RHOC        DPOR        NPOR         GR     
# ...
  1528.8000      7.9553      2.5875      0.0125      3.7860     37.3493   -999.2500
  1528.9000      7.9553      2.5534     -0.0209      5.8517     44.5829   -999.2500
  1529.0000      7.9557      2.5263     -0.0211      7.4981     49.5493   -999.2500
  1529.1000      7.9557      2.5103      0.0339      8.4668     51.3597   -999.2500
  1529.2000      7.9557      2.5034      0.0375      8.8854     51.7185   -999.2500
  1529.3000      7.9516      2.5050      0.0509      8.7861     51.7566   -999.2500
  1529.4000      7.9516      2.5093      0.0511      8.5292     51.7587   -999.2500
  1529.5000      7.9337      2.5141      0.0297      8.2360   -999.2500   -999.2500
  1529.6000      7.9337      2.5267      0.0546      7.4698   -999.2500   -999.2500
  1529.7000      7.9337      2.5468      0.0914      6.2517   -999.2500   -999.2500
  1529.8000      7.9030      2.5684      0.0793      4.9437   -999.2500   -999.2500
  1529.9000      7.9030      2.5933      0.0838      3.4371   -999.2500   -999.2500
  1530.0000      7.8797      2.6177      0.1067      1.9594   -999.2500   -999.2500
  1530.1000      7.8797      2.6269      0.0772      1.4011   -999.2500   -999.2500
  1530.2000      7.8797      2.6218      0.0603      1.7084   -999.2500   -999.2500
  1530.3000      7.8697      2.6237      0.0382      1.5917   -999.2500   -999.2500
  1530.4000      7.8697      2.6362      0.1004      0.8380   -999.2500   -999.2500
  1530.5000      7.8679      2.6396      0.0583      0.6298   -999.2500   -999.2500
  1530.6000      7.8679      2.6269      0.0786      1.4010   -999.2500   -999.2500
  1530.7000      7.8679      2.6064      0.0252      2.6421   -999.2500   -999.2500
  1530.8000      7.8676      2.5919      0.0053      3.5239   -999.2500   -999.2500
  1530.9000      7.8676      2.5914      0.0322      3.5508   -999.2500   -999.2500
  1531.0000      7.8667      2.5985      0.0488      3.1187   -999.2500   -999.2500
  1531.1000      7.8667      2.6034      0.0322      2.8254   -999.2500   -999.2500
  1531.2000      7.8667      2.6083      0.0133      2.5279   -999.2500   -999.2500
  1531.3000      7.8638      2.6159      0.0423      2.0655   -999.2500   -999.2500
  1531.4000      7.8638      2.6100      0.0847      2.4235   -999.2500   -999.2500
  1531.5000      7.8600      2.5810     -0.0262      4.1807   -999.2500   -999.2500
  1531.6000      7.8600      2.5575     -0.0284      5.6083   -999.2500   -999.2500
  1531.7000      7.8600      2.5607      0.0344      5.4136   -999.2500   -999.2500
  1531.8000      7.8586      2.5763      0.0187      4.4683   -999.2500   -999.2500
  1531.9000      7.8586      2.5903      0.0486      3.6159   -999.2500   -999.2500
  1532.0000      7.8578      2.5969      0.0786      3.2184   -999.2500   -999.2500
  1532.1000      7.8578      2.5996      0.0494      3.0541   -999.2500   -999.2500
  1532.2000      7.8578      2.6086      0.0663      2.5078   -999.2500   -999.2500
  1532.3000      7.8548      2.6173      0.1025      1.9790   -999.2500   -999.2500
  1532.4000      7.8548      2.6148      0.0811      2.1345   -999.2500   -999.2500
  1532.5000      7.8526      2.6044      0.0608      2.7612   -999.2500   -999.2500
  1532.6000      7.8526      2.5913      0.0640      3.5560   -999.2500   -999.2500
  1532.7000      7.8526      2.5897      0.0190      3.6549   -999.2500   -999.2500
  1532.8000      7.8523      2.6301      0.0640      1.2088   -999.2500   -999.2500
  1532.9000      7.8523      2.7153      0.1062     -3.9571   -999.2500   -999.2500
  1533.0000      7.8465      2.8099      0.1510     -9.6906   -999.2500   -999.2500
  1533.1000      7.8465      2.8867      0.1741    -14.3429   -999.2500   -999.2500
  1533.2000      7.8465      2.9517      0.1790    -18.2855   -999.2500   -999.2500
  1533.3000      7.8359      3.0171      0.2067    -22.2469   -999.2500   -999.2500
  1533.4000      7.8359      3.0798      0.1733    -26.0456   -999.2500   -999.2500
  1533.5000      7.8337      3.1288      0.1834    -29.0202   -999.2500   -999.2500
  1533.6000      7.8337      3.1510      0.1651    -30.3621   -999.2500   -999.2500
  1533.7000      7.8337      3.1436      0.1382    -29.9129   -999.2500   -999.2500
  1533.8000      7.8491      3.1084      0.1058    -27.7793   -999.2500   -999.2500
  1533.9000      7.8491      3.0522     -0.0484    -24.3763   -999.2500   -999.2500
  1534.0000      7.8819      2.9948      0.0005    -20.8959   -999.2500   -999.2500
  1534.1000      7.8819      2.9430     -0.0268    -17.7591   -999.2500   -999.2500
  1534.2000      7.8819      2.8926     -0.0971    -14.7035   -999.2500   -999.2500
  1534.3000      7.9135      2.8274     -0.0286    -10.7536   -999.2500   -999.2500
  1534.4000      7.9135      2.7324     -0.0169     -4.9958   -999.2500   -999.2500
  1534.5000      7.9291      2.6420     -0.0235      0.4827   -999.2500   -999.2500
  1534.6000      7.9291      2.5925      0.0503      3.4844   -999.2500   -999.2500
  1534.7000      7.9291      2.5675      0.0394      5.0030   -999.2500   -999.2500
  1534.8000      7.9368      2.5373      0.0569      6.8329   -999.2500   -999.2500
  1534.9000      7.9368      2.4923      0.0219      9.5606   -999.2500   -999.2500
  1535.0000      7.9454      2.4394      0.0043     12.7660   -999.2500   -999.2500
  1535.1000      7.9454      2.3870     -0.0132     15.9374   -999.2500   -999.2500
  1535.2000      7.9454      2.3324      0.0133     19.2502   -999.2500   -999.2500
  1535.3000      7.9546      2.2765     -0.0448     22.6341   -999.2500   -999.2500
  1535.4000      7.9546      2.2337     -0.0065     25.2277   -999.2500   -999.2500
  1535.5000      7.9590      2.2056      0.0048     26.9305   -999.2500   -999.2500
  1535.6000      7.9590      2.1880     -0.0146     27.9996   -999.2500   -999.2500
  1535.7000      7.9590      2.1837      0.0255     28.2589   -999.2500   -999.2500
  1535.8000      7.9543      2.1878      0.0802     28.0150   -999.2500   -999.2500
  1535.9000      7.9543      2.1973      0.0448     27.4373   -999.2500   -999.2500
  1536.0000      7.9262      2.2173      0.0577     26.2250   -999.2500   -999.2500
  1536.1000      7.9262      2.2424      0.0656     24.7036   -999.2500   -999.2500
  1536.2000      7.9262      2.2758      0.0421     22.6805   -999.2500   -999.2500
  1536.3000      7.8426      2.3503      0.0654     18.1635   -999.2500   -999.2500
  1536.4000      7.8426      2.5005      0.0804      9.0622   -999.2500   -999.2500
  1536.5000      7.4388      2.5930      0.1199      3.4554   -999.2500   -999.2500
  1536.6000      7.4388      2.2000      0.7008     27.2726   -999.2500   -999.2500
  1536.7000      7.4388      1.2572      0.0400     84.4107   -999.2500   -999.2500
  1536.8000      5.8368      0.4275      0.0400    134.6966   -999.2500   -999.2500
  1536.9000      5.8368      0.0813   -999.2500    155.6798   -999.2500   -999.2500
  1537.0000      3.2381      0.0084   -999.2500    160.0979   -999.2500   -999.2500
  1537.1000      3.2381      0.0005   -999.2500    160.5785   -999.2500   -999.2500
  1537.2000      3.2381      0.0000   -999.2500    160.6061   -999.2500   -999.2500
  1537.3000      1.6675      0.0000   -999.2500    160.6061   -999.2500   -999.2500
  1537.4000      1.6675   -999.2500   -999.2500   -999.2500   -999.2500   -999.2500
  1537.5000      1.3175   -999.2500   -999.2500   -999.2500   -999.2500   -999.2500
  1537.6000      1.3175   -999.2500   -999.2500   -999.2500   -999.2500   -999.2500
  1537.7000      1.3175   -999.2500   -999.2500   -999.2500   -999.2500   -999.2500
  1537.8000      1.2888   -999.2500   -999.2500   -999.2500   -999.2500   -999.2500
  1537.9000      1.2888   -999.2500   -999.2500   -999.2500   -999.2500   -999.2500
  1538.0000   -999.2500   -999.2500   -999.2500   -999.2500   -999.2500   -999.2500
  1538.1000   -999.2500   -999.2500   -999.2500   -999.2500   -999.2500   -999.2500
  1538.2000   -999.2500   -999.2500   -999.2500   -999.2500   -999.2500   -999.2500
  1538.3000   -999.2500   -999.2500   -999.2500   -999.2500   -999.2500   -999.2500
