~Version Information
VERS.                      2.0: CWLS Log ASCII Standard - VERSION 2.0
WRAP.                       NO: One line per depth step
~Well Information Block
STRT.FT               -13.0000: 
STOP.FT              1411.2500: 
STEP.FT                 0.2500: 
NULL.                -999.2500: 
COMP.                         : COMPANY
WELL.                         : WELL
FLD.                          : FIELD
LOC.                          : LOCATION
CNTY.                         : COUNTY
SRVC.                         : SERVICE COMPANY
DATE.          Sat Jan 17 07:25:27 2004: LOG DATE
UWI.                          : UNIQUE WELL ID
STAT.                         : STATE
~Curve Information Block
DEPT.FT            0 000 00 00: Depth
CCL.                          : Casing Collar Locator
TT3.usec                      : CBL 3' Travel Time
AMP3.mV                       : CBL 3' Amplitude
GR.GAPI                       : Gamma Ray
~Parameter Information Block
~A  Depth       CCL         TT3         AMP3         GR     
# ...
   255.0000      0.0000    494.6363      6.8150     80.3689
   255.2500      0.0000    488.8022      6.5752     77.7499
   255.5000      0.0000    471.8879      6.2176     77.2060
   255.7500      0.0000    450.5182      5.7907     79.3962
   256.0000      0.0000    430.9355      5.3865     83.2767
   256.2500      0.0000    416.3363      5.0418     86.4857
   256.5000      0.0000    406.2959      4.7502     87.1422
   256.7500      0.0000    398.3680      4.5299     85.3692
   257.0000      0.0000    390.5982      4.4271     82.9336
   257.2500      0.0000    382.8917      4.4569     81.5125
   257.5000      0.0000    376.4156      4.5736     81.6736
   257.7500      0.0000    372.1480      4.7105     83.3004
   258.0000      0.0000    370.2019      4.8400     86.0118
   258.2500      0.0000    370.2733      4.9793     88.7273
   258.5000      0.0000    372.3045      5.1381     89.7092
   258.7500      0.0000    376.3796      5.2785     87.9046
   259.0000      0.0000    381.9702      5.3423     84.0753
   259.2500      0.0000    387.5746      5.3152     80.2398
   259.5000      0.0000    391.5753      5.2500     78.1039
   259.7500      0.0000    393.6147      5.2185     77.9495
   260.0000      0.0000    394.7998      5.2449     78.7659
   260.2500      0.0000    396.3762      5.2955     79.3754
   260.5000      0.0000    398.5319      5.3371     79.3644
   260.7500      0.0000    400.6505      5.3805     78.8687
   261.0000      0.0000    402.3408      5.4515     77.9215
   261.2500      0.0000    404.1276      5.5338     76.4239
   261.5000      0.0000    407.8143      5.5656     74.3555
   261.7500      0.0000    417.0437      5.4970     71.6294
   262.0000      0.0000    437.4784      5.3468     68.0413
   262.2500      0.0000    474.9325      5.1999     63.7005
   262.5000      0.0000    531.1224      5.1448     59.4888
   262.7500      0.0000    600.0151      5.1990     56.8850
   263.0000      0.0000    669.1474      5.2944     57.0387
   263.2500      0.0000    726.4297      5.3406     59.8159
   263.5000      0.0000    767.1012      5.3014     63.8242
   263.7500      0.0000    794.2459      5.2169     67.4818
   264.0000      0.0000    812.8264      5.1626     70.1465
   264.2500      0.0000    824.7635      5.1879     72.2969
   264.5000      0.0000    829.9695      5.2759     74.7109
   264.7500      0.0000    829.0870      5.3597     77.5175
   265.0000      0.0000    823.2311      5.3855     80.0868
   265.2500      0.0000    813.2213      5.3615     81.8513
   265.5000      0.0000    800.9261      5.3378     82.9130
   265.7500      0.0000    789.5651      5.3423     83.5506
   266.0000      0.0000    780.1885      5.3441     83.4141
   266.2500      0.0000    768.2906      5.2896     81.7591
   266.5000      0.0000    745.6941      5.1690     78.3962
   266.7500      0.0000    706.5874      5.0397     73.9709
   267.0000      0.0000    651.7704      4.9717     69.4268
   267.2500      0.0000    588.6165      4.9770     65.6999
   267.5000      0.0000    529.2800      5.0095     63.8177
   267.7500      0.0000    487.8208      5.0329     64.5486
   268.0000      0.0000    474.5981      5.0585     67.7390
   268.2500      0.0000    490.4498      5.1113     72.4039
   268.5000      0.0000    526.0121      5.1854     77.5548
   268.7500      0.0000    567.6483      5.2501     82.5656
   269.0000      0.0000    604.4948      5.2789     86.7968
   269.2500      0.0000    629.1363      5.2592     89.5262
   269.5000      0.0000    633.6898      5.1900     90.5772
   269.7500      0.0000    612.1854      5.0916     90.6951
   270.0000      0.0000    569.8814      5.0124     90.9675
   270.2500      0.0000    525.7339      4.9993     92.0188
   270.5000      0.0000    502.3565      5.0486     93.7422
   270.7500      0.0000    514.3191      5.1010     95.4083
   271.0000      0.0000    562.8338      5.0967     95.9482
   271.2500      0.0000    635.2275      5.0288     94.6136
   271.5000      0.0000    709.3639      4.9401     91.5243
   271.7500      0.0000    764.4885      4.8697     87.3674
   272.0000      0.0000    791.5839      4.8082     82.7556
   272.2500      0.0000    794.3135      4.7174     78.1414
   272.5000      0.0000    781.4930      4.5944     73.9392
   272.7500      0.0000    759.2994      4.4935     70.3081
   273.0000      0.0000    728.3490      4.4752     67.1832
   273.2500      0.0000    685.8979      4.5553     64.9050
   273.5000      0.0000    630.8322      4.7291     64.4869
   273.7500      0.0000    568.0232      5.0219     66.7985
   274.0000      0.0000    508.7256      5.4895     71.4421
   274.2500      0.0000    466.5270      6.1679     76.5749
   274.5000      0.0000    451.3897      7.0326     79.9576
   274.7500      0.0000    465.2702      8.0026     80.4690
   275.0000      0.0000    501.2962      8.9732     78.8784
   275.2500      0.0000    546.5575      9.8450     77.1487
   275.5000      0.0000    586.9963     10.5574     76.7419
   275.7500      0.0000    612.3481     11.1290     77.5007
   276.0000      0.0000    619.8102     11.6481     78.3112
   276.2500      0.0000    614.1725     12.1840     78.7661
   276.5000      0.0000    602.7992     12.7044     79.5791
   276.7500      4.0000    591.1705     13.0890     81.1137
   277.0000      0.0000    583.5656     13.2056     82.1771
   277.2500      0.0000    582.5898     12.9818     80.9427
   277.5000      0.0000    585.6290     12.4567     76.8427
   277.7500      0.0000    587.7154     11.7805     71.1124
   278.0000      0.0000    590.0947     11.1308     65.5946
   278.2500      0.0000    599.9987     10.6071     61.3842
   278.5000      0.0000    619.9950     10.2118     58.7362
   278.7500      0.0000    643.2975      9.9023     57.8553
   279.0000      0.0000    661.8261      9.6210     58.9881
   279.2500      0.0000    674.2725      9.2989     61.5105
   279.5000      0.0000    683.9548      8.8869     63.5913
   279.7500      0.0000    692.4326      8.3987     63.3730
   280.0000      0.0000    698.4326      7.9152     60.3884
   280.2500      0.0000    701.7064      7.5409     55.7416
   280.5000      0.0000    705.1324      7.3327     51.1958
   280.7500      0.0000    712.2894      7.2540     48.1539
   281.0000      0.0000    723.6866      7.2038     47.1462
   281.2500      0.0000    736.1128      7.1062     47.9628
   281.5000      0.0000    745.7426      6.9723     50.1097
   281.7500      0.0000    751.1436      6.8792     53.0728
   282.0000      0.0000    753.2183      6.8932     56.3001
   282.2500      0.0000    753.2177      7.0086     59.3687
   282.5000      0.0000    751.2409      7.1528     62.4050
   282.7500      0.0000    745.8123      7.2452     66.0263
   283.0000      0.0000    734.5778      7.2598     70.4621
   283.2500      0.0000    716.4903      7.2411     74.7982
   283.5000      0.0000    694.6028      7.2585     77.4369
   283.7500      0.0000    676.8254      7.3304     77.4269
   284.0000      0.0000    672.1715      7.3943     75.2307
   284.2500      0.0000    683.9550      7.3698     72.1852
   284.5000      0.0000    706.3420      7.2550     69.3079
   284.7500      0.0000    728.5361      7.1391     66.5729
   285.0000      0.0000    742.4056      7.1022     63.1608
   285.2500      0.0000    746.3511      7.1107     58.4660
   285.5000      0.0000    743.6861      7.0413     53.1255
   285.7500      0.0000    738.8093      6.8151     49.1328
   286.0000      0.0000    734.4854      6.4891     48.7623
   286.2500      0.0000    731.3057      6.1970     53.1405
   286.5000      0.0000    728.6198      6.0132     61.6591
   286.7500      0.0000    725.5065      5.9012     72.5401
   287.0000      0.0000    720.8384      5.7973     83.6613
   287.2500      0.0000    712.4264      5.7135     92.9017
   287.5000      0.0000    697.0167      5.7452     98.4227
   287.7500      0.0000    673.7040      5.9854     99.3832
   288.0000      0.0000    648.8678      6.4360     96.3945
   288.2500      0.0000    634.9703      7.0038     90.9271
