~Version Information
VERS.                      2.0: CWLS Log ASCII Standard - VERSION 2.0
WRAP.                       NO: One line per depth step
~Well Information Block
STRT.FT               481.5000: 
STOP.FT              2033.5000: 
STEP.FT                 0.2500: 
NULL.                -999.2500: 
COMP.          Petrogulf Corporation: COMPANY
WELL.            Montoya 7-12R: WELL
FLD.           Purgatorie River: FIELD
LOC.           1769' FNL & 658' FWL: LOCATION
CNTY.               Las Animas: COUNTY
SRVC.                         : SERVICE COMPANY
DATE.          Sat Nov 20 02:31:05 2004: LOG DATE
UWI.           05 071 08240 00: UNIQUE WELL ID
STAT.                 Colorado: STATE
~Curve Information Block
DEPT.FT            0 000 00 00: Depth
SP.mV                         : DIL Spontaneous Potential
RILD.Ohm-m                    : DIL Deep Resistivity
RILM.Ohm-m                    : DIL Medium Resistivity
RLL3.Ohm-m                    : DIL Shallow Resistivity
GR.GAPI                       : Gamma Ray
~Parameter Information Block
~A  Depth        SP         RILD        RILM        RLL3         GR     
# ...
  1797.5000     -1.7756      9.5074      9.3025      9.7552    128.1326
  1797.7500     -2.2007      9.7512      9.5348      9.9637    125.9500
  1798.0000     -2.6765     10.0259      9.8145     10.2701    122.9706
  1798.2500     -3.1890     10.3337     10.1479     10.6965    121.1935
  1798.5000     -3.7242     10.6774     10.5415     11.2671    118.9715
  1798.7500     -4.2702     11.0599     11.0019     12.0047    117.7252
  1799.0000     -4.8188     11.4843     11.5355     12.9273    115.4217
  1799.2500     -5.3665     11.9535     12.1482     14.0458    112.8548
  1799.5000     -5.9140     12.4700     12.8450     15.3634    106.7925
  1799.7500     -6.4660     13.0355     13.6293     16.8757    101.7359
  1800.0000     -7.0291     13.6504     14.5027     18.5701     94.4230
  1800.2500     -7.6102     14.3138     15.4641     20.4228     90.5503
  1800.5000     -8.2147     15.0229     16.5093     22.3929     86.2844
  1800.7500     -8.8450     15.7733     17.6301     24.4167     83.8813
  1801.0000     -9.4997     16.5585     18.8142     26.4049     79.7943
  1801.2500    -10.1737     17.3703     20.0450     28.2501     76.2717
  1801.5000    -10.8592     18.1990     21.3025     29.8470     69.4346
  1801.7500    -11.5465     19.0338     22.5642     31.1198     63.9640
  1802.0000    -12.2252     19.8629     23.8071     32.0505     55.2151
  1802.2500    -12.8855     20.6745     25.0096     32.6917     49.7204
  1802.5000    -13.5178     21.4571     26.1538     33.1586     42.9993
  1802.7500    -14.1137     22.2012     27.2264     33.5979     39.7584
  1803.0000    -14.6653     22.8995     28.2197     34.1455     36.5244
  1803.2500    -15.1656     23.5484     29.1306     34.8882     35.1622
  1803.5000    -15.6086     24.1482     29.9598     35.8436     33.8098
  1803.7500    -15.9901     24.7031     30.7108     36.9629     33.0773
  1804.0000    -16.3079     25.2201     31.3883     38.1549     31.7757
  1804.2500    -16.5628     25.7080     31.9977     39.3192     30.6936
  1804.5000    -16.7589     26.1755     32.5453     40.3772     29.1798
  1804.7500    -16.9029     26.6299     33.0383     41.2887     28.7037
  1805.0000    -17.0038     27.0760     33.4855     42.0545     29.2381
  1805.2500    -17.0719     27.5158     33.8976     42.7072     30.2002
  1805.5000    -17.1172     27.9487     34.2875     43.2996     31.6239
  1805.7500    -17.1485     28.3723     34.6691     43.8947     32.2101
  1806.0000    -17.1714     28.7828     35.0560     44.5608     32.8082
  1806.2500    -17.1880     29.1762     35.4591     45.3644     33.4252
  1806.5000    -17.1960     29.5495     35.8847     46.3537     34.9895
  1806.7500    -17.1893     29.9006     36.3325     47.5341     36.2917
  1807.0000    -17.1591     30.2294     36.7958     48.8429     38.1281
  1807.2500    -17.0959     30.5373     37.2618     50.1411     39.0822
  1807.5000    -16.9925     30.8272     37.7151     51.2357     40.1697
  1807.7500    -16.8463     31.1027     38.1403     51.9320     40.9581
  1808.0000    -16.6606     31.3673     38.5264     52.0983     42.9490
  1808.2500    -16.4455     31.6234     38.8685     51.7149     45.0840
  1808.5000    -16.2161     31.8720     39.1693     50.8834     49.2683
  1808.7500    -15.9903     32.1123     39.4368     49.7935     52.1868
  1809.0000    -15.7854     32.3416     39.6826     48.6627     55.6710
  1809.2500    -15.6150     32.5556     39.9182     47.6772     57.0104
  1809.5000    -15.4875     32.7500     40.1515     46.9572     57.6059
  1809.7500    -15.4060     32.9196     40.3861     46.5529     57.3227
  1810.0000    -15.3688     33.0608     40.6196     46.4622     56.0509
  1810.2500    -15.3724     33.1719     40.8440     46.6533     54.4802
  1810.5000    -15.4127     33.2538     41.0487     47.0796     50.7794
  1810.7500    -15.4860     33.3101     41.2218     47.6837     47.5219
  1811.0000    -15.5883     33.3466     41.3529     48.3961     42.0250
  1811.2500    -15.7133     33.3702     41.4359     49.1360     38.3263
  1811.5000    -15.8501     33.3874     41.4700     49.8179     33.2329
  1811.7500    -15.9822     33.4030     41.4603     50.3637     30.3510
  1812.0000    -16.0890     33.4187     41.4167     50.7163     27.0049
  1812.2500    -16.1488     33.4332     41.3514     50.8479     25.4388
  1812.5000    -16.1433     33.4433     41.2771     50.7640     24.0117
  1812.7500    -16.0622     33.4445     41.2039     50.5015     23.6419
  1813.0000    -15.9051     33.4334     41.1386     50.1221     23.8955
  1813.2500    -15.6821     33.4084     41.0832     49.7029     24.4739
  1813.5000    -15.4112     33.3700     41.0354     49.3246     25.5830
  1813.7500    -15.1150     33.3212     40.9892     49.0560     26.2948
  1814.0000    -14.8172     33.2660     40.9351     48.9396     27.1878
  1814.2500    -14.5384     33.2082     40.8632     48.9802     27.6336
  1814.5000    -14.2944     33.1504     40.7630     49.1423     27.9387
  1814.7500    -14.0947     33.0931     40.6270     49.3589     27.8065
  1815.0000    -13.9424     33.0346     40.4509     49.5495     27.1700
  1815.2500    -13.8346     32.9723     40.2367     49.6404     26.7033
  1815.5000    -13.7646     32.9043     39.9917     49.5821     26.5467
  1815.7500    -13.7235     32.8311     39.7291     49.3557     27.0573
  1816.0000    -13.7028     32.7574     39.4658     48.9705     28.7761
  1816.2500    -13.6964     32.6925     39.2204     48.4543     30.3805
  1816.5000    -13.7023     32.6502     39.0117     47.8435     33.0689
  1816.7500    -13.7234     32.6456     38.8558     47.1792     34.8911
  1817.0000    -13.7673     32.6940     38.7666     46.5111     37.6926
  1817.2500    -13.8448     32.8070     38.7545     45.9080     39.7363
  1817.5000    -13.9682     32.9911     38.8275     45.4672     43.1604
  1817.7500    -14.1484     33.2471     38.9908     45.3151     45.5766
  1818.0000    -14.3927     33.5703     39.2482     45.5906     49.1135
  1818.2500    -14.7022     33.9519     39.6027     46.4142     51.2094
  1818.5000    -15.0711     34.3814     40.0571     47.8507     53.2893
  1818.7500    -15.4862     34.8472     40.6149     49.8822     53.4064
  1819.0000    -15.9286     35.3383     41.2793     52.4035     51.1238
  1819.2500    -16.3757     35.8426     42.0519     55.2418     48.2574
  1819.5000    -16.8036     36.3457     42.9307     58.1929     43.3304
  1819.7500    -17.1897     36.8290     43.9051     61.0619     40.4437
  1820.0000    -17.5143     37.2683     44.9537     63.6975     37.2843
  1820.2500    -17.7620     37.6345     46.0404     66.0143     35.7890
  1820.5000    -17.9214     37.8959     47.1142     67.9993     33.9626
  1820.7500    -17.9848     38.0226     48.1106     69.7044     32.9581
  1821.0000    -17.9464     37.9925     48.9575     71.2233     32.1228
  1821.2500    -17.8013     37.7958     49.5817     72.6554     32.2455
  1821.5000    -17.5441     37.4373     49.9172     74.0659     33.3720
  1821.7500    -17.1685     36.9361     49.9126     75.4525     34.3686
  1822.0000    -16.6677     36.3224     49.5383     76.7263     35.4813
  1822.2500    -16.0356     35.6310     48.7898     77.7116     35.8196
  1822.5000    -15.2696     34.8974     47.6930     78.1629     36.0595
  1822.7500    -14.3724     34.1527     46.3023     77.7987     36.3278
  1823.0000    -13.3551     33.4213     44.6980     76.3528     37.1321
  1823.2500    -12.2375     32.7204     42.9766     73.6407     37.9730
  1823.5000    -11.0488     32.0608     41.2385     69.6318     40.0407
  1823.7500     -9.8251     31.4486     39.5763     64.5040     42.5255
  1824.0000     -8.6060     30.8871     38.0648     58.6544     49.2461
  1824.2500     -7.4307     30.3779     36.7564     52.6471     56.1493
  1824.5000     -6.3328     29.9229     35.6800     47.1013     69.1639
  1824.7500     -5.3373     29.5241     34.8432     42.5511     77.9809
  1825.0000     -4.4584     29.1848     34.2365     39.3224     88.0638
  1825.2500     -3.6991     28.9088     33.8374     37.4702     91.4145
