~Version Information
 VERS.                                  2.0 : CWLS LAS VERSION
 WRAP.                                   NO : WRAPING MODE
 SWARE .                 MController 2.5.0E : SOFTWARE VERSION
~Well Information
 WELL.                          Nomad 32-10 : WELL
 COMP.            EVERGREEN OPERATING CORP. : COMPANY
 FLD.                      PURGATOIRE RIVER : FIELD
 LOC.                    SW/NE 26 T32S R66W : LOCATION
 DATE.                              6/11/04 : DATE(S) LOGGED
 SRVC.       BLANCO GEOLOGICAL SERVICES LLC : SERVICE COMPANY
 STAT.                             COLORADO : STATE
 CNTY.                           LAS ANIMAS : COUNTY
 CTRY.                                  USA : COUNTRY
 API.                       05-071-08127-00 : API NUMBER
 STRT.FT                             446.00 : START DEPTH
 STOP.FT                            2455.00 : STOP DEPTH
 STEP.FT                               1.00 : DEPTH INCREMENT
 NULL.                                -9999 : NULL VALUE
~Curve information
 DEPTH.FT                                   :
 ROP.MIN/FT                                 :
 GAS.UNITS                                  :
~ASCII Log data
# ...
     2246.00       14.500       2221.1 
     2247.00        0.267        616.4 
     2248.00        0.067        611.0 
     2249.00        0.367        611.0 
     2250.00        0.433        587.7 
     2251.00        0.517        514.6 
     2252.00        0.567        528.4 
     2253.00        0.467        551.0 
     2254.00        0.467        571.6 
     2255.00        0.400        579.3 
     2256.00        0.267        568.9 
     2257.00        0.067        568.9 
     2258.00        0.333        565.8 
     2259.00        0.450        549.7 
     2260.00        0.433        549.3 
     2261.00        0.500        558.8 
     2262.00        0.433        558.1 
     2263.00        0.400        546.3 
     2264.00        0.467        513.3 
     2265.00        0.533        521.4 
     2266.00        0.583        547.0 
     2267.00        0.267        531.5 
     2268.00        0.333        512.9 
     2269.00        0.600        499.8 
     2270.00        0.633        448.3 
     2271.00        0.533        131.6 
     2272.00        0.233        122.6 
     2273.00        0.267        130.3 
     2274.00        0.550        176.0 
     2275.00        0.533        221.3 
     2276.00        2.983       1192.2 
     2277.00        0.100       1068.2 
     2278.00        0.167       1047.0 
     2279.00        1.100        984.3 
     2280.00        0.800        715.1 
     2281.00        0.067        636.6 
     2282.00        0.883        632.2 
     2283.00        0.633        616.4 
     2284.00        0.267        627.2 
     2285.00        0.267        632.5 
     2286.00        0.267        633.2 
     2287.00        0.300        630.2 
     2288.00        0.233        619.7 
     2289.00        0.400        606.6 
     2290.00        0.600        583.4 
     2291.00        0.717        554.7 
     2292.00        0.467        550.3 
     2293.00        0.367        545.6 
     2294.00        0.300        541.2 
     2295.00        0.300        538.2 
     2296.00        0.400        529.1 
     2297.00        0.533        520.7 
     2298.00        0.583        526.4 
     2299.00        0.467        529.8 
     2300.00        0.533        523.7 
     2301.00        0.700        525.7 
     2302.00        0.633        499.1 
     2303.00        0.700        484.6 
     2304.00        0.550        537.9 
     2305.00        0.600        599.5 
     2306.00        8.767       1228.9 
     2307.00        0.650        600.5 
     2308.00        0.633        600.5 
     2309.00        0.700        588.8 
     2310.00        0.800        571.2 
     2311.00        0.917        540.6 
     2312.00        1.000        519.7 
     2313.00        0.900        486.3 
     2314.00        0.867        490.7 
     2315.00        0.817        505.2 
     2316.00        0.767        501.5 
     2317.00        0.533        474.9 
     2318.00        0.867        473.5 
     2319.00        0.333        466.5 
     2320.00        0.433        476.2 
     2321.00        0.417        469.5 
     2322.00        0.267        452.0 
     2323.00        0.200        452.0 
     2324.00        0.467        465.8 
     2325.00        0.433        519.3 
     2326.00        0.333        508.6 
     2327.00        0.367        518.0 
     2328.00        0.433        530.8 
     2329.00        0.367        543.3 
     2330.00        0.383        553.4 
     2331.00        0.467        609.3 
     2332.00        0.533        630.5 
     2333.00        0.467        535.9 
     2334.00        0.567         90.1 
     2335.00        0.833        219.4 
     2336.00        4.200       1171.6 
     2337.00        0.800        679.4 
     2338.00        0.267        590.1 
     2339.00        0.533        572.2 
     2340.00        0.500        551.0 
     2341.00        0.267        517.7 
     2342.00        0.333        513.3 
     2343.00        0.417        504.2 
     2344.00        0.433        489.7 
     2345.00        0.400        482.3 
     2346.00        0.367        486.3 
     2347.00        0.467        478.9 
     2348.00        0.333        478.6 
     2349.00        0.300        462.7 
     2350.00        0.600        449.6 
     2351.00        0.283        440.0 
     2352.00        0.267        171.8 
     2353.00        0.533        167.5 
     2354.00        0.600        167.8 
     2355.00        0.567        179.8 
     2356.00        0.533        182.1 
     2357.00        0.517        174.1 
     2358.00        0.533        173.3 
     2359.00        0.467        154.1 
     2360.00        0.600        156.2 
     2361.00        0.267        167.4 
     2362.00        0.700        184.9 
     2363.00        0.500        194.8 
     2364.00        0.550        204.2 
     2365.00        0.533        212.4 
     2366.00        9.450       1088.1 
     2367.00        0.567        584.4 
     2368.00        0.867        548.0 
     2369.00        0.433        496.1 
     2370.00        0.467        492.7 
     2371.00        0.567        482.3 
     2372.00        0.650        483.6 
     2373.00        0.633        490.7 
     2374.00        0.600        514.6 
     2375.00        0.633        496.1 
     2376.00        0.633        547.0 
     2377.00        0.650        558.8 
     2378.00        0.533        556.4 
     2379.00        0.300        542.6 
     2380.00        0.667        548.0 
     2381.00        0.700        546.3 
     2382.00        0.667        524.1 
     2383.00        0.717        521.0 
     2384.00        0.667        512.3 
     2385.00        0.733        509.2 
     2386.00        0.767        508.6 
     2387.00        0.917        505.9 
     2388.00        0.833        493.1 
     2389.00        0.967        492.4 
     2390.00        0.933        493.4 
     2391.00        0.850        494.8 
     2392.00        0.867        488.0 
     2393.00        0.967        485.7 
     2394.00        0.800        520.7 
     2395.00        0.883         97.4 
     2396.00        5.150        414.7 
     2397.00        0.133        337.5 
     2398.00        0.817        324.9 
     2399.00        0.667        286.5 
     2400.00        0.600        269.6 
     2401.00        0.567        261.1 
     2402.00        0.567        253.2 
     2403.00        0.600        246.7 
     2404.00        0.550        239.0 
     2405.00        0.533        233.4 
     2406.00        0.533        235.5 
     2407.00        0.533        237.6 
     2408.00        0.500        227.5 
     2409.00        0.567        227.4 
     2410.00        0.517        219.5 
     2411.00        0.533        214.8 
     2412.00        0.500        220.2 
     2413.00        0.500        235.9 
     2414.00        0.500        253.6 
     2415.00        0.500        265.9 
     2416.00        0.567        300.3 
     2417.00        0.617        305.6 
     2418.00        0.800        290.6 
     2419.00        0.467        272.0 
     2420.00        0.567        262.7 
     2421.00        0.433        270.8 
     2422.00        0.617        278.7 
     2423.00        0.400        219.9 
     2424.00        0.400        157.5 
     2425.00        0.433        153.1 
     2426.00        4.750       1093.4 
     2427.00        0.100        895.0 
     2428.00        0.100        895.0 
     2429.00        0.783        830.0 
     2430.00        0.967        690.2 
     2431.00        1.033        540.9 
     2432.00        0.833        505.5 
     2433.00        0.683        449.3 
     2434.00        0.633        440.0 
     2435.00        0.733        175.5 
     2436.00        0.700        168.3 
     2437.00        0.700        155.4 
     2438.00        0.717        157.3 
     2439.00        0.833        173.9 
     2440.00        0.667        224.1 
     2441.00        1.000        227.2 
     2442.00        1.017        215.2 
     2443.00        0.900        220.5 
     2444.00        0.933        222.8 
     2445.00        1.117        214.8 
