~Version Information
VERS.                      2.0: CWLS Log ASCII Standard - VERSION 2.0
WRAP.                       NO: One line per depth step
~Well Information Block
STRT.FT               483.0000: 
STOP.FT              1702.5000: 
STEP.FT                 0.2500: 
NULL.                -999.2500: 
COMP.          Pioneer Natural Resources: COMPANY
WELL.            Mad Dog 42-31: WELL
FLD.           Purgatorie River: FIELD
LOC.           2064' FNL & 479' FEL: LOCATION
PROV.                 Colorado: PROVINCE
CNTY.               Las Animas: COUNTRY
SRVC.                         : SERVICE COMPANY
DATE.          Sun Oct 10 04:26:24 2004: LOG DATE
UWI.           05 071 08195 00: UNIQUE WELL ID
~Curve Information Block
DEPT.FT            0 000 00 00: Depth
LTEN.lb                       : Surface Line Tension
SN.Ohm-m                      : IEL Short Normal
SP.mV                         : IEL Spontaneous Potential
DIR.Ohm-m                     : IEL Induction Resistivity
GR.GAPI                       : Gamma Ray
~Parameter Information Block
~A  Depth       LTEN         SN          SP         DIR          GR     
# ...
  1127.0000    688.1440      8.7928   -228.2456      9.2691    150.8332
  1127.2500    687.4269      8.8400   -228.4565      9.1723    151.4236
  1127.5000    686.8420      8.9609   -229.1493      9.0407    152.0202
  1127.7500    686.5880      9.0997   -230.1518      8.9020    151.6810
  1128.0000    686.4228      9.2119   -231.2560      8.7881    149.0452
  1128.2500    685.9949      9.2813   -232.2727      8.7247    145.9128
  1128.5000    685.5650      9.3213   -233.0724      8.7246    140.7629
  1128.7500    685.4855      9.3585   -233.6107      8.7897    138.3122
  1129.0000    685.3525      9.4128   -233.9219      8.9170    137.2433
  1129.2500    684.4961      9.4908   -234.0964      9.1015    137.8539
  1129.5000    682.9977      9.5952   -234.2381      9.3325    139.0240
  1129.7500    681.5969      9.7367   -234.4290      9.5923    139.2750
  1130.0000    680.9040      9.9339   -234.7081      9.8614    138.9444
  1130.2500    681.1758     10.2021   -235.0625     10.1292    138.7065
  1130.5000    682.5173     10.5446   -235.4432     10.3957    138.8041
  1130.7500    684.8251     10.9508   -235.7908     10.6636    138.9901
  1131.0000    687.5876     11.4062   -236.0564     10.9305    138.3887
  1131.2500    689.8976     11.9026   -236.2120     11.1892    136.6804
  1131.5000    690.8038     12.4418   -236.2532     11.4307    131.6833
  1131.7500    689.8891     13.0236   -236.1925     11.6429    127.0574
  1132.0000    687.7300     13.6268   -236.0459     11.8064    119.0774
  1132.2500    685.6213     14.1974   -235.8354     11.8990    113.3471
  1132.5000    684.5710     14.6539   -235.5937     11.9091    104.3621
  1132.7500    684.5308     14.9119   -235.3655     11.8486     98.5061
  1133.0000    684.6622     14.9122   -235.2148     11.7484     91.2861
  1133.2500    684.3107     14.6430   -235.2141     11.6354     88.4159
  1133.5000    683.6035     14.1427   -235.4213     11.5122     88.2689
  1133.7500    683.1514     13.4851   -235.8507     11.3577     91.4823
  1134.0000    683.4562     12.7523   -236.4586     11.1494    101.5781
  1134.2500    684.6960     12.0127   -237.1311     10.8841    111.2118
  1134.5000    686.6999     11.3089   -237.7091     10.5757    127.4612
  1134.7500    688.8525     10.6608   -238.0218     10.2386    137.7382
  1135.0000    690.3677     10.0751   -237.9337      9.8800    150.0683
  1135.2500    690.9957      9.5528   -237.3844      9.5088    155.5483
  1135.5000    691.3121      9.0903   -236.4078      9.1452    159.6515
  1135.7500    692.1331      8.6787   -235.1358      8.8166    160.4400
  1136.0000    693.7383      8.3073   -233.7629      8.5437    160.9286
  1136.2500    695.6005      7.9780   -232.5048      8.3302    161.7550
  1136.5000    696.7390      7.7184   -231.5456      8.1681    163.6978
  1136.7500    696.4574      7.5792   -230.9974      8.0492    164.7688
  1137.0000    694.9268      7.6088   -230.8808      7.9738    165.3108
  1137.2500    693.1115      7.8183   -231.1305      7.9478    165.1997
  1137.5000    692.0856      8.1645   -231.6271      7.9734    165.2509
  1137.7500    692.4226      8.5615   -232.2338      8.0430    165.6631
  1138.0000    694.1994      8.9142   -232.8329      8.1413    166.0926
  1138.2500    697.2868      9.1555   -233.3426      8.2540    165.4135
  1138.5000    701.1797      9.2669   -233.7199      8.3750    162.2149
  1138.7500    704.6197      9.2746   -233.9417      8.5036    159.0558
  1139.0000    705.9980      9.2266   -233.9900      8.6343    154.3446
  1139.2500    704.4915      9.1661   -233.8417      8.7489    151.9540
  1139.5000    700.8782      9.1183   -233.4676      8.8197    149.8860
  1139.7500    697.3019      9.0921   -232.8421      8.8278    149.3735
  1140.0000    695.9835      9.0884   -231.9539      8.7829    149.4393
  1140.2500    697.6049      9.1071   -230.8136      8.7263    149.8126
  1140.5000    700.8251      9.1478   -229.4595      8.7123    150.6156
  1140.7500    703.4672      9.2077   -227.9621      8.7855    151.1763
  1141.0000    703.9824      9.2821   -226.4280      8.9670    151.7562
  1141.2500    701.9474      9.3695   -224.9856      9.2519    151.9186
  1141.5000    697.9919      9.4800   -223.7765      9.6127    152.3323
  1141.7500    693.5490      9.6400   -222.9241     10.0089    153.1402
  1142.0000    690.1086      9.8825   -222.5064     10.4012    155.0035
  1142.2500    688.2442     10.2265   -222.5225     10.7668    155.8242
  1142.5000    687.3157     10.6606   -222.8865     11.1074    154.3625
  1142.7500    686.2172     11.1440   -223.4433     11.4433    150.7436
  1143.0000    684.3890     11.6285   -224.0084     11.7997    141.5240
  1143.2500    681.9991     12.0838   -224.4175     12.1915    134.0603
  1143.5000    679.4847     12.5103   -224.5755     12.6195    123.9749
  1143.7500    677.6400     12.9352   -224.4773     13.0778    119.4425
  1144.0000    677.8669     13.3929   -224.2024     13.5631    116.6052
  1144.2500    681.0358     13.9021   -223.8888     14.0745    116.7344
  1144.5000    685.8107     14.4529   -223.6907     14.6060    118.1569
  1144.7500    689.3428     15.0116   -223.7364     15.1466    119.0271
  1145.0000    690.2585     15.5448   -224.0934     15.6930    119.4813
  1145.2500    690.0327     16.0453   -224.7543     16.2633    119.1571
  1145.5000    690.8542     16.5429   -225.6429     16.8972    117.7350
  1145.7500    692.9547     17.0898   -226.6302     17.6402    116.1437
  1146.0000    694.6358     17.7324   -227.5746     18.5230    112.8141
  1146.2500    694.3831     18.4880   -228.3573     19.5434    109.9494
  1146.5000    692.5457     19.3389   -228.9113     20.6497    104.4656
  1146.7500    691.0773     20.2417   -229.2332     21.7257     99.9714
  1147.0000    691.5801     21.1447   -229.3779     22.6022     92.5074
  1147.2500    693.5431     22.0029   -229.4261     23.1248     87.6502
  1147.5000    694.9142     22.7844   -229.4543     23.2542     81.3124
  1147.7500    694.5908     23.4673   -229.5074     23.0986     77.7031
  1148.0000    693.7604     24.0331   -229.5933     22.8344     72.6848
  1148.2500    694.3263     24.4640   -229.6958     22.5988     69.5398
  1148.5000    696.5219     24.7486   -229.7946     22.4531     65.9524
  1148.7500    698.6943     24.8882   -229.8856     22.4205     64.9203
  1149.0000    699.1376     24.8977   -229.9815     22.5383     65.3605
  1149.2500    697.5722     24.8029   -230.1022     22.8664     66.2242
  1149.5000    695.0121     24.6386   -230.2599     23.4417     67.0444
  1149.7500    692.7106     24.4457   -230.4407     24.2097     66.9636
  1150.0000    691.3963     24.2619   -230.6070     24.9880     66.0128
  1150.2500    691.2213     24.1068   -230.7075     25.5213     65.0785
  1150.5000    691.9608     23.9758   -230.7055     25.6355     63.9578
  1150.7500    693.1318     23.8509   -230.5891     25.3691     63.8374
  1151.0000    694.1779     23.7208   -230.3815     24.9431     64.8437
  1151.2500    694.6606     23.5916   -230.1326     24.6209     66.0722
  1151.5000    694.3771     23.4792   -229.8997     24.5943     68.0111
  1151.7500    693.6204     23.3929   -229.7200     24.9275     68.9697
  1152.0000    693.2834     23.3269   -229.5977     25.5208     69.4968
  1152.2500    694.0427     23.2663   -229.5087     26.1048     69.0414
  1152.5000    695.2172     23.2005   -229.4154     26.3456     66.6730
  1152.7500    695.0457     23.1336   -229.2914     26.0661     63.9083
  1153.0000    692.7003     23.0854   -229.1509     25.3888     58.8657
  1153.2500    689.6736     23.0813   -229.0515     24.6289     55.7782
  1153.5000    688.4400     23.1379   -229.0785     24.0831     52.5141
  1153.7500    689.8945     23.2533   -229.3150     23.9233     51.2626
  1154.0000    692.8967     23.4109   -229.8038     24.1950     50.4380
  1154.2500    696.1875     23.5936   -230.5229     24.8400     50.4950
  1154.5000    699.6835     23.7963   -231.3868     25.7092     51.3603
  1154.7500    703.5435     24.0267   -232.2713     26.5888     52.1828
