~Version Information
 VERS.                      2.0: CWLS Log ASCII Standard - VERSION 2.0
 WRAP.                       NO: One line per depth step
 ~Well Information Block
 STRT.FT                -8.0000: 
 STOP.FT              2581.0000: 
 STEP.FT                 0.2500: 
 NULL.                -999.2500: 
 COMP.          Petrogulf Corporation: COMPANY
 WELL.               YWAM 7-23V: WELL
 FLD.           Purgatorie River: FIELD
 LOC.           230' FSL & 225' FWL: LOCATION
 CNTY.               Las Animas: COUNTY
 SRVC.                         : SERVICE COMPANY
 DATE.          Mon Nov 22 10:51:24 2004: LOG DATE
 UWI.           05-071-08227-00: UNIQUE WELL ID
 STAT.                 Colorado: STATE
 PROV.                         :Province
 ~Curve Information Block
 DEPT.FT            0 000 00 00: Depth
 TT3.usec                      : CBL 3' Travel Time
 AMP3.mV                       : CBL 3' Amplitude
 GR.GAPI                       : Gamma Ray
 CCL.                          : Casing Collar Locator
 ~Parameter Information Block
 ~A  Depth       TT3         AMP3         GR         CCL     
# ...
  2538.0000    747.4985      6.5822    111.5081      0.0000
  2538.2500    765.0248      7.0331    105.9042      0.0000
  2538.5000    781.1935      7.3617    101.4354      0.0000
  2538.7500    794.3040      7.5829     99.3040      0.0000
  2539.0000    803.3782      7.7154    100.5863      0.0000
  2539.2500    807.3499      7.7685    105.4090      0.0000
  2539.5000    805.2639      7.7362    112.4841      0.0000
  2539.7500    797.3899      7.5966    119.6269      0.0000
  2540.0000    785.6356      7.3272    124.7178      0.0000
  2540.2500    772.4913      6.9296    126.5830      0.0000
  2540.5000    760.3261      6.4357    125.7424      0.0000
  2540.7500    751.7014      5.8869    124.4164      0.0000
  2541.0000    748.6833      5.3247    125.0952      0.0000
  2541.2500    750.9027      4.8022    128.6405      0.0000
  2541.5000    755.4402      4.3774    133.7547      0.0000
  2541.7500    759.4872      4.0763    138.1451      0.0000
  2542.0000    762.3954      3.8708    139.9538      0.0000
  2542.2500    764.7963      3.7049    138.3219      5.0000
  2542.5000    766.4907      3.5366    133.4242      0.0000
  2542.7500    765.8116      3.3612    126.5645      0.0000
  2543.0000    761.2111      3.2071    119.9965      0.0000
  2543.2500    753.4975      3.1121    116.0950      0.0000
  2543.5000    745.9836      3.0913    116.4429      0.0000
  2543.7500    741.5844      3.1207    121.4408      0.0000
  2544.0000    740.1514      3.1605    130.2113      0.0000
  2544.2500    739.9573      3.1928    140.6046      0.0000
  2544.5000    741.2665      3.2310    149.7478      0.0000
  2544.7500    746.3076      3.2921    155.1896      0.0000
  2545.0000    755.6299      3.3718    155.7838      0.0000
  2545.2500    766.4997      3.4481    151.8239      0.0000
  2545.5000    775.4105      3.5032    144.7133      0.0000
  2545.7500    780.8328      3.5392    136.4722      0.0000
  2546.0000    783.2650      3.5713    129.0354      0.0000
  2546.2500    783.8184      3.6115    123.6227      0.0000
  2546.5000    783.3195      3.6585    120.5407      0.0000
  2546.7500    782.2200      3.7011    119.2401      0.0000
  2547.0000    780.7744      3.7277    118.5713      0.0000
  2547.2500    779.1865      3.7320    117.4727      0.0000
  2547.5000    777.6724      3.7139    115.6266      0.0000
  2547.7500    776.4523      3.6769    113.2561      0.0000
  2548.0000    775.7096      3.6270    110.4809      0.0000
  2548.2500    775.5313      3.5724    107.4408      0.0000
  2548.5000    775.8571      3.5257    105.0136      0.0000
  2548.7500    776.4776      3.5008    104.5172      0.0000
  2549.0000    777.1143      3.5059    106.2474      0.0000
  2549.2500    777.5499      3.5405    109.0143      0.0000
  2549.5000    777.6953      3.6009    111.5650      0.0000
  2549.7500    777.4913      3.6874    113.8272      0.0000
  2550.0000    776.6518      3.8040    116.3609      0.0000
  2550.2500    774.4797      3.9513    119.3313      0.0000
  2550.5000    770.1120      4.1251    122.4196      0.0000
  2550.7500    763.2404      4.3237    125.0818      0.0000
  2551.0000    754.6365      4.5526    126.4408      0.0000
  2551.2500    745.8162      4.8138    125.4876      0.0000
  2551.5000    738.2759      5.0894    122.1475      0.0000
  2551.7500    733.2325      5.3397    118.0838      0.0000
  2552.0000    731.7377      5.5189    115.8186      0.0000
  2552.2500    734.3900      5.5953    116.7909      0.0000
  2552.5000    740.7813      5.5596    120.4516      0.0000
  2552.7500    749.3875      5.4231    125.0785      0.0000
  2553.0000    758.0500      5.2107    129.0289      0.0000
  2553.2500    764.7610      4.9502    131.2879      0.0000
  2553.5000    768.3190      4.6644    131.5245      0.0000
  2553.7500    768.3174      4.3698    130.2340      0.0000
  2554.0000    764.6313      4.0822    128.6463      0.0000
  2554.2500    757.5529      3.8193    127.8515      0.0000
  2554.5000    748.9366      3.5964    127.6876      0.0000
  2554.7500    742.5700      3.4206    126.7668      0.0000
  2555.0000    742.0074      3.2920    123.9752      0.0000
  2555.2500    747.5860      3.2080    119.8337      0.0000
  2555.5000    756.2092      3.1670    115.9737      0.0000
  2555.7500    764.1511      3.1667    113.4310      0.0000
  2556.0000    769.5360      3.1985    112.1819      0.0000
  2556.2500    772.4289      3.2431    112.2582      0.0000
  2556.5000    773.6100      3.2741    114.3000      0.0000
  2556.7500    773.6169      3.2704    118.6926      0.0000
  2557.0000    772.3490      3.2278    124.8034      0.0000
  2557.2500    769.0610      3.1601    131.1933      0.0000
  2557.5000    762.9065      3.0890    136.1922      0.0000
  2557.7500    754.1183      3.0312    138.5854      0.0000
  2558.0000    744.9666      2.9924    138.3605      0.0000
  2558.2500    738.9888      2.9733    136.6434      0.0000
  2558.5000    738.3686      2.9796    134.4883      0.0000
  2558.7500    742.0856      3.0188    131.8062      0.0000
  2559.0000    747.4188      3.0864    127.5854      0.0000
  2559.2500    753.1691      3.1635    121.0760      0.0000
  2559.5000    760.2540      3.2349    112.8477      0.0000
  2559.7500    768.9703      3.3016    104.7222      0.0000
  2560.0000    776.9201      3.3715     98.5187      0.0000
  2560.2500    780.2794      3.4442     94.9364      0.0000
  2560.5000    776.5836      3.5134     93.7879      0.0000
  2560.7500    766.3585      3.5817     94.8229      0.0000
  2561.0000    753.0547      3.6609     97.8433      0.0000
  2561.2500    741.7179      3.7569    102.4068      0.0000
  2561.5000    736.5810      3.8555    108.0546      0.0000
  2561.7500    738.9020      3.9281    114.6544      0.0000
  2562.0000    746.8261      3.9504    122.0750      0.0000
  2562.2500    757.0104      3.9175    129.5999      0.0000
  2562.5000    766.4059      3.8425    135.9474      0.0000
  2562.7500    773.4007      3.7452    139.8680      0.0000
  2563.0000    778.0227      3.6434    140.8388      0.0000
  2563.2500    781.1434      3.5486    139.4887      0.0000
  2563.5000    783.4670      3.4667    137.2516      0.0000
  2563.7500    785.1913      3.4000    135.2534      0.0000
  2564.0000    786.2733      3.3499    133.5647      0.0000
  2564.2500    786.7262      3.3137    131.6868      0.0000
  2564.5000    786.6871      3.2800    129.3727      0.0000
  2564.7500    786.3167      3.2342    126.5555      0.0000
  2565.0000    785.5992      3.1714    122.9094      0.0000
  2565.2500    784.1931      3.1010    118.1751      0.0000
  2565.5000    781.5356      3.0393    112.8200      2.1057
  2565.7500    777.4059      2.9988    107.7748      3.2700
  2566.0000    772.6834      2.9840    103.2670      0.0000
  2566.2500    769.3547      2.9913     97.9592      0.0000
  2566.5000    769.1965      3.0145     89.4178   -999.2500
  2566.7500    772.1888      3.0501     75.7728   -999.2500
  2567.0000    776.3990      3.0992     57.4886   -999.2500
  2567.2500    779.2454      3.1664     37.7924   -999.2500
  2567.5000    778.6653      3.2597     20.9423   -999.2500
  2567.7500    773.6756      3.3900      9.5730   -999.2500
  2568.0000    764.7692      3.5678      3.5518   -999.2500
  2568.2500    753.8157      3.8012      1.0570   -999.2500
  2568.5000    742.7734      4.0983      0.2496   -999.2500
  2568.7500    731.3015      4.4734      0.0461   -999.2500
  2569.0000    714.3643      4.9502      0.0061   -999.2500
  2569.2500    682.8054      5.5589      0.0000   -999.2500
  2569.5000    629.6937      6.3227   -999.2500   -999.2500
  2569.7500    558.4587      7.2396   -999.2500   -999.2500
  2570.0000    483.3274      8.2702   -999.2500   -999.2500
  2570.2500    420.0442      9.3509   -999.2500   -999.2500
  2570.5000    376.4509     10.4270   -999.2500   -999.2500
  2570.7500    351.2004     11.4758   -999.2500   -999.2500
  2571.0000    338.5359     12.4988   -999.2500   -999.2500
  2571.2500    332.8345     13.5051   -999.2500   -999.2500
