~Version Information
 VERS.                      2.0: CWLS Log ASCII Standard - VERSION 2.0
 WRAP.                       NO: One line per depth step
 ~Well Information Block
 STRT.FT                -8.0000: 
 STOP.FT              2581.0000: 
 STEP.FT                 0.2500: 
 NULL.                -999.2500: 
 COMP.          Petrogulf Corporation: COMPANY
 WELL.               YWAM 7-23V: WELL
 FLD.           Purgatorie River: FIELD
 LOC.           230' FSL & 225' FWL: LOCATION
 CNTY.               Las Animas: COUNTY
 SRVC.                         : SERVICE COMPANY
 DATE.          Mon Nov 22 10:51:24 2004: LOG DATE
 UWI.           05-071-08227-00: UNIQUE WELL ID
 STAT.                 Colorado: STATE
 PROV.                         :Province
 ~Curve Information Block
 DEPT.FT            0 000 00 00: Depth
 TT3.usec                      : CBL 3' Travel Time
 AMP3.mV                       : CBL 3' Amplitude
 GR.GAPI                       : Gamma Ray
 CCL.                          : Casing Collar Locator
 ~Parameter Information Block
 ~A  Depth       TT3         AMP3         GR         CCL     
# ...
   829.5000    726.5438     10.1368     96.9375      0.0000
   829.7500    726.8248      9.9618     92.2582      0.0000
   830.0000    716.6703      9.7599     86.0236      0.0000
   830.2500    696.6516      9.5286     78.6340      0.0000
   830.5000    668.0504      9.2747     71.1565      0.0000
   830.7500    636.0137      9.0086     65.4923      0.0000
   831.0000    607.8500      8.7374     63.5420      0.0000
   831.2500    588.6074      8.4637     65.8223      0.0000
   831.5000    579.0494      8.1888     70.8399      0.0000
   831.7500    577.7597      7.9169     76.0818      0.0000
   832.0000    584.0546      7.6592     79.9193      0.0000
   832.2500    598.2912      7.4360     82.5234      0.0000
   832.5000    619.6647      7.2721     84.9150      0.0000
   832.7500    644.6503      7.1897     87.3709      0.0000
   833.0000    668.8040      7.2029     88.9706      0.0000
   833.2500    690.4155      7.3161     88.5968      0.0000
   833.5000    711.6204      7.5217     86.2280      0.0000
   833.7500    735.3127      7.8006     83.3283      0.0000
   834.0000    761.2760      8.1323     82.0274      0.0000
   834.2500    785.2064      8.5085     83.6845      0.0000
   834.5000    800.3556      8.9417     87.9403      0.0000
   834.7500    798.8528      9.4600     93.0178      0.0000
   835.0000    772.2204     10.0940     97.0585      0.0000
   835.2500    714.3730     10.8640     99.4381      0.0000
   835.5000    628.4460     11.7722    100.9539      0.0000
   835.7500    530.9025     12.7957    102.7053      0.0000
   836.0000    444.6309     13.8866    104.7683      0.0000
   836.2500    384.9978     14.9838    106.1659      0.0000
   836.5000    352.7457     16.0271    106.2046      0.0000
   836.7500    339.0434     16.9647    105.4434      0.0000
   837.0000    334.4041     17.7621    105.0451      0.0000
   837.2500    333.0772     18.4109    105.5651      0.0000
   837.5000    332.6844     18.9190    106.7990      0.0000
   837.7500    332.5282     19.2819    108.4396      0.0000
   838.0000    332.4866     19.4690    110.1764      0.0000
   838.2500    332.5516     19.4469    111.1445      0.0000
   838.5000    332.7207     19.2155    110.0110      0.0000
   838.7500    332.9919     18.8154    106.2453      0.0000
   839.0000    333.5158     18.2936    101.1676      0.0000
   839.2500    335.1638     17.6590     97.2434      0.0000
   839.5000    340.7435     16.8752     96.2366      0.0000
   839.7500    356.5972     15.8994     98.0062      0.0000
   840.0000    392.5238     14.7322    100.6899      0.0000
   840.2500    456.8045     13.4379    102.0702      0.0000
   840.5000    547.3848     12.1278    101.4520      0.0000
   840.7500    648.0765     10.9188    100.5153      0.0000
   841.0000    737.5886      9.8925    101.7312      0.0000
   841.2500    804.3328      9.0714    105.7309      0.0000
   841.5000    851.0236      8.4249    110.7749      0.0000
   841.7500    885.0336      7.8984    114.7568      0.0000
   842.0000    907.5924      7.4536    116.8940      0.0000
   842.2500    913.8995      7.0907    117.4181      0.0000
   842.5000    900.9104      6.8380    116.6585      0.0000
   842.7500    872.0425      6.7194    114.9696      0.0000
   843.0000    835.5529      6.7281    112.9488      0.0000
   843.2500    800.8353      6.8293    111.1297      0.0000
   843.5000    775.1475      6.9831    109.5135      0.0000
   843.7500    761.1437      7.1633    107.6323      0.0000
   844.0000    756.9213      7.3585    105.2264      0.0000
   844.2500    758.5787      7.5620    102.9441      0.0000
   844.5000    762.8060      7.7684    102.1858      0.0000
   844.7500    768.2808      7.9793    103.9162      0.0000
   845.0000    775.7910      8.2033    107.6085      0.0000
   845.2500    786.5078      8.4431    111.5763      0.0000
   845.5000    799.6234      8.6779    114.2454      0.0000
   845.7500    812.1622      8.8636    114.9316      0.0000
   846.0000    821.5323      8.9553    113.7385      0.0000
   846.2500    827.3995      8.9344    111.3116      0.0000
   846.5000    830.4128      8.8166    108.6956      0.0000
   846.7500    829.7295      8.6376    106.8709      0.0000
   847.0000    822.5385      8.4319    106.0879      0.0000
   847.2500    806.1884      8.2189    105.6580      0.0000
   847.5000    781.1821      8.0056    104.5564      0.0000
   847.7500    752.3429      7.7978    102.3939      0.0000
   848.0000    726.4676      7.6081     99.7686      0.0000
   848.2500    708.1718      7.4540     97.4800      0.0000
   848.5000    698.0581      7.3489     95.3862      0.0000
   848.7500    694.3421      7.2945     92.2959      0.0000
   849.0000    695.1295      7.2821     87.2082      0.0000
   849.2500    698.4255      7.2995     80.5759      0.0000
   849.5000    700.2266      7.3343     74.1584      0.0000
   849.7500    694.1453      7.3711     69.5784      0.0000
   850.0000    675.5015      7.3933     67.1265      0.0000
   850.2500    646.8738      7.3927     66.0212      0.0000
   850.5000    618.0295      7.3724     65.5852      0.0000
   850.7500    598.8707      7.3394     65.9162      0.0000
   851.0000    592.5137      7.2994     67.4979      0.0000
   851.2500    594.6953      7.2628     70.4101      0.0000
   851.5000    598.4907      7.2489     74.0924      0.0000
   851.7500    599.2878      7.2769     77.8308      0.0000
   852.0000    595.9661      7.3507     81.2617      0.0000
   852.2500    588.7703      7.4582     84.3281      0.0000
   852.5000    577.9777      7.5829     86.9404      0.0000
   852.7500    565.0624      7.7087     88.8092      0.0000
   853.0000    553.5897      7.8124     89.6365      0.0000
   853.2500    547.4637      7.8669     89.6044      0.0000
   853.5000    548.0601      7.8657     89.7037      0.0000
   853.7500    553.2192      7.8367     91.2393      0.0000
   854.0000    558.9159      7.8173     94.6657      0.0000
   854.2500    561.6076      7.8205     98.9023      0.0000
   854.5000    558.9254      7.8352    102.0489      0.0000
   854.7500    548.9652      7.8486    102.8619      0.0000
   855.0000    530.6481      7.8582    101.4207      0.0000
   855.2500    505.8476      7.8614     98.6554      0.0000
   855.5000    480.1234      7.8427     95.7707      0.0000
   855.7500    459.4196      7.7772     93.9846      0.0000
   856.0000    445.6655      7.6493     94.1277      0.0000
   856.2500    436.3778      7.4697     96.1657      0.0000
   856.5000    428.2017      7.2732     99.1906      0.0000
   856.7500    419.9113      7.0988    101.9883      0.0000
   857.0000    412.3267      6.9677    103.9456      0.0000
   857.2500    406.5601      6.8724    105.4691      0.0000
   857.5000    402.9005      6.7848    107.1645      0.0000
   857.7500    400.9501      6.6802    108.7484      0.0000
   858.0000    400.2250      6.5530    109.3612      0.0000
   858.2500    400.5763      6.4118    108.7344      0.0000
   858.5000    402.4606      6.2620    107.4328      0.0000
   858.7500    407.3711      6.0989    106.1153      0.0000
   859.0000    418.3192      5.9148    105.1124      0.0000
   859.2500    439.7769      5.7064    104.6398      0.0000
   859.5000    476.3456      5.4802    104.9038      0.0000
   859.7500    529.7729      5.2565    105.8770      0.0000
   860.0000    595.6680      5.0727    107.1374      0.0000
   860.2500    663.3953      4.9833    107.9826      0.0000
   860.5000    720.9253      5.0473    107.7989      0.0000
   860.7500    761.1880      5.2918    106.5978      0.0000
   861.0000    784.8559      5.6716    105.2231      0.0000
   861.2500    798.4904      6.0797    104.6339     -2.9724
   861.5000    809.4881      6.4143    104.9090     -3.3508
   861.7500    819.9050      6.6274    105.2506      0.0000
   862.0000    823.4822      6.7222    104.9903      0.0000
   862.2500    809.8994      6.7404    104.3941      0.0000
   862.5000    774.3822      6.7571    104.4492      0.0000
   862.7500    724.4801      6.8370    105.9546      0.0000
