~Version Information
 VERS.                                  2.0 : CWLS LAS VERSION
 WRAP.                                   NO : WRAPING MODE
 SWARE .                 MController 2.5.0E : SOFTWARE VERSION
~Well Information
 WELL.                          Chase 21-10 : WELL
 COMP.             Evergreen Operating Corp : COMPANY
 FLD.                      Purgatorie River : FIELD
 LOC.                NE/NW Sec 10 t32S R65W : LOCATION
 DATE.                              5/23/04 : DATE(S) LOGGED
 SRVC.       Blanco Geological Services LLC : SERVICE COMPANY
 STAT.                                   CO : STATE
 CNTY.                           Las Animas : COUNTY
 CTRY.                                  USA : COUNTRY
 API.                        05 071 08006 00: API NUMBER
 UWI.                        05 071 08006 00: UNIQUE WELL ID
 STRT.FT                             481.00 : START DEPTH
 STOP.FT                            1525.00 : STOP DEPTH
 STEP.FT                               1.00 : DEPTH INCREMENT
 NULL.                                -9999 : NULL VALUE
~Curve information
 DEPTH.FT                                   :
 ROP.MIN/FT                                 :
 GAS.UNITS                                  :
~ASCII Log data
# ...
      681.00        0.233          8.7 
      682.00        0.133          8.4 
      683.00        0.100          8.4 
      684.00        0.200          8.6 
      685.00        0.233          8.6 
      686.00        1.367          9.5 
      687.00        0.317          9.6 
      688.00        0.233          9.3 
      689.00        0.167          8.8 
      690.00        0.200          9.3 
      691.00        0.167          9.2 
      692.00        0.167          9.2 
      693.00        0.200          9.1 
      694.00        0.167          9.4 
      695.00        0.167          9.1 
      696.00        0.133          9.0 
      697.00        0.167          9.4 
      698.00        0.133          9.6 
      699.00        0.133          9.6 
      700.00        0.167          9.2 
      701.00        0.167          9.5 
      702.00        0.333          9.3 
      703.00        0.233          9.4 
      704.00        0.183          9.5 
      705.00        0.167          9.3 
      706.00        0.167          8.8 
      707.00        0.167          8.8 
      708.00        0.167          9.3 
      709.00        0.167          9.3 
      710.00        0.167          9.4 
      711.00        0.200          9.4 
      712.00        0.200          9.8 
      713.00        0.133          9.5 
      714.00        0.133          9.5 
      715.00        0.200          9.3 
      716.00        1.067         10.0 
      717.00        0.300          9.6 
      718.00        0.283          9.9 
      719.00        0.233          9.3 
      720.00        0.200          9.5 
      721.00        0.200          9.6 
      722.00        0.167          9.5 
      723.00        0.200          9.4 
      724.00        0.167          9.4 
      725.00        0.167          9.7 
      726.00        0.167          9.2 
      727.00        0.167          9.3 
      728.00        0.133          9.2 
      729.00        0.167          9.3 
      730.00        0.167          9.8 
      731.00        0.133          9.4 
      732.00        0.167          9.4 
      733.00        0.133          9.8 
      734.00        0.133          9.6 
      735.00        0.167          9.7 
      736.00        0.167          9.5 
      737.00        0.183          9.5 
      738.00        0.167         10.0 
      739.00        0.100          9.7 
      740.00        0.100          9.7 
      741.00        0.100          9.6 
      742.00        0.233          9.5 
      743.00        0.200          9.4 
      744.00        0.100          9.4 
      745.00        0.100          9.3 
      746.00        1.633         10.3 
      747.00        0.200          9.9 
      748.00        0.233         10.2 
      749.00        0.217          9.8 
      750.00        0.200          9.9 
      751.00        0.167          9.7 
      752.00        0.100          9.7 
      753.00        0.133          9.7 
      754.00        0.100         10.0 
      755.00        0.100          9.9 
      756.00        0.167         10.3 
      757.00        0.167         10.3 
      758.00        0.167          9.9 
      759.00        0.200          9.9 
      760.00        0.133          9.9 
      761.00        0.167         10.0 
      762.00        0.133         10.5 
      763.00        0.133         10.5 
      764.00        0.167         10.1 
      765.00        0.200          9.9 
      766.00        0.167          9.8 
      767.00        0.200          9.9 
      768.00        0.200         10.3 
      769.00        0.167          9.4 
      770.00        0.150          9.8 
      771.00        0.167          9.8 
      772.00        0.167          9.9 
      773.00        0.133          9.8 
      774.00        0.133         10.0 
      775.00        0.200          9.5 
      776.00        1.533         12.2 
      777.00        0.233         10.7 
      778.00        0.167         10.2 
      779.00        0.100         10.2 
      780.00        0.100         10.9 
      781.00        0.200         10.1 
      782.00        0.283          9.9 
      783.00        0.167          9.6 
      784.00        0.167          9.5 
      785.00        0.200          9.5 
      786.00        0.200          9.4 
      787.00        0.200         10.4 
      788.00        0.133         10.4 
      789.00        0.233         10.1 
      790.00        0.167          9.7 
      791.00        0.167         10.0 
      792.00        0.167          9.9 
      793.00        0.200         10.0 
      794.00        0.167          9.6 
      795.00        0.167          9.7 
      796.00        0.167         10.4 
      797.00        0.133         10.0 
      798.00        0.167          9.7 
      799.00        0.133          9.7 
      800.00        0.167          9.7 
      801.00        0.183          9.7 
      802.00        0.167          9.6 
      803.00        0.133          9.4 
      804.00        0.167          9.9 
      805.00        0.167          9.9 
      806.00        1.567         11.5 
      807.00        0.567         14.4 
      808.00        0.267         10.5 
      809.00        0.133         10.0 
      810.00        0.217          9.6 
      811.00        0.200          9.6 
      812.00        0.233          9.7 
      813.00        0.200          9.2 
      814.00        0.233          9.6 
      815.00        0.200          9.5 
      816.00        0.167          9.8 
      817.00        0.167          9.6 
      818.00        0.167          9.9 
      819.00        0.133          9.7 
      820.00        0.200         10.1 
      821.00        0.167          9.5 
      822.00        0.133          9.5 
      823.00        0.100          9.8 
      824.00        0.100          9.8 
      825.00        0.133          9.6 
      826.00        0.167         10.0 
      827.00        0.200          9.9 
      828.00        0.200          9.4 
      829.00        0.150          9.4 
      830.00        0.167          9.4 
      831.00        0.167          9.6 
      832.00        0.133          9.6 
      833.00        0.200          9.9 
      834.00        0.267          9.8 
      835.00        1.267         10.3 
      836.00        0.533         12.9 
      837.00        0.267         10.6 
      838.00        0.200         10.4 
      839.00        0.217          9.6 
      840.00        0.200          9.8 
      841.00        0.167          9.9 
      842.00        0.133          9.8 
      843.00        0.133          9.4 
      844.00        0.100          9.8 
      845.00        0.100          9.8 
      846.00        0.133          9.5 
      847.00        0.167          9.7 
      848.00        0.167         10.0 
      849.00        0.133         10.0 
      850.00        0.167         10.1 
      851.00        0.133          9.8 
      852.00        0.167         10.1 
      853.00        0.167         10.1 
      854.00        0.167          9.8 
      855.00        0.200         10.0 
      856.00        0.133          9.9 
      857.00        0.200         10.1 
      858.00        0.200         10.1 
      859.00        0.200          9.9 
      860.00        0.183         10.1 
      861.00        0.200         10.1 
      862.00        0.133          9.8 
      863.00        0.167          9.7 
      864.00        0.133          9.9 
      865.00        0.200          9.8 
      866.00        1.100         10.3 
      867.00        0.467         12.4 
      868.00        0.267         12.2 
      869.00        0.267         10.5 
      870.00        0.200          9.5 
      871.00        0.350          9.6 
      872.00        0.167          9.9 
      873.00        0.167          9.6 
      874.00        0.200          9.7 
      875.00        0.167          9.6 
      876.00        0.133         10.0 
      877.00        0.167         10.4 
      878.00        0.167         10.6 
      879.00        0.133         10.5 
      880.00        0.200         10.3 
