~Version Information
VERS.                      2.0: CWLS Log ASCII Standard - VERSION 2.0
WRAP.                       NO: One line per depth step
~Well Information Block
STRT.FT                -8.2500: 
STOP.FT              2725.7500: 
STEP.FT                 0.2500: 
NULL.                -999.2500: 
COMP.          Pioneer Natural Resources: COMPANY
WELL.          Rabbit Bush Federal 44-19: WELL
FLD.           Purgatoire River: FIELD
LOC.           826' FSL & 1127' FEL: LOCATION
CNTY.               Las Animas: COUNTY
SRVC.                Patterson: SERVICE COMPANY
DATE.          Thu Sep 14 10:51:19 2006: LOG DATE
UWI.           05 071 08149 00: UNIQUE WELL ID
STAT.                       CO: STATE
~Curve Information Block
DEPT.FT            0 000 00 00: Depth
GR.GAPI                       : Gamma Ray
CCL.                          : Casing Collar Locator
TT3.usec                      : CBL 3' Travel Time
AMP3.mV                       : CBL 3' Amplitude
~Parameter Information Block
~A  Depth        GR         CCL         TT3         AMP3    
# ...
  2537.7500     93.7293      0.0000    675.3688      6.4515
  2538.0000     91.4363      0.0000    635.8416      6.5374
  2538.2500     89.5245      0.0000    582.7450      6.6248
  2538.5000     88.0590      0.0000    524.3713      6.6840
  2538.7500     86.5947      0.0000    474.0867      6.6942
  2539.0000     84.5184      0.0000    442.6040      6.6424
  2539.2500     81.8353      0.0000    434.0192      6.5288
  2539.5000     79.5668      0.0000    448.3885      6.3766
  2539.7500     78.9835      0.0000    484.5986      6.2351
  2540.0000     80.2047      0.0000    538.3772      6.1639
  2540.2500     81.8043      0.0000    599.0978      6.2026
  2540.5000     82.0793      0.0000    652.3457      6.3449
  2540.7500     80.8074      0.0000    687.9987      6.5404
  2541.0000     79.6187      0.0000    706.0181      6.7249
  2541.2500     80.5538      0.0000    714.6276      6.8555
  2541.5000     84.4229      0.0000    723.2234      6.9226
  2541.7500     90.5892      0.0000    736.1019      6.9375
  2542.0000     97.7296      0.0000    751.3603      6.9162
  2542.2500    104.2954      0.0000    764.5809      6.8746
  2542.5000    108.6853      0.0000    772.9314      6.8324
  2542.7500    109.7921      0.0000    776.1242      6.8168
  2543.0000    107.5525      0.0000    774.8813      6.8579
  2543.2500    102.9745      0.0000    769.6875      6.9734
  2543.5000     97.8912      0.0000    760.9567      7.1560
  2543.7500     94.4219      0.0000    749.5703      7.3779
  2544.0000     93.6459      0.0000    736.5172      7.6111
  2544.2500     94.5029      0.0000    721.6094      7.8471
  2544.5000     94.6498      0.0000    702.0963      8.0988
  2544.7500     92.7069      0.0000    672.5695      8.3853
  2545.0000     89.2503      0.0000    628.0348      8.7136
  2545.2500     85.6103      0.0000    569.6415      9.0663
  2545.5000     82.4210      0.0000    507.4910      9.4055
  2545.7500     79.6875      0.0000    455.4791      9.6947
  2546.0000     77.5604      0.0000    421.9036      9.9282
  2546.2500     76.2024      0.0000    405.0566     10.1324
  2546.5000     75.0342      0.0000    397.1758     10.3346
  2546.7500     72.9315      0.0000    391.3975     10.5381
  2547.0000     69.5573      0.0000    385.2741     10.7327
  2547.2500     66.2510      0.0000    379.6335     10.9157
  2547.5000     65.1797      0.0000    375.7790     11.0941
  2547.7500     67.3897      0.0000    373.9464     11.2733
  2548.0000     71.7743      0.0000    373.4794     11.4511
  2548.2500     76.2204      0.0000    373.6084     11.6132
  2548.5000     79.5745      0.0000    373.9483     11.7280
  2548.7500     82.0768      0.0000    374.6348     11.7528
  2549.0000     84.1877      0.0000    376.1774     11.6573
  2549.2500     85.8332      0.0000    379.0380     11.4481
  2549.5000     86.8235      0.0000    383.4646     11.1686
  2549.7500     87.4702      0.0000    390.4657     10.8658
  2550.0000     88.5616      0.0000    403.4467     10.5538
  2550.2500     90.6112      0.0000    427.8952     10.2104
  2550.5000     92.9616      0.0000    466.9381      9.8136
  2550.7500     93.8824      0.0000    515.7722      9.3757
  2551.0000     92.0065      0.0000    562.2361      8.9395
  2551.2500     87.6485      0.0000    595.6057      8.5451
  2551.5000     82.6362      0.0000    614.1469      8.2104
  2551.7500     79.0532      0.0000    622.3519      7.9387
  2552.0000     78.0085      0.0000    623.2668      7.7304
  2552.2500     79.1366      0.0000    616.2798      7.5822
  2552.5000     81.0824      0.0000    600.4659      7.4807
  2552.7500     82.5241      0.0000    577.6531      7.4059
  2553.0000     82.8335      0.0000    552.1778      7.3414
  2553.2500     82.0329      0.0000    527.0125      7.2789
  2553.5000     80.3431      0.0000    500.5742      7.2153
  2553.7500     77.8670      0.0000    469.9632      7.1494
  2554.0000     74.7020      0.0000    436.8039      7.0824
  2554.2500     71.1241      0.0000    406.8027      7.0197
  2554.5000     67.4385      0.0000    384.1225      6.9674
  2554.7500     63.8254      0.0000    368.6838      6.9281
  2555.0000     60.4648      0.0000    358.2567      6.8981
  2555.2500     57.5153      0.0000    351.1016      6.8685
  2555.5000     54.8366      0.0000    346.4366      6.8307
  2555.7500     52.0049      0.0000    343.7038      6.7829
  2556.0000     48.7587      0.0000    342.2028      6.7316
  2556.2500     45.2990      0.0000    341.3171      6.6849
  2556.5000     42.1435      0.0000    340.7739      6.6466
  2556.7500     39.8045      0.0000    340.5488      6.6106
  2557.0000     38.6083      0.0000    340.6757      6.5546
  2557.2500     38.6445      0.0000    341.2493      6.4458
  2557.5000     39.8101      0.0000    342.7989      6.2651
  2557.7500     41.9155      0.0000    347.1198      6.0249
  2558.0000     44.6796      0.0000    358.4131      5.7604
  2558.2500     47.6414      0.0000    383.3181      5.5137
  2558.5000     50.3377      0.0000    427.3213      5.3266
  2558.7500     52.6051      0.0000    487.3949      5.2312
  2559.0000     54.3486      0.0000    547.3051      5.2247
  2559.2500     54.9917      0.0000    584.7498      5.2611
  2559.5000     53.8578      0.0000    587.8334      5.2950
  2559.7500     51.3536      0.0000    563.3847      5.3439
  2560.0000     49.1078      0.0000    526.5882      5.4831
  2560.2500     48.6380      1.2646    486.7004      5.7544
  2560.5000     50.2629     -2.0000    447.6927      6.0911
  2560.7500     53.1258      0.0000    417.8600      6.3480
  2561.0000     55.6388      0.0000    410.4576      6.3918
  2561.2500     56.1780      0.0000    433.9628      6.1723
  2561.5000     54.1726      0.0000    483.8224      5.7454
  2561.7500     50.6803      0.0000    542.8947      5.2501
  2562.0000     47.6688      0.0000    590.3423      4.8368
  2562.2500     46.7160      0.0000    613.7714      4.5928
  2562.5000     48.2882      0.0000    615.8789      4.5209
  2562.7500     51.8556      0.0000    609.0455      4.5631
  2563.0000     56.4369      0.0000    603.1780      4.6339
  2563.2500     61.2954      0.0000    600.9249      4.6618
  2563.5000     66.4652      0.0000    603.6678      4.6285
  2563.7500     72.6049      0.0000    615.2061      4.5676
  2564.0000     80.1916      0.0000    635.9584      4.5217
  2564.2500     88.8480      0.0000    658.8485      4.5080
  2564.5000     97.3222      0.0000    675.3073      4.5181
  2564.7500    103.9333      0.0000    682.7871      4.5366
  2565.0000    107.3336      0.0000    683.7881      4.5517
  2565.2500    107.3738      0.0000    679.9501      4.5575
  2565.5000    105.2464      0.0000    670.2902      4.5557
  2565.7500    102.5946      0.0000    655.1589      4.5554
  2566.0000    100.6214      0.0000    639.2966      4.5676
  2566.2500    100.0877      0.0000    627.9713      4.5974
  2566.5000    101.4789      0.0000    619.4969      4.6412
  2566.7500    104.3805      0.0000    604.0750      4.6911
  2567.0000    106.9639      0.0000    573.0663      4.7399
  2567.2500    107.1476      0.0000    529.1044      4.7820
  2567.5000    104.5934      0.0000    484.7172      4.8111
  2567.7500    101.1445      0.0000    451.1565      4.8208
  2568.0000     99.2250      0.0000    430.5682      4.8117
  2568.2500     99.8430      0.0000    418.1709      4.7950
  2568.5000    101.7856      0.0000    408.9852      4.7852
  2568.7500    102.6146      0.0000    401.6958      4.7908
  2569.0000    100.7997      0.0000    397.7708      4.8125
  2569.2500     97.2077      0.0000    398.4194      4.8446
  2569.5000     94.4776      0.0000    402.7046      4.8763
  2569.7500     94.5902      0.0000    408.2102      4.8956
  2570.0000     96.8360      0.0000    412.9760      4.8983
  2570.2500     98.5202      0.0000    416.7444      4.8938
  2570.5000     97.9971      0.0000    421.1905      4.8992
  2570.7500     96.5607      0.0000    430.0302      4.9254
  2571.0000     96.9066      0.0000    448.7922      4.9693
