~Version Information
 VERS.                                  2.0 : CWLS LAS VERSION
 WRAP.                                   NO : WRAPING MODE
 SWARE .                 MController 2.5.0E : SOFTWARE VERSION
~Well Information
 WELL.                      Latiluppe 8-13R : WELL
 COMP.                Petrogulf Corporation : COMPANY
 FLD.                      Purgatorie River : FIELD
 LOC.                 NW/SW Sec 8 T33S R67W : LOCATION
 DATE.                              4/20/04 : DATE(S) LOGGED
 SRVC.       Blanco Geological Services LLC : SERVICE COMPANY
 STAT.                                   CO : STATE
 CNTY.                           Las Animas : COUNTY
 CTRY.                                  USA : COUNTRY
 API.                       05-071-08035-00 : API NUMBER
 STRT.FT                            1036.00 : START DEPTH
 STOP.FT                            2246.00 : STOP DEPTH
 STEP.FT                               1.00 : DEPTH INCREMENT
 NULL.                                -9999 : NULL VALUE
~Curve information
 DEPTH.FT                                   :
 ROP.MIN/FT                                 :
 GAS.UNITS                                  :
~ASCII Log data
# ...
     2036.00        0.400          2.7 
     2037.00        0.567          2.8 
     2038.00        0.300          2.6 
     2039.00        0.267          2.6 
     2040.00        0.267          2.5 
     2041.00        0.300          2.5 
     2042.00        0.317          2.5 
     2043.00        0.400          2.4 
     2044.00        0.267          2.5 
     2045.00        0.200          2.4 
     2046.00        0.267          2.7 
     2047.00        0.267          2.6 
     2048.00        0.267          2.9 
     2049.00        0.233          2.2 
     2050.00        0.267          2.2 
     2051.00        0.233          2.2 
     2052.00        0.233          2.4 
     2053.00        0.233          2.3 
     2054.00        0.267          2.2 
     2055.00        0.283          2.4 
     2056.00        0.233          2.6 
     2057.00        0.233          2.5 
     2058.00        0.267          2.4 
     2059.00        0.167          2.4 
     2060.00        0.233          2.6 
     2061.00        0.233          2.2 
     2062.00        0.267          2.2 
     2063.00        0.233          1.9 
     2064.00        0.200          2.2 
     2065.00        2.883          4.7 
     2066.00        0.233          4.0 
     2067.00        0.367          3.9 
     2068.00        0.367          3.1 
     2069.00        0.333          2.8 
     2070.00        0.383          1.8 
     2071.00        0.300          1.1 
     2072.00        0.267          0.3 
     2073.00        0.233          0.0 
     2074.00        0.233          0.1 
     2075.00        0.267          0.5 
     2076.00        0.233          0.3 
     2077.00        0.267          0.0 
     2078.00        0.267          1.1 
     2079.00        0.267          2.1 
     2080.00        0.233          2.6 
     2081.00        0.300          3.1 
     2082.00        0.400          3.1 
     2083.00        0.250          0.3 
     2084.00        0.233          0.2 
     2085.00        0.267          1.9 
     2086.00        0.233         28.1 
     2087.00        0.267         16.4 
     2088.00        0.267          4.2 
     2089.00        0.267          0.1 
     2090.00        0.233          0.3 
     2091.00        0.267          0.0 
     2092.00        0.300          0.3 
     2093.00        0.267          0.3 
     2094.00        0.267          0.0 
     2095.00        2.883          3.9 
     2096.00        0.633          4.5 
     2097.00        0.383          4.5 
     2098.00        0.300          4.7 
     2099.00        0.333          5.2 
     2100.00        0.333          5.4 
     2101.00        0.300          4.7 
     2102.00        0.367          4.9 
     2103.00        0.300          5.1 
     2104.00        0.367          5.4 
     2105.00        0.267          5.3 
     2106.00        0.267          5.2 
     2107.00        0.283          5.6 
     2108.00        0.267          5.5 
     2109.00        0.267          6.1 
     2110.00        0.267          5.8 
     2111.00        0.267          5.8 
     2112.00        0.267          5.5 
     2113.00        0.267          5.8 
     2114.00        0.233          6.1 
     2115.00        0.233          6.0 
     2116.00        0.267          6.1 
     2117.00        0.233          6.4 
     2118.00        0.267          6.1 
     2119.00        0.267          6.2 
     2120.00        0.283          6.2 
     2121.00        0.233          6.2 
     2122.00        0.267          6.1 
     2123.00        0.267          6.3 
     2124.00        0.300          6.8 
     2125.00        2.517          6.4 
     2126.00        0.533          6.2 
     2127.00        0.267          6.1 
     2128.00        0.267          5.7 
     2129.00        0.533          6.2 
     2130.00        0.267          6.1 
     2131.00        0.267          5.9 
     2132.00        0.267          5.8 
     2133.00        0.267          5.5 
     2134.00        0.267          5.8 
     2135.00        0.283          5.5 
     2136.00        0.267          5.7 
     2137.00        0.267          6.2 
     2138.00        0.267          5.8 
     2139.00        0.267          5.7 
     2140.00        0.267          5.7 
     2141.00        0.267          5.6 
     2142.00        0.533          5.7 
     2143.00        0.267          5.6 
     2144.00        0.267          5.9 
     2145.00        0.267          7.5 
     2146.00        0.550          8.7 
     2147.00        0.267          9.0 
     2148.00        0.367          9.6 
     2149.00        0.200          9.5 
     2150.00        0.267          9.4 
     2151.00        0.300          9.2 
     2152.00        0.300          8.3 
     2153.00        0.300          8.2 
     2154.00        0.300          8.0 
     2155.00        0.267          8.1 
     2156.00        2.950         17.9 
     2157.00        0.800         18.9 
     2158.00        0.483         18.0 
     2159.00        0.400         16.6 
     2160.00        0.400         16.5 
     2161.00        0.333         15.9 
     2162.00        0.333         15.2 
     2163.00        0.367         16.0 
     2164.00        0.433         14.7 
     2165.00        0.400         14.5 
     2166.00        0.450         14.2 
     2167.00        0.400         13.9 
     2168.00        0.367         13.4 
     2169.00        0.367         12.8 
     2170.00        0.300         12.9 
     2171.00        0.367         13.2 
     2172.00        0.300         13.2 
     2173.00        0.333         13.5 
     2174.00        0.300         13.2 
     2175.00        0.300         13.0 
     2176.00        0.217         12.5 
     2177.00        0.267         12.2 
     2178.00        0.200         12.2 
     2179.00        0.233         12.5 
     2180.00        0.267         11.7 
     2181.00        0.267         11.5 
     2182.00        0.200         11.0 
     2183.00        0.233         11.5 
     2184.00        0.233         12.0 
     2185.00        0.267         11.9 
     2186.00        0.533         14.3 
     2187.00        2.317         15.6 
     2188.00        0.600         16.1 
     2189.00        0.367         15.9 
     2190.00        0.300         16.2 
     2191.00        0.267         15.8 
     2192.00        0.350         14.8 
     2193.00        0.267         14.7 
     2194.00        0.300         14.5 
     2195.00        0.300         14.4 
     2196.00        0.267         14.2 
     2197.00        0.233         14.9 
     2198.00        0.233         16.4 
     2199.00        0.267         18.2 
     2200.00        0.300         20.3 
     2201.00        0.233         20.8 
     2202.00        0.233         20.8 
     2203.00        0.233         21.7 
     2204.00        0.217         20.3 
     2205.00        0.167         21.0 
     2206.00        0.233         19.9 
     2207.00        0.267         20.0 
     2208.00        0.233         18.7 
     2209.00        0.267         18.3 
     2210.00        0.267         18.5 
     2211.00        0.267         16.4 
     2212.00        0.300         14.9 
     2213.00        0.267         10.9 
     2214.00        0.300         10.9 
     2215.00        0.267         10.9 
     2216.00        0.333         11.2 
     2217.00        3.083         11.9 
     2218.00        1.683         12.1 
     2219.00        0.233         11.8 
     2220.00        0.500         12.2 
     2221.00        0.367         12.2 
     2222.00        0.400         11.9 
     2223.00        0.333         12.0 
     2224.00        0.350         12.6 
     2225.00        0.200         12.2 
     2226.00        0.133         12.2 
     2227.00        0.200         12.2 
     2228.00        0.200         12.2 
     2229.00        0.233         12.4 
     2230.00        0.300         12.1 
     2231.00        0.300         12.2 
     2232.00        0.267         12.1 
     2233.00        0.333         12.4 
     2234.00        0.300         12.3 
     2235.00        0.300         11.9 
