~Version Information
VERS.                      2.0: CWLS Log ASCII Standard - VERSION 2.0
WRAP.                       NO: One line per depth step
~Well Information Block
STRT.FT               520.0000: 
STOP.FT              1105.5000: 
STEP.FT                 0.1000: 
NULL.                -999.2500: 
COMP.          Pioneer Natural Resources: COMPANY
WELL.            Redland 23-24: WELL
FLD.           Purgatoire River: FIELD
LOC.           2356' FSL & 1880' FWL: LOCATION
PROV.                 Colorado: PROVINCE
CNTY.               Las Animas: COUNTRY
SRVC.                Patterson: SERVICE COMPANY
DATE.          Mon Mar 21 07:08:20 2005: LOG DATE
UWI.           05 071 08221 00: UNIQUE WELL ID
~Curve Information Block
DEPT.FT            0 000 00 00: Depth
DCAL.in                       : CDL Caliper
RHOB.g/cc                     : CDL Bulk Density
RHOC.g/cc                     : CDL Density Correction
DPOR.pu                       : CDL Density Porosity
GR.GAPI                       : Gamma Ray
NPOR.pu                       : Neutron Porosity
~Parameter Information Block
~A  Depth       DCAL        RHOB        RHOC        DPOR         GR         NPOR    
# ...
  1086.4000      7.8290      2.6089      0.0277      2.4894     78.1939     19.1189
  1086.5000      7.8196      2.6134     -0.0027      2.2159     80.9006     18.9180
  1086.6000      7.8196      2.6245      0.0787      1.5427     83.8566     18.6048
  1086.7000      7.8196      2.6229      0.0438      1.6437     84.1780     18.4782
  1086.8000      7.8236      2.6039      0.0672      2.7956     81.4715     18.5052
  1086.9000      7.8236      2.5854      0.0141      3.9140     79.0094     18.5340
  1087.0000      7.8353      2.5817      0.0270      4.1366     76.7925     18.8527
  1087.1000      7.8353      2.5776      0.0240      4.3888     69.7351     19.3825
  1087.2000      7.8353      2.5598      0.0339      5.4647     52.4272     19.2139
  1087.3000      7.8366      2.5467      0.0350      6.2582     27.8231     17.8895
  1087.4000      7.8366      2.5537      0.0411      5.8334      9.1116     16.8791
  1087.5000      7.8386      2.5731      0.0226      4.6606      1.7009     17.2095
  1087.6000      7.8386      2.5898      0.0236      3.6480      0.1738     18.0584
  1087.7000      7.8386      2.5907      0.0299      3.5917      0.0094     18.5563
  1087.8000      7.8375      2.5777      0.0367      4.3836      0.0000     18.7667
  1087.9000      7.8375      2.5629      0.0808      5.2797   -999.2500     19.0026
  1088.0000      7.8205      2.5467      0.0708      6.2596   -999.2500     19.3628
  1088.1000      7.8205      2.5298      0.0313      7.2873   -999.2500     19.8739
  1088.2000      7.8205      2.5216      0.0268      7.7844   -999.2500     20.3800
  1088.3000      7.8104      2.5274      0.0100      7.4300   -999.2500     20.3692
  1088.4000      7.8104      2.5466      0.0564      6.2642   -999.2500     20.1944
  1088.5000      7.7900      2.5703      0.0778      4.8301   -999.2500     20.6027
  1088.6000      7.7900      2.5868      0.0867      3.8329   -999.2500     21.1850
  1088.7000      7.7900      2.5978      0.0916      3.1633   -999.2500     21.1987
  1088.8000      7.7666      2.6103      0.0587      2.4081   -999.2500     21.0106
  1088.9000      7.7666      2.6138      0.1343      2.1943   -999.2500     21.3108
  1089.0000      7.7810      2.5980      0.0574      3.1539   -999.2500     21.7364
  1089.1000      7.7810      2.5888      0.0271      3.7079   -999.2500     21.7921
  1089.2000      7.7810      2.6041      0.0362      2.7789   -999.2500     21.6090
  1089.3000      7.7943      2.6171      0.0573      1.9942   -999.2500     21.4519
  1089.4000      7.7943      2.6077      0.0815      2.5634   -999.2500     21.4723
  1089.5000      7.8149      2.5938      0.0323      3.4069   -999.2500     21.5664
  1089.6000      7.8149      2.5967      0.0113      3.2327   -999.2500     21.6423
  1089.7000      7.8149      2.6040      0.0766      2.7899   -999.2500     21.5129
  1089.8000      7.8171      2.5911      0.0290      3.5697   -999.2500     20.9927
  1089.9000      7.8171      2.5575      0.0698      5.6090   -999.2500     20.6245
  1090.0000      7.8248      2.5231     -0.0024      7.6938   -999.2500     20.8222
  1090.1000      7.8248      2.5087      0.0147      8.5650   -999.2500     21.0085
  1090.2000      7.8248      2.5125      0.0057      8.3318   -999.2500     20.8543
  1090.3000      7.8364      2.5138      0.0492      8.2543   -999.2500     20.4002
  1090.4000      7.8364      2.4979      0.0337      9.2163   -999.2500     19.9960
  1090.5000      7.8422      2.4778     -0.0317     10.4337   -999.2500     20.4529
  1090.6000      7.8422      2.4796      0.0066     10.3289   -999.2500     23.2693
  1090.7000      7.8422      2.5040      0.0041      8.8484   -999.2500     30.6737
  1090.8000      7.8254      2.5312      0.0492      7.2016   -999.2500     40.9854
  1090.9000      7.8254      2.5471      0.0476      6.2375   -999.2500     48.0162
  1091.0000      7.8057      2.5510      0.0723      6.0028   -999.2500     50.4967
  1091.1000      7.8057      2.5523      0.0287      5.9189   -999.2500     50.9785
  1091.2000      7.8057      2.5560      0.0341      5.6940   -999.2500     51.0292
  1091.3000      7.7984      2.5495      0.0897      6.0911   -999.2500     51.0321
  1091.4000      7.7984      2.5255      0.0190      7.5443   -999.2500   -999.2500
  1091.5000      7.7952      2.5033     -0.0122      8.8926   -999.2500   -999.2500
  1091.6000      7.7952      2.5073     -0.0263      8.6513   -999.2500   -999.2500
  1091.7000      7.7952      2.5309      0.0702      7.2168   -999.2500   -999.2500
  1091.8000      7.7976      2.5423      0.0442      6.5277   -999.2500   -999.2500
  1091.9000      7.7976      2.5332      0.0068      7.0774   -999.2500   -999.2500
  1092.0000      7.8321      2.5221     -0.0014      7.7537   -999.2500   -999.2500
  1092.1000      7.8321      2.5169      0.0004      8.0663   -999.2500   -999.2500
  1092.2000      7.8321      2.5176     -0.0127      8.0266   -999.2500   -999.2500
  1092.3000      7.8177      2.5260      0.0204      7.5168   -999.2500   -999.2500
  1092.4000      7.8177      2.5397      0.0322      6.6820   -999.2500   -999.2500
  1092.5000      7.8199      2.5588      0.0390      5.5258   -999.2500   -999.2500
  1092.6000      7.8199      2.5828      0.0500      4.0703   -999.2500   -999.2500
  1092.7000      7.8199      2.5995      0.1030      3.0583   -999.2500   -999.2500
  1092.8000      7.8181      2.6078      0.0470      2.5552   -999.2500   -999.2500
  1092.9000      7.8181      2.6174      0.1143      1.9769   -999.2500   -999.2500
  1093.0000      7.8110      2.6122      0.1277      2.2890   -999.2500   -999.2500
  1093.1000      7.8110      2.5842      0.0604      3.9875   -999.2500   -999.2500
  1093.2000      7.8110      2.5601      0.0697      5.4485   -999.2500   -999.2500
  1093.3000      7.8173      2.5574      0.0110      5.6149   -999.2500   -999.2500
  1093.4000      7.8173      2.5613      0.0679      5.3744   -999.2500   -999.2500
  1093.5000      7.8197      2.5468     -0.0099      6.2536   -999.2500   -999.2500
  1093.6000      7.8197      2.5128     -0.0167      8.3181   -999.2500   -999.2500
  1093.7000      7.8197      2.4853     -0.0493      9.9832   -999.2500   -999.2500
  1093.8000      7.8341      2.4838      0.0154     10.0721   -999.2500   -999.2500
  1093.9000      7.8341      2.4968      0.0262      9.2862   -999.2500   -999.2500
  1094.0000      7.8409      2.5059      0.0012      8.7343   -999.2500   -999.2500
  1094.1000      7.8409      2.5089      0.0086      8.5542   -999.2500   -999.2500
  1094.2000      7.8409      2.5104      0.0220      8.4618   -999.2500   -999.2500
  1094.3000      7.8308      2.5157      0.0333      8.1410   -999.2500   -999.2500
  1094.4000      7.8308      2.5295      0.0168      7.3051   -999.2500   -999.2500
  1094.5000      7.8081      2.5483      0.0795      6.1648   -999.2500   -999.2500
  1094.6000      7.8081      2.5659      0.0699      5.0946   -999.2500   -999.2500
  1094.7000      7.8081      2.5836      0.0884      4.0251   -999.2500   -999.2500
  1094.8000      7.8081      2.5972      0.0897      3.2024   -999.2500   -999.2500
  1094.9000      7.8081      2.5981      0.0779      3.1474   -999.2500   -999.2500
  1095.0000      7.8072      2.5891      0.0281      3.6915   -999.2500   -999.2500
  1095.1000      7.8072      2.5774      0.0814      4.4014   -999.2500   -999.2500
  1095.2000      7.8072      2.5654      0.0197      5.1299   -999.2500   -999.2500
  1095.3000      7.8149      2.5601      0.0084      5.4509   -999.2500   -999.2500
  1095.4000      7.8149      2.5586      0.0215      5.5419   -999.2500   -999.2500
  1095.5000      7.8193      2.5497      0.0316      6.0763   -999.2500   -999.2500
  1095.6000      7.8193      2.5385      0.0431      6.7598   -999.2500   -999.2500
  1095.7000      7.8193      2.5400      0.0171      6.6657   -999.2500   -999.2500
  1095.8000      7.8203      2.5556      0.0770      5.7198   -999.2500   -999.2500
  1095.9000      7.8203      2.5681      0.0791      4.9627   -999.2500   -999.2500
