~Version Information
VERS.                      2.0: CWLS Log ASCII Standard - VERSION 2.0
WRAP.                       NO: One line per depth step
~Well Information Block
STRT.FT               259.0000: 
STOP.FT              2382.0000: 
STEP.FT                 0.2500: 
NULL.                -999.2500: 
COMP.          Pioneer Natural Resources: COMPANY
WELL.          Foothills 12-36: WELL
FLD.           Purgatoire River: FIELD
LOC.           2450' FNL & 201' FWL: LOCATION
PROV.                 Colorado: PROVINCE
CNTY.               Las Animas: COUNTRY
SRVC.                Patterson: SERVICE COMPANY
DATE.          Thu Apr 21 03:00:58 2005: LOG DATE
UWI.           05 071 08339 00: UNIQUE WELL ID
~Curve Information Block
DEPT.FT            0 000 00 00: Depth
SN.Ohm-m                      : IEL Short Normal
SP.mV                         : IEL Spontaneous Potential
DIR.Ohm-m                     : IEL Induction Resistivity
GR.GAPI                       : Gamma Ray
~Parameter Information Block
~A  Depth        SN          SP         DIR          GR     
# ...
  1934.0000     33.2140    -32.2872     23.0401     90.1552
  1934.2500     28.0383    -31.5823     21.5559     97.5407
  1934.5000     24.2536    -31.0440     20.2475    105.9080
  1934.7500     21.6411    -30.6982     19.0827    109.7442
  1935.0000     19.9622    -30.5328     18.0564    113.1960
  1935.2500     18.9699    -30.5018     17.1700    114.3379
  1935.5000     18.3939    -30.5402     16.4165    115.0946
  1935.7500     18.0076    -30.5841     15.7753    115.2912
  1936.0000     17.7028    -30.5918     15.2182    115.3467
  1936.2500     17.4369    -30.5560     14.7199    115.2433
  1936.5000     17.1231    -30.4966     14.2692    114.9521
  1936.7500     16.7230    -30.4343     13.8707    114.7934
  1937.0000     16.3777    -30.3680     13.5359    114.8391
  1937.2500     16.2280    -30.2747     13.2716    115.0727
  1937.5000     16.2305    -30.1296     13.0737    115.5138
  1937.7500     16.2779    -29.9221     12.9300    115.7161
  1938.0000     16.2869    -29.6575     12.8271    115.7527
  1938.2500     16.1397    -29.3527     12.7568    115.6146
  1938.5000     15.7983    -29.0337     12.7183    115.3644
  1938.7500     15.4242    -28.7314     12.7145    115.3716
  1939.0000     15.2123    -28.4697     12.7467    115.8963
  1939.2500     15.2212    -28.2549     12.8095    116.4806
  1939.5000     15.3925    -28.0777     12.8909    116.9860
  1939.7500     15.6059    -27.9293     12.9773    116.5719
  1940.0000     15.7327    -27.8163     13.0591    114.4654
  1940.2500     15.6919    -27.7609     13.1352    112.2749
  1940.5000     15.5097    -27.7864     13.2152    108.4589
  1940.7500     15.3291    -27.9038     13.3166    105.8899
  1941.0000     15.2901    -28.1037     13.4618    102.4690
  1941.2500     15.4247    -28.3570     13.6742    100.7355
  1941.5000     15.6911    -28.6257     13.9746     99.2015
  1941.7500     16.0539    -28.8808     14.3760     98.8214
  1942.0000     16.4881    -29.1119     14.8746     98.6752
  1942.2500     16.9447    -29.3209     15.4423     98.3753
  1942.5000     17.3849    -29.5054     16.0293     96.9174
  1942.7500     17.7876    -29.6488     16.5819     95.1154
  1943.0000     18.1344    -29.7297     17.0679     91.1738
  1943.2500     18.4454    -29.7391     17.4889     87.7535
  1943.5000     18.7887    -29.6891     17.8696     81.7087
  1943.7500     19.2688    -29.6057     18.2373     77.4832
  1944.0000     19.9799    -29.5161     18.6104     71.8442
  1944.2500     20.8985    -29.4385     19.0006     69.0855
  1944.5000     21.8273    -29.3762     19.4137     66.9772
  1944.7500     22.5118    -29.3186     19.8359     66.9258
  1945.0000     22.8423    -29.2517     20.2161     68.4618
  1945.2500     22.9009    -29.1684     20.4730     70.2757
  1945.5000     22.8202    -29.0737     20.5443     73.9663
  1945.7500     22.6692    -28.9856     20.4416     77.0547
  1946.0000     22.4647    -28.9306     20.2516     82.3632
  1946.2500     22.2130    -28.9380     20.0818     85.9089
  1946.5000     21.9289    -29.0359     20.0028     90.0856
  1946.7500     21.6379    -29.2507     20.0285     91.4651
  1947.0000     21.3636    -29.6061     20.1310     91.1442
  1947.2500     21.1354    -30.1195     20.2739     89.9430
  1947.5000     21.0148    -30.7991     20.4409     88.4405
  1947.7500     21.0810    -31.6437     20.6461     88.2745
  1948.0000     21.3761    -32.6450     20.9189     88.6200
  1948.2500     21.8805    -33.7890     21.2798     88.0396
  1948.5000     22.5583    -35.0552     21.7287     83.8178
  1948.7500     23.4103    -36.4112     22.2515     78.1708
  1949.0000     24.4907    -37.8105     22.8360     66.0715
  1949.2500     25.8970    -39.2003     23.4856     56.7676
  1949.5000     27.7283    -40.5394     24.2263     43.5442
  1949.7500     30.0722    -41.8122     25.1076     36.4872
  1950.0000     32.9873    -43.0226     26.1884     29.5134
  1950.2500     36.3339    -44.1694     27.5053     27.0624
  1950.5000     39.6707    -45.2270     29.0344     25.5173
  1950.7500     42.5241    -46.1477     30.6676     25.1955
  1951.0000     44.7416    -46.8815     32.2163     25.0341
  1951.2500     46.4933    -47.3957     33.4354     24.9920
  1951.5000     47.9826    -47.6855     34.0535     24.9809
  1951.7500     49.2224    -47.7772     33.8207     25.0004
  1952.0000     50.0637    -47.7141     32.6019     25.0575
  1952.2500     50.2727    -47.5235     30.4734     25.1124
  1952.5000     49.5434    -47.1852     27.7260     25.2703
  1952.7500     47.6532    -46.6337     24.7480     25.5933
  1953.0000     44.6289    -45.8002     21.8809     27.1270
  1953.2500     40.6309    -44.6613     19.3434     29.4432
  1953.5000     35.8658    -43.2583     17.2292     35.6793
  1953.7500     30.7644    -41.6868     15.5417     41.8232
  1954.0000     26.0295    -40.0763     14.2324     53.6465
  1954.2500     22.2575    -38.5657     13.2296     62.7178
  1954.5000     19.5493    -37.2669     12.4565     76.5668
  1954.7500     17.6460    -36.2290     11.8414     84.8101
  1955.0000     16.3068    -35.4287     11.3246     93.9790
  1955.2500     15.4159    -34.7989     10.8625     97.4825
  1955.5000     14.8944    -34.2720     10.4280     98.8155
  1955.7500     14.6483    -33.8013     10.0093     97.2548
  1956.0000     14.5398    -33.3521      9.6053     91.6559
  1956.2500     14.3560    -32.8797      9.2226     86.2376
  1956.5000     13.9111    -32.3248      8.8721     77.0068
  1956.7500     13.2619    -31.6313      8.5648     71.1988
  1957.0000     12.6376    -30.7700      8.3082     64.8868
  1957.2500     12.1387    -29.7497      8.1048     63.0645
  1957.5000     11.7230    -28.6123      7.9536     64.1835
  1957.7500     11.3825    -27.4219      7.8508     67.0023
  1958.0000     11.1395    -26.2534      7.7900     72.8660
  1958.2500     10.9926    -25.1770      7.7592     77.0345
  1958.5000     10.9196    -24.2403      7.7403     82.8403
  1958.7500     10.8848    -23.4562      7.7115     86.2815
  1959.0000     10.8630    -22.8097      7.6530     90.7134
  1959.2500     10.8177    -22.2764      7.5525     92.9684
  1959.5000     10.6860    -21.8380      7.4085     94.8519
  1959.7500     10.4714    -21.4808      7.2294     95.1806
  1960.0000     10.2611    -21.1855      7.0311     95.2254
  1960.2500     10.0849    -20.9240      6.8329     95.6004
  1960.5000      9.9002    -20.6669      6.6535     97.1027
  1960.7500      9.7479    -20.3927      6.5072     98.5528
  1961.0000      9.7726    -20.0899      6.4014    100.8351
  1961.2500     10.0288    -19.7574      6.3369    102.0764
  1961.5000     10.3251    -19.4078      6.3096    102.9576
  1961.7500     10.3446    -19.0679      6.3126    102.6962
  1962.0000     10.0110    -18.7677      6.3375    101.1143
  1962.2500      9.6275    -18.5235      6.3753     99.5624
  1962.5000      9.5267    -18.3249      6.4165     97.2187
  1962.7500      9.7278    -18.1314      6.4523     95.9662
  1963.0000      9.9896    -17.8839      6.4766     94.4664
  1963.2500     10.0918    -17.5378      6.4871     93.3348
  1963.5000     10.0390    -17.0992      6.4861     91.0383
  1963.7500      9.9823    -16.6242      6.4798     89.4648
  1964.0000      9.9756    -16.1758      6.4756     88.2681
  1964.2500      9.9602    -15.7883      6.4795     88.5383
  1964.5000      9.9330    -15.4708      6.4943     89.6155
  1964.7500      9.9331    -15.2304      6.5217     89.9470
  1965.0000      9.9476    -15.0793      6.5629     89.3686
  1965.2500      9.9496    -15.0215      6.6200     88.6757
  1965.5000      9.9597    -15.0401      6.6948     88.1363
  1965.7500     10.0048    -15.0976      6.7884     88.2663
  1966.0000     10.0898    -15.1529      6.9023     88.7025
  1966.2500     10.2181    -15.1817      7.0394     88.8642
  1966.5000     10.3936    -15.1855      7.2036     88.9219
  1966.7500     10.6028    -15.1831      7.3970     88.8946
  1967.0000     10.8076    -15.1991      7.6163     88.4799
  1967.2500     10.9714    -15.2537      7.8521     87.7509
