~Version Information
VERS.                      2.0: CWLS Log ASCII Standard - VERSION 2.0
WRAP.                       NO: One line per depth step
~Well Information Block
STRT.FT               456.0000: 
STOP.FT              1700.7000: 
STEP.FT                 0.1000: 
NULL.                -999.2500: 
COMP.          Pioneer Natural Resources: COMPANY
WELL.                Mead 11-9: WELL
FLD.           Purgatoire River: FIELD
LOC.           1127' FNL & 668' FWL: LOCATION
PROV.                 Colorado: PROVINCE
CNTY.               Las Animas: COUNTRY
SRVC.                Patterson: SERVICE COMPANY
DATE.          Sat Feb 19 09:18:18 2005: LOG DATE
UWI.           05 071 08160 00: UNIQUE WELL ID
~Curve Information Block
DEPT.FT            0 000 00 00: Depth
DCAL.in                       : CDL Caliper
RHOB.g/cc                     : CDL Bulk Density
RHOC.g/cc                     : CDL Density Correction
DPOR.pu                       : CDL Density Porosity
GR.GAPI                       : Gamma Ray
NPOR.pu                       : Neutron Porosity
~Parameter Information Block
~A  Depth       DCAL        RHOB        RHOC        DPOR         GR         NPOR    
# ...
  1684.8000      7.7803      2.6005      0.1112      3.0024   -999.2500     19.5005
  1684.9000      7.7803      2.6109      0.1587      2.3686   -999.2500     19.5928
  1685.0000      7.7826      2.6134      0.1130      2.2195   -999.2500     19.7343
  1685.1000      7.7826      2.6181      0.1231      1.9335   -999.2500     19.7839
  1685.2000      7.7826      2.6173      0.1463      1.9802   -999.2500     19.6536
  1685.3000      7.7829      2.6004      0.1248      3.0077   -999.2500     19.3526
  1685.4000      7.7829      2.5767      0.0774      4.4400   -999.2500     19.1390
  1685.5000      7.7920      2.5524      0.1077      5.9174   -999.2500     19.1511
  1685.6000      7.7920      2.5301      0.0130      7.2651   -999.2500     19.2142
  1685.7000      7.7920      2.5315      0.0131      7.1816   -999.2500     19.2442
  1685.8000      7.8103      2.5640      0.0664      5.2105   -999.2500     19.2836
  1685.9000      7.8103      2.6013      0.1404      2.9535   -999.2500     19.2689
  1686.0000      7.8207      2.6216      0.1029      1.7206   -999.2500     19.1017
  1686.1000      7.8207      2.6245      0.1428      1.5430   -999.2500     18.8016
  1686.2000      7.8207      2.6076      0.0920      2.5677   -999.2500     18.4061
  1686.3000      7.8111      2.5743      0.0766      4.5864   -999.2500     18.3442
  1686.4000      7.8111      2.5432      0.0222      6.4698   -999.2500     18.9729
  1686.5000      7.8092      2.5322      0.0085      7.1386   -999.2500     19.8904
  1686.6000      7.8092      2.5387      0.0333      6.7460   -999.2500     20.6813
  1686.7000      7.8092      2.5397      0.0605      6.6843   -999.2500     21.1771
  1686.8000      7.8203      2.5204      0.0611      7.8542   -999.2500     21.1448
  1686.9000      7.8203      2.4990     -0.0355      9.1485   -999.2500     20.9857
  1687.0000      7.8240      2.4999     -0.0004      9.0940   -999.2500     22.9303
  1687.1000      7.8240      2.5191      0.0525      7.9339   -999.2500     30.0388
  1687.2000      7.8240      2.5438      0.0474      6.4375   -999.2500     40.6085
  1687.3000      7.8142      2.5714      0.0895      4.7654   -999.2500     47.8768
  1687.4000      7.8142      2.5953      0.1069      3.3160   -999.2500     50.4289
  1687.5000      7.8030      2.6048      0.1062      2.7418   -999.2500     50.9225
  1687.6000      7.8030      2.6000      0.0868      3.0290   -999.2500     50.9744
  1687.7000      7.8030      2.5911      0.0883      3.5700   -999.2500     50.9773
  1687.8000      7.8001      2.5830      0.0873      4.0581   -999.2500   -999.2500
  1687.9000      7.8001      2.5714      0.0665      4.7607   -999.2500   -999.2500
  1688.0000      7.8032      2.5545      0.0650      5.7889   -999.2500   -999.2500
  1688.1000      7.8032      2.5467     -0.0127      6.2635   -999.2500   -999.2500
  1688.2000      7.8032      2.5567      0.0420      5.6527   -999.2500   -999.2500
  1688.3000      7.8093      2.5662      0.0229      5.0793   -999.2500   -999.2500
  1688.4000      7.8093      2.5622      0.0415      5.3223   -999.2500   -999.2500
  1688.5000      7.8127      2.5475      0.0610      6.2115   -999.2500   -999.2500
  1688.6000      7.8127      2.5286      0.0288      7.3590   -999.2500   -999.2500
  1688.7000      7.8127      2.5166      0.0349      8.0840   -999.2500   -999.2500
  1688.8000      7.8111      2.5162      0.0237      8.1090   -999.2500   -999.2500
  1688.9000      7.8111      2.5192      0.0648      7.9276   -999.2500   -999.2500
  1689.0000      7.8091      2.5253      0.0318      7.5568   -999.2500   -999.2500
  1689.1000      7.8091      2.5412      0.0821      6.5934   -999.2500   -999.2500
  1689.2000      7.8091      2.5588      0.0944      5.5275   -999.2500   -999.2500
  1689.3000      7.8088      2.5696      0.0730      4.8747   -999.2500   -999.2500
  1689.4000      7.8088      2.5732      0.0809      4.6575   -999.2500   -999.2500
  1689.5000      7.8088      2.5695      0.1041      4.8804   -999.2500   -999.2500
  1689.6000      7.8088      2.5718      0.0618      4.7414   -999.2500   -999.2500
  1689.7000      7.8088      2.5951      0.1105      3.3251   -999.2500   -999.2500
  1689.8000      7.8102      2.6195      0.1362      1.8498   -999.2500   -999.2500
  1689.9000      7.8102      2.6199      0.0915      1.8217   -999.2500   -999.2500
  1690.0000      7.8123      2.6098      0.0770      2.4360   -999.2500   -999.2500
  1690.1000      7.8123      2.6081      0.0678      2.5422   -999.2500   -999.2500
  1690.2000      7.8123      2.6086      0.0900      2.5103   -999.2500   -999.2500
  1690.3000      7.8223      2.6036      0.0656      2.8109   -999.2500   -999.2500
  1690.4000      7.8223      2.5990      0.0819      3.0879   -999.2500   -999.2500
  1690.5000      7.8435      2.6022      0.0420      2.8986   -999.2500   -999.2500
  1690.6000      7.8435      2.6147      0.0697      2.1366   -999.2500   -999.2500
  1690.7000      7.8435      2.6255      0.1078      1.4830   -999.2500   -999.2500
  1690.8000      7.8537      2.6209      0.0958      1.7651   -999.2500   -999.2500
  1690.9000      7.8537      2.6093      0.0735      2.4674   -999.2500   -999.2500
  1691.0000      7.8377      2.6102      0.0824      2.4132   -999.2500   -999.2500
  1691.1000      7.8377      2.6142      0.0587      2.1717   -999.2500   -999.2500
  1691.2000      7.8377      2.5974      0.0749      3.1865   -999.2500   -999.2500
  1691.3000      7.8152      2.5683      0.0324      4.9489   -999.2500   -999.2500
  1691.4000      7.8152      2.5544      0.0171      5.7968   -999.2500   -999.2500
  1691.5000      7.8056      2.5652      0.0221      5.1392   -999.2500   -999.2500
  1691.6000      7.8056      2.5879      0.0726      3.7610   -999.2500   -999.2500
  1691.7000      7.8056      2.5984      0.1071      3.1303   -999.2500   -999.2500
  1691.8000      7.8063      2.5911      0.0504      3.5720   -999.2500   -999.2500
  1691.9000      7.8063      2.5835      0.0600      4.0289   -999.2500   -999.2500
  1692.0000      7.8147      2.5802      0.0642      4.2294   -999.2500   -999.2500
  1692.1000      7.8147      2.5756      0.0330      4.5099   -999.2500   -999.2500
  1692.2000      7.8147      2.5762      0.0802      4.4712   -999.2500   -999.2500
  1692.3000      7.8250      2.5879      0.0688      3.7654   -999.2500   -999.2500
  1692.4000      7.8250      2.6018      0.0932      2.9223   -999.2500   -999.2500
  1692.5000      7.8269      2.6063      0.0533      2.6471   -999.2500   -999.2500
  1692.6000      7.8269      2.6030      0.0507      2.8478   -999.2500   -999.2500
  1692.7000      7.8269      2.5916      0.0781      3.5376   -999.2500   -999.2500
  1692.8000      7.8222      2.5676      0.0898      4.9934   -999.2500   -999.2500
  1692.9000      7.8222      2.5429      0.0511      6.4936   -999.2500   -999.2500
  1693.0000      7.8207      2.5314      0.0360      7.1909   -999.2500   -999.2500
  1693.1000      7.8207      2.5287      0.0293      7.3535   -999.2500   -999.2500
  1693.2000      7.8207      2.5297      0.0083      7.2921   -999.2500   -999.2500
  1693.3000      7.8280      2.5394      0.0049      6.7030   -999.2500   -999.2500
  1693.4000      7.8280      2.5541      0.1003      5.8125   -999.2500   -999.2500
  1693.5000      7.8434      2.5601      0.0832      5.4465   -999.2500   -999.2500
  1693.6000      7.8434      2.5558      0.0585      5.7062   -999.2500   -999.2500
  1693.7000      7.8434      2.5446      0.0808      6.3901   -999.2500   -999.2500
  1693.8000      7.8528      2.5316      0.0187      7.1762   -999.2500   -999.2500
  1693.9000      7.8528      2.5327      0.0235      7.1121   -999.2500   -999.2500
  1694.0000      7.8406      2.5460      0.0771      6.3017   -999.2500   -999.2500
  1694.1000      7.8406      2.5511      0.0500      5.9951   -999.2500   -999.2500
  1694.2000      7.8406      2.5453      0.0326      6.3482   -999.2500   -999.2500
  1694.3000      7.8114      2.5432      0.0090      6.4739   -999.2500   -999.2500
