~Version Information
VERS.                      2.0: CWLS Log ASCII Standard - VERSION 2.0
WRAP.                       NO: One line per depth step
~Well Information Block
STRT.FT               380.0000: 
STOP.FT               899.2000: 
STEP.FT                 0.1000: 
NULL.                -999.2500: 
COMP.          Pioneer Natural Resources: COMPANY
WELL.          Prospector 12-19: WELL
FLD.           Purgatoire River: FIELD
LOC.           2262' FNL & 634' FWL: LOCATION
PROV.                 Colorado: PROVINCE
CNTY.               Las Animas: COUNTRY
SRVC.                Patterson: SERVICE COMPANY
DATE.          Mon Apr 25 09:33:09 2005: LOG DATE
UWI.           05 071 08191 00: UNIQUE WELL ID
~Curve Information Block
DEPT.FT            0 000 00 00: Depth
DCAL.in                       : CDL Caliper
RHOB.g/cc                     : CDL Bulk Density
RHOC.g/cc                     : CDL Density Correction
DPOR.pu                       : CDL Density Porosity
GR.GAPI                       : Gamma Ray
NPOR.pu                       : Neutron Porosity
~Parameter Information Block
~A  Depth       DCAL        RHOB        RHOC        DPOR         GR         NPOR    
# ...
   687.2000      7.9357      2.5253      0.0757      7.5559     64.2191     23.3766
   687.3000      7.9030      2.5491      0.0643      6.1135     64.1205     22.8810
   687.4000      7.9030      2.5417      0.0609      6.5659     62.8105     23.2431
   687.5000      7.9194      2.5068      0.0372      8.6777     63.4160     23.9913
   687.6000      7.9194      2.4706      0.0451     10.8705     65.8749     24.4405
   687.7000      7.9194      2.4574      0.0125     11.6721     69.5065     24.2628
   687.8000      7.8992      2.4725      0.0364     10.7605     72.2999     24.2658
   687.9000      7.8992      2.5065      0.0412      8.6982     74.4680     24.9899
   688.0000      7.8693      2.5457      0.0775      6.3197     78.0870     25.6464
   688.1000      7.8693      2.5738      0.1382      4.6167     81.7934     25.6977
   688.2000      7.8693      2.5839      0.0870      4.0080     84.0356     25.5160
   688.3000      7.8642      2.5820      0.1448      4.1192     83.3594     25.1684
   688.4000      7.8642      2.5718      0.0985      4.7409     79.5570     24.6984
   688.5000      7.8767      2.5586      0.1256      5.5377     76.8085     24.4507
   688.6000      7.8767      2.5453      0.1171      6.3439     76.4862     24.6419
   688.7000      7.8767      2.5327      0.0617      7.1100     75.3978     25.1331
   688.8000      7.8518      2.5260      0.0363      7.5128     75.0171     25.6237
   688.9000      7.8518      2.5179      0.1119      8.0073     77.7163     25.7553
   689.0000      7.8907      2.5051     -0.0048      8.7810     82.9712     25.0760
   689.1000      7.8907      2.5034      0.0983      8.8867     91.0335     24.5742
   689.2000      7.8907      2.5127      0.0607      8.3207     99.2452     25.5799
   689.3000      7.9379      2.5218      0.0869      7.7717    101.5517     27.5036
   689.4000      7.9379      2.5199      0.1239      7.8866     95.9589     28.8521
   689.5000      7.9381      2.5020      0.0725      8.9677     88.9528     29.0868
   689.6000      7.9381      2.4763      0.0756     10.5253     88.2605     28.6528
   689.7000      7.9381      2.4552      0.0394     11.8046     91.9153     27.8351
   689.8000      7.9302      2.4449      0.0360     12.4296     93.9625     26.9516
   689.9000      7.9302      2.4405      0.0600     12.6984     96.8109     26.9304
   690.0000      7.9521      2.4411     -0.0216     12.6596    103.0935     27.9502
   690.1000      7.9521      2.4561      0.0238     11.7493    106.9349     28.8721
   690.2000      7.9521      2.4802      0.0687     10.2932    104.7702     29.0385
   690.3000      7.9879      2.4946      0.0856      9.4206    102.0676     29.0473
   690.4000      7.9879      2.4955      0.0833      9.3651    103.3533     29.0739
   690.5000      7.9695      2.4887      0.0806      9.7740    105.0820     28.8206
   690.6000      7.9695      2.4716      0.0850     10.8107    101.8343     28.7869
   690.7000      7.9695      2.4418      0.0700     12.6169     95.9871     29.0874
   690.8000      7.9479      2.4081      0.0585     14.6587     95.3347     28.9109
   690.9000      7.9479      2.3815      0.0380     16.2757     99.3144     28.3694
   691.0000      7.9858      2.3597      0.0360     17.5964    101.1048     28.4148
   691.1000      7.9858      2.3326      0.0215     19.2372     99.2697     29.4285
   691.2000      7.9858      2.3040      0.0391     20.9670     97.1959     31.0223
   691.3000      8.0725      2.2819      0.0588     22.3077     96.9626     32.1321
   691.4000      8.0725      2.2602      0.0528     23.6248     97.7568     31.9662
   691.5000      8.0705      2.2405      0.0288     24.8205     98.2164     31.1921
   691.6000      8.0705      2.2411      0.0141     24.7789     98.6672     30.9996
   691.7000      8.0705      2.2687      0.0832     23.1073     98.5621     31.4235
   691.8000      8.0908      2.3088      0.0920     20.6778     96.2679     31.7282
   691.9000      8.0908      2.3469      0.1382     18.3701     91.8280     31.6619
   692.0000      8.1235      2.3760      0.1147     16.6040     87.3073     31.5397
   692.1000      8.1235      2.3910      0.1716     15.6968     86.4028     31.6372
   692.2000      8.1235      2.3887      0.1578     15.8345     87.8960     31.8606
   692.3000      8.0729      2.3791      0.1309     16.4154     87.5028     32.1646
   692.4000      8.0729      2.3782      0.0833     16.4714     85.9342     32.4534
   692.5000      8.0677      2.3874      0.0754     15.9163     85.9200     32.7304
   692.6000      8.0677      2.3949      0.0890     15.4630     86.9078     32.8891
   692.7000      8.0677      2.4009      0.0799     15.0986     85.8190     32.2792
   692.8000      8.0619      2.4140      0.1088     14.3006     81.4771     31.2845
   692.9000      8.0619      2.4278      0.1527     13.4654     78.9683     31.0919
   693.0000      8.0862      2.4352      0.0896     13.0212     81.2804     31.6965
   693.1000      8.0862      2.4419      0.1247     12.6103     81.5076     32.5924
   693.2000      8.0862      2.4483      0.1413     12.2242     78.1861     33.7290
   693.3000      8.0879      2.4510      0.1334     12.0624     78.3825     34.2003
   693.4000      8.0879      2.4527      0.1104     11.9596     80.3047     33.2371
   693.5000      8.1096      2.4499      0.1419     12.1298     78.8815     31.7712
   693.6000      8.1096      2.4342      0.1093     13.0809     77.4619     30.7650
   693.7000      8.1096      2.4144      0.0787     14.2762     80.6997     30.2504
   693.8000      8.1194      2.4063      0.1297     14.7720     84.5380     30.2333
   693.9000      8.1194      2.4095      0.0744     14.5739     83.2614     30.4110
   694.0000      8.1043      2.4164      0.0956     14.1577     82.4258     29.9440
   694.1000      8.1043      2.4245      0.0902     13.6682     86.3346     29.0886
   694.2000      8.1043      2.4389      0.1175     12.7912     88.7700     28.9341
   694.3000      8.0691      2.4543      0.1509     11.8586     85.7323     29.2954
   694.4000      8.0691      2.4532      0.1452     11.9277     81.1100     29.5962
   694.5000      8.1042      2.4321      0.1194     13.2071     78.2440     30.1054
   694.6000      8.1042      2.4083      0.0915     14.6469     77.6247     30.8305
   694.7000      8.1042      2.3929      0.1516     15.5837     79.9294     31.0195
   694.8000      8.0413      2.3715      0.1444     16.8787     85.4088     30.5343
   694.9000      8.0413      2.3366      0.0885     18.9945     88.1240     30.3198
   695.0000      7.9978      2.3032      0.0781     21.0174     82.7635     30.7547
   695.1000      7.9978      2.2790      0.1162     22.4836     74.0303     30.7633
   695.2000      7.9978      2.2577      0.0976     23.7763     67.3526     30.1831
   695.3000      8.0109      2.2324      0.1129     25.3091     63.9682     30.4418
   695.4000      8.0109      2.1914      0.1467     27.7966     64.3725     31.9518
   695.5000      8.0995      2.1304      0.1006     31.4929     66.6710     33.4317
   695.6000      8.0995      2.0714      0.0196     35.0695     67.1914     33.6765
   695.7000      8.0995      2.0433      0.0145     36.7722     63.7023     32.8214
   695.8000      8.1392      2.0576      0.0148     35.9060     59.5677     31.7707
   695.9000      8.1392      2.1092      0.1026     32.7751     59.7171     30.8003
   696.0000      8.1521      2.1751      0.1437     28.7802     62.2629     30.0727
   696.1000      8.1521      2.2270      0.1415     25.6381     64.5279     29.8402
   696.2000      8.1521      2.2579      0.1542     23.7631     67.1533     29.3964
   696.3000      8.1851      2.2749      0.1143     22.7343     67.1725     28.5822
   696.4000      8.1851      2.2749      0.0930     22.7330     61.8521     28.3853
   696.5000      8.2120      2.2551      0.0204     23.9320     56.1654     28.7960
   696.6000      8.2120      2.2328     -0.0163     25.2852     55.7036     29.1081
   696.7000      8.2120      2.2269     -0.0245     25.6442     60.8549     29.5409
