~Version Information
VERS.                      2.0: CWLS Log ASCII Standard - VERSION 2.0
WRAP.                       NO: One line per depth step
~Well Information Block
STRT.FT                -9.2500: 
STOP.FT              1945.2500: 
STEP.FT                 0.2500: 
NULL.                -999.2500: 
COMP.          Pioneer Natural Resources: COMPANY
WELL.          Titan Federal 34-17: WELL
FLD.           Purgatorie River: FIELD
LOC.           321' FSL & 1911' FEL: LOCATION
STAT.                       CO: State
CNTY.               Las Animas: COUNTY
CTRY. USA : Country
SECT. 17 : Section
TOWN. 32S : Township
RANG. 65W : Range
SRVC.          Patterson Wireline: SERVICE COMPANY
DATE.          Tue Oct 11 10:22:27 2005: LOG DATE
API.           05 071 08272 00: UNIQUE WELL ID
~Curve Information Block
DEPT.FT            0 000 00 00: Depth
CCL.                          : Casing Collar Locator
TT3.usec                      : CBL 3' Travel Time
AMP3.mV                       : CBL 3' Amplitude
GR.GAPI                       : Gamma Ray
~Parameter Information Block
~A  Depth       CCL         TT3         AMP3         GR     
# ...
   761.2500      0.0000    350.4416     12.9546     75.6384
   761.5000      0.0000    352.4007     13.0186     73.0880
   761.7500      0.0000    356.3563     13.0611     71.6186
   762.0000      0.0000    362.1219     13.0663     70.9984
   762.2500      0.0000    368.1927     13.0288     70.6037
   762.5000      0.0000    372.2517     12.9592     69.6907
   762.7500      0.0000    372.6454     12.8760     68.1381
   763.0000      0.0000    369.7069     12.7935     66.7787
   763.2500      0.0000    365.7858     12.7134     67.0356
   763.5000      0.0000    363.7517     12.6251     70.0577
   763.7500      0.0000    365.0349     12.5106     75.5980
   764.0000      0.0000    368.9765     12.3534     81.5906
   764.2500      0.0000    374.5066     12.1414     85.6010
   764.5000      0.0000    382.4395     11.8740     87.1161
   764.7500      0.0000    395.4772     11.5781     87.7955
   765.0000      0.0000    414.8960     11.3068     89.2123
   765.2500      0.0000    436.5710     11.0897     90.9643
   765.5000      0.0000    450.7544     10.8921     91.2924
   765.7500      0.0000    447.9773     10.6641     89.0060
   766.0000      0.0000    427.2766     10.4238     84.4676
   766.2500      0.0000    398.0078     10.2494     79.1183
   766.5000      0.0000    372.2677     10.1978     74.5783
   766.7500     -2.0000    356.3194     10.2609     72.2586
   767.0000      0.0000    349.4768     10.3920     73.2532
   767.2500      0.0000    348.4335     10.5588     77.6977
   767.5000      0.0000    350.5210     10.7827     84.0265
   767.7500      0.0000    353.8663     11.1161     89.7263
   768.0000      0.0000    356.6280     11.5554     93.3754
   768.2500      0.0000    357.1935     12.0025     95.4993
   768.5000      0.0000    354.9661     12.3726     97.2218
   768.7500      0.0000    350.7350     12.7010     98.6548
   769.0000      0.0000    346.1097     13.0676     98.9466
   769.2500      0.0000    342.5515     13.4572     97.4791
   769.5000      0.0000    340.7888     13.7688     94.4761
   769.7500      0.0000    341.0168     13.9317     90.4876
   770.0000      0.0000    343.4721     13.9579     85.8481
   770.2500      0.0000    348.5771     13.9022     80.9038
   770.5000      0.0000    356.6577     13.8084     76.4128
   770.7500      0.0000    368.3216     13.6934     73.2780
   771.0000      0.0000    386.1561     13.5639     71.8155
   771.2500      0.0000    415.7050     13.4399     71.4523
   771.5000      0.0000    461.7033     13.3562     71.3680
   771.7500      0.0000    520.8057     13.3336     71.4910
   772.0000      0.0000    580.3527     13.3492     72.5002
   772.2500      0.0000    628.6862     13.3440     74.5029
   772.5000      0.0000    665.5423     13.2683     76.2112
   772.7500      0.0000    698.4053     13.1181     76.1467
   773.0000      0.0000    730.9923     12.9285     74.4546
   773.2500      0.0000    759.9778     12.7352     72.7442
   773.5000      0.0000    781.1104     12.5498     72.2531
   773.7500      0.0000    794.4497     12.3697     72.9781
   774.0000      0.0000    804.5653     12.2010     74.4910
   774.2500      0.0000    818.6756     12.0655     76.5536
   774.5000      0.0000    844.3401     11.9884     78.6841
   774.7500      0.0000    885.3831     11.9786     79.9896
   775.0000      0.0000    937.2310     12.0190     79.9138
   775.2500      0.0000    987.0352     12.0759     78.7315
   775.5000      0.0000   1020.8669     12.1173     77.1652
   775.7500      0.0000   1032.0302     12.1267     75.9930
   776.0000      0.0000   1022.8013     12.1026     76.0960
   776.2500      0.0000    999.8027     12.0524     78.1168
   776.5000      0.0000    968.5906     11.9898     81.4952
   776.7500      0.0000    931.8263     11.9315     84.3061
   777.0000      0.0000    891.6942     11.8836     84.6634
   777.2500      0.0000    852.5646     11.8305     82.1472
   777.5000      0.0000    819.4325     11.7436     77.7273
   777.7500      0.0000    794.2381     11.6072     72.6833
   778.0000      0.0000    775.3844     11.4333     67.8372
   778.2500      0.0000    760.7097     11.2568     63.4448
   778.5000      0.0000    749.8354     11.1094     59.5316
   778.7500      0.0000    743.5862     10.9903     56.5237
   779.0000      0.0000    741.8573     10.8656     55.4226
   779.2500      0.0000    742.5912     10.7026     56.9196
   779.5000      0.0000    742.8592     10.4998     60.5118
   779.7500      0.0000    740.7733     10.2810     65.0613
   780.0000      0.0000    736.4026     10.0693     70.2021
   780.2500      0.0000    731.1606      9.8750     76.7856
   780.5000      0.0000    726.4474      9.7036     85.8069
   780.7500      0.0000    722.8798      9.5713     97.0418
   781.0000      0.0000    720.8279      9.5145    108.7352
   781.2500      0.0000    721.2891      9.5766    118.5118
   781.5000      0.0000    725.4274      9.7688    124.6712
   781.7500      0.0000    733.0808     10.0431    126.9043
   782.0000      0.0000    742.6661     10.3150    126.0531
   782.2500      0.0000    753.0549     10.5160    123.3959
   782.5000      0.0000    764.4007     10.6230    120.1267
   782.7500      0.0000    776.4460     10.6464    117.1343
   783.0000      0.0000    787.1954     10.6085    114.9476
   783.2500      0.0000    794.0707     10.5331    113.8711
   783.5000      0.0000    795.5586     10.4427    113.9737
   783.7500      0.0000    791.4603     10.3543    114.5765
   784.0000      0.0000    782.5925     10.2755    113.9971
   784.2500      0.0000    770.7907     10.2054    110.5327
   784.5000      0.0000    758.4955     10.1384    103.9636
   784.7500      0.0000    747.7757     10.0686     95.9536
   785.0000      0.0000    739.9412      9.9903     88.9431
   785.2500      0.0000    735.8867      9.9030     84.6699
   785.5000      0.0000    735.8447      9.8173     83.5348
   785.7500      0.0000    738.3558      9.7564     84.9283
   786.0000      0.0000    740.1981      9.7467     87.7994
   786.2500      0.0000    738.4512      9.8008     91.1286
   786.5000      0.0000    733.1370      9.9085     94.2464
   786.7500      0.0000    727.4816     10.0475     96.9032
   787.0000      0.0000    725.0314     10.2051     99.2674
   787.2500      0.0000    726.3904     10.3927    101.8403
   787.5000      0.0000    729.0144     10.6421    105.1429
   787.7500      0.0000    730.1788     10.9802    109.5500
   788.0000      0.0000    729.6752     11.3993    115.3582
   788.2500      0.0000    729.7354     11.8434    122.3268
   788.5000      0.0000    733.1688     12.2232    129.0472
   788.7500      0.0000    741.5816     12.4441    133.6937
   789.0000      0.0000    754.0818     12.4332    135.6554
   789.2500      0.0000    766.8574     12.1569    135.5419
   789.5000      0.0000    774.6425     11.6316    133.5184
   789.7500      0.0000    773.8159     10.9258    128.6894
   790.0000      0.0000    765.2286     10.1487    120.3510
   790.2500      0.0000    755.0222      9.4173    109.1822
   790.5000      0.0000    752.1312      8.8141     97.1207
   790.7500      0.0000    762.2978      8.3614     86.5204
   791.0000      0.0000    782.6205      8.0338     79.2518
   791.2500      0.0000    802.9711      7.7950     75.8958
   791.5000      0.0000    814.2272      7.6265     75.5893
   791.7500      0.0000    814.8646      7.5319     77.0012
   792.0000      0.0000    809.5771      7.5251     79.5440
   792.2500      0.0000    803.2524      7.6223     83.4585
   792.5000      0.0000    797.1914      7.8395     89.0657
   792.7500      0.0000    789.7972      8.1889     96.4352
   793.0000      0.0000    779.4741      8.6709    105.4019
   793.2500      0.0000    767.0438      9.2695    115.2001
   793.5000      0.0000    756.0042      9.9556    124.1223
   793.7500      0.0000    750.3883     10.6874    130.0378
   794.0000      0.0000    751.9869     11.4085    131.5992
   794.2500      0.0000    759.4521     12.0577    129.1390
   794.5000      0.0000    769.8090     12.5879    124.4926
