~Version Information
 VERS.                                  2.0 : CWLS LAS VERSION
 WRAP.                                   NO : WRAPING MODE
 SWARE .                 MController 2.5.0N : SOFTWARE VERSION
~Well Information
 WELL.                   Casablanca 11-28TR : WELL
 COMP.    Pioneer Natural Resources USA Inc : COMPANY
 FLD.                      Purgatoire River : FIELD
 LOC.                NW/NW Sec 28 T32S R67W : LOCATION
 DATE.                         3/05-06/2005 : DATE(S) LOGGED
 SRVC.       Blanco Geological Services LLC : SERVICE COMPANY
 STAT.                                   CO : STATE
 CNTY.                           Las Animas : COUNTY
 CTRY.                                  USA : COUNTRY
 API.                       05-071-08314-00 : API NUMBER
 STRT.FT                             818.00 : START DEPTH
 STOP.FT                            2250.00 : STOP DEPTH
 STEP.FT                               1.00 : DEPTH INCREMENT
 NULL.                                -9999 : NULL VALUE
~Curve information
 DEPTH.FT                                   :
 ROP.MIN/FT                                 :
 GAS.UNITS                                  :
~ASCII Log data
# ...
      1988.0         1.35         25.6 
      1989.0         0.97         25.1 
      1990.0         0.67         23.3 
      1991.0         0.72         27.2 
      1992.0         0.43         27.3 
      1993.0         0.30         24.3 
      1994.0         0.87         24.8 
      1995.0         1.32         24.7 
      1996.0         0.80         24.4 
      1997.0         0.43         24.0 
      1998.0         0.47         24.4 
      1999.0         0.45         24.0 
      2000.0         0.42         25.0 
      2001.0         0.43         25.0 
      2002.0         0.45         24.1 
      2003.0         0.43         42.6 
      2004.0         0.42         27.2 
      2005.0         0.45         22.1 
      2006.0         0.47         25.0 
      2007.0         0.43         45.8 
      2008.0         0.68         28.1 
      2009.0         1.28         26.7 
      2010.0         1.13         26.3 
      2011.0         0.82         30.3 
      2012.0         0.52         29.8 
      2013.0         0.37         25.6 
      2014.0         1.13         26.3 
      2015.0         0.63         26.4 
      2016.0         0.58         27.9 
      2017.0         0.63         29.0 
      2018.0         0.58         29.5 
      2019.0         0.60         28.9 
      2020.0         0.63         27.9 
      2021.0         0.57         27.5 
      2022.0         0.63         28.9 
      2023.0         0.58         30.0 
      2024.0         0.63         31.0 
      2025.0         0.60         31.6 
      2026.0         0.58         31.4 
      2027.0         0.42         46.3 
      2028.0         0.18         32.1 
      2029.0         0.62         27.6 
      2030.0         0.63         32.0 
      2031.0         1.58         29.6 
      2032.0         0.72         27.2 
      2033.0         0.85         27.4 
      2034.0         0.85         28.4 
      2035.0         0.72         28.6 
      2036.0         0.57         31.5 
      2037.0         0.57         33.0 
      2038.0         0.37         33.6 
      2039.0         0.33         33.9 
      2040.0         0.35         35.3 
      2041.0         0.33         37.6 
      2042.0         0.33         36.7 
      2043.0         0.33         34.6 
      2044.0         0.37         35.1 
      2045.0         0.30         37.0 
      2046.0         0.38         37.0 
      2047.0         0.33         36.1 
      2048.0         0.33         38.6 
      2049.0         0.35         39.3 
      2050.0         0.33         33.4 
      2051.0         0.38         35.0 
      2052.0         0.33         32.6 
      2053.0         0.33         33.2 
      2054.0         0.37         33.2 
      2055.0         0.97         35.1 
      2056.0         0.58         37.9 
      2057.0         0.63         46.2 
      2058.0         0.63         45.0 
      2059.0         0.63         29.9 
      2060.0         0.62         24.6 
      2061.0         0.93         27.0 
      2062.0         0.75         29.4 
      2063.0         0.75         34.3 
      2064.0         0.82         29.3 
      2065.0         2.43         28.6 
      2066.0         1.43         29.4 
      2067.0         0.47         41.0 
      2068.0         0.50         37.7 
      2069.0         0.50         33.0 
      2070.0         0.50         24.8 
      2071.0         0.52         33.1 
      2072.0         0.75         24.4 
      2073.0         1.18         24.9 
      2074.0         1.07         26.7 
      2075.0         1.20         23.2 
      2076.0         0.63         25.6 
      2077.0         0.43         26.6 
      2078.0         0.45         27.2 
      2079.0         0.43         29.8 
      2080.0         0.37         34.1 
      2081.0         0.43         43.0 
      2082.0         0.45         37.6 
      2083.0         0.42         30.4 
      2084.0         0.42         26.5 
      2085.0         0.47         25.4 
      2086.0         0.47         25.7 
      2087.0         0.70         30.6 
      2088.0         0.58         28.9 
      2089.0         0.60         26.8 
      2090.0         0.58         29.4 
      2091.0         0.72         29.2 
      2092.0         2.32         32.8 
      2093.0         1.60         32.8 
      2094.0         1.38         32.4 
      2095.0         1.40         28.9 
      2096.0         0.78         27.3 
      2097.0         0.77         37.1 
      2098.0         0.63         26.8 
      2099.0         0.57         23.8 
      2100.0         0.57         23.9 
      2101.0         0.70         24.2 
      2102.0         0.73         26.4 
      2103.0         0.53         26.2 
      2104.0         0.45         30.7 
      2105.0         0.25         32.7 
      2106.0         0.28         33.3 
      2107.0         0.30         32.8 
      2108.0         0.27         30.5 
      2109.0         0.25         33.4 
      2110.0         0.28         36.6 
      2111.0         0.27         36.2 
      2112.0         0.27         30.6 
      2113.0         0.27         28.2 
      2114.0         0.30         28.0 
      2115.0         0.28         26.6 
      2116.0         0.25         28.6 
      2117.0         0.27         32.9 
      2118.0         0.28         35.4 
      2119.0         0.30         37.7 
      2120.0         0.25         36.5 
      2121.0         0.28         42.4 
      2122.0         0.27         40.1 
      2123.0         0.25         35.2 
      2124.0         0.28         28.8 
      2125.0         0.27         27.0 
      2126.0         0.30         26.5 
      2127.0         0.28         27.0 
      2128.0         0.25         27.1 
      2129.0         0.53         27.7 
      2130.0         0.50         27.9 
      2131.0         0.50         28.5 
      2132.0         0.33         30.5 
      2133.0         0.35         30.1 
      2134.0         0.33         32.5 
      2135.0         0.30         32.0 
      2136.0         0.33         30.0 
      2137.0         0.30         32.0 
      2138.0         0.33         33.2 
      2139.0         0.30         31.1 
      2140.0         0.27         30.8 
      2141.0         0.30         30.7 
      2142.0         0.30         30.7 
      2143.0         0.30         31.1 
      2144.0         0.30         28.9 
      2145.0         0.33         29.5 
      2146.0         0.28         32.8 
      2147.0         0.30         38.2 
      2148.0         0.33         38.2 
      2149.0         0.30         39.0 
      2150.0         0.30         39.0 
      2151.0         0.30         32.7 
      2152.0         0.33         33.7 
      2153.0         0.33         37.7 
      2154.0         0.33         33.8 
      2155.0         0.33         27.4 
      2156.0         0.38         27.4 
      2157.0         0.37         25.2 
      2158.0         0.87         23.3 
      2159.0         0.90         44.3 
      2160.0         0.92         23.6 
      2161.0         0.93         22.2 
      2162.0         1.15         25.1 
      2163.0         0.53         25.3 
      2164.0         0.57         26.6 
      2165.0         0.47         28.8 
      2166.0         0.45         31.0 
      2167.0         0.43         31.8 
      2168.0         0.40         30.9 
      2169.0         0.43         31.7 
      2170.0         0.43         30.5 
      2171.0         0.45         28.2 
      2172.0         1.22         26.8 
      2173.0         0.88         24.6 
      2174.0         0.83         27.0 
      2175.0         0.50         33.2 
      2176.0         0.38         31.7 
      2177.0         0.32         24.6 
      2178.0         0.37         23.9 
      2179.0         0.62         23.1 
      2180.0         0.52         21.3 
      2181.0         0.78         21.8 
      2182.0         0.57         21.8 
      2183.0         0.62         24.0 
      2184.0         0.58         23.7 
      2185.0         0.60         23.9 
      2186.0         1.55         24.5 
      2187.0         0.58         25.7 
