~Version Information
VERS.                      2.0: CWLS Log ASCII Standard - VERSION 2.0
WRAP.                       NO: One line per depth step
~Well Information Block
STRT.FT                -5.2500: 
STOP.FT               769.5000: 
STEP.FT                 0.2500: 
NULL.                -999.2500: 
COMP.          Pioneer Natural Resources: COMPANY
WELL.          HG Duran 34-27 Tr: WELL
FLD.           Purgatorie River: FIELD
LOC.           1076' FSL & 1465' FEL: LOCATION
PROV.                 Colorado: PROVINCE
CNTY.               Las Animas: COUNTRY
SRVC.          Patterson Wireline: SERVICE COMPANY
DATE.          Mon Apr 18 09:19:17 2005: LOG DATE
UWI.           05-071-08218-00: UNIQUE WELL ID
~Curve Information Block
DEPT.FT            0 000 00 00: Depth
CCL.                          : Casing Collar Locator
TT3.usec                      : CBL 3' Travel Time
AMP3.mV                       : CBL 3' Amplitude
GR.GAPI                       : Gamma Ray
~Parameter Information Block
~A  Depth       CCL         TT3         AMP3         GR     
# ...
    28.2500      0.0000   1470.0000      4.5609     59.6037
    28.5000      0.0000   1470.0000      4.9379     56.5009
    28.7500      0.0000   1470.0000      5.3829     55.2353
    29.0000      0.0000   1470.0000      5.7912     56.1855
    29.2500      0.0000   1470.0000      6.0969     58.8731
    29.5000      0.0000   1470.0000      6.3205     61.9480
    29.7500      0.0000   1470.0000      6.5453     63.9986
    30.0000      0.0000   1470.0000      6.8355     64.5982
    30.2500      0.0000   1470.0000      7.1307     64.6713
    30.5000      0.0000   1470.0000      7.1908     65.4053
    30.7500      0.0000   1470.0000      6.6977     66.6264
    31.0000      0.0000   1470.0000      5.5191     66.8604
    31.2500      0.0000   1470.0000      3.9062     65.2500
    31.5000      0.0000   1470.0000      2.3689     62.7105
    31.7500      0.0000   1470.0000      1.3157     60.9864
    32.0000      0.0000   1470.0000      0.8251     61.2902
    32.2500     -5.0000   1470.0000      0.7379     63.9677
    32.5000     -5.0000   1470.0000      0.9048     68.6585
    32.7500      0.0000   1470.0000      1.3402     74.3792
    33.0000      0.0000   1470.0000      2.1651     79.6694
    33.2500      0.0000   1470.0000      3.4098     82.9361
    33.5000      0.0000   1469.9712      4.8926     82.9168
    33.7500      0.0000   1469.8125      6.3457     79.1492
    34.0000      0.0000   1469.0480      7.6518     72.1905
    34.2500      0.0000   1466.2347      8.8718     63.4802
    34.5000      0.0000   1458.4023     10.0487     55.2604
    34.7500      0.0000   1442.1787     11.0880     50.3473
    35.0000      0.0000   1418.0231     11.8446     50.6950
    35.2500      0.0000   1394.3740     12.2605     55.4001
    35.5000      0.0000   1384.3044     12.4173     60.9230
    35.7500      0.0000   1394.3740     12.4816     64.1907
    36.0000      0.0000   1418.0231     12.5858     65.1781
    36.2500      0.0000   1442.1787     12.7399     65.9735
    36.5000      0.0000   1458.4023     12.8476     67.8125
    36.7500      0.0000   1466.2347     12.8031     69.6714
    37.0000      0.0000   1469.0480     12.5803     69.6463
    37.2500      0.0000   1469.8125     12.2560     67.1112
    37.5000      0.0000   1469.9712     11.9473     63.2001
    37.7500      0.0000   1470.0000     11.7270     59.4489
    38.0000      0.0000   1470.0000     11.6020     56.5276
    38.2500      0.0000   1470.0000     11.5573     54.3946
    38.5000      0.0000   1470.0000     11.5899     53.1818
    38.7500      0.0000   1470.0000     11.6947     53.4034
    39.0000      0.0000   1470.0000     11.8453     55.2457
    39.2500      0.0000   1470.0000     12.0054     57.9273
    39.5000      0.0000   1470.0000     12.1496     60.0190
    39.7500      0.0000   1470.0000     12.2640     60.4962
    40.0000      0.0000   1470.0000     12.3382     59.5612
    40.2500      0.0000   1470.0000     12.3630     58.5075
    40.5000      0.0000   1470.0000     12.3308     58.6434
    40.7500      0.0000   1470.0000     12.2368     60.1907
    41.0000      0.0000   1470.0000     12.0878     62.1957
    41.2500      0.0000   1470.0000     11.9098     63.3664
    41.5000      0.0000   1470.0000     11.7363     62.8864
    41.7500      0.0000   1470.0000     11.5892     60.6742
    42.0000      0.0000   1470.0000     11.4714     57.3755
    42.2500      0.0000   1470.0000     11.3745     54.2860
    42.5000      0.0000   1470.0000     11.2889     52.9832
    42.7500      0.0000   1470.0000     11.2129     54.5805
    43.0000      0.0000   1470.0000     11.1504     59.0463
    43.2500      0.0000   1470.0000     11.0954     65.0396
    43.5000      0.0000   1470.0000     11.0235     70.2212
    43.7500      0.0000   1470.0000     10.9124     72.0668
    44.0000      0.0000   1470.0000     10.7756     69.2552
    44.2500      0.0000   1470.0000     10.6619     62.7254
    44.5000      0.0000   1470.0000     10.6122     55.1526
    44.7500      0.0000   1470.0000     10.6194     49.1670
    45.0000      0.0000   1470.0000     10.6408     45.9728
    45.2500      0.0000   1470.0000     10.6486     45.2510
    45.5000      0.0000   1470.0000     10.6539     45.7968
    45.7500      0.0000   1470.0000     10.6826     46.1621
    46.0000      0.0000   1470.0000     10.7421     45.2662
    46.2500      0.0000   1470.0000     10.8176     42.8777
    46.5000      0.0000   1469.9637     10.8881     39.5057
    46.7500      0.0000   1469.7639     10.9398     35.8040
    47.0000      0.0000   1468.8010     10.9692     32.2789
    47.2500      0.0000   1465.2581     10.9794     29.4215
    47.5000      0.0000   1455.3938     10.9751     27.6548
    47.7500      0.0000   1434.9614     10.9608     27.1248
    48.0000      0.0000   1404.5394     10.9432     27.8096
    48.2500      0.0000   1374.7554     10.9276     29.6413
    48.5000      0.0000   1362.0737     10.9111     32.2146
    48.7500      0.0000   1374.7554     10.8760     34.6943
    49.0000      0.0000   1404.5394     10.7859     36.3627
    49.2500      0.0000   1434.9614     10.6005     37.1129
    49.5000      0.0000   1455.3938     10.3073     37.2514
    49.7500      0.0000   1465.2581      9.9338     37.0469
    50.0000      0.0000   1468.8010      9.5284     36.6926
    50.2500      0.0000   1469.7639      9.1416     36.5736
    50.5000      0.0000   1469.9309      8.8258     37.2705
    50.7500      0.0000   1469.7626      8.6291     39.2500
    51.0000      0.0000   1468.7618      8.5748     42.5179
    51.2500      0.0000   1464.9374      8.6487     46.5191
    51.5000      0.0000   1453.7505      8.8089     50.4753
    51.7500      0.0000   1429.0004      8.9973     53.8632
    52.0000      0.0000   1388.5591      9.1464     56.4410
    52.2500      0.0000   1342.4552      9.1960     57.9657
    52.5000      0.0000   1312.3066      9.1251     58.3241
    52.7500      0.0000   1315.9169      8.9709     57.9355
    53.0000      0.0000   1350.9342      8.8025     57.5130
    53.2500      0.0000   1397.2197      8.6634     57.3439
    53.5000      0.0000   1434.7917      8.5442     57.1716
    53.7500      0.0000   1456.3682      8.4165     56.7442
    54.0000      0.0000   1464.9167      8.2760     56.0821
    54.2500      0.0000   1464.6888      8.1445     55.2784
    54.5000      0.0000   1455.2520      8.0561     54.4040
    54.7500      0.0000   1430.9144      8.0601     53.9165
    55.0000      0.0000   1385.2833      8.2011     54.9931
    55.2500      0.0000   1319.4390      8.4640     58.8277
    55.5000      0.0000   1247.1650      8.7542     65.0197
    55.7500      0.0000   1190.6362      8.9541     71.0087
    56.0000      0.0000   1169.2419      8.9982     73.9421
    56.2500      0.0000   1190.4637      8.9007     73.2370
    56.5000      0.0000   1246.9000      8.7332     70.9491
    56.7500      0.0000   1319.1851      8.5824     69.7054
    57.0000      0.0000   1385.1055      8.5081     70.5355
    57.2500      0.0000   1430.8419      8.5181     72.5347
    57.5000      0.0000   1455.3931      8.5720     74.0098
    57.7500      0.0000   1465.6403      8.6079     73.5475
    58.0000      0.0000   1468.9423      8.5729     70.5282
    58.2500      0.0000   1469.6438      8.4381     65.5665
    58.5000      0.0000   1469.1108      8.2072     60.4371
    58.7500      0.0000   1466.4927      7.9223     56.8311
    59.0000      0.0000   1458.7288      7.6494     55.0551
    59.2500      0.0000   1440.9790      7.4447     54.2837
    59.5000      0.0000   1408.8318      7.3289     53.8001
    59.7500      0.0000   1361.1865      7.2885     53.5860
    60.0000      0.0000   1300.2976      7.2904     54.1553
    60.2500      0.0000   1229.8899      7.2916     56.3073
    60.5000      0.0000   1156.6113      7.2495     60.5942
    60.7500      0.0000   1093.1467      7.1395     66.3574
    61.0000      0.0000   1053.8573      6.9727     71.4297
    61.2500      0.0000   1043.5233      6.7925     73.4864
    61.5000      0.0000   1052.7162      6.6433     71.9849
