~Version Information
VERS.                      2.0: CWLS Log ASCII Standard - VERSION 2.0
WRAP.                       NO: One line per depth step
~Well Information Block
STRT.FT               955.2500: 
STOP.FT              2226.0000: 
STEP.FT                 0.2500: 
NULL.                -999.2500: 
COMP.          Petrogulf Corporation: COMPANY
WELL.             Burson 8-13R: WELL
FLD.           Purgatorie River: FIELD
LOC.           1045' FNL & 2189' FEL: LOCATION
CNTY.               Las Animas: COUNTY
SRVC.                         : SERVICE COMPANY
DATE.          Fri Apr 30 04:52:15 2004: LOG DATE
UWI.           05 071 08039 00: UNIQUE WELL ID
STAT.                 Colorado: STATE
~Curve Information Block
DEPT.FT            0 000 00 00: Depth
SP.mV                         : DIL Spontaneous Potential
RILD.Ohm-m                    : DIL Deep Resistivity
RILM.Ohm-m                    : DIL Medium Resistivity
RLL3.Ohm-m                    : DIL Shallow Resistivity
~Parameter Information Block
~A  Depth        SP         RILD        RILM        RLL3    
# ...
  1156.2500   2000.0000     13.8708     15.1150   2000.0000
  1156.5000   2000.0000     13.8317     14.8907   2000.0000
  1156.7500   2000.0000     13.7727     14.6012   2000.0000
  1157.0000   2000.0000     13.7263     14.3045   2000.0000
  1157.2500   2000.0000     13.7110     14.0555   2000.0000
  1157.5000   2000.0000     13.7275     13.9034   2000.0000
  1157.7500   2000.0000     13.7534     13.8695   2000.0000
  1158.0000   2000.0000     13.7420     13.9221   2000.0000
  1158.2500   2000.0000     13.6354     13.9740   2000.0000
  1158.5000   2000.0000     13.3962     13.9222   2000.0000
  1158.7500   2000.0000     13.0376     13.7123   2000.0000
  1159.0000   2000.0000     12.6281     13.3716   2000.0000
  1159.2500   2000.0000     12.2601     12.9759   2000.0000
  1159.5000   2000.0000     12.0075     12.5969   2000.0000
  1159.7500   2000.0000     11.8978     12.2809   2000.0000
  1160.0000   2000.0000     11.9108     12.0563   2000.0000
  1160.2500   2000.0000     11.9993     11.9407   2000.0000
  1160.5000   2000.0000     12.1186     11.9386   2000.0000
  1160.7500   2000.0000     12.2449     12.0402   2000.0000
  1161.0000   2000.0000     12.3698     12.2284   2000.0000
  1161.2500   2000.0000     12.4802     12.4871   2000.0000
  1161.5000   2000.0000     12.5499     12.7972   2000.0000
  1161.7500   2000.0000     12.5518     13.1222   2000.0000
  1162.0000   2000.0000     12.4808     13.4016   2000.0000
  1162.2500   2000.0000     12.3626     13.5701   2000.0000
  1162.5000   2000.0000     12.2377     13.5999   2000.0000
  1162.7500   2000.0000     12.1342     13.5270   2000.0000
  1163.0000   2000.0000     12.0547     13.4341   2000.0000
  1163.2500   2000.0000     11.9856     13.3962   2000.0000
  1163.5000   2000.0000     11.9130     13.4340   2000.0000
  1163.7500   2000.0000     11.8287     13.4999   2000.0000
  1164.0000   2000.0000     11.7254     13.5079   2000.0000
  1164.2500   2000.0000     11.5922     13.3875   2000.0000
  1164.5000   2000.0000     11.4204     13.1235   2000.0000
  1164.7500   2000.0000     11.2138     12.7477   2000.0000
  1165.0000   2000.0000     10.9929     12.3028   2000.0000
  1165.2500   2000.0000     10.7888     11.8202   2000.0000
  1165.5000   2000.0000     10.6281     11.3261   2000.0000
  1165.7500   2000.0000     10.5145     10.8560   2000.0000
  1166.0000   2000.0000     10.4236     10.4545   2000.0000
  1166.2500   2000.0000     10.3175     10.1611   2000.0000
  1166.5000   2000.0000     10.1753      9.9958   2000.0000
  1166.7500   2000.0000     10.0122      9.9593   2000.0000
  1167.0000   2000.0000      9.8719     10.0435   2000.0000
  1167.2500   2000.0000      9.8055     10.2398   2000.0000
  1167.5000   2000.0000      9.8570     10.5346   2000.0000
  1167.7500   2000.0000     10.0598     10.8994   2000.0000
  1168.0000   2000.0000     10.4315     11.2901   2000.0000
  1168.2500   2000.0000     10.9628     11.6649   2000.0000
  1168.5000   2000.0000     11.6039     12.0086   2000.0000
  1168.7500   2000.0000     12.2664     12.3443   2000.0000
  1169.0000   2000.0000     12.8511     12.7220   2000.0000
  1169.2500   2000.0000     13.2871     13.1899   2000.0000
  1169.5000   2000.0000     13.5579     13.7629   2000.0000
  1169.7500   2000.0000     13.6972     14.4038   2000.0000
  1170.0000   2000.0000     13.7674     15.0329   2000.0000
  1170.2500   2000.0000     13.8339     15.5711   2000.0000
  1170.5000   2000.0000     13.9437     15.9775   2000.0000
  1170.7500   2000.0000     14.1158     16.2476   2000.0000
  1171.0000   2000.0000     14.3415     16.3881   2000.0000
  1171.2500   2000.0000     14.5895     16.4109   2000.0000
  1171.5000   2000.0000     14.8101     16.3486   2000.0000
  1171.7500   2000.0000     14.9414     16.2544   2000.0000
  1172.0000   2000.0000     14.9294     16.1697   2000.0000
  1172.2500   2000.0000     14.7547     16.0887   2000.0000
  1172.5000   2000.0000     14.4486     15.9584   2000.0000
  1172.7500   2000.0000     14.0818     15.7135   2000.0000
  1173.0000   2000.0000     13.7323     15.3217   2000.0000
  1173.2500   2000.0000     13.4523     14.8093   2000.0000
  1173.5000   2000.0000     13.2493     14.2552   2000.0000
  1173.7500   2000.0000     13.0890     13.7618   2000.0000
  1174.0000   2000.0000     12.9201     13.4156   2000.0000
  1174.2500   2000.0000     12.7126     13.2558   2000.0000
  1174.5000   2000.0000     12.4831     13.2681   2000.0000
  1174.7500   2000.0000     12.2901     13.4036   2000.0000
  1175.0000   2000.0000     12.2057     13.6125   2000.0000
  1175.2500   2000.0000     12.2863     13.8644   2000.0000
  1175.5000   2000.0000     12.5547     14.1412   2000.0000
  1175.7500   2000.0000     12.9886     14.4148   2000.0000
  1176.0000   2000.0000     13.5203     14.6450   2000.0000
  1176.2500   2000.0000     14.0584     14.8061   2000.0000
  1176.5000   2000.0000     14.5314     14.9217   2000.0000
  1176.7500   2000.0000     14.9191     15.0721   2000.0000
  1177.0000   2000.0000     15.2393     15.3622   2000.0000
  1177.2500   2000.0000     15.5089     15.8708   2000.0000
  1177.5000   2000.0000     15.7320     16.6040   2000.0000
  1177.7500   2000.0000     15.9235     17.4680   2000.0000
  1178.0000   2000.0000     16.1312     18.2877   2000.0000
  1178.2500   2000.0000     16.4260     18.8880   2000.0000
  1178.5000   2000.0000     16.8663     19.1978   2000.0000
  1178.7500   2000.0000     17.4657     19.2839   2000.0000
  1179.0000   2000.0000     18.1758     19.2871   2000.0000
  1179.2500   2000.0000     18.8900     19.3374   2000.0000
  1179.5000   2000.0000     19.4720     19.5035   2000.0000
  1179.7500   2000.0000     19.8072     19.7822   2000.0000
  1180.0000   2000.0000     19.8458     20.1150   2000.0000
  1180.2500   2000.0000     19.6073     20.4141   2000.0000
  1180.5000   2000.0000     19.1493     20.5794   2000.0000
  1180.7500   2000.0000     18.5392     20.5044   2000.0000
  1181.0000   2000.0000     17.8487     20.1026   2000.0000
  1181.2500   2000.0000     17.1545     19.3669   2000.0000
  1181.5000   2000.0000     16.5266     18.4061   2000.0000
  1181.7500   2000.0000     16.0077     17.3939   2000.0000
  1182.0000   2000.0000     15.6021     16.4769   2000.0000
  1182.2500   2000.0000     15.2839     15.7217   2000.0000
  1182.5000   2000.0000     15.0175     15.1234   2000.0000
  1182.7500   2000.0000     14.7795     14.6443   2000.0000
  1183.0000   2000.0000     14.5668     14.2462   2000.0000
  1183.2500   2000.0000     14.3858     13.9010   2000.0000
  1183.5000   2000.0000     14.2349     13.5862   2000.0000
  1183.7500   2000.0000     14.0964     13.2853   2000.0000
  1184.0000   2000.0000     13.9439     12.9992   2000.0000
  1184.2500   2000.0000     13.7604     12.7519   2000.0000
  1184.5000   2000.0000     13.5477     12.5777   2000.0000
  1184.7500   2000.0000     13.3235     12.4983   2000.0000
  1185.0000   2000.0000     13.1116     12.5078   2000.0000
  1185.2500   2000.0000     12.9371     12.5733   2000.0000
  1185.5000   2000.0000     12.8244     12.6506   2000.0000
  1185.7500   2000.0000     12.7942     12.7053   2000.0000
  1186.0000   2000.0000     12.8590     12.7300   2000.0000
  1186.2500   2000.0000     13.0188     12.7441   2000.0000
  1186.5000   2000.0000     13.2611     12.7807   2000.0000
  1186.7500   2000.0000     13.5642     12.8722   2000.0000
  1187.0000   2000.0000     13.9022     13.0431   2000.0000
  1187.2500   2000.0000     14.2494     13.3109   2000.0000
  1187.5000   2000.0000     14.5844     13.6878   2000.0000
  1187.7500   2000.0000     14.8921     14.1773   2000.0000
  1188.0000   2000.0000     15.1637     14.7645   2000.0000
  1188.2500   2000.0000     15.3964     15.4063   2000.0000
  1188.5000   2000.0000     15.5939     16.0342   2000.0000
  1188.7500   2000.0000     15.7653     16.5784   2000.0000
  1189.0000   2000.0000     15.9217     16.9992   2000.0000
  1189.2500   2000.0000     16.0730     17.2964   2000.0000
  1189.5000   2000.0000     16.2294     17.4878   2000.0000
