~Version Information
VERS.                      2.0: CWLS Log ASCII Standard - VERSION 2.0
WRAP.                       NO: One line per depth step
~Well Information Block
STRT.FT               387.1000: 
STOP.FT              1748.0000: 
STEP.FT                 0.1000: 
NULL.                -999.2500: 
COMP.          Evergreen Operating Corp.: COMPANY
WELL.          Pachorek 13-31 Tr: WELL
FLD.           Cottontail Pass: FIELD
LOC.           1575' FSL & 900' FWL--API# 05-071-07019-00: LOCATION
PROV.                 Colorado: PROVINCE
CNTY.               Las Animas: COUNTRY
SRVC.          Scientific Data Systems, Inc.: SERVICE COMPANY
DATE.          Tue Aug 08 15:02:37 2000: LOG DATE
UWI.                      05071070190000:UNIQUE WELL IDENTIFICATION
~Curve Information Block
DEPT.FT            0 000 00 00: Depth
DCAL.in                       : CDL Caliper
RHOB.g/cc                     : CDL Bulk Density
RHOC.g/cc                     : CDL Density Correction
DPOR.pu                       : CDL Density Porosity
GR.GAPI                       : Gamma Ray
NPOR.pu                       : Neutron Porosity
~Parameter Information Block
~A  Depth       DCAL        RHOB        RHOC        DPOR         GR         NPOR    
# ...
  1644.7000      8.2424      2.5320      0.0772      7.1536    152.1102     29.9490
  1644.8000      8.1805      2.5356      0.0768      6.9329    150.6996     29.8503
  1644.9000      8.1805      2.5387      0.0760      6.7458    149.3554     29.7595
  1645.0000      8.1162      2.5411      0.0747      6.6008    148.1845     29.6870
  1645.1000      8.1162      2.5426      0.0730      6.5061    147.2590     29.6415
  1645.2000      8.1162      2.5432      0.0709      6.4698    146.6018     29.6271
  1645.3000      8.0823      2.5428      0.0683      6.4997    146.1877     29.6435
  1645.4000      8.0823      2.5411      0.0652      6.6026    145.9494     29.6859
  1645.5000      8.0703      2.5381      0.0616      6.7839    145.7897     29.7459
  1645.6000      8.0703      2.5337      0.0576      7.0475    145.6100     29.8141
  1645.7000      8.0703      2.5280      0.0533      7.3951    145.3196     29.8818
  1645.8000      8.0773      2.5209      0.0489      7.8257    144.8624     29.9426
  1645.9000      8.0773      2.5125      0.0446      8.3360    144.2177     29.9940
  1646.0000      8.0977      2.5028      0.0408      8.9194    143.3985     30.0363
  1646.1000      8.0977      2.4921      0.0376      9.5668    142.4456     30.0722
  1646.2000      8.0977      2.4806      0.0352     10.2665    141.4116     30.1058
  1646.3000      8.1108      2.4684      0.0337     11.0043    140.3557     30.1406
  1646.4000      8.1108      2.4559      0.0332     11.7642    139.3231     30.1803
  1646.5000      8.1033      2.4433      0.0336     12.5286    138.3440     30.2274
  1646.6000      8.1033      2.4309      0.0348     13.2787    137.4299     30.2843
  1646.7000      8.1033      2.4191      0.0366     13.9954    136.5772     30.3531
  1646.8000      8.0934      2.4081      0.0389     14.6596    135.7738     30.4353
  1646.9000      8.0934      2.3983      0.0415     15.2532    135.0040     30.5315
  1647.0000      8.0972      2.3900      0.0442     15.7594    134.2567     30.6406
  1647.1000      8.0972      2.3833      0.0469     16.1639    133.5296     30.7590
  1647.2000      8.0972      2.3785      0.0497     16.4553    132.8309     30.8799
  1647.3000      8.1133      2.3757      0.0525     16.6261    132.1783     30.9946
  1647.4000      8.1133      2.3749      0.0554     16.6732    131.6041     31.0928
  1647.5000      8.1214      2.3761      0.0584     16.5986    131.1459     31.1653
  1647.6000      8.1214      2.3792      0.0616     16.4095    130.8520     31.2046
  1647.7000      8.1214      2.3840      0.0650     16.1183    130.7776     31.2074
  1647.8000      8.1009      2.3902      0.0685     15.7425    130.9837     31.1743
  1647.9000      8.1009      2.3975      0.0720     15.3041    131.5340     31.1094
  1648.0000      8.0594      2.4053      0.0752     14.8283    132.4805     31.0199
  1648.1000      8.0594      2.4133      0.0778     14.3427    133.8558     30.9137
  1648.2000      8.0594      2.4211      0.0796     13.8755    135.6503     30.7981
  1648.3000      8.0195      2.4280      0.0803     13.4540    137.8078     30.6786
  1648.4000      8.0195      2.4338      0.0797     13.1030    140.2162     30.5593
  1648.5000      7.9890      2.4381      0.0778     12.8427    142.7127     30.4427
  1648.6000      7.9890      2.4406      0.0747     12.6881    145.1051     30.3316
  1648.7000      7.9890      2.4413      0.0705     12.6473    147.1966     30.2293
  1648.8000      7.9857      2.4401      0.0657     12.7208    148.8204     30.1415
  1648.9000      7.9857      2.4371      0.0605     12.9016    149.8548     30.0761
  1649.0000      8.0034      2.4326      0.0554     13.1758    150.2522     30.0422
  1649.1000      8.0034      2.4269      0.0510     13.5231    150.0328     30.0495
  1649.2000      8.0034      2.4203      0.0476     13.9182    149.2809     30.1052
  1649.3000      8.0088      2.4135      0.0454     14.3332    148.1210     30.2127
  1649.4000      8.0088      2.4068      0.0448     14.7394    146.6964     30.3698
  1649.5000      8.0055      2.4007      0.0457     15.1092    145.1585     30.5676
  1649.6000      8.0055      2.3956      0.0480     15.4189    143.6478     30.7919
  1649.7000      8.0055      2.3918      0.0515     15.6498    142.2857     31.0240
  1649.8000      8.0325      2.3895      0.0558     15.7903    141.1848     31.2439
  1649.9000      8.0325      2.3887      0.0606     15.8364    140.4415     31.4327
  1650.0000      8.0800      2.3894      0.0655     15.7921    140.1373     31.5755
  1650.1000      8.0800      2.3915      0.0701     15.6693    140.3335     31.6631
  1650.2000      8.0800      2.3945      0.0739     15.4862    141.0641     31.6928
  1650.3000      8.0877      2.3981      0.0767     15.2666    142.3181     31.6690
  1650.4000      8.0877      2.4019      0.0781     15.0377    144.0372     31.6016
  1650.5000      8.0653      2.4053      0.0782     14.8279    146.1161     31.5049
  1650.6000      8.0653      2.4080      0.0767     14.6646    148.4034     31.3949
  1650.7000      8.0653      2.4096      0.0737     14.5725    150.7289     31.2882
  1650.8000      8.0657      2.4096      0.0696     14.5711    152.9196     31.1990
  1650.9000      8.0657      2.4079      0.0645     14.6739    154.8305     31.1385
  1651.0000      8.0799      2.4044      0.0589     14.8868    156.3602     31.1127
  1651.1000      8.0799      2.3991      0.0532     15.2081    157.4649     31.1233
  1651.2000      8.0799      2.3921      0.0479     15.6286    158.1528     31.1669
  1651.3000      8.0855      2.3838      0.0433     16.1315    158.4779     31.2367
  1651.4000      8.0855      2.3745      0.0399     16.6946    158.5150     31.3228
  1651.5000      8.0860      2.3647      0.0380     17.2908    158.3463     31.4147
  1651.6000      8.0860      2.3548      0.0377     17.8899    158.0424     31.5020
  1651.7000      8.0860      2.3454      0.0392     18.4608    157.6563     31.5764
  1651.8000      8.0875      2.3369      0.0424     18.9729    157.2153     31.6321
  1651.9000      8.0875      2.3299      0.0474     19.3977    156.7311     31.6661
  1652.0000      8.0945      2.3248      0.0540     19.7110    156.1947     31.6786
  1652.1000      8.0945      2.3218      0.0618     19.8930    155.5974     31.6715
  1652.2000      8.0945      2.3211      0.0706     19.9305    154.9249     31.6481
  1652.3000      8.1247      2.3230      0.0800     19.8166    154.1667     31.6122
  1652.4000      8.1247      2.3274      0.0896     19.5511    153.3199     31.5665
  1652.5000      8.1470      2.3342      0.0987     19.1405    152.3930     31.5116
  1652.6000      8.1470      2.3431      0.1071     18.5972    151.4036     31.4466
  1652.7000      8.1470      2.3540      0.1144     17.9383    150.3880     31.3686
  1652.8000      8.1003      2.3664      0.1201     17.1852    149.3936     31.2727
  1652.9000      8.1003      2.3800      0.1242     16.3614    148.4786     31.1534
  1653.0000      8.0373      2.3944      0.1264     15.4915    147.7090     31.0053
  1653.1000      8.0373      2.4091      0.1269     14.5995    147.1421     30.8241
  1653.2000      8.0373      2.4238      0.1258     13.7078    146.8228     30.6075
  1653.3000      8.0034      2.4382      0.1231     12.8359    146.7587     30.3562
  1653.4000      8.0034      2.4520      0.1193     11.9998    146.9300     30.0737
  1653.5000      8.0076      2.4650      0.1145     11.2116    147.2839     29.7665
  1653.6000      8.0076      2.4771      0.1091     10.4792    147.7359     29.4445
  1653.7000      8.0076      2.4882      0.1034      9.8073    148.1969     29.1196
  1653.8000      8.0352      2.4982      0.0977      9.1971    148.5816     28.8049
  1653.9000      8.0352      2.5073      0.0921      8.6479    148.8294     28.5143
  1654.0000      8.0470      2.5154      0.0866      8.1572    148.9166     28.2608
  1654.1000      8.0470      2.5226      0.0813      7.7221    148.8667     28.0548
  1654.2000      8.0470      2.5289      0.0762      7.3393    148.7418     27.9032
