~Version Information
VERS.                      2.0: CWLS Log ASCII Standard - VERSION 2.0
WRAP.                       NO: One line per depth step
~Well Information Block
STRT.FT                -1.5000: 
STOP.FT              1317.0000: 
STEP.FT                 0.2500: 
NULL.                -999.2500: 
COMP.          Pioneer Natural Resources: COMPANY
WELL.              Border 21-3: WELL
FLD.           Purgatoire River: FIELD
LOC.           865' FNL & 1415' FWL: LOCATION
PROV.                 Colorado: PROVINCE
CNTY.               Las Animas: COUNTRY
SRVC.                Patterson: SERVICE COMPANY
DATE.          Tue Dec 14 14:08:05 2004: LOG DATE
UWI.           05 071 08169 00: UNIQUE WELL ID
~Curve Information Block
DEPT.FT            0 000 00 00: Depth
GR.GAPI                       : Gamma Ray
CCL.                          : Casing Collar Locator
TT3.usec                      : CBL 3' Travel Time
AMP3.mV                       : CBL 3' Amplitude
~Parameter Information Block
~A  Depth        GR         CCL         TT3         AMP3    
# ...
   836.0000     83.5509      0.0000    726.9425      7.6124
   836.2500     83.2295      0.0000    723.7444      7.5609
   836.5000     82.6293      0.0000    720.4876      7.5067
   836.7500     81.9943      0.0000    720.4088      7.4436
   837.0000     81.8281      0.0000    727.0123      7.3680
   837.2500     82.4873      0.0000    740.7862      7.2884
   837.5000     83.6235      0.0000    757.3808      7.2196
   837.7500     84.3823      0.0000    769.8584      7.1660
   838.0000     84.1905      0.0000    773.3672      7.1217
   838.2500     83.1828      0.0000    767.8938      7.0865
   838.5000     81.9409      0.0000    757.2081      7.0705
   838.7500     81.0312      0.0000    745.9207      7.0799
   839.0000     80.7438      0.0000    737.1724      7.1086
   839.2500     80.9850      0.0000    731.8867      7.1479
   839.5000     81.3097      0.0000    729.3451      7.1963
   839.7500     81.1190      0.0000    728.3299      7.2539
   840.0000     79.9037      0.0000    727.9653      7.3127
   840.2500     77.5078      0.0000    727.8697      7.3594
   840.5000     74.4505      0.0000    727.9089      7.3874
   840.7500     71.9556      0.0000    727.9655      7.4033
   841.0000     71.2709      0.0000    727.9065      7.4204
   841.2500     72.5826      0.0000    727.6784      7.4481
   841.5000     74.6106      0.0000    727.4185      7.4872
   841.7500     75.6212      0.0000    727.5499      7.5310
   842.0000     74.9638      0.0000    728.9128      7.5716
   842.2500     73.3608      0.0000    732.8262      7.6055
   842.5000     71.8607      0.0000    740.6845      7.6332
   842.7500     71.0579      0.0000    752.8531      7.6562
   843.0000     71.2344      0.0000    767.5885      7.6741
   843.2500     72.4544      0.0000    781.2812      7.6862
   843.5000     74.2506      0.0000    790.2488      7.6913
   843.7500     75.6790      0.0000    792.6821      7.6883
   844.0000     75.9670      0.0000    789.3067      7.6769
   844.2500     75.0033      0.0000    782.5909      7.6616
   844.5000     73.2162      0.0000    775.1973      7.6510
   844.7500     71.2072      0.0000    768.7371      7.6532
   845.0000     69.5167      0.0000    763.7454      7.6694
   845.2500     68.4431      0.0000    760.6136      7.6930
   845.5000     67.8745      0.0000    760.0504      7.7132
   845.7500     67.3994      0.0000    762.4509      7.7196
   846.0000     66.7484      0.0000    767.2697      7.7046
   846.2500     66.0902      0.0000    773.3585      7.6638
   846.5000     65.8341      0.0000    779.5645      7.5963
   846.7500     66.2799      0.0000    784.6310      7.5057
   847.0000     67.6028      0.0000    786.5075      7.3994
   847.2500     69.9263      0.0000    782.0429      7.2865
   847.5000     73.0249      0.0000    768.4332      7.1757
   847.7500     75.9599      0.0000    746.4090      7.0743
   848.0000     77.4339      0.0000    721.9302      6.9887
   848.2500     76.7293      0.0000    703.1561      6.9241
   848.5000     74.2090      0.0000    695.1159      6.8820
   848.7500     70.9501      0.0000    697.7850      6.8587
   849.0000     68.1422      0.0000    708.3189      6.8469
   849.2500     66.7464      0.0000    723.1748      6.8414
   849.5000     67.2521      0.0000    738.1636      6.8434
   849.7500     69.5472      0.0000    748.7700      6.8566
   850.0000     73.2143      0.0000    752.0139      6.8790
   850.2500     78.1044      0.0000    747.8377      6.8997
   850.5000     84.5782      0.0000    738.1928      6.9050
   850.7500     93.0632      0.0000    724.8923      6.8885
   851.0000    103.2433      0.0000    708.6441      6.8562
   851.2500    113.8145      0.0000    690.1276      6.8230
   851.5000    123.2868      0.0000    671.8846      6.8027
   851.7500    130.8294      0.0000    658.9486      6.8012
   852.0000    136.0565      0.0000    656.6418      6.8184
   852.2500    138.3877      0.0000    666.4678      6.8546
   852.5000    137.1630      0.0000    684.0956      6.9138
   852.7500    132.3970      0.0000    702.1724      7.0004
   853.0000    125.3298      0.0000    715.3021      7.1138
   853.2500    118.2707      0.0000    722.2820      7.2436
   853.5000    113.6973      0.0000    724.4839      7.3712
   853.7500    113.0127      0.0000    723.3552      7.4779
   854.0000    115.7280      0.0000    719.5370      7.5533
   854.2500    119.8338      0.0000    713.5397      7.5955
   854.5000    123.3835      0.0000    706.5226      7.6060
   854.7500    126.0126      0.0000    700.1029      7.5887
   855.0000    128.7800      0.0000    695.4778      7.5542
   855.2500    132.6918      0.0000    692.9012      7.5201
   855.5000    137.8138      0.0000    692.0202      7.5015
   855.7500    143.5197      0.0000    692.5882      7.4985
   856.0000    148.6250      0.0000    695.0149      7.4938
   856.2500    151.3666      0.0000    700.4479      7.4633
   856.5000    150.5704      0.0000    710.0540      7.3950
   856.7500    147.3073      0.0000    723.5676      7.2998
   857.0000    144.4293      0.0000    738.3682      7.2056
   857.2500    143.8909      0.0000    750.4625      7.1372
   857.5000    145.0677      0.0000    756.7494      7.1022
   857.7500    146.1426      0.0000    756.5169      7.0920
   858.0000    146.5556      0.0000    751.2962      7.0927
   858.2500    147.2789      0.0000    743.7379      7.0940
   858.5000    149.0536      0.0000    736.1739      7.0941
   858.7500    151.3572      0.0000    729.4621      7.0978
   859.0000    153.0603      0.0000    723.0139      7.1085
   859.2500    153.3293      0.0000    716.0842      7.1207
   859.5000    151.8483      0.0000    708.9675      7.1230
   859.7500    148.9040      0.0000    702.8238      7.1083
   860.0000    145.3693      0.0000    698.5628      7.0788
   860.2500    142.2016      0.0000    696.2172      7.0392
   860.5000    139.7622      0.0000    695.3592      6.9891
   860.7500    137.5958      0.0000    695.8702      6.9262
   861.0000    134.6883      0.0000    698.0868      6.8535
   861.2500    129.9756      0.0000    702.0009      6.7807
   861.5000    123.0094      0.0000    706.3525      6.7168
   861.7500    114.5669      0.0000    709.1201      6.6607
   862.0000    106.6698      0.0000    709.4200      6.6010
   862.2500    101.5685      0.0000    708.4044      6.5262
   862.5000    100.2414      0.0000    707.6340      6.4359
   862.7500    101.9174      0.0000    707.1190      6.3434
   863.0000    105.1868      0.0000    705.7803      6.2667
   863.2500    109.2986      0.0000    703.4974      6.2204
   863.5000    114.1576      0.0000    701.8232      6.2132
   863.7500    119.4390      0.0000    702.5245      6.2457
   864.0000    124.3395      0.0000    705.7122      6.3090
   864.2500    128.5063      0.0000    709.4430      6.3883
   864.5000    132.7095      0.0000    711.1041      6.4697
   864.7500    137.9647      0.0000    709.4614      6.5442
   865.0000    144.0896      0.0000    705.7178      6.6081
   865.2500    149.6946      0.0000    702.8815      6.6657
   865.5000    153.6327      0.0000    704.1660      6.7286
   865.7500    155.9990      0.0000    711.4283      6.8057
   866.0000    157.4282      0.0000    724.0662      6.8889
   866.2500    157.7943      0.0000    738.8793      6.9548
   866.5000    156.2088      0.0000    751.5613      6.9825
   866.7500    152.4229      0.0000    758.9471      6.9696
   867.0000    147.8047      0.0000    760.1003      6.9311
   867.2500    144.5415      0.0000    755.7921      6.8866
   867.5000    143.9009      0.0000    747.5526      6.8525
   867.7500    145.4057      0.0000    737.0234      6.8407
   868.0000    147.4387      0.0000    725.6190      6.8541
   868.2500    148.3260      0.0000    714.6893      6.8801
   868.5000    147.1871      0.0000    705.8715      6.8936
   868.7500    144.5798      0.0000    700.8654      6.8727
   869.0000    142.6987      0.0000    700.6384      6.8146
   869.2500    144.1691      0.0000    704.6242      6.7387
