~Version Information
VERS.                      2.0: CWLS Log ASCII Standard - VERSION 2.0
WRAP.                       NO: One line per depth step
~Well Information Block
STRT.FT               550.0000: 
STOP.FT              1577.7000: 
STEP.FT                 0.1000: 
NULL.                -999.2500: 
COMP.          Pioneer Natural Resources: COMPANY
WELL.          Kristin 22-23 Tr: WELL
FLD.           Purgatoire River: FIELD
LOC.           2273' FNL & 2029' FWL: LOCATION
PROV.                 Colorado: PROVINCE
CNTY.               Las Animas: COUNTRY
SRVC.                Patterson: SERVICE COMPANY
DATE.          Fri Jan 21 06:58:50 2005: LOG DATE
UWI.           05 071 08259 00: UNIQUE WELL ID
~Curve Information Block
DEPT.FT            0 000 00 00: Depth
DCAL.in                       : CDL Caliper
RHOB.g/cc                     : CDL Bulk Density
RHOC.g/cc                     : CDL Density Correction
DPOR.pu                       : CDL Density Porosity
NPOR.pu                       : Neutron Porosity
GR.GAPI                       : Gamma Ray
~Parameter Information Block
~A  Depth       DCAL        RHOB        RHOC        DPOR        NPOR         GR     
   550.0000      8.0867      2.3808     -0.1977     16.3161     26.7946     84.5348
   550.1000      8.0867      2.3895     -0.1528     15.7887     26.3836     88.8464
   550.2000      8.0867      2.4095     -0.1657     14.5783     26.8225     93.7421
   550.3000      8.0879      2.4394     -0.1489     12.7627     27.3914     95.2199
   550.4000      8.0879      2.4655     -0.0777     11.1791     26.9111     94.7396
   550.5000      8.0891      2.4699     -0.1376     10.9160     26.2966     96.7752
   550.6000      8.0891      2.4530     -0.1277     11.9391     26.8342     99.9098
   550.7000      8.0891      2.4212     -0.1310     13.8640     27.7695    100.0325
   550.8000      8.0895      2.3865     -0.2131     15.9691     28.0353     97.9080
   550.9000      8.0895      2.3688     -0.1913     17.0445     27.8412     95.2988
   551.0000      8.0877      2.3756     -0.2092     16.6304     27.6809     91.5186
   551.1000      8.0877      2.4041     -0.1414     14.9014     27.5004     85.0141
   551.2000      8.0877      2.4390     -0.1321     12.7889     27.4446     78.9568
   551.3000      8.0865      2.4517     -0.0661     12.0157     27.7132     78.9003
   551.4000      8.0865      2.4326     -0.1679     13.1728     28.0464     82.6390
   551.5000      8.0865      2.4069     -0.1943     14.7325     28.0846     84.3829
   551.6000      8.0865      2.3946     -0.1296     15.4764     27.9006     84.2347
   551.7000      8.0865      2.3936     -0.1901     15.5423     28.0407     86.1304
   551.8000      8.0863      2.4026     -0.1561     14.9935     28.3593     90.9959
   551.9000      8.0863      2.4262     -0.1827     13.5635     28.1374     93.4802
   552.0000      8.0867      2.4691     -0.1321     10.9608     27.8600     89.8760
   552.1000      8.0867      2.5294     -0.1131      7.3088     28.1650     82.0262
   552.2000      8.0867      2.5856     -0.0640      3.9010     28.5314     74.6996
   552.3000      8.0855      2.6113     -0.0736      2.3485     28.6240     70.3011
   552.4000      8.0855      2.6047     -0.0976      2.7428     28.3421     67.0280
   552.5000      8.0831      2.5777     -0.0969      4.3802     27.4984     64.7311
   552.6000      8.0831      2.5344     -0.0999      7.0045     26.6394     66.6458
   552.7000      8.0831      2.4843     -0.2078     10.0437     26.4238     74.1207
   552.8000      8.0832      2.4409     -0.1844     12.6725     26.8408     82.7897
   552.9000      8.0832      2.4056     -0.2420     14.8119     27.7081     87.6719
   553.0000      8.0846      2.3805     -0.2543     16.3307     28.5809     88.6296
   553.1000      8.0846      2.3696     -0.2041     16.9935     28.6723     89.7281
   553.2000      8.0846      2.3644     -0.1668     17.3102     27.8988     92.3367
   553.3000      8.0853      2.3595     -0.2320     17.6084     27.2199     90.8840
   553.4000      8.0853      2.3624     -0.1880     17.4306     27.1075     84.2439
   553.5000      8.0843      2.3682     -0.1473     17.0795     27.0017     80.8866
   553.6000      8.0843      2.3665     -0.2023     17.1838     26.6595     85.3625
   553.7000      8.0843      2.3719     -0.1963     16.8567     26.5881     90.3052
   553.8000      8.0818      2.3980     -0.1649     15.2721     27.0066     90.1742
   553.9000      8.0818      2.4241     -0.1256     13.6921     27.4749     89.5873
   554.0000      8.0812      2.4217     -0.1266     13.8385     27.6981     91.7577
   554.1000      8.0812      2.3980     -0.1918     15.2715     27.6624     94.0922
   554.2000      8.0812      2.3864     -0.2235     15.9772     27.3888     92.2308
   554.3000      8.0830      2.3947     -0.1666     15.4711     27.4088     85.0098
   554.4000      8.0830      2.4010     -0.1191     15.0896     28.1809     76.8213
   554.5000      8.0849      2.3932     -0.1410     15.5647     29.4683     72.2357
   554.6000      8.0849      2.3789     -0.1914     16.4310     30.3710     73.2509
   554.7000      8.0849      2.3677     -0.1603     17.1088     30.0262     77.5225
   554.8000      8.0853      2.3629     -0.1433     17.4007     28.8719     78.3754
   554.9000      8.0853      2.3699     -0.2029     16.9739     28.2197     77.5396
   555.0000      8.0858      2.3815     -0.1061     16.2737     28.3491     81.9901
   555.1000      8.0858      2.3776     -0.1635     16.5112     28.4465     86.7323
   555.2000      8.0858      2.3605     -0.2166     17.5479     28.2695     85.1662
   555.3000      8.0860      2.3420     -0.1574     18.6666     28.1843     79.0773
   555.4000      8.0860      2.3293     -0.1951     19.4338     28.3358     72.7473
   555.5000      8.0825      2.3332     -0.1781     19.2018     28.4893     71.3577
   555.6000      8.0825      2.3512     -0.1823     18.1063     28.4060     76.7782
   555.7000      8.0825      2.3708     -0.1527     16.9236     28.4987     84.5696
   555.8000      8.0786      2.3868     -0.1816     15.9488     29.1474     89.9614
   555.9000      8.0786      2.3976     -0.1646     15.2961     29.7254     91.4931
   556.0000      8.0781      2.3872     -0.1219     15.9293     29.7758     90.1219
   556.1000      8.0781      2.3450     -0.1956     18.4827     29.4173     87.7704
   556.2000      8.0781      2.2913     -0.1918     21.7404     28.6297     84.2427
   556.3000      8.0803      2.2548     -0.2408     23.9488     27.6802     80.0659
   556.4000      8.0803      2.2420     -0.1801     24.7266     27.0182     79.4767
   556.5000      8.0822      2.2389     -0.2182     24.9164     27.0039     83.4353
   556.6000      8.0822      2.2454     -0.2500     24.5242     27.7369     86.8305
   556.7000      8.0822      2.2671     -0.1777     23.2073     28.4814     86.7487
   556.8000      8.0820      2.2896     -0.1603     21.8411     28.5580     86.8850
   556.9000      8.0820      2.2991     -0.1714     21.2686     28.2192     92.0522
   557.0000      8.0795      2.3016     -0.1667     21.1125     27.8432    101.2336
   557.1000      8.0795      2.3112     -0.1871     20.5346     27.4253    106.5972
   557.2000      8.0795      2.3350     -0.1908     19.0909     26.9885    103.1467
   557.3000      8.0786      2.3691     -0.1730     17.0236     26.8364     94.8866
   557.4000      8.0786      2.3944     -0.0837     15.4921     27.1872     88.1721
   557.5000      8.0812      2.3940     -0.1751     15.5157     27.7596     83.7656
   557.6000      8.0812      2.3750     -0.1617     16.6648     28.0960     80.5800
   557.7000      8.0812      2.3559     -0.1945     17.8241     28.0669     80.7819
   557.8000      8.0822      2.3509     -0.1697     18.1293     28.0541     85.0900
   557.9000      8.0822      2.3560     -0.1500     17.8209     28.4543     89.5334
   558.0000      8.0818      2.3537     -0.1466     17.9576     28.9668     90.5349
   558.1000      8.0818      2.3402     -0.1582     18.7764     29.1917     91.1993
   558.2000      8.0818      2.3300     -0.2180     19.3934     29.0085     94.3509
   558.3000      8.0823      2.3405     -0.1973     18.7581     28.4525     96.4310
   558.4000      8.0823      2.3852     -0.1955     16.0477     27.7762     96.5935
   558.5000      8.0822      2.4600     -0.1150     11.5155     27.1392     95.0800
   558.6000      8.0822      2.5291     -0.1244      7.3264     26.8611     89.0210
   558.7000      8.0822      2.5607     -0.1619      5.4105     27.4244     82.9396
   558.8000      8.0814      2.5490     -0.0972      6.1215     28.5041     83.8411
   558.9000      8.0814      2.4984     -0.2132      9.1898     29.2923     86.4747
   559.0000      8.0809      2.3977     -0.1122     15.2882     29.6192     85.0153
   559.1000      8.0809      2.2227     -0.2848     25.8996     29.7628     82.5519
   559.2000      8.0809      2.0109     -0.4852     38.7341     29.8073     80.2183
   559.3000      8.0805      1.8558     -0.5737     48.1353     29.9736     79.1753
   559.4000      8.0805      1.7943     -0.5376     51.8583     30.6499     83.9613
   559.5000      8.0851      1.7781     -0.5504     52.8446     31.4068     92.2568
