~Version Information
VERS.                      2.0: CWLS Log ASCII Standard - VERSION 2.0
WRAP.                       NO: One line per depth step
~Well Information Block
STRT.FT                -6.0000: 
STOP.FT              2490.5000: 
STEP.FT                 0.2500: 
NULL.                -999.2500: 
COMP.          Pioneer Natural Resources: COMPANY
WELL.          Aztec Federal 41-15: WELL
FLD.           Purgatorie River: FIELD
LOC.           706' FNL & 1253' FEL--: LOCATION
CNTY.               Las Animas: COUNTY
SRVC.          Superior Well Services: SERVICE COMPANY
DATE.          Wed May 28 14-18-16 2008: LOG DATE
UWI.           05 071 08342 00: UNIQUE WELL ID
STAT.                       CO: STATE
~Curve Information Block
DEPT.FT            0 000 00 00: Depth
GR.GAPI                       : Gamma Ray
CCL.                          : Casing Collar Locator
AMP3FT.mV                     : AMP3FT Amplitude
TT3FT.usec                    : 3FT Travel Time
AMP5FT.mV                     : AMP5FT Amplitude
~Parameter Information Block
~A  Depth        GR         CCL        AMP3FT      TT3FT       AMP5FT   
# ...
  2122.0000     59.7573      0.0000     14.6472    519.1091      6.4407
  2122.2500     62.2853      0.0000     14.6222    505.5221      6.2151
  2122.5000     64.5202      0.0000     14.5965    497.4220      6.0128
  2122.7500     65.7658      0.0000     14.5613    489.5204      5.8358
  2123.0000     66.0880      0.0000     14.5486    474.7265      5.6992
  2123.2500     65.9322      0.0000     14.5514    452.4561      5.6158
  2123.5000     65.2245      0.0000     14.5064    428.7094      5.5735
  2123.7500     63.5758      0.0000     14.3578    410.0849      5.5315
  2124.0000     61.4008      0.0000     14.1319    398.8002      5.4430
  2124.2500     60.0123      0.0000     13.9394    392.7599      5.2773
  2124.5000     60.1606      0.0000     13.8932    388.8581      5.0274
  2124.7500     61.0799      0.0000     14.0030    386.1194      4.7141
  2125.0000     61.5942      0.0000     14.1339    387.4303      4.3948
  2125.2500     61.7765      0.0000     14.0650    399.2396      4.1628
  2125.5000     62.8230      0.0000     13.6076    427.9975      4.1119
  2125.7500     65.3648      0.0000     12.7059    474.0823      4.2784
  2126.0000     68.4684      0.0000     11.4782    528.6005      4.6126
  2126.2500     70.4999      0.0000     10.1825    577.8418      5.0087
  2126.5000     70.6353      0.0000      9.1061    612.2018      5.3596
  2126.7500     69.1007      0.0000      8.4346    630.7872      5.5889
  2127.0000     66.2009      0.0000      8.1933    638.5029      5.6583
  2127.2500     61.8715      0.0000      8.2874    640.5497      5.5692
  2127.5000     56.2682      0.0000      8.5795    639.3415      5.3618
  2127.7500     50.0739      0.0000      8.9415    634.2526      5.1014
  2128.0000     43.9898      0.0000      9.2787    622.9195      4.8575
  2128.2500     38.3971      0.0000      9.5495    603.8148      4.6816
  2128.5000     33.6661     -1.6846      9.8163    578.7585      4.5867
  2128.7500     30.4300      0.0000     10.3129    552.0250      4.5424
  2129.0000     29.3140      0.0000     11.4568    525.7508      4.5004
  2129.2500     30.3944      0.0000     13.6848    497.4926      4.4323
  2129.5000     33.0235      0.0000     17.0932    464.1647      4.3579
  2129.7500     36.2195      0.0000     21.1242    427.3454      4.3522
  2130.0000     39.1350      0.0000     24.6854    393.0621      4.5321
  2130.2500     41.0953      0.0000     26.7563    367.0785      5.0149
  2130.5000     41.5536      0.0000     26.9700    351.3168      5.8338
  2130.7500     40.5255      0.0000     25.6615    343.9790      6.8515
  2131.0000     38.9820      0.0000     23.4933    341.8741      7.7776
  2131.2500     38.2960      0.0000     21.0969    342.5043      8.3405
  2131.5000     39.2157      0.0000     18.9139    344.8592      8.4712
  2131.7500     41.5511      0.0000     17.1589    349.1182      8.3111
  2132.0000     44.5689      0.0000     15.8580    355.6279      8.0660
  2132.2500     47.3721      0.0000     14.9520    363.5454      7.8696
  2132.5000     49.2151      0.0000     14.4145    370.1790      7.7480
  2132.7500     49.8415      0.0000     14.2908    372.2609      7.6534
  2133.0000     49.5296      0.0000     14.6367    368.4231      7.5168
  2133.2500     48.9305      0.0000     15.4110    360.4129      7.2944
  2133.5000     49.1234      0.0000     16.4128    351.7061      6.9920
  2133.7500     51.5198      0.0000     17.3262    345.0810      6.6542
  2134.0000     57.2369      0.0000     17.8619    341.5062      6.3300
  2134.2500     66.4756      0.0000     17.9042    340.7485      6.0476
  2134.5000     78.3752      0.0000     17.5491    342.2691      5.8152
  2134.7500     91.1093      0.0000     17.0159    345.2763      5.6326
  2135.0000    102.2141      0.0000     16.5129    348.3426      5.4908
  2135.2500    109.5670      0.0000     16.1491    349.7973      5.3708
  2135.5000    112.6541      0.0000     15.9163    349.2563      5.2562
  2135.7500    112.8325      0.0000     15.7217    349.0189      5.1467
  2136.0000    112.0182      0.0000     15.4408    354.2814      5.0565
  2136.2500    111.1312      0.0000     14.9658    372.0169      4.9940
  2136.5000    110.0765      0.0000     14.2397    407.8376      4.9409
  2136.7500    108.9602      0.0000     13.2816    460.8923      4.8527
  2137.0000    108.5334      0.0000     12.1894    521.1883      4.6876
  2137.2500    109.1070      0.0000     11.0919    574.3735      4.4404
  2137.5000    109.6070      0.0000     10.0784    610.8871      4.1485
  2137.7500    108.3862      0.0000      9.1786    630.4117      3.8680
  2138.0000    105.0130      0.0000      8.4063    638.5438      3.6398
  2138.2500    100.9310      0.0000      7.7941    641.1820      3.4713
  2138.5000     98.1452      0.0000      7.3768    641.8487      3.3452
  2138.7500     97.3787      0.0000      7.1523    641.9799      3.2450
  2139.0000     97.8540      0.0000      7.0685    642.0000      3.1694
  2139.2500     98.7207      0.0000      7.0491    642.0000      3.1225
  2139.5000     99.9938      0.0000      7.0374    642.0000      3.1000
  2139.7500    101.9630      0.0000      7.0218    642.0000      3.0880
  2140.0000    104.2901      0.0000      7.0209    642.0000      3.0733
  2140.2500    106.0398      0.0000      7.0464    642.0000      3.0506
  2140.5000    106.5332      0.0000      7.0885    642.0000      3.0245
  2140.7500    106.1817      0.0000      7.1336    642.0000      3.0055
  2141.0000    106.4189      0.0000      7.1801    642.0000      3.0022
  2141.2500    108.5048      0.0000      7.2306    642.0000      3.0131
  2141.5000    112.3014      0.0000      7.2788    642.0000      3.0274
  2141.7500    116.4424      0.0000      7.3093    642.0000      3.0340
  2142.0000    119.7323      0.0000      7.3079    642.0000      3.0291
  2142.2500    122.1135      0.0000      7.2701    642.0000      3.0143
  2142.5000    124.0943      0.0000      7.2000    642.0000      2.9927
  2142.7500    125.5735      0.0000      7.1027    642.0000      2.9721
  2143.0000    125.7371      0.0000      6.9835    642.0000      2.9657
  2143.2500    124.1073      0.0000      6.8560    642.0000      2.9844
  2143.5000    121.3328      0.0000      6.7456    642.0000      3.0262
  2143.7500    118.7602      0.0000      6.6795    642.0000      3.0789
  2144.0000    117.2286      0.0000      6.6713    642.0000      3.1278
  2144.2500    116.3468      0.0000      6.7146    642.0000      3.1597
  2144.5000    114.9805      0.0000      6.7914    642.0000      3.1654
  2144.7500    112.2945      0.0000      6.8836    642.0000      3.1444
  2145.0000    108.1796      0.0000      6.9767    642.0000      3.1046
  2145.2500    102.9887      0.0000      7.0589    642.0000      3.0519
  2145.5000     97.3133      0.0000      7.1268    642.0000      2.9840
  2145.7500     91.9307      0.0000      7.1983    642.0000      2.8985
  2146.0000     87.5452      0.0000      7.3118    642.0000      2.8041
  2146.2500     84.4042      0.0000      7.4973    642.0000      2.7166
  2146.5000     82.1451      0.0000      7.7390    642.0000      2.6464
  2146.7500     80.0214      0.0000      7.9727    642.0000      2.5947
  2147.0000     77.4959      0.0000      8.1272    642.0000      2.5619
  2147.2500     74.8138      0.0000      8.1689    642.0000      2.5531
  2147.5000     72.9077      0.0000      8.1106    642.0000      2.5707
  2147.7500     72.6268      0.0000      7.9882    641.9950      2.6064
  2148.0000     74.0415      0.0000      7.8361    641.9673      2.6460
  2148.2500     76.3217      0.0000      7.6767    641.8337      2.6796
  2148.5000     78.1834      0.0000      7.5182    641.3425      2.7043
  2148.7500     78.7388      0.0000      7.3600    639.9698      2.7168
  2149.0000     78.1547      0.0000      7.2042    637.1040      2.7086
  2149.2500     77.4309      0.0000      7.0599    632.7189      2.6716
  2149.5000     77.4036      0.0000      6.9350    627.9275      2.6065
  2149.7500     77.8459      0.0000      6.8280    624.1253      2.5219
