~Version Information
VERS.                      2.0: CWLS Log ASCII Standard - VERSION 2.0
WRAP.                       NO: One line per depth step
~Well Information Block
STRT.FT                -4.5000: 
STOP.FT              1680.2500: 
STEP.FT                 0.2500: 
NULL.                -999.2500: 
COMP.          Pioneer Natural Resources: COMPANY
WELL.            Salty 42-6 Tr: WELL
FLD.           Purgatorie River: FIELD
LOC.           2409' FNL & 599' FEL--: LOCATION
PROV.                       CO: PROVINCE
CNTY.               Las Animas: COUNTRY
SRVC.                         : SERVICE COMPANY
DATE.          Mon Dec 20 13:36:48 2004: LOG DATE
UWI.           071-08238      : UNIQUE WELL ID
~Curve Information Block
DEPT.FT            0 000 00 00: Depth
HVOLTA.V                      : Head Voltage Apparent
GR.GAPI                       : Gamma Ray
CCL.                          : Casing Collar Locator
TT3.usec                      : CBL 3' Travel Time
AMP3.mV                       : CBL 3' Amplitude
~Parameter Information Block
~A  Depth      HVOLTA        GR         CCL         TT3         AMP3    
# ...
   555.5000     97.1263    116.8411      0.0000    764.3917      8.7403
   555.7500     97.2290    112.6462      0.0000    764.6548      8.8101
   556.0000     97.3054    108.9840      0.0000    764.9490      8.8750
   556.2500     97.0714    107.5501      0.0000    765.2392      8.9783
   556.5000     97.1060    108.2949      0.0000    765.4685      9.1546
   556.7500     97.0892    109.5650      0.0000    765.6020      9.4010
   557.0000     97.1095    109.5422      0.0000    765.6564      9.6891
   557.2500     97.2600    107.3969      0.0000    765.6710     10.0008
   557.5000     97.1884    103.2494      0.0000    765.6273     10.3452
   557.7500     97.1634     97.7516      0.0000    765.3859     10.7381
   558.0000     97.2158     92.0121      0.0000    764.6785     11.1699
   558.2500     97.3317     87.2706      0.0000    763.2382     11.5958
   558.5000     97.3759     84.0162      0.0000    761.1498     11.9535
   558.7500     96.9865     81.6771      0.0000    759.1647     12.1876
   559.0000     97.0999     79.5206      0.0000    758.3832     12.2679
   559.2500     97.2015     77.5835      0.0000    759.3022     12.1965
   559.5000     97.3521     76.5579      0.0000    761.2932     12.0021
   559.7500     97.2087     77.0818      0.0000    763.2190     11.7247
   560.0000     97.2122     79.2160      0.0000    764.3946     11.4085
   560.2500     97.2087     82.2095      0.0000    764.8301     11.1093
   560.5000     97.1884     84.6622      0.0000    764.8383     10.8857
   560.7500     97.2326     85.3798      0.0000    764.6545     10.7659
   561.0000     97.0760     84.4359      0.0000    764.3060     10.7203
   561.2500     97.3389     83.2955      0.0000    763.6013     10.6778
   561.5000     97.3043     83.6757      0.0000    762.2597     10.5724
   561.7500     97.1573     86.0749      0.0000    760.3167     10.3773
   562.0000     97.2743     89.3142      0.0000    758.5253     10.1036
   562.2500     97.1334     91.6694      0.0000    758.0654      9.7810
   562.5000     97.1848     92.3647      0.0000    759.5006      9.4421
   562.7500     97.3282     91.6520      0.0000    762.1393      9.1209
   563.0000     97.3007     89.8855      0.0000    764.6754      8.8507
   563.2500     97.3246     87.4780      0.0000    766.3140      8.6543
   563.5000     97.1334     85.5421      0.0000    767.2318      8.5365
   563.7500     97.1334     85.4548      0.0000    768.3568      8.4877
   564.0000     97.1573     87.6624      0.0000    771.1068      8.4911
   564.2500     97.1537     91.6470      0.0000    776.8602      8.5298
   564.5000     97.1716     97.1225      0.0000    785.4883      8.5930
   564.7500     97.3150    104.5938      0.0000    793.9181      8.6787
   565.0000     97.1370    114.2441      0.0000    797.3932      8.7922
   565.2500     97.0068    124.5682      0.0000    793.5356      8.9350
   565.5000     97.0104    132.9043      0.0000    784.7391      9.0898
   565.7500     97.2600    137.6333      0.0000    775.7629      9.2198
   566.0000     97.0617    139.3388      0.0000    769.6835      9.2923
   566.2500     97.2290    139.4398      0.0000    766.6763      9.3042
   566.5000     97.0892    138.2948      0.0000    765.5175      9.2833
   566.7500     96.9997    135.3039      0.0000    765.1251      9.2667
   567.0000     97.1537    130.3573      0.0000    764.9736      9.2757
   567.2500     97.1334    124.5263      0.0000    764.8802      9.3085
   567.5000     97.0271    119.5437      0.0000    764.7767      9.3564
   567.7500     97.1776    116.7437      0.0000    764.6030      9.4266
   568.0000     97.2804    115.8194      0.0000    764.3220      9.5407
   568.2500     97.0236    114.4636      0.0000    763.9460      9.7065
   568.5000     97.0928    110.1239      0.0000    763.5388      9.8936
   568.7500     97.2051    102.5173      0.0000    763.1743     10.0462
   569.0000     97.0999     93.9433      0.0000    762.8883     10.1250
   569.2500     97.2600     87.1480      0.0000    762.6714     10.1390
   569.5000     97.1680     83.3573      0.0000    762.5090     10.1347
   569.7500     97.2015     82.2597      0.0000    762.4213     10.1485
   570.0000     97.1370     83.1869      0.0000    762.4579     10.1724
   570.2500     97.2326     85.7666      0.0000    762.6609     10.1636
   570.5000     97.3867     89.4392      0.0000    763.0325     10.0889
   570.7500     97.3353     92.9325      0.0000    763.5309      9.9581
   571.0000     97.1884     95.0567      0.0000    764.0883      9.8178
   571.2500     97.1573     96.1399      0.0000    764.6357      9.7106
   571.5000     97.2600     97.8661      0.0000    765.1254      9.6363
   571.7500     97.0450    101.5519      0.0000    765.5489      9.5506
   572.0000     97.0856    107.2822      0.0000    765.9566      9.4058
   572.2500     97.2600    114.6128      0.0000    766.4554      9.1932
   572.5000     97.3424    122.8137      0.0000    767.1516      8.9458
   572.7500     97.1060    129.9210      0.0000    768.0625      8.7094
   573.0000     97.1024    132.7333      0.0000    769.0727      8.5142
   573.2500     97.2122    128.9502      0.0000    769.9798      8.3656
   573.5000     97.2911    119.4103      0.0000    770.6207      8.2505
   573.7500     97.2087    107.8834      0.0000    771.0077      8.1498
   574.0000     96.9554     98.5108      0.0000    771.4442      8.0493
   574.2500     97.1395     93.3230      0.0000    772.7022      7.9416
   574.5000     97.1370     91.9283      0.0000    776.2855      7.8142
   574.7500     97.1919     92.9850      0.0000    784.2444      7.6440
   575.0000     97.0307     95.4147      0.0000    797.5064      7.4163
   575.2500     97.0450     98.4196      0.0000    813.1916      7.1573
   575.5000     97.2265    101.2599      0.0000    824.2885      6.9333
   575.7500     97.0617    103.6047      0.0000    824.2870      6.8061
   576.0000     97.2839    105.7221      0.0000    813.0375      6.7905
   576.2500     97.2768    107.8123      0.0000    796.9479      6.8549
   576.5000     97.0068    109.2916      0.0000    783.2319      6.9563
   576.7500     97.2636    109.1776      0.0000    775.0073      7.0684
   577.0000     97.2361    107.2663      0.0000    771.4361      7.1833
   577.2500     97.3902    104.6501      0.0000    770.6044      7.2934
   577.5000     97.0343    102.9014      0.0000    771.5437      7.3825
   577.7500     97.0450    102.8594      0.0000    774.5948      7.4363
   578.0000     97.1812    104.2483      0.0000    780.7469      7.4557
   578.2500     97.2565    106.1433      0.0000    790.2382      7.4558
   578.5000     97.1406    107.5345      0.0000    801.3474      7.4581
   578.7500     97.2219    107.7819      0.0000    811.1184      7.4847
   579.0000     97.2768    106.9178      0.0000    817.4046      7.5476
   579.2500     97.3114    105.2888      0.0000    819.2188      7.6360
   579.5000     97.1645    102.8876      0.0000    815.4094      7.7149
   579.7500     97.2254     99.7386      0.0000    805.7076      7.7365
   580.0000     97.1299     97.0649      0.0000    794.1648      7.6587
   580.2500     97.0271     97.0244      0.0000    789.0836      7.4652
   580.5000     97.0307    100.5101      0.0000    796.8496      7.1806
   580.7500     97.3246    105.6841      0.0000    815.7375      6.8725
   581.0000     97.3378    109.3775      0.0000    837.2141      6.6218
   581.2500     97.1477    109.8088      0.0000    853.2300      6.4725
   581.5000     97.2290    107.5511      0.0000    861.2305      6.4062
   581.7500     97.1848    104.3154     -2.0000    863.7788      6.3681
   582.0000     97.0785    101.5702     -2.0000    865.5560      6.3181
   582.2500     96.9829    100.1277      0.0000    869.0974      6.2712
   582.5000     97.0546    100.0604      0.0000    871.4530      6.2950
   582.7500     97.1776    100.6698      0.0000    866.6265      6.4417
   583.0000     97.2875    101.1961      0.0000    853.0259      6.6632
   583.2500     96.9758    101.8503      0.0000    837.1621      6.8294
