~Version Information
 VERS.                                  2.0 : CWLS LAS VERSION
 WRAP.                                   NO : WRAPING MODE
 SWARE .                 MController 2.5.0E : SOFTWARE VERSION
~Well Information
 WELL.                         STATE 16-24V : WELL
 COMP.                      Petrogulf Corp. : COMPANY
 FLD.                      Purgatorie River : FIELD
 LOC.                NW/SE Sec 16 T33S R67W : LOCATION
 DATE.                      5/02/04-5/03/04 : DATE(S) LOGGED
 SRVC.       Blanco Geological Services LLC : SERVICE COMPANY
 STAT.                                   CO : STATE
 CNTY.                           Las Animas : COUNTY
 CTRY.                                  USA : COUNTRY
 API.                       05-071-08014-00 : API NUMBER
 STRT.FT                              40.00 : START DEPTH
 STOP.FT                            2380.00 : STOP DEPTH
 STEP.FT                               1.00 : DEPTH INCREMENT
 NULL.                                -9999 : NULL VALUE
~Curve information
 DEPTH.FT                                   :
 ROP.MIN/FT                                 :
 GAS.UNITS                                  :
~ASCII Log data
       40.00    -9999.000          6.5 
       41.00        7.467         11.3 
       42.00        0.267          6.1 
       43.00        0.800          5.8 
       44.00        0.267          5.5 
       45.00        0.267          6.1 
       46.00        0.267          6.3 
       47.00        0.267          5.9 
       48.00        0.283          6.3 
       49.00        0.267          6.3 
       50.00        0.267          6.1 
       51.00        0.267          6.3 
       52.00        0.267          5.9 
       53.00        0.267          6.2 
       54.00        0.267          6.3 
       55.00        0.267         45.5 
       56.00        0.133         45.5 
       57.00        0.100         42.7 
       58.00        0.200         17.9 
       59.00        0.300          8.1 
       60.00        0.267          6.0 
       61.00        0.233          5.4 
       62.00        0.250          5.8 
       63.00        0.200          5.8 
       64.00        0.200          6.0 
       65.00        0.233          6.0 
       66.00        0.200          5.9 
       67.00        0.233          6.5 
       68.00        0.233          6.4 
       69.00        0.233          6.6 
       70.00        0.233          6.2 
       71.00        0.233          6.2 
       72.00        1.883          6.7 
       73.00        0.267          7.1 
       74.00        0.300          7.1 
       75.00        0.233          6.5 
       76.00        0.233          6.5 
       77.00        0.267          6.9 
       78.00        0.300          7.1 
       79.00        0.267          6.5 
       80.00        0.267          6.5 
       81.00        0.267          6.4 
       82.00        0.267          6.5 
       83.00        0.283          7.0 
       84.00        0.267          7.0 
       85.00        0.267          6.7 
       86.00        0.233          7.1 
       87.00        0.267          6.8 
       88.00        0.267          7.0 
       89.00        0.300          6.9 
       90.00        0.267          7.5 
       91.00        0.300          6.8 
       92.00        0.233          7.3 
       93.00        0.200          7.0 
       94.00        0.233          6.8 
       95.00        0.267          6.8 
       96.00        0.317          7.3 
       97.00        0.267          7.0 
       98.00        0.267          6.9 
       99.00        0.267          7.0 
      100.00        0.233          7.0 
      101.00        0.200          6.7 
      102.00        3.117          8.2 
      103.00        0.267         13.7 
      104.00        0.300          7.3 
      105.00        0.267          7.1 
      106.00        0.267          7.3 
      107.00        0.533          7.9 
      108.00        0.267          7.2 
      109.00        0.283          7.3 
      110.00        0.267          7.2 
      111.00        0.267          7.4 
      112.00        0.267          7.3 
      113.00        0.267          6.9 
      114.00        0.267          7.4 
      115.00        0.267          6.9 
      116.00        0.267          7.0 
      117.00        0.267          7.1 
      118.00        0.267          7.0 
      119.00        0.267          6.8 
      120.00        0.267          7.9 
      121.00        0.267          7.4 
      122.00        0.283          7.3 
      123.00        0.533          7.3 
      124.00        0.467          7.7 
      125.00        0.233          7.2 
      126.00        0.233          7.4 
      127.00        0.233          7.8 
      128.00        0.300          7.3 
      129.00        0.333          8.1 
      130.00        0.300          7.5 
      131.00        0.233          7.4 
      132.00        2.017          7.8 
      133.00        0.133          7.1 
      134.00        0.267          7.0 
      135.00        0.233          7.1 
      136.00        0.200          6.8 
      137.00        0.200          7.7 
      138.00        0.233          7.4 
      139.00        0.200          7.7 
      140.00        0.217          7.3 
      141.00        0.233          7.1 
      142.00        0.200          7.4 
      143.00        0.233          8.0 
      144.00        0.233          7.1 
      145.00        0.200          7.2 
      146.00        0.233          7.0 
      147.00        0.233          7.8 
      148.00        0.200          7.4 
      149.00        0.200          7.2 
      150.00        0.233          7.0 
      151.00        0.267          7.4 
      152.00        0.233          7.2 
      153.00        0.233          7.5 
      154.00        0.200          7.6 
      155.00        0.250          7.4 
      156.00        0.233          7.5 
      157.00        0.233          6.9 
      158.00        0.233          7.1 
      159.00        0.233          8.1 
      160.00        0.233          7.3 
      161.00        0.200          7.1 
      162.00        1.917         16.8 
      163.00        0.200         19.5 
      164.00        0.300         23.6 
      165.00        0.267          5.9 
      166.00        0.267          9.6 
      167.00        0.267          0.7 
      168.00        0.233         11.6 
      169.00        0.233         37.9 
      170.00        0.267         42.0 
      171.00        0.233         12.7 
      172.00        0.267         14.7 
      173.00        0.267         24.7 
      174.00        0.267         12.8 
      175.00        0.250          8.1 
      176.00        0.267         15.9 
      177.00        0.267          0.5 
      178.00        0.267         10.8 
      179.00        0.267          2.8 
      180.00        0.267          8.9 
      181.00        0.267          9.1 
      182.00        0.267          7.8 
      183.00        0.233          8.6 
      184.00        0.233          8.6 
      185.00        0.267          8.4 
      186.00        0.233          8.5 
      187.00        0.233          8.4 
      188.00        0.283          8.5 
      189.00        0.267          9.1 
      190.00        0.233          8.1 
      191.00        2.267          9.2 
      192.00        0.300          8.3 
      193.00        0.233          9.0 
      194.00        0.250          8.8 
      195.00        0.200          8.3 
      196.00        0.233          9.0 
      197.00        0.233          9.3 
      198.00        0.200          8.7 
      199.00        0.233          8.4 
      200.00        0.267          8.3 
      201.00        0.267          8.9 
      202.00        0.267          8.3 
      203.00        0.267          8.4 
      204.00        0.267          8.3 
      205.00        0.267          8.4 
      206.00        0.267          8.5 
      207.00        0.283          9.0 
      208.00        0.267          8.9 
      209.00        0.267          8.3 
      210.00        0.267          8.4 
      211.00        0.267          9.1 
      212.00        0.267          8.9 
      213.00        0.267          8.3 
      214.00        0.267          8.2 
      215.00        0.267          8.5 
      216.00        0.267          8.5 
      217.00        0.267          8.2 
      218.00        0.267          8.7 
      219.00        0.267          8.6 
      220.00        0.283          8.6 
      221.00        0.267          9.3 
      222.00        8.033          9.2 
      223.00        0.133          8.9 
      224.00        0.300          8.4 
      225.00        0.267          9.2 
      226.00        0.200          9.1 
      227.00        0.167          8.4 
      228.00        0.133          8.5 
      229.00        0.167          8.5 
      230.00        0.217          8.4 
      231.00        0.233          8.5 
      232.00        0.267          8.2 
      233.00        0.200          8.5 
      234.00        0.233          8.5 
      235.00        0.233          8.4 
      236.00        0.267          8.3 
      237.00        0.267          8.5 
      238.00        0.267          8.4 
      239.00        0.233          8.4 
