~Version Information
VERS.                      2.0: CWLS Log ASCII Standard - VERSION 2.0
WRAP.                       NO: One line per depth step
~Well Information Block
STRT.FT               554.1000: 
STOP.FT              2173.5000: 
STEP.FT                 0.1000: 
NULL.                -999.2500: 
COMP.          Petrogulf Corporation: COMPANY
WELL.            Montoya 6-14R: WELL
FLD.           Purgatorie River: FIELD
LOC.           867' FSL & 751' FWL: LOCATION
CNTY.               Las Animas: COUNTY
SRVC.                         : SERVICE COMPANY
DATE.          Mon Nov 15 06:14:10 2004: LOG DATE
UWI.           05 071 08242 00: UNIQUE WELL ID
STAT.                 Colorado: STATE
~Curve Information Block
DEPT.FT            0 000 00 00: Depth
DCAL.in                       : CDL Caliper
RHOB.g/cc                     : CDL Bulk Density
RHOC.g/cc                     : CDL Density Correction
DPOR.pu                       : CDL Density Porosity
GR.GAPI                       : Gamma Ray
NPOR.pu                       : Neutron Porosity
~Parameter Information Block
~A  Depth       DCAL        RHOB        RHOC        DPOR         GR         NPOR    
# ...
  1312.5000      7.9535      2.5739      0.0189      4.6134    105.4333     29.7446
  1312.6000      7.9535      2.5571      0.0229      5.6273    105.5171     29.0209
  1312.7000      7.9535      2.5524      0.0347      5.9137    105.4013     28.9087
  1312.8000      7.9587      2.5506      0.0312      6.0257    106.3174     29.0444
  1312.9000      7.9587      2.5516      0.0399      5.9643    109.5903     28.9739
  1313.0000      7.9597      2.5557      0.0622      5.7180    112.8641     28.9645
  1313.1000      7.9597      2.5574      0.0323      5.6100    111.8981     29.5899
  1313.2000      7.9597      2.5574      0.0179      5.6135    106.4598     30.1447
  1313.3000      7.9591      2.5590      0.0392      5.5156    101.8249     29.7157
  1313.4000      7.9591      2.5578      0.0515      5.5891    101.3496     28.8813
  1313.5000      7.9585      2.5467      0.0456      6.2584    102.6797     28.3365
  1313.6000      7.9585      2.5287      0.0244      7.3524    103.8447     28.0592
  1313.7000      7.9585      2.5114      0.0390      8.4007    103.7805     27.7971
  1313.8000      7.9581      2.4940      0.0279      9.4561    103.6998     27.4634
  1313.9000      7.9581      2.4730      0.0245     10.7290    107.1368     27.4263
  1314.0000      7.9584      2.4561      0.0085     11.7513    110.5456     27.6227
  1314.1000      7.9584      2.4601     -0.0057     11.5079    112.8870     27.5194
  1314.2000      7.9584      2.4920      0.0235      9.5754    117.2593     27.1079
  1314.3000      7.9593      2.5321      0.0534      7.1431    119.2035     26.9351
  1314.4000      7.9593      2.5571      0.0365      5.6322    114.5514     27.0897
  1314.5000      7.9595      2.5661      0.0590      5.0831    104.8963     27.5400
  1314.6000      7.9595      2.5687      0.0627      4.9260     97.1161     28.2918
  1314.7000      7.9595      2.5704      0.0887      4.8225     98.2950     28.7643
  1314.8000      7.9597      2.5726      0.0949      4.6890    105.2351     28.7533
  1314.9000      7.9597      2.5777      0.0462      4.3805    109.7334     28.8107
  1315.0000      7.9603      2.5817      0.0941      4.1372    109.2925     28.9718
  1315.1000      7.9603      2.5752      0.0740      4.5328    105.3279     28.8300
  1315.2000      7.9603      2.5633      0.0578      5.2555    100.6187     28.4535
  1315.3000      7.9606      2.5509      0.0981      6.0086     97.3927     28.3498
  1315.4000      7.9606      2.5215      0.0601      7.7880     94.6038     28.6747
  1315.5000      7.9612      2.4558      0.0621     11.7685     91.2614     29.2084
  1315.6000      7.9612      2.3529      0.0150     18.0048     87.2737     30.0411
  1315.7000      7.9612      2.2296     -0.0356     25.4798     80.9538     31.1755
  1315.8000      7.9633      2.0969     -0.0290     33.5229     72.5954     31.7602
  1315.9000      7.9633      1.9495     -0.0681     42.4516     64.8108     31.5551
  1316.0000      7.9768      1.7911     -0.1243     52.0532     59.5081     31.5738
  1316.1000      7.9768      1.6396     -0.1411     61.2386     56.9399     32.2119
  1316.2000      7.9768      1.5044     -0.1369     69.4290     54.8234     32.9639
  1316.3000      8.0368      1.3890     -0.1298     76.4254     52.2445     33.5730
  1316.4000      8.0368      1.3097     -0.1521     81.2330     49.9338     34.1844
  1316.5000      8.1604      1.2775     -0.0443     83.1792     47.7654     34.7343
  1316.6000      8.1604      1.2769      0.0208     83.2203     46.1190     34.9987
  1316.7000      8.1604      1.2918      0.0376     82.3144     44.5825     35.0006
  1316.8000      8.2287      1.3242      0.0513     80.3527     43.0792     34.8876
  1316.9000      8.2287      1.3791      0.0717     77.0231     43.3100     34.6739
  1317.0000      8.1715      1.4610      0.0626     72.0627     45.3083     34.4121
  1317.1000      8.1715      1.5766      0.1095     65.0520     48.1995     34.1776
  1317.2000      8.1715      1.7230      0.1509     56.1820     52.0050     34.1606
  1317.3000      8.1650      1.8753      0.2174     46.9527     56.6985     34.2291
  1317.4000      8.1650      2.0065      0.2281     38.9998     62.2454     33.9178
  1317.5000      8.2299      2.1208      0.2276     32.0740     69.4569     33.4009
  1317.6000      8.2299      2.2433      0.2136     24.6513     78.8386     32.9335
  1317.7000      8.2299      2.3738      0.2295     16.7422     88.4298     32.3116
  1317.8000      8.2047      2.4770      0.2269     10.4866     95.4144     31.4419
  1317.9000      8.2047      2.5271      0.1466      7.4463     99.6789     30.6104
  1318.0000      8.0743      2.5363      0.0765      6.8921    104.1267     29.8988
  1318.1000      8.0743      2.5310      0.0610      7.2148    110.9713     29.1615
  1318.2000      8.0743      2.5270      0.0260      7.4539    115.9394     28.7493
  1318.3000      7.9838      2.5246      0.0549      7.6012    114.7508     29.1630
  1318.4000      7.9838      2.5160      0.0388      8.1193    110.0624     30.1042
  1318.5000      7.9612      2.5049      0.0221      8.7957    107.2969     30.5839
  1318.6000      7.9612      2.5014     -0.0020      9.0067    110.8633     30.0171
  1318.7000      7.9612      2.4994      0.0524      9.1287    116.4682     28.9925
  1318.8000      7.9571      2.4803      0.0341     10.2839    114.0488     28.4145
  1318.9000      7.9571      2.4485      0.0058     12.2132    105.8434     28.4974
  1319.0000      7.9563      2.4303      0.0025     13.3169    104.7174     29.0787
  1319.1000      7.9563      2.4399      0.0354     12.7305    111.5896     29.8435
  1319.2000      7.9563      2.4705      0.0475     10.8783    117.3835     30.3540
  1319.3000      7.9592      2.5033      0.1212      8.8901    117.8740     29.9574
  1319.4000      7.9592      2.5250      0.1171      7.5746    114.4891     28.7937
  1319.5000      7.9620      2.5479      0.1133      6.1877    110.8235     28.0808
  1319.6000      7.9620      2.5924      0.1575      3.4898    108.8240     28.1114
  1319.7000      7.9620      2.6533      0.2399     -0.2003    109.4484     28.2796
  1319.8000      7.9695      2.7003      0.2806     -3.0487    110.7894     28.4792
  1319.9000      7.9695      2.7040      0.2854     -3.2735    108.7263     28.6793
  1320.0000      8.0106      2.6651      0.1686     -0.9177    103.8753     28.7020
  1320.1000      8.0106      2.6189      0.1095      1.8877    102.8622     28.7861
  1320.2000      8.0106      2.5936      0.0589      3.4208    111.1162     28.8892
  1320.3000      8.1156      2.5840      0.0525      4.0009    121.1852     28.7268
  1320.4000      8.1156      2.5775      0.0271      4.3928    121.2843     28.3398
  1320.5000      8.2100      2.5781      0.0104      4.3557    112.6252     27.9818
  1320.6000      8.2100      2.5923      0.0229      3.4978    104.3530     27.8629
  1320.7000      8.2100      2.6132      0.0461      2.2274    103.6739     27.8237
  1320.8000      8.1668      2.6241      0.0865      1.5672    109.0706     27.6797
  1320.9000      8.1668      2.6147      0.0557      2.1413    112.5597     27.5614
  1321.0000      8.0447      2.5931      0.0670      3.4494    111.7708     27.5584
  1321.1000      8.0447      2.5743      0.0379      4.5849    109.9841     27.5589
  1321.2000      8.0447      2.5699      0.0140      4.8576    109.6463     27.3160
  1321.3000      7.9750      2.5807      0.0412      4.2013    111.7869     26.8639
  1321.4000      7.9750      2.5937      0.0574      3.4122    116.0364     26.4116
  1321.5000      7.9601      2.5952      0.0488      3.3190    118.1547     26.0118
  1321.6000      7.9601      2.5844     -0.0012      3.9753    114.1853     25.7537
  1321.7000      7.9601      2.5694      0.0183      4.8858    108.6876     25.7080
  1321.8000      7.9595      2.5596     -0.0024      5.4801    106.8565     25.6034
  1321.9000      7.9595      2.5642      0.0183      5.2016    106.6784     25.4127
  1322.0000      7.9603      2.5803      0.0413      4.2251    105.3494     25.5675
