~Version Information
VERS.                      2.0: CWLS Log ASCII Standard - VERSION 2.0
WRAP.                       NO: One line per depth step
~Well Information Block
STRT.FT                -7.7500: 
STOP.FT              1532.2500: 
STEP.FT                 0.2500: 
NULL.                -999.2500: 
COMP.          Pioneer Natural Resources: COMPANY
WELL.          Big Cat Federal 44-1: WELL
FLD.           Purgatorie River: FIELD
LOC.           197' FSL & 973' FEL--: LOCATION
CNTY.               Las Animas: COUNTY
SRVC.          Patterson Wireline: SERVICE COMPANY
DATE.          Fri Apr 28 12:21:06 2006: LOG DATE
UWI.           05 071 08042 00: UNIQUE WELL ID
STAT.                       CO: STATE
~Curve Information Block
DEPT.FT            0 000 00 00: Depth
CCL.                          : Casing Collar Locator
TT3.usec                      : CBL 3' Travel Time
AMP3.mV                       : CBL 3' Amplitude
GR.GAPI                       : Gamma Ray
~Parameter Information Block
~A  Depth       CCL         TT3         AMP3         GR     
# ...
    92.7500      0.0000    803.4036     12.3701     70.5855
    93.0000      0.0000    790.1719     12.2914     72.7528
    93.2500      0.0000    772.2439     12.2239     76.7790
    93.5000      0.0000    752.0120     12.1719     81.4054
    93.7500      0.0000    736.4699     12.1271     85.2543
    94.0000      0.0000    735.6641     12.0918     87.8623
    94.2500      0.0000    753.3554     12.0833     89.9598
    94.5000      0.0000    780.8864     12.1165     92.6584
    94.7500      0.0000    804.1258     12.1881     96.1264
    95.0000      0.0000    815.2855     12.2744     99.1397
    95.2500      0.0000    815.8635     12.3470    100.1804
    95.5000      0.0000    811.1414     12.3901     98.8512
    95.7500      0.0000    805.4870     12.4048     95.8741
    96.0000      0.0000    801.6313     12.3984     91.9138
    96.2500      0.0000    800.8195     12.3754     87.0839
    96.5000      0.0000    802.2624     12.3409     81.7026
    96.7500      0.0000    803.0752     12.3078     76.8192
    97.0000      0.0000    799.4384     12.2939     73.6855
    97.2500      0.0000    787.9887     12.3136     73.2095
    97.5000      0.0000    767.0917     12.3740     75.9160
    97.7500      0.0000    739.5790     12.4734     81.4159
    98.0000      0.0000    715.5489     12.5958     87.4168
    98.2500      0.0000    708.4928     12.7066     90.2829
    98.5000      0.0000    723.8607     12.7666     87.6880
    98.7500      0.0000    752.6324     12.7591     80.6744
    99.0000      0.0000    779.2382     12.7005     72.8240
    99.2500      0.0000    794.2955     12.6244     67.6382
    99.5000      0.0000    798.1315     12.5589     66.5316
    99.7500      0.0000    795.2734     12.5205     68.6804
   100.0000      0.0000    788.4529     12.5209     72.5033
   100.2500      0.0000    777.0928     12.5705     77.2662
   100.5000      0.0000    760.8840     12.6622     83.1296
   100.7500      0.0000    745.4104     12.7480     89.7419
   101.0000      0.0000    743.3765     12.7509     95.3776
   101.2500      0.0000    767.9146     12.6226     97.9313
   101.5000      0.0000    823.3591     12.3908     96.7992
   101.7500      0.0000    900.6171     12.1326     93.7789
   102.0000      0.0000    979.7352     11.9045     91.8289
   102.2500      0.0000   1038.7806     11.7095     92.4061
   102.5000      0.0000   1064.7800     11.5255     93.9936
   102.7500      0.0000   1059.0907     11.3506     93.7656
   103.0000      0.0000   1033.7977     11.2164     90.7261
   103.2500      0.0000   1002.9362     11.1609     86.6276
   103.5000      0.0000    975.0343     11.1890     83.7971
   103.7500      0.0000    952.0020     11.2655     82.8166
   104.0000      0.0000    933.2938     11.3462     82.6399
   104.2500      0.0000    918.8186     11.4126     82.3003
   104.5000      0.0000    907.8808     11.4780     81.9057
   104.7500      0.0000    898.1777     11.5687     82.1657
   105.0000      0.0000    887.5925     11.6952     83.5114
   105.2500      0.0000    876.4598     11.8297     85.8010
   105.5000      0.0000    867.8007     11.9169     88.6166
   105.7500      0.0000    865.2000     11.9225     91.7002
   106.0000      0.0000    869.6961     11.8796     95.2440
   106.2500      0.0000    878.5082     11.8744     99.8030
   106.5000      0.0000    887.5574     11.9762    105.4088
   106.7500      0.0000    894.7833     12.1849    110.3308
   107.0000      0.0000    900.2904     12.4478    111.5145
   107.2500      0.0000    904.4461     12.7110    107.4221
   107.5000      0.0000    907.5657     12.9490    100.1657
   107.7500      0.0000    910.8799     13.1653     93.9350
   108.0000      0.0000    916.4492     13.3852     91.7323
   108.2500      0.0000    926.0620     13.6399     94.0797
   108.5000      0.0000    940.4537     13.9393     99.7453
   108.7500      0.0000    959.0134     14.2538    106.5244
   109.0000      0.0000    980.0250     14.5276    111.9539
   109.2500      0.0000   1001.1794     14.7191    114.4714
   109.5000      0.0000   1019.3843     14.8368    114.2146
   109.7500      0.0000   1029.8986     14.9360    112.5868
   110.0000      0.0000   1027.1343     15.0786    111.0171
   110.2500      0.0000   1007.8077     15.2940    109.8891
   110.5000      0.0000    973.3518     15.5770    108.4772
   110.7500      0.0000    927.9381     15.9168    105.9689
   111.0000      0.0000    873.1246     16.3238    102.5398
   111.2500      0.0000    805.3531     16.8210     99.2227
   111.5000      0.0000    720.4990     17.4071     96.6933
   111.7500      0.0000    621.8989     18.0304     94.5462
   112.0000      0.0000    523.4924     18.6064     92.2991
   112.2500      0.0000    443.2974     19.0622     90.7538
   112.5000      0.0000    392.7021     19.3701     91.3440
   112.7500      0.0000    372.3744     19.5435     94.2174
   113.0000      0.0000    376.3596     19.6075     98.0503
   113.2500      0.0000    395.9849     19.5768    101.6487
   113.5000      0.0000    420.3631     19.4582    104.4851
   113.7500      0.0000    440.3728     19.2625    105.7249
   114.0000      0.0000    457.8185     18.9979    104.1890
   114.2500      0.0000    486.7227     18.6516     99.8211
   114.5000      0.0000    538.8036     18.1943     94.4932
   114.7500      0.0000    608.3880     17.6121     90.8852
   115.0000      0.0000    676.4052     16.9316     90.5753
   115.2500      0.0000    728.5785     16.2164     92.9742
   115.5000      0.0000    765.8171     15.5443     95.8752
   115.7500      0.0000    798.0922     14.9706     97.3650
   116.0000      0.0000    833.6494     14.4864     97.5427
   116.2500      0.0000    875.1421     14.0227     98.0629
   116.5000      0.0000    920.8205     13.5247     99.6735
   116.7500      0.0000    964.8990     13.0176    100.7090
   117.0000      0.0000    997.9388     12.5763     98.8460
   117.2500      0.0000   1010.7819     12.2389     94.1080
   117.5000      0.0000   1000.3852     11.9752     89.1307
   117.7500      0.0000    972.8106     11.7336     86.4555
   118.0000      0.0000    940.7384     11.5016     86.4660
   118.2500      0.0000    915.7667     11.3201     88.0548
   118.5000      0.0000    900.3542     11.2378     90.3571
   118.7500      0.0000    886.8959     11.2454     93.2327
   119.0000      0.0000    866.4822     11.2550     96.3081
   119.2500      0.0000    839.3789     11.1673     98.1515
   119.5000      0.0000    816.4964     10.9727     97.0737
   119.7500      0.0000    811.5771     10.7623     93.0066
   120.0000      0.0000    832.3326     10.6112     88.0288
   120.2500      0.0000    874.4212     10.4811     84.5697
   120.5000      0.0000    919.9669     10.2899     83.3741
   120.7500      0.0000    946.5629     10.0436     83.4649
   121.0000      0.0000    945.3631      9.8329     83.6607
   121.2500      2.0000    930.1169      9.7181     83.6565
   121.5000      0.0000    922.7429      9.6772     83.7582
   121.7500      0.0000    929.4103      9.6613     84.1249
   122.0000      0.0000    934.4805      9.6804     84.6322
   122.2500      0.0000    917.5227      9.8325     85.3795
   122.5000      0.0000    873.8015     10.2226     86.8475
   122.7500      0.0000    819.2632     10.8136     89.1976
   123.0000      0.0000    777.6833     11.3882     91.7311
   123.2500      0.0000    762.5113     11.7240     93.6425
   123.5000      0.0000    770.7544     11.7740     95.1674
   123.7500      0.0000    791.8672     11.6360     97.3305
   124.0000      0.0000    817.1246     11.4136    100.5921
   124.2500      0.0000    840.6365     11.1642    104.2873
   124.5000      0.0000    858.1654     10.9253    107.2577
   124.7500      0.0000    868.2814     10.7262    108.6405
   125.0000      0.0000    872.5835     10.5848    108.3719
   125.2500      0.0000    873.5540     10.5086    107.3265
   125.5000      0.0000    872.5437     10.5007    106.5855
   125.7500      0.0000    869.4971     10.5596    106.1915
   126.0000      0.0000    863.8242     10.6810    104.9652
