~Version Information
VERS.                      2.0: CWLS Log ASCII Standard - VERSION 2.0
WRAP.                       NO: One line per depth step
~Well Information Block
STRT.FT               -11.2500: 
STOP.FT              1934.7500: 
STEP.FT                 0.2500: 
NULL.                -999.2500: 
COMP.          Pioneer Natural Resources: COMPANY
WELL.          Commander 43-26 Tr: WELL
FLD.           Purgatorie River: FIELD
LOC.           2439' FSL  & 446' FEL--------: LOCATION
PROV.                       CO: PROVINCE
CNTY.               Las Animas: COUNTRY
SRVC.          Patterson Wireline: SERVICE COMPANY
DATE.          Tue Apr 26 09:07:23 2005: LOG DATE
UWI.           05 071 08341 00: UNIQUE WELL ID
~Curve Information Block
DEPT.FT            0 000 00 00: Depth
CCL.                          : Casing Collar Locator
TT3.usec                      : CBL 3' Travel Time
AMP3.mV                       : CBL 3' Amplitude
GR.GAPI                       : Gamma Ray
~Parameter Information Block
~A  Depth       CCL         TT3         AMP3         GR     
# ...
   122.7500      0.0000    907.8702     11.9648     87.7349
   123.0000      0.0000    915.7471     11.9217     89.2668
   123.2500      0.0000    926.4202     11.9468     90.8906
   123.5000      0.0000    934.4197     12.0004     92.6491
   123.7500      0.0000    936.9052     12.0326     94.6581
   124.0000      0.0000    937.0829     12.0217     97.1713
   124.2500      0.0000    939.4761     11.9798    100.3549
   124.5000      0.0000    943.2214     11.9291    104.1028
   124.7500      0.0000    942.7460     11.8781    108.0734
   125.0000      0.0000    934.5658     11.8186    111.7084
   125.2500      0.0000    920.8851     11.7382    114.1927
   125.5000      0.0000    906.3076     11.6369    114.8057
   125.7500      0.0000    893.3935     11.5250    113.5973
   126.0000      0.0000    882.5972     11.4065    111.4919
   126.2500      0.0000    874.9679     11.2728    109.3499
   126.5000      0.0000    873.4270     11.1232    107.0524
   126.7500      0.0000    881.1413     10.9826    103.8887
   127.0000      0.0000    898.5505     10.8886     99.7492
   127.2500      0.0000    921.5689     10.8622     95.6034
   127.5000      0.0000    943.0013     10.8980     92.7996
   127.7500      0.0000    956.5280     10.9735     92.0796
   128.0000      0.0000    959.8218     11.0612     93.3242
   128.2500      0.0000    954.8531     11.1362     96.0158
   128.5000      0.0000    946.1306     11.1865     99.5653
   128.7500      0.0000    938.0549     11.2193    103.1066
   129.0000      0.0000    932.8033     11.2555    105.3558
   129.2500      0.0000    930.1874     11.3169    105.2692
   129.5000      0.0000    929.0546     11.4133    103.0740
   129.7500      0.0000    928.5050     11.5362    100.2771
   130.0000      0.0000    928.1752     11.6652     98.3212
   130.2500      0.0000    927.9905     11.7816     97.4148
   130.5000      0.0000    927.9385     11.8765     96.8068
   130.7500      0.0000    927.9360     11.9431     95.7758
   131.0000      0.0000    927.8302     11.9713     94.0228
   131.2500      0.0000    927.3702     11.9536     91.5421
   131.5000      0.0000    926.0858     11.8939     88.7883
   131.7500      0.0000    923.2473     11.8059     86.8976
   132.0000      0.0000    918.3099     11.7084     86.9587
   132.2500      0.0000    911.8392     11.6220     88.6543
   132.5000      0.0000    905.9484     11.5637     90.2501
   132.7500      0.0000    903.2038     11.5408     90.5657
   133.0000      0.0000    904.5540     11.5549     90.5117
   133.2500      0.0000    908.4156     11.6106     91.9524
   133.5000      0.0000    912.1138     11.7121     95.2117
   133.7500      0.0000    914.1536     11.8494     98.3276
   134.0000      0.0000    914.7149     11.9938     98.7562
   134.2500      0.0000    914.0415     12.1134     95.4228
   134.5000      0.0000    911.1514     12.1934     89.2826
   134.7500      0.0000    904.6915     12.2406     82.3458
   135.0000      0.0000    894.7870     12.2696     76.2225
   135.2500      0.0000    883.5518     12.2871     71.4808
   135.5000      0.0000    873.6555     12.2928     68.1615
   135.7500      0.0000    866.4376     12.2916     66.3671
   136.0000      0.0000    861.3923     12.2984     66.0840
   136.2500      0.0000    857.3597     12.3258     66.7445
   136.5000      0.0000    853.8597     12.3718     67.3919
   136.7500      0.0000    851.1457     12.4229     67.3854
   137.0000      0.0000    849.4385     12.4665     66.8449
   137.2500      0.0000    848.5643     12.4983     66.3102
   137.5000      0.0000    848.1668     12.5210     65.9650
   137.7500      0.0000    847.9617     12.5389     65.3589
   138.0000      0.0000    847.7930     12.5532     63.9614
   138.2500      0.0000    847.6160     12.5607     61.8033
   138.5000      0.0000    847.4656     12.5551     59.4948
   138.7500      0.0000    847.3943     12.5308     57.8949
   139.0000      0.0000    847.4182     12.4865     57.8950
   139.2500      0.0000    847.5139     12.4284     60.1239
   139.5000      0.0000    847.6580     12.3699     64.5616
   139.7500      0.0000    847.8763     12.3257     70.6033
   140.0000      0.0000    848.2862     12.3004     77.5174
   140.2500      0.0000    849.1619     12.2848     84.4514
   140.5000      0.0000    850.9417     12.2686     90.0958
   140.7500      0.0000    854.0209     12.2516     93.2096
   141.0000      0.0000    858.4046     12.2399     93.9493
   141.2500      0.0000    863.5914     12.2330     94.1271
   141.5000      0.0000    868.8091     12.2218     95.6656
   141.7500      0.0000    873.2260     12.2008     99.0696
   142.0000      0.0000    876.0405     12.1775    103.4356
   142.2500      0.0000    876.8160     12.1696    107.3561
   142.5000      0.0000    875.8423     12.1948    109.5294
   142.7500      0.0000    873.7753     12.2602    109.0973
   143.0000      0.0000    870.7954     12.3534    106.0583
   143.2500      0.0000    866.5636     12.4467    101.3036
   143.5000      0.0000    861.1816     12.5166     95.9466
   143.7500      0.0000    855.7009     12.5583     90.8022
   144.0000      0.0000    851.3872     12.5779     86.6749
   144.2500      0.0000    848.7899     12.5748     84.5475
   144.5000      0.0000    847.6378     12.5411     84.9340
   144.7500      0.0000    847.3202     12.4780     87.3211
   145.0000      0.0000    847.2919     12.4062     90.5869
   145.2500      0.0000    847.2185     12.3544     93.7234
   145.5000      0.0000    846.9852     12.3400     95.9041
   145.7500      0.0000    846.6452     12.3638     96.2182
   146.0000      0.0000    846.3249     12.4153     93.8747
   146.2500      0.0000    846.0892     12.4773     88.9009
   146.5000      0.0000    845.7853     12.5284     82.5787
   146.7500      0.0000    844.8915     12.5499     76.8575
   147.0000      0.0000    842.5001     12.5331     72.8758
   147.2500      0.0000    837.7188     12.4815     70.0845
   147.5000      0.0000    830.4810     12.4044     67.1269
   147.7500      0.0000    822.0362     12.3134     63.4456
   148.0000      0.0000    814.3551     12.2214     59.7358
   148.2500      0.0000    808.8687     12.1420     57.0708
   148.5000      0.0000    805.7919     12.0858     55.9434
   148.7500      0.0000    804.5153     12.0536     56.0136
   149.0000      0.0000    804.3896     12.0335     56.4920
   149.2500      0.0000    805.1763     12.0055     56.7539
   149.5000      0.0000    806.9854     11.9537     56.8394
   149.7500      0.0000    809.8524     11.8726     57.4216
   150.0000      0.0000    813.5568     11.7658     59.0652
   150.2500      0.0000    818.3032     11.6387     61.4398
   150.5000      0.0000    825.8920     11.4870     63.4318
   150.7500      0.0000    839.4210     11.2756     64.1397
   151.0000      0.0000    860.5900     10.9374     63.7788
   151.2500      0.0000    886.8250     10.4352     63.5969
   151.5000      0.0000    911.8741      9.8374     64.8047
   151.7500      0.0000    930.3613      9.2951     67.3566
   152.0000      0.0000    942.0403      8.9235     69.6843
   152.2500      0.0000    950.8340      8.7258     69.8305
   152.5000      0.0000    959.5634      8.6293     67.1482
   152.7500      2.0000    966.7401      8.5643     62.9848
   153.0000      0.0000    969.0866      8.5163     59.5434
   153.2500      0.0000    965.3332      8.5441     57.9316
   153.5000      0.0000    955.8110      8.7557     57.3841
   153.7500      0.0000    939.8333      9.2285     56.3559
   154.0000      0.0000    916.1418      9.9275     54.2352
   154.2500      0.0000    886.2996     10.7128     51.8732
   154.5000      0.0000    856.3151     11.4244     50.5553
   154.7500      0.0000    833.8876     11.9525     50.6959
   155.0000      0.0000    823.6594     12.2589     51.5735
   155.2500      0.0000    824.5452     12.3763     52.0780
   155.5000      0.0000    831.2511     12.3851     51.5324
   155.7500      0.0000    838.3650     12.3663     50.0468
   156.0000      0.0000    843.3779     12.3652     48.3674
