~Version Information
 VERS.                                  2.0 : CWLS LAS VERSION
 WRAP.                                   NO : WRAPING MODE
 SWARE .                 MController 2.5.0J : SOFTWARE VERSION
~Well Information
 WELL.                        Desoto 13-7TR : WELL
 COMP.        Pioneer Natural Resources Inc : COMPANY
 FLD.                      Purgatoire River : FIELD
 LOC.                 NW/SW Sec 7 T32S R66W : LOCATION
 DATE.                           1/13-14/05 : DATE(S) LOGGED
 SRVC.       Blanco Geological Services LLC : SERVICE COMPANY
 STAT.                                   CO : STATE
 CNTY.                           Las Animas : COUNTY
 CTRY.                                  USA : COUNTRY
 API.                          05-071-08216 : API NUMBER
 STRT.FT                             945.00 : START DEPTH
 STOP.FT                            2785.00 : STOP DEPTH
 STEP.FT                               1.00 : DEPTH INCREMENT
 NULL.                                -9999 : NULL VALUE
~Curve information
 DEPTH.FT                                   :
 ROP.MIN/FT                                 :
 GAS.UNITS                                  :
~ASCII Log data
# ...
      1745.0         0.27        183.5 
      1746.0         0.23        182.2 
      1747.0         0.23        179.0 
      1748.0         0.30        175.6 
      1749.0         0.30        169.5 
      1750.0         0.28        170.9 
      1751.0         0.23        172.9 
      1752.0         0.20        391.1 
      1753.0         0.23        391.1 
      1754.0         0.27        378.5 
      1755.0         0.23        356.2 
      1756.0         0.20        344.9 
      1757.0         0.20        328.1 
      1758.0         0.20        302.2 
      1759.0         0.23        294.3 
      1760.0         0.23        256.3 
      1761.0         0.27        223.2 
      1762.0         0.23        209.5 
      1763.0         0.23        201.8 
      1764.0         0.27        194.5 
      1765.0         0.35        191.1 
      1766.0         0.27        187.9 
      1767.0         0.23        181.3 
      1768.0         0.40        180.9 
      1769.0         0.40        174.4 
      1770.0         0.40        164.0 
      1771.0         0.37        161.3 
      1772.0         0.37        167.6 
      1773.0         0.38        177.6 
      1774.0         0.30        176.3 
      1775.0         0.27        167.7 
      1776.0         0.30        164.9 
      1777.0         0.30        160.7 
      1778.0         0.33        163.9 
      1779.0         0.43        165.4 
      1780.0         0.43        160.9 
      1781.0         0.37        153.1 
      1782.0         0.37        149.4 
      1783.0         0.28        147.3 
      1784.0         0.20        147.3 
      1785.0         0.40        154.0 
      1786.0         0.33        167.2 
      1787.0         0.37        184.2 
      1788.0         0.40        402.9 
      1789.0         0.47        407.7 
      1790.0         0.47        399.1 
      1791.0         0.45        389.1 
      1792.0         0.47        345.7 
      1793.0         0.43        310.4 
      1794.0         0.40        284.1 
      1795.0         0.20        255.1 
      1796.0         0.17        249.8 
      1797.0         0.13        231.8 
      1798.0         0.23        228.1 
      1799.0         0.13        210.2 
      1800.0         0.23        208.7 
      1801.0         0.27        197.0 
      1802.0         0.17        190.6 
      1803.0         0.27        187.1 
      1804.0         0.33        186.3 
      1805.0         0.40        182.1 
      1806.0         0.38        178.2 
      1807.0         0.40        189.3 
      1808.0         0.40        193.9 
      1809.0         0.37        190.0 
      1810.0         0.30        187.8 
      1811.0         0.27        184.9 
      1812.0         0.33        186.4 
      1813.0         0.40        187.2 
      1814.0         0.37        429.6 
      1815.0         0.28        428.0 
      1816.0         0.43        426.0 
      1817.0         0.33        402.6 
      1818.0         0.23        379.7 
      1819.0         0.20        352.2 
      1820.0         0.20        321.9 
      1821.0         0.17        318.2 
      1822.0         0.23        285.7 
      1823.0         0.23        274.6 
      1824.0         0.23        255.1 
      1825.0         0.47        234.3 
      1826.0         0.30        212.2 
      1827.0         0.30        193.1 
      1828.0         0.37        183.6 
      1829.0         0.35        185.3 
      1830.0         0.27        187.6 
      1831.0         0.27        187.6 
      1832.0         0.27        187.5 
      1833.0         0.23        186.2 
      1834.0         0.20        185.3 
      1835.0         0.20        182.8 
      1836.0         0.30        179.9 
      1837.0         0.33        178.6 
      1838.0         0.33        171.1 
      1839.0         0.30        165.0 
      1840.0         0.30        164.8 
      1841.0         0.32        173.4 
      1842.0         0.30        183.4 
      1843.0         0.30        457.0 
      1844.0         0.20        419.0 
      1845.0         0.27        405.3 
      1846.0         0.23        398.3 
      1847.0         0.23        336.0 
      1848.0         0.23        290.7 
      1849.0         0.17        285.3 
      1850.0         0.23        289.2 
      1851.0         0.23        289.1 
      1852.0         0.33        283.7 
      1853.0         0.27        282.8 
      1854.0         0.28        272.2 
      1855.0         0.20        247.6 
      1856.0         0.35        243.8 
      1857.0         0.37        219.0 
      1858.0         0.30        206.3 
      1859.0         0.33        205.7 
      1860.0         0.30        198.7 
      1861.0         0.27        196.6 
      1862.0         0.23        176.6 
      1863.0         0.30        181.1 
      1864.0         0.23        196.6 
      1865.0         0.27        217.8 
      1866.0         0.27        238.0 
      1867.0         0.23        241.0 
      1868.0         0.28        244.1 
      1869.0         0.17        241.8 
      1870.0         0.20        236.2 
      1871.0         0.13        235.8 
      1872.0         0.17        232.5 
      1873.0         0.20        231.8 
      1874.0         0.20        237.3 
      1875.0         0.20        207.9 
      1876.0         0.20        265.1 
      1877.0         0.23        265.1 
      1878.0         0.20        313.2 
      1879.0         0.23        350.9 
      1880.0         0.33        389.8 
      1881.0         0.37        416.6 
      1882.0         0.45        416.7 
      1883.0         0.30        365.4 
      1884.0         0.33        352.1 
      1885.0         0.45        307.7 
      1886.0         0.47        249.0 
      1887.0         0.33        241.6 
      1888.0         0.33        234.6 
      1889.0         0.27        222.6 
      1890.0         0.30        221.0 
      1891.0         0.37        206.9 
      1892.0         0.37        186.9 
      1893.0         0.33        185.5 
      1894.0         0.37        179.2 
      1895.0         0.38        172.4 
      1896.0         0.33        173.9 
      1897.0         0.37        175.9 
      1898.0         0.37        180.2 
      1899.0         0.33        179.9 
      1900.0         0.37        175.0 
      1901.0         0.33        166.1 
      1902.0         0.33        161.2 
      1903.0         0.40        162.1 
      1904.0         0.42        164.1 
      1905.0         0.30        164.9 
      1906.0         0.30        434.8 
      1907.0         0.30        402.6 
      1908.0         0.33        383.3 
      1909.0         0.30        353.5 
      1910.0         0.30        352.0 
      1911.0         0.30        341.2 
      1912.0         0.33        339.1 
      1913.0         0.33        303.3 
      1914.0         0.37        272.9 
      1915.0         0.42        242.5 
      1916.0         0.37        223.7 
      1917.0         0.37        220.3 
      1918.0         0.37        217.8 
      1919.0         0.20        201.7 
      1920.0         0.27        189.1 
      1921.0         0.43        180.7 
      1922.0         0.47        181.9 
      1923.0         0.30        176.6 
      1924.0         0.27        174.2 
      1925.0         0.28        176.3 
      1926.0         0.27        180.8 
      1927.0         0.37        190.0 
      1928.0         0.33        192.3 
      1929.0         0.27        193.3 
      1930.0         0.33        190.8 
      1931.0         0.27        192.8 
      1932.0         0.20        207.3 
      1933.0         0.23         22.8 
      1934.0         0.23         18.9 
      1935.0         0.20         12.4 
      1936.0         0.23          9.8 
      1937.0         0.23          5.1 
      1938.0         0.25         20.3 
      1939.0         0.20         20.3 
      1940.0         0.23         92.3 
      1941.0         0.23        144.6 
      1942.0         0.23        168.6 
      1943.0         0.23        167.7 
      1944.0         0.23        174.3 
