~Version Information
VERS.                      2.0: CWLS Log ASCII Standard - VERSION 2.0
WRAP.                       NO: One line per depth step
~Well Information Block
STRT.FT               698.9000: 
STOP.FT              2460.4000: 
STEP.FT                 0.1000: 
NULL.                -999.2500: 
COMP.          Petrogulf Corporation: COMPANY
WELL.             State 16-23V: WELL
FLD.           Purgatorie River: FIELD
LOC.           2414' FSL & 2215' FWL: LOCATION
PROV.                 Colorado: PROVINCE
CNTY.               Las Animas: COUNTRY
SRVC.                         : SERVICE COMPANY
DATE.          Mon Jun 09 14:24:56 2003: LOG DATE
UWI.           05 071 07865 00: UNIQUE WELL ID
~Curve Information Block
DEPT.FT            0 000 00 00: Depth
DCAL.in                       : CDL Caliper
RHOB.g/cc                     : CDL Bulk Density
RHOC.g/cc                     : CDL Density Correction
DPOR.pu                       : CDL Density Porosity
GR.GAPI                       : Gamma Ray
NPOR.pu                       : Neutron Porosity
~Parameter Information Block
~A  Depth       DCAL        RHOB        RHOC        DPOR         GR         NPOR    
# ...
  1418.9000      8.0468      2.6199      0.0595      1.8268     82.3504     21.2008
  1419.0000      8.0456      2.6203      0.0613      1.8025     84.1298     21.3711
  1419.1000      8.0456      2.6204      0.0628      1.7969     86.1600     21.5351
  1419.2000      8.0456      2.6202      0.0641      1.8089     88.3946     21.6941
  1419.3000      8.0379      2.6197      0.0649      1.8367     90.7788     21.8506
  1419.4000      8.0379      2.6190      0.0651      1.8773     93.2508     22.0066
  1419.5000      8.0291      2.6182      0.0648      1.9266     95.7424     22.1641
  1419.6000      8.0291      2.6173      0.0640      1.9793     98.1842     22.3242
  1419.7000      8.0291      2.6165      0.0630      2.0286    100.5135     22.4872
  1419.8000      8.0284      2.6159      0.0621      2.0664    102.6765     22.6527
  1419.9000      8.0284      2.6156      0.0615      2.0832    104.6354     22.8196
  1420.0000      8.0433      2.6159      0.0615      2.0684    106.3704     22.9874
  1420.1000      8.0433      2.6168      0.0621      2.0106    107.8801     23.1552
  1420.2000      8.0433      2.6187      0.0634      1.8980    109.1741     23.3230
  1420.3000      8.0623      2.6216      0.0654      1.7188    110.2690     23.4908
  1420.4000      8.0623      2.6259      0.0679      1.4620    111.1788     23.6587
  1420.5000      8.0684      2.6316      0.0709      1.1182    111.9077     23.8269
  1420.6000      8.0684      2.6388      0.0741      0.6802    112.4459     23.9949
  1420.7000      8.0684      2.6476      0.0777      0.1446    112.7667     24.1608
  1420.8000      8.0649      2.6580      0.0814     -0.4878    112.8334     24.3220
  1420.9000      8.0649      2.6700      0.0853     -1.2105    112.6024     24.4739
  1421.0000      8.0538      2.6832      0.0894     -2.0107    112.0360     24.6108
  1421.1000      8.0538      2.6973      0.0934     -2.8693    111.1092     24.7258
  1421.2000      8.0538      2.7120      0.0971     -3.7603    109.8198     24.8117
  1421.3000      8.0407      2.7268      0.1003     -4.6520    108.1943     24.8611
  1421.4000      8.0407      2.7409      0.1026     -5.5081    106.2869     24.8687
  1421.5000      8.0382      2.7538      0.1035     -6.2898    104.1815     24.8308
  1421.6000      8.0382      2.7648      0.1025     -6.9588    101.9830     24.7473
  1421.7000      8.0382      2.7734      0.0995     -7.4796     99.8133     24.6217
  1421.8000      8.0476      2.7791      0.0941     -7.8227     97.7977     24.4614
  1421.9000      8.0476      2.7815      0.0865     -7.9676     96.0559     24.2770
  1422.0000      8.0592      2.7804      0.0771     -7.9043     94.6904     24.0814
  1422.1000      8.0592      2.7760      0.0669     -7.6347     93.7791     23.8881
  1422.2000      8.0592      2.7683      0.0568     -7.1727     93.3615     23.7096
  1422.3000      8.0620      2.7580      0.0481     -6.5428     93.4414     23.5562
  1422.4000      8.0620      2.7453      0.0419     -5.7786     93.9842     23.4343
  1422.5000      8.0549      2.7312      0.0388     -4.9196     94.9238     23.3465
  1422.6000      8.0549      2.7161      0.0389     -4.0082     96.1693     23.2914
  1422.7000      8.0549      2.7009      0.0421     -3.0864     97.6125     23.2641
  1422.8000      8.0491      2.6862      0.0478     -2.1932     99.1449     23.2573
  1422.9000      8.0491      2.6725      0.0551     -1.3619    100.6653     23.2619
  1423.0000      8.0533      2.6602      0.0634     -0.6190    102.0890     23.2686
  1423.1000      8.0533      2.6497      0.0722      0.0171    103.3586     23.2685
  1423.2000      8.0533      2.6412      0.0809      0.5363    104.4442     23.2538
  1423.3000      8.0509      2.6346      0.0892      0.9354    105.3424     23.2188
  1423.4000      8.0509      2.6299      0.0970      1.2183    106.0724     23.1604
  1423.5000      8.0277      2.6270      0.1041      1.3938    106.6648     23.0782
  1423.6000      8.0277      2.6257      0.1103      1.4749    107.1527     22.9743
  1423.7000      8.0277      2.6256      0.1153      1.4769    107.5601     22.8536
  1423.8000      8.0146      2.6266      0.1191      1.4164    107.8959     22.7227
  1423.9000      8.0146      2.6284      0.1215      1.3102    108.1500     22.5891
  1424.0000      8.0295      2.6306      0.1222      1.1742    108.3011     22.4603
  1424.1000      8.0295      2.6331      0.1213      1.0230    108.3204     22.3433
  1424.2000      8.0295      2.6357      0.1190      0.8690    108.1835     22.2432
  1424.3000      8.0609      2.6381      0.1153      0.7225    107.8805     22.1634
  1424.4000      8.0609      2.6402      0.1108      0.5915    107.4259     22.1054
  1424.5000      8.0954      2.6421      0.1056      0.4818    106.8566     22.0695
  1424.6000      8.0954      2.6434      0.1003      0.3970    106.2356     22.0548
  1424.7000      8.0954      2.6444      0.0950      0.3393    105.6443     22.0604
  1424.8000      8.1141      2.6449      0.0901      0.3090    105.1665     22.0853
  1424.9000      8.1141      2.6450      0.0857      0.3056    104.8850     22.1288
  1425.0000      8.1110      2.6446      0.0817      0.3276    104.8622     22.1908
  1425.1000      8.1110      2.6438      0.0782      0.3729    105.1352     22.2711
  1425.2000      8.1110      2.6428      0.0750      0.4392    105.7129     22.3693
  1425.3000      8.0883      2.6414      0.0720      0.5239    106.5725     22.4847
  1425.4000      8.0883      2.6397      0.0688      0.6246    107.6739     22.6161
  1425.5000      8.0800      2.6378      0.0656      0.7392    108.9641     22.7618
  1425.6000      8.0800      2.6357      0.0620      0.8658    110.3923     22.9194
  1425.7000      8.0800      2.6334      0.0581      1.0035    111.9203     23.0865
  1425.8000      8.1084      2.6310      0.0539      1.1519    113.5222     23.2602
  1425.9000      8.1084      2.6284      0.0496      1.3115    115.1896     23.4373
  1426.0000      8.1411      2.6255      0.0453      1.4837    116.9278     23.6147
  1426.1000      8.1411      2.6224      0.0413      1.6707    118.7414     23.7891
  1426.2000      8.1411      2.6191      0.0377      1.8752    120.6330     23.9577
  1426.3000      8.1584      2.6153      0.0348      2.1004    122.5970     24.1184
  1426.4000      8.1584      2.6112      0.0327      2.3491    124.6126     24.2704
  1426.5000      8.1739      2.6067      0.0315      2.6235    126.6503     24.4147
  1426.6000      8.1739      2.6017      0.0312      2.9248    128.6741     24.5541
  1426.7000      8.1739      2.5963      0.0317      3.2526    130.6497     24.6932
  1426.8000      8.1919      2.5905      0.0328      3.6048    132.5491     24.8382
  1426.9000      8.1919      2.5844      0.0345      3.9774    134.3505     24.9955
  1427.0000      8.1965      2.5780      0.0367      4.3643    136.0443     25.1713
  1427.1000      8.1965      2.5715      0.0391      4.7583    137.6260     25.3701
  1427.2000      8.1965      2.5650      0.0419      5.1507    139.0972     25.5942
  1427.3000      8.1786      2.5587      0.0449      5.5324    140.4627     25.8427
  1427.4000      8.1786      2.5527      0.0482      5.8945    141.7238     26.1119
  1427.5000      8.1516      2.5472      0.0518      6.2289    142.8759     26.3952
  1427.6000      8.1516      2.5423      0.0558      6.5290    143.9101     26.6843
  1427.7000      8.1516      2.5380      0.0603      6.7899    144.8063     26.9701
  1427.8000      8.1383      2.5344      0.0652      7.0091    145.5412     27.2438
  1427.9000      8.1383      2.5314      0.0704      7.1862    146.0864     27.4973
  1428.0000      8.1402      2.5292      0.0759      7.3230    146.4210     27.7244
  1428.1000      8.1402      2.5275      0.0816      7.4231    146.5281     27.9204
  1428.2000      8.1402      2.5264      0.0871      7.4917    146.4139     28.0821
  1428.3000      8.1477      2.5257      0.0922      7.5348    146.1052     28.2080
  1428.4000      8.1477      2.5253      0.0968      7.5589    145.6525     28.2975
