~Version Information
VERS.                      2.0: CWLS Log ASCII Standard - VERSION 2.0
WRAP.                       NO: One line per depth step
~Well Information Block
STRT.FT               840.0000: 
STOP.FT              2019.0000: 
STEP.FT                 0.2500: 
NULL.                -999.2500: 
COMP.          Petrogulf Corporation: COMPANY
WELL.           Lavedure 7-44R: WELL
FLD.           Purgatorie River: FIELD
LOC.           946' FSL & 521' FEL: LOCATION
PROV.                 Colorado: PROVINCE
CNTY.               Las Animas: COUNTRY
SRVC.                Patterson: SERVICE COMPANY
DATE.          Mon Sep 26 08:35:42 2005: LOG DATE
UWI.                          : UNIQUE WELL ID
~Curve Information Block
DEPT.FT            0 000 00 00: Depth
SP.mV                         : DIL Spontaneous Potential
RILD.Ohm-m                    : DIL Deep Resistivity
RILM.Ohm-m                    : DIL Medium Resistivity
RLL3.Ohm-m                    : DIL Shallow Resistivity
GR.GAPI                       : Gamma Ray
~Parameter Information Block
~A  Depth        SP         RILD        RILM        RLL3         GR     
   840.0000   2000.0000      5.8994 100000.0000   2000.0000     58.8482
   840.2500   2000.0000      5.9498 100000.0000   2000.0000     57.6028
   840.5000   2000.0000      5.9713 100000.0000   2000.0000     73.7478
   840.7500   2000.0000      5.9048 100000.0000   2000.0000     78.0669
   841.0000   2000.0000      5.7599 100000.0000   2000.0000     62.6618
   841.2500   2000.0000      5.6389 100000.0000   2000.0000     67.7300
   841.5000   2000.0000      5.5640 100000.0000   2000.0000     80.7190
   841.7500   2000.0000      5.5552 100000.0000   2000.0000     90.8525
   842.0000   2000.0000      5.5333 100000.0000   2000.0000     95.8529
   842.2500   2000.0000      5.4806 100000.0000   2000.0000     97.2492
   842.5000   2000.0000      5.3417 100000.0000   2000.0000     96.7511
   842.7500   2000.0000      4.9565 100000.0000   2000.0000     93.5919
   843.0000   2000.0000      4.8586 100000.0000   2000.0000    102.1725
   843.2500   2000.0000      5.2955 100000.0000   2000.0000    105.3239
   843.5000   2000.0000      5.8749 100000.0000   2000.0000     86.6597
   843.7500   2000.0000      5.9822 100000.0000   2000.0000     92.9088
   844.0000   2000.0000      5.8123 100000.0000   2000.0000     87.4672
   844.2500   2000.0000      5.5875 100000.0000   2000.0000     88.1065
   844.5000   2000.0000      5.4233 100000.0000   2000.0000     92.1671
   844.7500   2000.0000      5.2826 100000.0000   2000.0000     82.7939
   845.0000   2000.0000      5.1755 100000.0000   2000.0000     69.6873
   845.2500   2000.0000      4.9804 100000.0000   2000.0000     65.0046
   845.5000   2000.0000      4.9391 100000.0000   2000.0000     45.4885
   845.7500   2000.0000      5.3696 100000.0000   2000.0000     46.7328
   846.0000   2000.0000      6.4504 100000.0000   2000.0000     67.5842
   846.2500   2000.0000      8.0816 100000.0000   2000.0000     73.4371
   846.5000   2000.0000      8.5262 100000.0000   2000.0000     87.0781
   846.7500   2000.0000      6.7551 100000.0000   2000.0000     90.4403
   847.0000   2000.0000      5.4976 100000.0000   2000.0000     97.1331
   847.2500   2000.0000      5.0442 100000.0000   2000.0000     97.6652
   847.5000   2000.0000      4.9169 100000.0000   2000.0000    106.0034
   847.7500   2000.0000      4.9425 100000.0000   2000.0000     85.2271
   848.0000   2000.0000      4.9382 100000.0000   2000.0000     85.0065
   848.2500   2000.0000      4.7893 100000.0000   2000.0000     82.2252
   848.5000   2000.0000      4.5639 100000.0000   2000.0000    101.5966
   848.7500   2000.0000      4.4967 100000.0000   2000.0000     90.2322
   849.0000   2000.0000      5.5385 100000.0000   2000.0000     79.7605
   849.2500   2000.0000     15.6039 100000.0000   2000.0000     92.0537
   849.5000   2000.0000 100000.0000 100000.0000   2000.0000     98.2251
   849.7500   2000.0000 100000.0000 100000.0000   2000.0000     89.2177
   850.0000   2000.0000      4.4896 100000.0000   2000.0000     72.3930
   850.2500   2000.0000      3.0783 100000.0000   2000.0000     83.6791
   850.5000   2000.0000      3.1755 100000.0000   2000.0000     91.9389
   850.7500   2000.0000      4.0237 100000.0000   2000.0000     91.0820
   851.0000   2000.0000      4.8507 100000.0000   2000.0000     92.4920
   851.2500   2000.0000      5.5308 100000.0000   2000.0000     88.7470
   851.5000   2000.0000      6.3708 100000.0000   2000.0000    101.5303
   851.7500   2000.0000      9.3311 100000.0000   2000.0000    100.8348
   852.0000   2000.0000    117.1277 100000.0000   2000.0000    104.4104
   852.2500   2000.0000     21.8740 100000.0000   2000.0000    106.7865
   852.5000   2000.0000      3.8245 100000.0000   2000.0000    110.9637
   852.7500   2000.0000      1.5420 100000.0000   2000.0000    109.2169
   853.0000   2000.0000      1.1839 100000.0000   2000.0000    121.0126
   853.2500   2000.0000      1.8685      4.5799   2000.0000    128.1754
   853.5000   2000.0000      4.3644      2.0590   2000.0000    112.2242
   853.7500   2000.0000      9.7100      2.6849   2000.0000     99.7729
   854.0000   2000.0000     18.8197      5.6041   2000.0000    104.6475
   854.2500   2000.0000     28.6841     17.4232   2000.0000    104.7817
   854.5000   2000.0000     39.7875     13.3442   2000.0000    109.5564
   854.7500   2000.0000     84.0219     10.8843   2000.0000    113.8151
   855.0000   2000.0000 100000.0000     10.3053   2000.0000    118.5111
   855.2500   2000.0000 100000.0000      9.9408   2000.0000    129.0961
   855.5000   2000.0000 100000.0000      9.9423   2000.0000    120.9752
   855.7500   2000.0000    130.1567     10.9786   2000.0000    104.5232
   856.0000   2000.0000     10.3395     20.9219   2000.0000    120.2927
   856.2500   2000.0000      9.3432 100000.0000   2000.0000    133.5885
   856.5000   2000.0000      9.6370     30.1431   2000.0000    142.4810
   856.7500   2000.0000      9.6090     13.6602   2000.0000    146.2033
   857.0000   2000.0000      9.4755     10.6825   2000.0000    138.2027
   857.2500   2000.0000      9.3958      9.5260   2000.0000    137.5381
   857.5000   2000.0000      9.1217      9.0039   2000.0000    158.5646
   857.7500   2000.0000      9.0381      8.5515   2000.0000    147.9819
   858.0000   2000.0000      9.1843      8.1325   2000.0000    169.4379
   858.2500   2000.0000      9.7988      7.5145   2000.0000    170.8022
   858.5000   2000.0000     10.3724      7.0370   2000.0000    148.1858
   858.7500   2000.0000      9.4860      6.9420   2000.0000    144.8945
   859.0000   2000.0000      9.2612      6.6347   2000.0000    132.5263
   859.2500   2000.0000      9.5005      6.5149   2000.0000    139.8062
   859.5000   2000.0000      9.7525      7.1588   2000.0000    137.1706
   859.7500   2000.0000     10.0285      7.7749   2000.0000    141.8023
   860.0000   2000.0000     10.4127      8.3570   2000.0000    129.7043
   860.2500   2000.0000     10.7786      9.2649   2000.0000    113.8431
   860.5000   2000.0000     10.6769     10.4552   2000.0000    116.8518
   860.7500   2000.0000     11.3900     11.9050   2000.0000    139.7271
   861.0000   2000.0000     12.3713     13.2468   2000.0000    115.6195
   861.2500   2000.0000     12.0339     14.2610   2000.0000    119.8099
   861.5000   2000.0000     12.2215     14.7960   2000.0000    112.8854
   861.7500   2000.0000     12.5081     15.3739   2000.0000     98.5654
   862.0000   2000.0000     12.8915     16.0323   2000.0000     87.2583
   862.2500   2000.0000     13.3629     16.3016   2000.0000     86.9185
   862.5000   2000.0000     13.7954     16.2388   2000.0000     98.2760
   862.7500   2000.0000     13.6225     15.7015   2000.0000    112.8834
   863.0000   2000.0000     14.0856     14.6186   2000.0000    113.9376
   863.2500   2000.0000     14.3191     13.6557   2000.0000    116.9055
   863.5000   2000.0000     14.3687     12.8062   2000.0000    127.9961
   863.7500   2000.0000     14.4877     12.0807   2000.0000    130.6812
   864.0000   2000.0000     14.6955     12.0331   2000.0000    136.9296
   864.2500   2000.0000     14.5621     12.8988   2000.0000    136.5921
   864.5000   2000.0000     13.9436     13.9202   2000.0000    141.8196
   864.7500   2000.0000     13.2259     15.8168   2000.0000    138.0624
   865.0000   2000.0000     12.8260     15.0583   2000.0000    145.1506
   865.2500   2000.0000     12.5348     15.0709   2000.0000    145.3188
   865.5000   2000.0000     12.4351     14.6486   2000.0000    132.0909
   865.7500   2000.0000     12.7494     14.4946   2000.0000     96.6904
   866.0000   2000.0000     12.5928     14.0635   2000.0000     82.3890
   866.2500   2000.0000     12.8845     13.6603   2000.0000     89.3726
   866.5000   2000.0000     13.7554     12.9458   2000.0000    105.2911
   866.7500   2000.0000     14.0843     13.6131   2000.0000    117.1213
   867.0000   2000.0000     14.5715     14.0815   2000.0000    146.6505
   867.2500   2000.0000     14.8596     14.3820   2000.0000    159.9929
   867.5000   2000.0000     14.9191     14.8926   2000.0000    173.3789
   867.7500   2000.0000     14.9889     15.0609   2000.0000    167.5595
