~Version Information
VERS.                      2.0: CWLS Log ASCII Standard - VERSION 2.0
WRAP.                       NO: One line per depth step
~Well Information Block
STRT.FT               260.0000: 
STOP.FT              1199.2000: 
STEP.FT                 0.1000: 
NULL.                -999.2500: 
COMP.          Evergreen Operating Corporation: COMPANY
WELL.             Justin 32-10: WELL
FLD.           Purgatorie River: FIELD
LOC.           2994' FNL & 1449' FEL: LOCATION
PROV.                 Colorado: PROVINCE
CNTY.               Las Animas: COUNTRY
SRVC.                         : SERVICE COMPANY
DATE.          Mon Aug 30 07:14:35 2004: LOG DATE
UWI.           05 071 08053 00: UNIQUE WELL ID
~Curve Information Block
DEPT.FT            0 000 00 00: Depth
LTEN.lb                       : Surface Line Tension
DCAL.in                       : CDL Caliper
RHOB.g/cc                     : CDL Bulk Density
RHOC.g/cc                     : CDL Density Correction
DPOR.pu                       : CDL Density Porosity
GR.GAPI                       : Gamma Ray
NPOR.pu                       : Neutron Porosity
~Parameter Information Block
~A  Depth       LTEN        DCAL        RHOB        RHOC        DPOR         GR         NPOR    
# ...
   696.8000    834.4711      8.1941      2.4830      0.1142     10.1210    114.3381     28.8284
   696.9000    834.4711      8.1941      2.4897      0.1174      9.7151    123.3197     28.6913
   697.0000    764.6658      8.1930      2.4946      0.1837      9.4156    131.9344     28.2651
   697.1000    764.6658      8.1930      2.4969      0.1424      9.2775    137.0199     27.9868
   697.2000    764.6658      8.1930      2.4973      0.1582      9.2539    135.7311     28.1297
   697.3000    748.3839      8.1932      2.4987      0.1475      9.1671    129.6360     29.0196
   697.4000    748.3839      8.1932      2.5002      0.1376      9.0813    125.5957     30.3650
   697.5000    761.8065      8.2356      2.4990      0.1334      9.1544    127.2226     31.2692
   697.6000    761.8065      8.2356      2.4970      0.0817      9.2748    131.5690     30.9957
   697.7000    761.8065      8.2356      2.4954      0.0775      9.3690    133.7681     29.4582
   697.8000    834.7727      8.2243      2.4840      0.0701     10.0593    134.0786     27.7407
   697.9000    834.7727      8.2243      2.4592      0.0615     11.5650    132.7577     27.2219
   698.0000    807.2343      8.2151      2.4330      0.0305     13.1527    130.1393     27.8136
   698.1000    807.2343      8.2151      2.4167     -0.0107     14.1399    128.8818     28.3130
   698.2000    807.2343      8.2151      2.4088      0.0452     14.6206    126.3473     27.6982
   698.3000    752.2600      8.2104      2.4024      0.0005     15.0090    122.0896     26.1938
   698.4000    752.2600      8.2104      2.4007     -0.0150     15.1109    121.0607     25.4820
   698.5000    731.6093      8.2338      2.4082      0.0239     14.6563    124.0121     26.2151
   698.6000    731.6093      8.2338      2.4224      0.0500     13.7960    126.7359     27.0808
   698.7000    731.6093      8.2338      2.4448      0.0237     12.4363    124.8838     27.3383
   698.8000    798.0013      8.2087      2.4745      0.0655     10.6347    119.8111     27.4398
   698.9000    798.0013      8.2087      2.4936      0.1237      9.4768    117.5583     27.4714
   699.0000    780.1764      8.2118      2.4903      0.1249      9.6793    121.3118     27.4573
   699.1000    780.1764      8.2118      2.4732      0.1409     10.7148    127.7562     27.6249
   699.2000    780.1764      8.2118      2.4536      0.0700     11.9049    132.9816     27.7828
   699.3000    743.3397      8.2307      2.4414      0.0776     12.6426    136.4297     27.7814
   699.4000    743.3397      8.2307      2.4359      0.1452     12.9781    138.1511     27.7525
   699.5000    780.3220      8.2252      2.4280      0.1206     13.4573    136.9120     27.8391
   699.6000    780.3220      8.2252      2.4245      0.1090     13.6693    134.1767     28.1155
   699.7000    780.3220      8.2252      2.4359      0.1455     12.9751    134.1956     28.5764
   699.8000    792.6716      8.2543      2.4574      0.1621     11.6717    136.0617     28.7545
   699.9000    792.6716      8.2543      2.4781      0.1540     10.4191    135.4231     28.6031
   700.0000    809.0698      8.2614      2.4908      0.2103      9.6488    132.8010     28.9645
   700.1000    809.0698      8.2614      2.4979      0.1861      9.2196    133.2395     29.7583
   700.2000    809.0698      8.2614      2.5067      0.1983      8.6846    136.4280     30.1974
   700.3000    777.1785      8.2276      2.5083      0.2137      8.5897    137.0787     30.2976
   700.4000    777.1785      8.2276      2.4925      0.1578      9.5480    134.9198     30.4174
   700.5000    755.4264      8.2661      2.4793      0.0825     10.3455    134.7888     30.5647
   700.6000    755.4264      8.2661      2.4896      0.1394      9.7212    136.6681     30.5821
   700.7000    755.4264      8.2661      2.5116      0.1564      8.3887    138.6111     30.5245
   700.8000    818.6155      8.1950      2.5286      0.1774      7.3561    140.7227     30.3555
   700.9000    818.6155      8.1950      2.5398      0.1719      6.6761    140.9185     30.0509
   701.0000    782.2734      8.1689      2.5450      0.1809      6.3656    139.2542     30.1253
   701.1000    782.2734      8.1689      2.5363      0.2070      6.8934    138.8482     30.5385
   701.2000    782.2734      8.1689      2.5122      0.1413      8.3500    140.7017     30.3817
   701.3000    777.7832      8.1626      2.4864      0.0897      9.9149    141.7866     29.2868
   701.4000    777.7832      8.1626      2.4707      0.1104     10.8664    141.9291     27.8808
   701.5000    760.6774      8.1656      2.4659      0.1072     11.1586    141.7627     26.8743
   701.6000    760.6774      8.1656      2.4719      0.0577     10.7966    137.5461     26.4190
   701.7000    760.6774      8.1656      2.4870      0.1042      9.8786    130.7615     26.6025
   701.8000    811.4131      8.1635      2.5006      0.1236      9.0534    127.7333     27.0712
   701.9000    811.4131      8.1635      2.5041      0.0983      8.8397    129.4764     26.9651
   702.0000    835.4958      8.1653      2.4994      0.0738      9.1252    131.0818     26.4336
   702.1000    835.4958      8.1653      2.4943      0.1173      9.4385    129.6452     26.3267
   702.2000    835.4958      8.1653      2.4973      0.0991      9.2532    125.9287     26.6572
   702.3000    773.2631      8.1655      2.5135      0.1225      8.2726    119.5745     26.7757
   702.4000    773.2631      8.1655      2.5368      0.1428      6.8625    113.9097     26.4806
   702.5000    827.5874      8.1672      2.5562      0.1523      5.6854    114.8062     26.1080
   702.6000    827.5874      8.1672      2.5662      0.1637      5.0780    121.2831     25.9002
   702.7000    827.5874      8.1672      2.5674      0.1518      5.0086    125.5173     25.8764
   702.8000    786.3332      8.1838      2.5558      0.1937      5.7116    125.2995     26.0652
   702.9000    786.3332      8.1838      2.5242      0.1376      7.6254    125.1034     26.3845
   703.0000    757.8802      8.1807      2.4823      0.0988     10.1625    125.7048     26.5470
   703.1000    757.8802      8.1807      2.4547      0.0152     11.8389    124.4915     26.5257
   703.2000    757.8802      8.1807      2.4556      0.0580     11.7810    120.5930     26.7584
   703.3000    777.5294      8.2124      2.4740      0.1112     10.6688    117.5103     27.1225
   703.4000    777.5294      8.2124      2.4948      0.1276      9.4046    116.2438     27.1383
   703.5000    810.7938      8.2026      2.5135      0.1622      8.2724    113.1882     26.9501
   703.6000    810.7938      8.2026      2.5185      0.1928      7.9673    109.2587     27.0526
   703.7000    810.7938      8.2026      2.5034      0.1684      8.8827    109.6338     27.7138
   703.8000    814.2029      8.2035      2.4868      0.1059      9.8927    114.9267     28.5720
   703.9000    814.2029      8.2035      2.4849      0.1659     10.0037    120.1705     28.9538
   704.0000    787.6548      8.2116      2.4881      0.1576      9.8141    121.5066     28.9946
   704.1000    787.6548      8.2116      2.4858      0.1484      9.9512    118.8265     29.1606
   704.2000    787.6548      8.2116      2.4817      0.1614     10.2001    113.0972     28.9983
   704.3000    781.5475      8.2172      2.4778      0.1582     10.4361    109.2837     28.0808
   704.4000    781.5475      8.2172      2.4734      0.1463     10.7007    113.4328     26.9413
   704.5000    804.0012      8.2229      2.4748      0.1232     10.6197    120.4040     26.2124
   704.6000    804.0012      8.2229      2.4830      0.1423     10.1218    120.3738     26.2371
   704.7000    804.0012      8.2229      2.4813      0.1721     10.2253    114.9853     26.9183
   704.8000    861.8501      8.2306      2.4540      0.1281     11.8818    110.9770     27.6680
   704.9000    861.8501      8.2306      2.4040      0.1275     14.9105    109.8881     28.2590
   705.0000    819.9662      8.2263      2.3481      0.0902     18.2979    111.1995     28.9242
   705.1000    819.9662      8.2263      2.3081      0.0729     20.7188    111.8641     29.8648
