~Version Information
VERS.                      2.0: CWLS Log ASCII Standard - VERSION 2.0
WRAP.                       NO: One line per depth step
~Well Information Block
STRT.FT                 0.0000: 
STOP.FT              1439.5000: 
STEP.FT                 0.2500: 
NULL.                -999.2500: 
COMP.          Petrogulf Corporation: COMPANY
WELL.          Robinson 15-12R: WELL
FLD.           Purgatorie River: FIELD
LOC.           1752' FNL & 561' FWL: LOCATION
PROV.                 Colorado: PROVINCE
CNTY.               Las Animas: COUNTRY
SRVC.                Patterson: SERVICE COMPANY
DATE.          Tue Oct 04 09:17:52 2005: LOG DATE
UWI.                          : UNIQUE WELL ID
~Curve Information Block
DEPT.FT            0 000 00 00: Depth
GR.GAPI                       : Gamma Ray
CCL.                          : Casing Collar Locator
TT3.usec                      : CBL 3' Travel Time
AMP3.mV                       : CBL 3' Amplitude
~Parameter Information Block
~A  Depth        GR         CCL         TT3         AMP3    
     0.0000   -999.2500      0.0000   1200.0000     -0.5077
     0.2500   -999.2500      0.0000   1200.0000     -0.5180
     0.5000   -999.2500      0.0000   1200.0000     -0.5246
     0.7500   -999.2500      0.0000   1200.0000     -0.5318
     1.0000   -999.2500      0.0000   1200.0000     -0.5312
     1.2500   -999.2500      0.0000   1200.0000     -0.5178
     1.5000   -999.2500      0.0000   1200.0000     -0.4946
     1.7500   -999.2500      0.0000   1200.0000     -0.4726
     2.0000   -999.2500      0.0000   1200.0000     -0.4660
     2.2500   -999.2500      0.0000   1200.0000     -0.4795
     2.5000   -999.2500      0.0000   1200.0000     -0.5047
     2.7500   -999.2500      0.0000   1200.0000     -0.5302
     3.0000   -999.2500      0.0000   1200.0000     -0.5494
     3.2500   -999.2500      0.0000   1200.0000     -0.5563
     3.5000   -999.2500      0.0000   1200.0000     -0.5481
     3.7500   -999.2500      0.0000   1200.0000     -0.5309
     4.0000   -999.2500      0.0000   1200.0000     -0.5201
     4.2500   -999.2500      0.0000   1200.0000     -0.5263
     4.5000   -999.2500      0.0000   1200.0000     -0.5419
     4.7500     57.4151      0.0000   1200.0000     -0.5521
     5.0000     58.4021      0.0000   1200.0000     -0.5508
     5.2500     59.3440      0.0000   1200.0000     -0.5385
     5.5000     60.1963      0.0000   1200.0000     -0.5166
     5.7500     60.8924      0.0000   1199.9620     -0.4880
     6.0000     61.1294      0.0000   1199.5281     -0.4410
     6.2500     60.8521      0.0000   1196.3700     -0.2349
     6.5000     60.4801      0.0000   1181.7090      0.6735
     6.7500     60.3693      0.0000   1139.0951      3.3288
     7.0000     60.3184      0.0000   1063.6097      8.2729
     7.2500     59.7545      0.0000    986.9039     14.0024
     7.5000     58.2491      0.0000    946.5359     17.9028
     7.7500     55.8750      0.0000    928.8798     19.1195
     8.0000     53.2445      0.0000    898.3193     18.8507
     8.2500     51.1730      0.0000    859.3441     18.3446
     8.5000     50.2036      0.0000    835.4525     18.0153
     8.7500     50.4398      0.0000    829.1213     17.8487
     9.0000     51.6804      0.0000    832.6613     17.7754
     9.2500     53.4154      0.0000    840.6165     17.7420
     9.5000     54.7285      0.0000    839.9872     17.7153
     9.7500     54.6428      0.0000    818.5380     17.6919
    10.0000     52.8126      0.0000    782.6919     17.6874
    10.2500     49.7700      0.0000    748.1528     17.7074
    10.5000     46.4726      0.0000    727.6919     17.7345
    10.7500     43.7416      0.0000    728.2770     17.7647
    11.0000     42.0115      0.0000    742.8427     17.8241
    11.2500     41.2718      0.0000    753.3322     17.9245
    11.5000     41.1943      0.0000    746.9458     18.0525
    11.7500     41.5522      0.0000    727.1713     18.1964
    12.0000     42.4316      0.0000    713.1525     18.3369
    12.2500     43.7344      0.0000    719.0251     18.4448
    12.5000     44.7523      0.0000    732.5014     18.4946
    12.7500     44.7566      0.0000    729.4609     18.4652
    13.0000     43.9180      0.0000    708.0449     18.3619
    13.2500     43.1436      0.0000    695.7024     18.2296
    13.5000     42.9875      0.0000    713.3099     18.1143
    13.7500     43.1600      0.0000    747.2592     18.0293
    14.0000     43.1963      0.0000    773.3680     17.9728
    14.2500     43.1687      0.0000    783.2952     17.9338
    14.5000     43.4737      0.0000    780.4756     17.8748
    14.7500     44.2319      0.0000    772.3836     17.7573
    15.0000     45.1979      0.0000    767.0280     17.5899
    15.2500     46.1188      0.0000    767.4136     17.4262
    15.5000     46.9255      0.0000    769.7659     17.3329
    15.7500     47.5929      0.0000    769.0886     17.3717
    16.0000     48.0034      0.0000    763.8760     17.5606
    16.2500     48.0451      0.0000    753.9939     17.8424
    16.5000     47.7672      0.0000    737.1025     18.1070
    16.7500     47.3520      0.0000    714.6480     18.2518
    17.0000     46.9520      0.0000    698.6626     18.2407
    17.2500     46.6127      0.0000    696.1038     18.1028
    17.5000     46.3663      0.0000    692.2619     17.8851
    17.7500     46.3351      0.0000    664.9955     17.6225
    18.0000     46.6839      0.0000    608.0734     17.3344
    18.2500     47.5091      0.0000    539.0134     17.0339
    18.5000     48.8082      0.0000    485.0906     16.7269
    18.7500     50.5002      0.0000    458.9968     16.4094
    19.0000     52.3402      0.0000    457.7125     16.0949
    19.2500     53.9175      0.0000    480.1785     15.8209
    19.5000     55.0312      0.0000    528.0386     15.6074
    19.7500     55.9822      0.0000    591.8133     15.4390
    20.0000     57.0734      0.0000    652.6085     15.2984
    20.2500     57.9403      0.0000    695.2811     15.1892
    20.5000     57.8453      0.0000    714.9335     15.1210
    20.7500     56.5544      0.0000    718.9374     15.0959
    21.0000     54.6026      0.0000    719.5233     15.1147
    21.2500     52.9565      0.0000    720.8630     15.1818
    21.5000     52.6553      0.0000    713.4977     15.2933
    21.7500     54.3251      0.0000    678.4139     15.4257
    22.0000     57.6783      0.0000    604.5422     15.5403
    22.2500     61.7431      0.0000    510.8318     15.6043
    22.5000     65.6842      0.0000    435.4174     15.6130
    22.7500     69.1392      0.0000    396.5078     15.5886
    23.0000     71.8873      0.0000    383.5592     15.5595
    23.2500     73.7865      0.0000    380.6640     15.5432
    23.5000     75.2315      0.0000    380.0522     15.5395
    23.7500     77.2152      0.0000    379.7584     15.5417
    24.0000     80.4460      0.0000    379.5203     15.5436
    24.2500     84.5014      0.0000    379.2840     15.5280
    24.5000     88.1749      0.0000    378.9853     15.4697
    24.7500     90.6460      0.0000    378.6228     15.3684
    25.0000     92.0958      0.0000    378.3444     15.2664
    25.2500     93.2756      0.0000    378.3443     15.2131
    25.5000     94.6985      0.0000    378.6354     15.2119
    25.7500     96.1335      0.0000    379.0128     15.2127
    26.0000     96.7032      0.0000    379.2668     15.1630
    26.2500     95.6168      0.0000    379.3521     15.0573
    26.5000     93.0025      0.0000    379.3432     14.9289
    26.7500     90.0253      0.0000    379.3153     14.8019
    27.0000     88.1079      0.0000    379.2794     14.6706
    27.2500     87.8551      0.0000    379.2015     14.5303
    27.5000     88.6566      0.0000    379.1028     14.4087
    27.7500     89.4906      0.0000    379.0963     14.3414
    28.0000     90.0547      0.0000    379.2296     14.3261
    28.2500     90.7775      0.0000    379.3538     14.3323
    28.5000     91.8458      0.0000    379.2658     14.3499
    28.7500     92.7577      0.0000    378.9144     14.3903
    29.0000     92.7777      0.0000    378.4065     14.4484
    29.2500     91.3778      0.0000    377.9168     14.4846
    29.5000     88.3785      0.0000    377.6169     14.4532
    29.7500     84.1989      0.0000    377.6047     14.3611
    30.0000     79.9639      0.0000    377.8569     14.2803
    30.2500     76.9202      0.0000    378.2345     14.2687
    30.5000     75.6286      0.0000    378.5705     14.3130
    30.7500     75.8904      0.0000    378.7877     14.3748
    31.0000     77.4522      0.0000    378.9010     14.4370
    31.2500     80.3113      0.0000    378.9660     14.4833
    31.5000     84.0285      0.0000    379.0907     14.4924
    31.7500     87.1418      0.0000    379.3695     14.4663
    32.0000     87.9435      0.0000    379.6978     14.4296
    32.2500     86.0275      0.0000    379.7863     14.3992
    32.5000     82.7561      0.0000    379.5700     14.3750
    32.7500     79.9095      0.0000    379.9431     14.3640
    33.0000     78.0870      0.0000    383.6908     14.3819
    33.2500     76.7898      0.0000    394.5107     14.4217
