~Version Information
VERS.                      2.0: CWLS Log ASCII Standard - VERSION 2.0
WRAP.                       NO: One line per depth step
~Well Information Block
STRT.FT               -11.2500: 
STOP.FT              1767.0000: 
STEP.FT                 0.2500: 
NULL.                -999.2500: 
COMP.          Petrogulf Corporation: COMPANY
WELL.             McLeod 9-42R: WELL
FLD.           Purgatoire River: FIELD
LOC.           1748' FNL & 372' FEL--: LOCATION
PROV.                 Colorado: PROVINCE
CNTY.               Las Animas: COUNTRY
SRVC.                         : SERVICE COMPANY
DATE.          Thu Sep 29 13:28:07 2005: LOG DATE
UWI.                          : UNIQUE WELL ID
~Curve Information Block
DEPT.FT            0 000 00 00: Depth
GR.GAPI                       : Gamma Ray
CCL.                          : Casing Collar Locator
AMP3.mV                       : CBL 3' Amplitude
AMP5.mV                       : CBL 5' Amplitude
~Parameter Information Block
~A  Depth        GR         CCL         AMP3        AMP5    
# ...
   926.7500    146.1051      0.0000      6.3339      0.6724
   927.0000    147.5989      0.0000      6.6332      0.7293
   927.2500    146.9644      0.0000      6.8837      0.7731
   927.5000    145.8652      0.0000      7.0983      0.7989
   927.7500    145.1057      0.0000      7.3033      0.8072
   928.0000    144.2012      0.0000      7.5195      0.8029
   928.2500    142.6645      0.0000      7.7256      0.7910
   928.5000    140.8503      0.0000      7.8420      0.7729
   928.7500    139.1756      0.0000      7.7646      0.7495
   929.0000    137.1795      0.0000      7.4305      0.7236
   929.2500    133.8954      0.0000      6.8622      0.6959
   929.5000    128.9668      0.0000      6.1501      0.6601
   929.7500    123.2999      0.0000      5.3935      0.6076
   930.0000    118.8221      0.0000      4.6521      0.5402
   930.2500    117.2577      0.0000      3.9469      0.4735
   930.5000    118.3652      0.0000      3.2965      0.4254
   930.7500    119.3691      0.0000      2.7430      0.4025
   931.0000    116.9171      0.0000      2.3386      0.3987
   931.2500    109.9372      0.0000      2.1064      0.4032
   931.5000    100.3943      0.0000      2.0257      0.4087
   931.7500     91.4862      0.0000      2.0616      0.4144
   932.0000     85.6303      0.0000      2.1979      0.4238
   932.2500     83.8827      0.0000      2.4350      0.4380
   932.5000     86.1263      0.0000      2.7740      0.4519
   932.7500     91.1579      0.0000      3.2195      0.4600
   933.0000     97.0914      0.0000      3.7803      0.4658
   933.2500    102.3331      0.0000      4.4431      0.4807
   933.5000    106.2023      0.0000      5.1487      0.5147
   933.7500    108.6334      0.0000      5.8145      0.5685
   934.0000    109.8084      0.0000      6.3809      0.6375
   934.2500    110.3644      0.0000      6.8254      0.7162
   934.5000    111.3624      0.0000      7.1404      0.7980
   934.7500    113.4522      0.0000      7.3183      0.8736
   935.0000    116.2966      0.0000      7.3641      0.9358
   935.2500    119.1142      0.0000      7.3142      0.9844
   935.5000    121.4609      0.0000      7.2311      1.0241
   935.7500    123.3936      0.0000      7.1759      1.0565
   936.0000    125.3238      0.0000      7.1813      1.0775
   936.2500    127.6551      0.0000      7.2473      1.0849
   936.5000    130.1636      0.0000      7.3581      1.0855
   936.7500    132.0245      0.0000      7.5000      1.0929
   937.0000    132.8988      0.0000      7.6638      1.1179
   937.2500    133.6289      0.0000      7.8378      1.1618
   937.5000    135.4261      0.0000      8.0134      1.2163
   937.7500    138.6738      0.0000      8.2092      1.2700
   938.0000    142.7128      0.0000      8.4773      1.3131
   938.2500    146.2024      0.0000      8.8589      1.3398
   938.5000    147.4421      0.0000      9.3244      1.3498
   938.7500    145.1415      0.0000      9.7727      1.3500
   939.0000    139.6180      0.0000     10.1087      1.3542
   939.2500    132.9748      0.0000     10.3211      1.3747
   939.5000    127.6353      0.0000     10.4814      1.4107
   939.7500    124.8644      0.0000     10.6709      1.4458
   940.0000    124.8124      0.0000     10.9130      1.4620
   940.2500    127.3602      0.0000     11.1650      1.4577
   940.5000    132.1746      0.0000     11.3582      1.4498
   940.7500    138.0236      0.0000     11.4415      1.4553
   941.0000    142.9893      0.0000     11.3978      1.4705
   941.2500    145.9614      0.0000     11.2302      1.4746
   941.5000    147.5718      0.0000     10.9448      1.4488
   941.7500    149.3434      0.0000     10.5532      1.3899
   942.0000    152.1487      0.0000     10.0866      1.3106
   942.2500    155.5517      0.0000      9.5949      1.2316
   942.5000    158.2477      0.0000      9.1178      1.1679
   942.7500    158.9351      0.0000      8.6727      1.1153
   943.0000    157.1487      0.0000      8.2909      1.0577
   943.2500    153.6020      0.0000      8.0318      0.9902
   943.5000    149.6158      0.0000      7.8965      0.9250
   943.7500    146.0619      0.0000      7.7545      0.8760
   944.0000    142.9299      0.0000      7.4492      0.8444
   944.2500    139.8506      0.0000      6.9709      0.8188
   944.5000    136.7371      0.0000      6.4498      0.7856
   944.7500    133.7473      0.0000      6.0049      0.7399
   945.0000    130.8804      0.0000      5.6664      0.6870
   945.2500    128.0744      1.9217      5.4178      0.6352
   945.5000    125.8122      0.0000      5.2514      0.5903
   945.7500    125.0571      0.0000      5.1758      0.5555
   946.0000    125.9879      0.0000      5.1889      0.5319
   946.2500    127.2911      0.0000      5.2476      0.5144
   946.5000    127.6462      0.0000      5.2769      0.4943
   946.7500    127.5486      0.0000      5.2315      0.4661
   947.0000    128.6122      0.0000      5.1297      0.4350
   947.2500    131.1487      0.0000      5.0056      0.4118
   947.5000    133.3251      0.0000      4.8593      0.4046
   947.7500    132.9156      0.0000      4.6768      0.4141
   948.0000    129.4487      0.0000      4.4730      0.4358
   948.2500    124.4495      0.0000      4.2920      0.4608
   948.5000    119.8096      0.0000      4.1729      0.4795
   948.7500    116.1459      0.0000      4.1207      0.4896
   949.0000    112.8293      0.0000      4.1127      0.5012
   949.2500    109.5339      0.0000      4.1325      0.5292
   949.5000    107.3505      0.0000      4.1984      0.5803
   949.7500    107.9031      0.0000      4.3522      0.6460
   950.0000    111.4954      0.0000      4.6234      0.7079
   950.2500    116.6797      0.0000      5.0101      0.7513
   950.5000    121.7113      0.0000      5.4920      0.7767
   950.7500    125.9593      0.0000      6.0474      0.7981
   951.0000    129.8567      0.0000      6.6510      0.8303
   951.2500    133.8724      0.0000      7.2655      0.8777
   951.5000    137.6768      0.0000      7.8418      0.9361
   951.7500    140.2208      0.0000      8.3342      1.0007
   952.0000    140.6814      0.0000      8.7192      1.0660
   952.2500    139.3338      0.0000      9.0039      1.1216
   952.5000    137.3844      0.0000      9.1977      1.1559
   952.7500    135.9711      0.0000      9.2715      1.1669
   953.0000    135.3912      0.0000      9.1644      1.1640
   953.2500    135.2126      0.0000      8.8532      1.1568
   953.5000    134.7997      0.0000      8.4085      1.1459
   953.7500    133.5327      0.0000      7.9627      1.1265
   954.0000    130.8106      0.0000      7.6138      1.0991
   954.2500    126.2944      0.0000      7.3632      1.0726
   954.5000    120.2800      0.0000      7.1389      1.0545
   954.7500    113.7014      0.0000      6.8698      1.0405
   955.0000    107.7138      0.0000      6.5401      1.0175
   955.2500    103.2069      0.0000      6.1902      0.9758
   955.5000    100.4851      0.0000      5.8759      0.9163
   955.7500     99.1049      0.0000      5.6292      0.8506
   956.0000     98.0455      0.0000      5.4486      0.7962
   956.2500     96.3188      0.0000      5.3203      0.7685
   956.5000     93.5186      0.0000      5.2410      0.7706
   956.7500     89.8495      0.0000      5.2242      0.7935
   957.0000     85.9910      0.0000      5.2897      0.8250
   957.2500     82.9890      0.0000      5.4493      0.8574
   957.5000     81.5984      0.0000      5.6969      0.8857
   957.7500     81.3061      0.0000      6.0060      0.9068
   958.0000     80.4482      0.0000      6.3380      0.9219
   958.2500     77.7699      0.0000      6.6565      0.9356
   958.5000     73.6945      0.0000      6.9452      0.9487
   958.7500     69.7175      0.0000      7.2150      0.9553
   959.0000     66.7700      0.0000      7.4913      0.9514
   959.2500     64.5822      0.0000      7.7856      0.9455
   959.5000     62.4737      0.0000      8.0841      0.9541
   959.7500     60.1489      0.0000      8.3637      0.9868
   960.0000     57.6462      0.0000      8.6055      1.0397
