~Version Information
 VERS.                                  2.0 : CWLS LAS VERSION
 WRAP.                                   NO : WRAPING MODE
 SWARE .                 MController 2.5.0E : SOFTWARE VERSION
~Well Information
 WELL.                         STATE 16-24V : WELL
 COMP.                      Petrogulf Corp. : COMPANY
 FLD.                      Purgatorie River : FIELD
 LOC.                NW/SE Sec 16 T33S R67W : LOCATION
 DATE.                      5/02/04-5/03/04 : DATE(S) LOGGED
 SRVC.       Blanco Geological Services LLC : SERVICE COMPANY
 STAT.                                   CO : STATE
 CNTY.                           Las Animas : COUNTY
 CTRY.                                  USA : COUNTRY
 API.                       05-071-08014-00 : API NUMBER
 STRT.FT                              40.00 : START DEPTH
 STOP.FT                            2380.00 : STOP DEPTH
 STEP.FT                               1.00 : DEPTH INCREMENT
 NULL.                                -9999 : NULL VALUE
~Curve information
 DEPTH.FT                                   :
 ROP.MIN/FT                                 :
 GAS.UNITS                                  :
~ASCII Log data
# ...
     1840.00        0.233         39.5 
     1841.00        0.233         38.9 
     1842.00        0.200         37.1 
     1843.00        0.233         37.5 
     1844.00        0.200         36.6 
     1845.00        0.200         36.8 
     1846.00        0.200         35.3 
     1847.00        0.200         35.2 
     1848.00        0.150         35.2 
     1849.00        0.167         35.4 
     1850.00        0.133         34.7 
     1851.00        0.167         34.7 
     1852.00        0.167         33.5 
     1853.00        0.133         33.5 
     1854.00        0.200         33.4 
     1855.00        0.167         32.2 
     1856.00        3.683         69.9 
     1857.00        0.333         62.8 
     1858.00        0.400         58.9 
     1859.00        0.200         55.0 
     1860.00        0.167         52.5 
     1861.00        0.267         50.3 
     1862.00        0.200         48.7 
     1863.00        0.167         47.6 
     1864.00        0.217         46.5 
     1865.00        0.200         43.5 
     1866.00        0.200         42.7 
     1867.00        0.167         41.6 
     1868.00        0.167         41.5 
     1869.00        0.200         39.1 
     1870.00        0.167         39.1 
     1871.00        0.200         38.2 
     1872.00        0.200         36.8 
     1873.00        0.167         35.1 
     1874.00        0.200         35.5 
     1875.00        0.167         35.5 
     1876.00        0.167         33.5 
     1877.00        0.133         33.5 
     1878.00        0.167         34.2 
     1879.00        0.167         33.5 
     1880.00        0.167         33.5 
     1881.00        0.200         32.8 
     1882.00        0.217         30.5 
     1883.00        0.200         30.5 
     1884.00        0.200         29.4 
     1885.00        0.267         25.8 
     1886.00        2.750         77.3 
     1887.00        0.567         77.0 
     1888.00        0.567         72.6 
     1889.00        0.467         67.4 
     1890.00        0.333         61.4 
     1891.00        0.233         59.1 
     1892.00        0.233         53.7 
     1893.00        0.267         53.2 
     1894.00        0.300         47.8 
     1895.00        0.267         46.9 
     1896.00        0.283         45.3 
     1897.00        0.267         44.5 
     1898.00        0.167         46.1 
     1899.00        0.167         48.5 
     1900.00        0.200         50.8 
     1901.00        0.233         58.0 
     1902.00        0.200         58.0 
     1903.00        0.200         60.8 
     1904.00        0.200         60.5 
     1905.00        0.200         58.2 
     1906.00        0.200         58.2 
     1907.00        0.167         56.0 
     1908.00        0.167         54.8 
     1909.00        0.200         54.8 
     1910.00        0.167         53.7 
     1911.00        0.167         52.5 
     1912.00        0.217         52.5 
     1913.00        0.333         50.3 
     1914.00        0.233         46.6 
     1915.00        0.233         43.3 
     1916.00        2.300         84.6 
     1917.00        0.417        101.1 
     1918.00        0.300        105.1 
     1919.00        0.233        103.0 
     1920.00        0.233         96.6 
     1921.00        0.267         90.2 
     1922.00        0.267         83.1 
     1923.00        0.233         85.6 
     1924.00        0.167         85.6 
     1925.00        0.100         83.9 
     1926.00        0.200         80.8 
     1927.00        0.167         78.4 
     1928.00        0.167         73.3 
     1929.00        0.300         72.3 
     1930.00        0.267         65.0 
     1931.00        0.233         64.4 
     1932.00        0.183         58.6 
     1933.00        0.167         58.1 
     1934.00        0.167         54.1 
     1935.00        0.200         52.3 
     1936.00        0.267         51.9 
     1937.00        0.300         47.3 
     1938.00        0.233         47.0 
     1939.00        0.233         45.1 
     1940.00        0.200         45.1 
     1941.00        0.200         44.0 
     1942.00        0.200         43.3 
     1943.00        0.200         42.0 
     1944.00        0.167         40.4 
     1945.00        0.200         38.4 
     1946.00        2.883        110.1 
     1947.00        0.333        107.6 
     1948.00        0.300         94.8 
     1949.00        0.233         90.5 
     1950.00        0.283         88.0 
     1951.00        0.200         76.0 
     1952.00        0.233         71.4 
     1953.00        0.200         64.6 
     1954.00        0.233         62.5 
     1955.00        0.233         58.0 
     1956.00        0.200         53.2 
     1957.00        0.233         52.1 
     1958.00        0.200         49.7 
     1959.00        0.200         48.7 
     1960.00        0.200         48.2 
     1961.00        0.200         48.2 
     1962.00        0.167         48.2 
     1963.00        0.233         49.8 
     1964.00        0.167         53.0 
     1965.00        0.217         54.0 
     1966.00        0.167         54.0 
     1967.00        0.267         52.1 
     1968.00        0.167         54.3 
     1969.00        0.200         57.9 
     1970.00        0.167         62.5 
     1971.00        0.200         63.2 
     1972.00        0.200         63.2 
     1973.00        0.233         59.8 
     1974.00        0.200         53.5 
     1975.00        3.483         51.5 
     1976.00        0.233         52.8 
     1977.00        0.200         54.1 
     1978.00        0.233         55.6 
     1979.00        0.200         55.6 
     1980.00        0.133         55.6 
     1981.00        0.167         55.3 
     1982.00        0.133         54.8 
     1983.00        0.250         53.8 
     1984.00        0.233         52.7 
     1985.00        0.233         51.4 
     1986.00        0.200         48.8 
     1987.00        0.233         48.0 
     1988.00        0.167         46.4 
     1989.00        0.167         45.9 
     1990.00        0.233         42.1 
     1991.00        0.200         41.0 
     1992.00        0.200         39.9 
     1993.00        0.167         38.6 
     1994.00        0.200         36.5 
     1995.00        0.200         36.5 
     1996.00        0.200         35.8 
     1997.00        0.133         35.9 
     1998.00        0.200         35.9 
     1999.00        0.167         35.1 
     2000.00        0.217         34.1 
     2001.00        0.200         34.1 
     2002.00        0.200         32.6 
     2003.00        0.133         32.2 
     2004.00        0.267         29.8 
     2005.00        0.267         29.1 
     2006.00        2.417         28.2 
     2007.00        0.300         27.9 
     2008.00        0.300         28.8 
     2009.00        0.367         30.2 
     2010.00        0.367         31.3 
     2011.00        0.267         31.6 
     2012.00        0.167         31.8 
     2013.00        0.200         32.1 
     2014.00        0.233         32.2 
     2015.00        0.200         32.4 
     2016.00        0.233         32.0 
     2017.00        0.200         31.3 
     2018.00        0.250         31.8 
     2019.00        0.200         30.8 
     2020.00        0.200         30.0 
     2021.00        0.200         30.4 
     2022.00        0.200         29.4 
     2023.00        0.200         28.2 
     2024.00        0.167         27.1 
     2025.00        0.233         27.3 
     2026.00        0.233         27.3 
     2027.00        0.200         25.9 
     2028.00        0.200         26.4 
     2029.00        0.200         25.1 
     2030.00        0.200         25.3 
     2031.00        0.233         24.7 
     2032.00        0.200         25.5 
     2033.00        0.233         25.5 
     2034.00        0.250         25.6 
     2035.00        0.267         25.0 
     2036.00        1.800         25.9 
     2037.00        0.200         24.9 
     2038.00        0.333         25.0 
     2039.00        0.367         25.1 
