~Version Information
 VERS.                                  2.0 : CWLS LAS VERSION
 WRAP.                                   NO : WRAPING MODE
 SWARE .                 MController 2.5.0E : SOFTWARE VERSION
~Well Information
 WELL.                                  N/A : WELL
 COMP.                                  N/A : COMPANY
 FLD.                                   N/A : FIELD
 LOC.                                   N/A : LOCATION
 DATE.                                  N/A : DATE(S) LOGGED
 SRVC.                                  N/A : SERVICE COMPANY
 STAT.                                  N/A : STATE
 CNTY.                                  N/A : COUNTY
 CTRY.                                  N/A : COUNTRY
 API.                                   N/A : API NUMBER
 STRT.FT                             951.00 : START DEPTH
 STOP.FT                            2600.00 : STOP DEPTH
 STEP.FT                               1.00 : DEPTH INCREMENT
 NULL.                                -9999 : NULL VALUE
~Curve information
 DEPTH.FT                                   :
 ROP.MIN/FT                                 :
 GAS.UNITS                                  :
~ASCII Log data
      951.00    -9999.000          1.4 
      952.00        0.033          1.4 
      953.00        0.133          1.3 
      954.00        0.150          1.2 
      955.00        0.167          1.6 
      956.00        2.233          2.5 
      957.00        0.267          1.8 
      958.00        0.367          1.4 
      959.00        0.283          1.7 
      960.00        0.367          1.7 
      961.00        0.067          1.6 
      962.00        0.167          1.9 
      963.00        0.133          2.2 
      964.00        0.133          2.2 
      965.00        0.167          1.9 
      966.00        0.133          2.2 
      967.00        0.167          2.4 
      968.00        0.167          2.4 
      969.00        0.133          2.7 
      970.00        0.100          2.0 
      971.00        0.133          2.6 
      972.00        0.133          2.7 
      973.00        0.133          3.0 
      974.00        0.167          3.5 
      975.00        0.133          3.8 
      976.00        0.133          4.8 
      977.00        0.133          6.5 
      978.00        0.167          7.3 
      979.00        0.133          8.0 
      980.00        0.167          8.5 
      981.00        0.183          8.8 
      982.00        0.167          9.5 
      983.00        0.167          9.7 
      984.00        0.167         10.1 
      985.00        0.267         10.0 
      986.00        1.667         10.3 
      987.00        0.233          6.2 
      988.00        0.200          4.3 
      989.00        0.200          4.3 
      990.00        0.200          3.8 
      991.00        0.217          3.9 
      992.00        0.167          3.1 
      993.00        0.200          3.3 
      994.00        0.167          3.1 
      995.00        0.167          3.1 
      996.00        0.133          3.0 
      997.00        0.133          3.0 
      998.00        0.167          3.2 
      999.00        0.133          2.7 
     1000.00        0.133          2.7 
     1001.00        0.133          3.6 
     1002.00        0.200          3.3 
     1003.00        0.133          3.6 
     1004.00        0.167          3.2 
     1005.00        0.167          3.5 
     1006.00        0.167          3.7 
     1007.00        0.133          3.8 
     1008.00        0.133          4.3 
     1009.00        0.133          5.5 
     1010.00        0.133          6.1 
     1011.00        0.133          6.7 
     1012.00        0.133          7.4 
     1013.00        0.150          7.5 
     1014.00        0.133          7.7 
     1015.00        0.267          8.4 
     1016.00        2.000         10.2 
     1017.00        0.300          5.7 
     1018.00        0.267          5.2 
     1019.00        0.317          3.9 
     1020.00        0.233          3.6 
     1021.00        0.167          3.6 
     1022.00        0.200          3.3 
     1023.00        0.133          3.3 
     1024.00        0.167          3.4 
     1025.00        0.167          3.4 
     1026.00        0.167          3.7 
     1027.00        0.167          3.7 
     1028.00        0.167          3.6 
     1029.00        0.133          3.6 
     1030.00        0.133          3.6 
     1031.00        0.167          3.2 
     1032.00        0.133          3.4 
     1033.00        0.167          3.9 
     1034.00        0.167          3.8 
     1035.00        0.133          3.8 
     1036.00        0.133          4.3 
     1037.00        0.167          4.7 
     1038.00        0.133          4.1 
     1039.00        0.100          4.1 
     1040.00        0.100          4.7 
     1041.00        0.150          5.5 
     1042.00        0.100          5.5 
     1043.00        0.100          5.6 
     1044.00        0.100          5.6 
     1045.00        0.167          6.7 
     1046.00        2.733         11.2 
     1047.00        0.383          7.8 
     1048.00        0.233          5.6 
     1049.00        0.233          4.4 
     1050.00        0.200          3.8 
     1051.00        0.200          3.5 
     1052.00        0.200          3.5 
     1053.00        0.167          3.3 
     1054.00        0.200          3.1 
     1055.00        0.100          3.1 
     1056.00        0.133          2.8 
     1057.00        0.167          2.8 
     1058.00        0.200          3.1 
     1059.00        0.167          2.7 
     1060.00        0.167          2.8 
     1061.00        0.167          2.8 
     1062.00        0.167          3.6 
     1063.00        0.167          3.9 
     1064.00        0.133          3.9 
     1065.00        0.217          4.4 
     1066.00        0.133          4.4 
     1067.00        0.167          5.3 
     1068.00        0.133          6.9 
     1069.00        0.167          6.9 
     1070.00        0.133          7.1 
     1071.00        0.167          8.4 
     1072.00        0.167          9.1 
     1073.00        0.133          9.1 
     1074.00        0.100          9.7 
     1075.00        0.267         10.6 
     1076.00        3.583         10.8 
     1077.00        0.267          3.5 
     1078.00        0.333          3.5 
     1079.00        0.267          3.2 
     1080.00        0.233          3.3 
     1081.00        0.200          3.0 
     1082.00        0.117          3.2 
     1083.00        0.100          3.5 
     1084.00        0.200          3.3 
     1085.00        0.167          3.3 
     1086.00        0.167          3.5 
     1087.00        0.167          3.4 
     1088.00        0.167          3.6 
     1089.00        0.167          3.3 
     1090.00        0.167          3.6 
     1091.00        0.167          3.8 
     1092.00        0.167          4.4 
     1093.00        0.167          4.6 
     1094.00        0.167          4.6 
     1095.00        0.167          5.4 
     1096.00        0.167          6.1 
     1097.00        0.167          6.1 
     1098.00        0.167          6.7 
     1099.00        0.167          6.7 
     1100.00        0.067          7.0 
     1101.00        0.267          7.5 
     1102.00        0.283          8.5 
     1103.00        0.067          8.1 
     1104.00        0.267          8.4 
     1105.00        0.267          8.1 
     1106.00        1.533          7.9 
     1107.00        0.300          5.4 
     1108.00        0.233          4.6 
     1109.00        0.200          4.3 
     1110.00        0.200          3.9 
     1111.00        0.250          4.1 
     1112.00        0.200          4.2 
     1113.00        0.167          4.3 
     1114.00        0.233          4.0 
     1115.00        0.200          4.1 
     1116.00        0.167          4.1 
     1117.00        0.167          4.0 
     1118.00        0.167          4.2 
     1119.00        0.167          4.1 
     1120.00        0.200          4.0 
     1121.00        0.167          4.2 
     1122.00        0.133          4.3 
     1123.00        0.167          4.4 
     1124.00        0.167          4.8 
     1125.00        0.133          4.6 
     1126.00        0.167          5.1 
     1127.00        0.133         24.2 
     1128.00        0.167         30.3 
     1129.00        0.167         30.9 
     1130.00        0.133         31.3 
     1131.00        0.183         31.8 
     1132.00        0.133         31.6 
     1133.00        0.300         32.2 
     1134.00        0.100         32.7 
     1135.00        0.100         28.3 
     1136.00        1.900         28.3 
     1137.00        0.167         24.9 
     1138.00        0.100         24.6 
     1139.00        0.100         24.7 
     1140.00        0.233         24.3 
     1141.00        0.250         23.7 
     1142.00        0.233         23.9 
     1143.00        0.200         24.8 
     1144.00        0.200         24.5 
     1145.00        0.200         23.8 
     1146.00        0.233         24.7 
     1147.00        0.200         24.4 
     1148.00        0.200         24.5 
     1149.00        0.200         24.7 
     1150.00        0.167         23.8 
