~Version Information
VERS.                      2.0: CWLS Log ASCII Standard - VERSION 2.0
WRAP.                       NO: One line per depth step
~Well Information Block
STRT.FT               546.0000: 
STOP.FT              1771.5000: 
STEP.FT                 0.2500: 
NULL.                -999.2500: 
COMP.          Petrogulf Corporation: COMPANY
WELL.             McLeod 9-42R: WELL
FLD.           Purgatorie River: FIELD
LOC.           1748' FNL & 372' FEL: LOCATION
PROV.                 Colorado: PROVINCE
CNTY.               Las Animas: COUNTRY
SRVC.                Patterson: SERVICE COMPANY
DATE.          Tue Aug 16 11:11:38 2005: LOG DATE
UWI.           071 08092  : UNIQUE WELL ID
~Curve Information Block
DEPT.FT            0 000 00 00: Depth
SP.mV                         : DIL Spontaneous Potential
RILD.Ohm-m                    : DIL Deep Resistivity
RILM.Ohm-m                    : DIL Medium Resistivity
RLL3.Ohm-m                    : DIL Shallow Resistivity
GR.GAPI                       : Gamma Ray
~Parameter Information Block
~A  Depth        SP         RILD        RILM        RLL3         GR     
# ...
  1498.0000    116.2966     10.7293     11.2016     12.2494    132.7719
  1498.2500    115.8025     10.6691     11.2375     12.2827    124.8426
  1498.5000    115.6547     10.5619     11.3219     13.0857    126.6486
  1498.7500    115.2781     10.4256     11.2498     12.9809    122.0099
  1499.0000    112.9128     10.2366     11.1307     13.0340    120.3220
  1499.2500    112.5062     10.1787     11.5472     13.6799    118.2218
  1499.5000    110.8484     10.1115     12.1028     14.1230    121.0787
  1499.7500    109.7585     10.0173     11.6123     14.7246    119.9592
  1500.0000    107.8734     10.4193     11.5768     15.6399    123.5469
  1500.2500    105.6439     10.4661     11.0995     14.9487    125.3885
  1500.5000    102.7812     10.4375     11.1223     13.8991    130.2607
  1500.7500    102.2825     10.2981     11.7597     13.7680    123.8632
  1501.0000     99.7844     10.5121     11.8120     14.0706    123.0177
  1501.2500     98.9318     10.7966     11.6892     14.3361    123.1124
  1501.5000     96.1477     11.1293     12.0999     15.7516    119.7948
  1501.7500     96.0860     11.3682     12.4852     16.4282    113.1946
  1502.0000     94.5598     11.3971     12.3800     16.3964    113.6752
  1502.2500     93.6488     11.3412     12.7972     17.0028    116.4976
  1502.5000     90.4515     12.1172     12.8169     17.8935    116.4860
  1502.7500     87.8988     11.4466     13.4767     17.8583    114.5919
  1503.0000     83.2751     12.7963     14.0171     16.6671    107.4471
  1503.2500     79.8996     13.4021     14.5093     15.6362    104.4753
  1503.5000     74.7263     13.4381     15.1264     15.2683    105.6420
  1503.7500     70.4638     14.0892     16.1337     17.7853    102.9008
  1504.0000     66.1553     13.7555     16.4980     25.4814    104.2402
  1504.2500     61.4351     14.0845     17.2247     27.6492    103.7467
  1504.5000     60.3100     14.5194     18.4719     24.1355     93.4164
  1504.7500     63.5248     13.6574     19.8687     21.0360     94.8314
  1505.0000     63.4584     14.7360     19.8483     22.1114     93.7828
  1505.2500     61.1188     14.0057     19.4070     31.1133     98.7924
  1505.5000     60.2135     15.8795     18.9342     50.5947    113.8252
  1505.7500     57.3565     16.3436     18.6589     54.5259    118.8374
  1506.0000     54.5513     16.7743     18.1380     34.5078    128.3605
  1506.2500     53.6935     16.2549     17.3256     19.9494    127.7894
  1506.5000     51.5412     16.3483     18.4558     15.0024    109.8186
  1506.7500     50.7339     17.0016     18.2088     14.2777    101.9284
  1507.0000     48.1706     18.8601     18.6541     15.6057     84.8941
  1507.2500     45.7798     18.4540     19.8470     20.7373     83.5254
  1507.5000     44.0355     17.9339     19.9857     31.0435     84.7742
  1507.7500     42.5413     18.5341     21.4262     38.2849     86.5472
  1508.0000     40.6159     17.9886     21.0687     36.8041     80.2612
  1508.2500     39.6800     16.8500     20.4151     31.6886     81.4607
  1508.5000     37.8492     17.8202     21.1588     27.6548     80.4721
  1508.7500     36.6796     18.1617     20.9151     25.6039     70.2801
  1509.0000     33.9595     18.1734     22.1049     26.4122     66.0847
  1509.2500     33.1297     18.7317     21.5631     28.2173     62.3718
  1509.5000     31.8688     19.9657     21.8671     28.8404     56.1878
  1509.7500     30.0249     18.7136     22.1710     28.9976     54.9169
  1510.0000     29.7234     18.9775     23.3548     29.1624     63.0058
  1510.2500     28.2887     20.8836     24.4337     29.3469     59.3220
  1510.5000     27.7411     20.9806     23.6067     29.2978     61.6803
  1510.7500     25.1597     20.3609     22.9841     29.0468     65.6795
  1511.0000     26.2232     20.2132     24.9999     28.8366     67.1098
  1511.2500     24.7973     20.0845     24.2077     29.0841     66.3854
  1511.5000     23.4752     21.7763     24.8767     29.2605     57.3823
  1511.7500     19.4615     21.1645     24.4711     29.3941     61.6965
  1512.0000     18.7448     20.9741     26.4426     29.7213     55.4392
  1512.2500     16.8258     20.4592     26.4901     30.5028     55.3304
  1512.5000     16.8802     21.9434     26.8386     30.8080     60.9464
  1512.7500     16.3102     21.6645     26.7827     31.3875     56.6923
  1513.0000     17.3061     20.9719     25.7543     31.4751     48.6225
  1513.2500     15.9024     23.0966     24.7091     31.5080     56.9763
  1513.5000     15.9692     22.0051     24.6449     30.6977     59.9036
  1513.7500     15.7593     21.5764     24.9468     27.2894     60.5796
  1514.0000     15.9341     20.6443     24.7085     25.5087     67.3214
  1514.2500     13.3987     20.9488     23.1331     23.9984     55.2497
  1514.5000     12.8423     19.9801     22.4660     23.6659     55.8686
  1514.7500      9.9268     19.4489     22.6916     23.1433     60.1519
  1515.0000      8.1677     18.5696     21.3894     22.7670     60.5234
  1515.2500      7.8163     17.2089     19.8599     22.3368     56.9504
  1515.5000      6.7911     17.0701     20.1379     22.1472     55.8953
  1515.7500      6.5792     18.2695     20.3933     21.3856     53.0090
  1516.0000      7.2609     19.6236     19.8799     20.8167     58.5092
  1516.2500      5.7943     18.0462     19.8804     20.7465     63.6128
  1516.5000      5.4583     17.9772     20.6391     20.7793     61.4361
  1516.7500      5.4869     17.5956     20.7323     21.4056     64.5549
  1517.0000      3.9266     16.7182     21.0245     22.1231     57.5461
  1517.2500      3.4565     15.7921     20.2517     23.1475     59.3778
  1517.5000      4.1824     16.4851     19.9527     23.6108     67.9982
  1517.7500      2.5388     16.9261     19.9802     23.8028     68.2604
  1518.0000      3.8242     17.5632     19.6980     25.5827     73.1724
  1518.2500      3.8012     17.7274     19.4696     28.5744     71.7574
  1518.5000      4.4188     17.1575     20.6679     27.1321     75.7185
  1518.7500      5.1082     18.1946     20.9287     22.7679     72.1034
  1519.0000      5.1557     18.6464     22.2195     21.4019     68.4179
  1519.2500      5.1780     18.7524     22.4017     22.3419     62.1601
  1519.5000      4.2882     18.0507     20.6326     23.1314     56.6677
  1519.7500      4.5920     18.8876     20.3995     23.9345     52.8017
  1520.0000      5.7220     18.1165     21.7105     24.4339     55.9070
  1520.2500      6.1373     16.7344     22.1125     25.6197     62.7014
  1520.5000      6.7551     18.0095     20.8480     26.3309     71.8676
  1520.7500      6.6801     17.6198     21.3416     26.5945     69.9811
  1521.0000      6.9037     18.7397     21.5861     25.3015     72.2615
  1521.2500      6.5175     19.5850     20.9818     23.4805     74.0615
  1521.5000      6.9757     20.2654     21.1321     22.6515     84.9025
  1521.7500      7.5944     20.5075     21.4876     21.7899     89.7313
  1522.0000      7.4978     19.1794     20.8922     20.8974     75.4914
  1522.2500      7.0395     16.4180     19.8784     20.3520     66.9308
  1522.5000      5.9681     17.4273     21.9832     20.6390     63.6277
  1522.7500      4.3229     19.1507     23.5101     22.0666     56.6452
  1523.0000      4.7617     19.6390     23.9237     25.7151     55.7757
  1523.2500      4.7055     19.5821     22.8910     30.2377     64.4961
  1523.5000      4.5157     17.9671     23.0311     32.0652     66.8605
  1523.7500      4.2137     18.9996     22.5578     31.3598     64.7683
  1524.0000      4.1018     19.1775     21.9917     29.4227     60.7032
  1524.2500      1.8311     19.2894     20.9497     28.8998     62.3478
  1524.5000      1.4358     19.9374     21.4173     28.6166     56.6274
  1524.7500      0.0287     19.0327     20.7055     27.3547     59.3612
  1525.0000     -0.0724     19.9520     20.0547     24.4293     64.7659
  1525.2500     -0.7768     17.6605     19.5818     24.0720     66.8943
  1525.5000      1.6941     17.3589     19.2279     24.1087     69.4916
  1525.7500      1.3343     16.1605     19.1894     22.8810     69.8391
