~Version Information
VERS.                      2.0: CWLS Log ASCII Standard - VERSION 2.0
WRAP.                       NO: One line per depth step
~Well Information Block
STRT.FT               652.0000: 
STOP.FT              1880.5000: 
STEP.FT                 0.2500: 
NULL.                -999.2500: 
COMP.          Pioneer Natural Resources: COMPANY
WELL.          Corkscrew 33-12 Tr: WELL
FLD.           Purgatoire River: FIELD
LOC.           1870' FSL & 1706' FEL: LOCATION
PROV.                 Colorado: PROVINCE
CNTY.               Las Animas: COUNTRY
SRVC.                Patterson: SERVICE COMPANY
DATE.          Mon Mar 28 22:58:28 2005: LOG DATE
UWI.           05 071 08295 00: UNIQUE WELL ID
~Curve Information Block
DEPT.FT            0 000 00 00: Depth
SN.Ohm-m                      : IEL Short Normal
SP.mV                         : IEL Spontaneous Potential
DIR.Ohm-m                     : IEL Induction Resistivity
GR.GAPI                       : Gamma Ray
~Parameter Information Block
~A  Depth        SN          SP         DIR          GR     
# ...
  1054.0000     40.9682    -27.6490     31.7439     90.9080
  1054.2500     41.4870    -27.8989     29.9288     89.2990
  1054.5000     41.8182    -28.0385     27.6278     88.5982
  1054.7500     42.0706    -28.0937     25.2895     89.4956
  1055.0000     42.1892    -28.0982     23.2409     92.2180
  1055.2500     41.9114    -28.0765     21.5992     94.3753
  1055.5000     40.8814    -28.0305     20.3231     97.8012
  1055.7500     38.8789    -27.9403     19.3057    100.6003
  1056.0000     35.9693    -27.7757     18.4446    106.6704
  1056.2500     32.4554    -27.5135     17.6693    112.3971
  1056.5000     28.7726    -27.1506     16.9353    123.3998
  1056.7500     25.4355    -26.7080     16.2161    131.7181
  1057.0000     22.8901    -26.2274     15.5086    143.7001
  1057.2500     21.2936    -25.7641     14.8416    150.0262
  1057.5000     20.4636    -25.3783     14.2629    155.7256
  1057.7500     20.0456    -25.1193     13.8118    157.2895
  1058.0000     19.7319    -25.0067     13.4983    157.9500
  1058.2500     19.3780    -25.0210     13.3027    158.0297
  1058.5000     18.9847    -25.1138     13.1904    157.6517
  1058.7500     18.6369    -25.2293     13.1308    156.6886
  1059.0000     18.4889    -25.3224     13.1079    153.7313
  1059.2500     18.7242    -25.3637     13.1228    150.5887
  1059.5000     19.4374    -25.3416     13.1908    143.7568
  1059.7500     20.5247    -25.2656     13.3388    137.8365
  1060.0000     21.6976    -25.1619     13.5991    128.2622
  1060.2500     22.6424    -25.0588     13.9975    122.8032
  1060.5000     23.2168    -24.9749     14.5413    118.0368
  1060.7500     23.5183    -24.9211     15.2106    117.5129
  1061.0000     23.7586    -24.9065     15.9614    119.9752
  1061.2500     24.0504    -24.9368     16.7386    122.9599
  1061.5000     24.3370    -25.0069     17.4899    127.8847
  1061.7500     24.5419    -25.0997     18.1695    130.5622
  1062.0000     24.7145    -25.1913     18.7298    132.4133
  1062.2500     24.9906    -25.2568     19.1163    131.8456
  1062.5000     25.4662    -25.2765     19.2806    128.2915
  1062.7500     26.1336    -25.2452     19.2098    124.2510
  1063.0000     26.9127    -25.1810     18.9483    116.0263
  1063.2500     27.7639    -25.1232     18.5881    109.6160
  1063.5000     28.7402    -25.1124     18.2322    100.3892
  1063.7500     29.8215    -25.1602     17.9564     95.8251
  1064.0000     30.7101    -25.2340     17.7907     93.1324
  1064.2500     30.9863    -25.2740     17.7203     94.4112
  1064.5000     30.5197    -25.2282     17.6989    100.2042
  1064.7500     29.4893    -25.0769     17.6643    105.8109
  1065.0000     28.0350    -24.8299     17.5509    115.0998
  1065.2500     26.2069    -24.5130     17.3006    120.6667
  1065.5000     24.1634    -24.1627     16.8739    126.0338
  1065.7500     22.1353    -23.8217     16.2698    127.0816
  1066.0000     20.2159    -23.5246     15.5391    125.8484
  1066.2500     18.3506    -23.2803     14.7761    124.4341
  1066.5000     16.5477    -23.0698     14.0831    123.1797
  1066.7500     14.9973    -22.8657     13.5329    123.2749
  1067.0000     13.9756    -22.6529     13.1532    124.8220
  1067.2500     13.6699    -22.4356     12.9350    126.8120
  1067.5000     14.0480    -22.2273     12.8509    131.0814
  1067.7500     14.8319    -22.0426     12.8688    134.2937
  1068.0000     15.6252    -21.8956     12.9575    138.3346
  1068.2500     16.1491    -21.7992     13.0876    139.8567
  1068.5000     16.3655    -21.7641     13.2349    139.9303
  1068.7500     16.3869    -21.7987     13.3860    138.6857
  1069.0000     16.3323    -21.9143     13.5370    136.0031
  1069.2500     16.2859    -22.1241     13.6826    134.5506
  1069.5000     16.3200    -22.4321     13.8061    133.5809
  1069.7500     16.4615    -22.8181     13.8824    133.2903
  1070.0000     16.6478    -23.2366     13.8929    131.9631
  1070.2500     16.7842    -23.6349     13.8391    130.0720
  1070.5000     16.8165    -23.9781     13.7384    126.2784
  1070.7500     16.7351    -24.2581     13.6069    123.9213
  1071.0000     16.5607    -24.4839     13.4449    122.2495
  1071.2500     16.3272    -24.6664     13.2373    123.0288
  1071.5000     16.0331    -24.8107     12.9703    126.6603
  1071.7500     15.6235    -24.9174     12.6459    129.5947
  1072.0000     15.0516    -24.9834     12.2844    132.8924
  1072.2500     14.3379    -25.0004     11.9092    134.2171
  1072.5000     13.5497    -24.9584     11.5310    136.0610
  1072.7500     12.7524    -24.8527     11.1468    137.7831
  1073.0000     12.0007    -24.6902     10.7530    140.8302
  1073.2500     11.3462    -24.4877     10.3601    142.4294
  1073.5000     10.8305    -24.2684      9.9938    142.9136
  1073.7500     10.4758    -24.0599      9.6809    141.7256
  1074.0000     10.2875    -23.8935      9.4362    138.4708
  1074.2500     10.2626    -23.7970      9.2576    136.0941
  1074.5000     10.3816    -23.7823      9.1327    132.8402
  1074.7500     10.5905    -23.8392      9.0469    130.6688
  1075.0000     10.8165    -23.9414      8.9881    127.0972
  1075.2500     11.0128    -24.0593      8.9473    124.7559
  1075.5000     11.1818    -24.1685      8.9172    121.8982
  1075.7500     11.3440    -24.2551      8.8926    120.3935
  1076.0000     11.4995    -24.3167      8.8705    118.1611
  1076.2500     11.6342    -24.3619      8.8486    116.5735
  1076.5000     11.7462    -24.4048      8.8219    114.8304
  1076.7500     11.8486    -24.4566      8.7815    114.9557
  1077.0000     11.9640    -24.5215      8.7228    118.1703
  1077.2500     12.1243    -24.6009      8.6572    122.1525
  1077.5000     12.3566    -24.6992      8.6163    129.0969
  1077.7500     12.6704    -24.8253      8.6402    133.1234
  1078.0000     13.0564    -24.9849      8.7593    137.1119
  1078.2500     13.4866    -25.1722      8.9825    138.4540
  1078.5000     13.9273    -25.3691      9.2976    139.1106
  1078.7500     14.3655    -25.5521      9.6823    138.8715
  1079.0000     14.7997    -25.7006     10.1176    137.3626
  1079.2500     15.2029    -25.8056     10.5951    135.4225
  1079.5000     15.5249    -25.8736     11.1161    131.5161
  1079.7500     15.7517    -25.9206     11.6830    128.9965
  1080.0000     15.9847    -25.9622     12.2925    126.5814
  1080.2500     16.4952    -26.0063     12.9357    126.0443
  1080.5000     17.6335    -26.0530     13.6017    126.1912
  1080.7500     19.5635    -26.0962     14.2793    126.3086
  1081.0000     22.0520    -26.1259     14.9515    125.5365
  1081.2500     24.5534    -26.1327     15.5886    124.2059
  1081.5000     26.5306    -26.1141     16.1470    121.8766
  1081.7500     27.7293    -26.0787     16.5801    121.0568
  1082.0000     28.2278    -26.0397     16.8550    121.8053
  1082.2500     28.3146    -26.0059     16.9674    123.1675
  1082.5000     28.2960    -25.9798     16.9454    124.7565
  1082.7500     28.3355    -25.9615     16.8408    124.7782
  1083.0000     28.4335    -25.9454     16.7116    123.2338
  1083.2500     28.5331    -25.9182     16.6065    121.6049
  1083.5000     28.6032    -25.8669     16.5567    119.1881
  1083.7500     28.6216    -25.7909     16.5738    118.1801
  1084.0000     28.5463    -25.7019     16.6537    118.4937
  1084.2500     28.3391    -25.6169     16.7811    120.0467
  1084.5000     28.0072    -25.5535     16.9333    123.4945
  1084.7500     27.6210    -25.5295     17.0820    125.6327
  1085.0000     27.2742    -25.5593     17.1974    127.3139
  1085.2500     27.0158    -25.6503     17.2573    127.1516
  1085.5000     26.8605    -25.8042     17.2553    125.4786
  1085.7500     26.8540    -26.0243     17.2012    124.1039
  1086.0000     27.0502    -26.3142     17.1111    122.9850
  1086.2500     27.4185    -26.6636     16.9968    123.3796
  1086.5000     27.8210    -27.0363     16.8625    125.6522
  1086.7500     28.0639    -27.3794     16.7055    127.7054
  1087.0000     27.9516    -27.6490     16.5210    130.1578
  1087.2500     27.3651    -27.8297     16.3046    130.8076
