~Version Information
VERS.                      2.0: CWLS Log ASCII Standard - VERSION 2.0
WRAP.                       NO: One line per depth step
~Well Information Block
STRT.FT               675.0000: 
STOP.FT              2371.5000: 
STEP.FT                 0.1000: 
NULL.                -999.2500: 
COMP.          Pioneer Natural Resources: COMPANY
WELL.            Harrier 44-33: WELL
FLD.           Purgatoire River: FIELD
LOC.           456' FSL & 930' FEL: LOCATION
PROV.                 Colorado: PROVINCE
CNTY.               Las Animas: COUNTRY
SRVC.                Patterson: SERVICE COMPANY
DATE.          Mon Jun 20 10:36:59 2005: LOG DATE
UWI.           05 071 08398 00: UNIQUE WELL ID
~Curve Information Block
DEPT.FT            0 000 00 00: Depth
DCAL.in                       : CDL Caliper
RHOB.g/cc                     : CDL Bulk Density
RHOC.g/cc                     : CDL Density Correction
DPOR.pu                       : CDL Density Porosity
GR.GAPI                       : Gamma Ray
NPOR.pu                       : Neutron Porosity
~Parameter Information Block
~A  Depth       DCAL        RHOB        RHOC        DPOR         GR         NPOR    
   675.0000      8.2099      2.2522     -0.4385     24.1085    126.9942     24.5777
   675.1000      8.2099      2.2873     -0.4499     21.9789    129.8216     24.6948
   675.2000      8.2099      2.2979     -0.4209     21.3385    130.8580     23.9680
   675.3000      8.2104      2.2680     -0.4473     23.1546    127.4679     23.3657
   675.4000      8.2104      2.2287     -0.5219     25.5338    122.8208     23.8900
   675.5000      8.2113      2.2130     -0.4739     26.4835    120.2950     24.5740
   675.6000      8.2113      2.2209     -0.4654     26.0049    120.2673     24.0399
   675.7000      8.2113      2.2387     -0.4581     24.9255    121.3971     22.7364
   675.8000      8.2112      2.2509     -0.3781     24.1905    122.5739     21.7355
   675.9000      8.2112      2.2520     -0.4413     24.1220    121.2821     21.5863
   676.0000      8.2128      2.2502     -0.4025     24.2330    115.8034     22.2490
   676.1000      8.2128      2.2368     -0.4066     25.0402    111.7524     23.1234
   676.2000      8.2128      2.2097     -0.4424     26.6873    114.6657     23.7224
   676.3000      8.2119      2.2032     -0.5246     27.0814    122.3711     24.0006
   676.4000      8.2119      2.2355     -0.4499     25.1206    126.6218     23.9904
   676.5000      8.1937      2.2773     -0.4135     22.5902    121.5808     23.7337
   676.6000      8.1937      2.2997     -0.3629     21.2281    113.8785     23.6772
   676.7000      8.1937      2.3038     -0.4475     20.9843    111.3178     23.5534
   676.8000      8.2136      2.3028     -0.4347     21.0439    111.3892     22.4949
   676.9000      8.2136      2.3000     -0.4220     21.2143    108.1109     21.1143
   677.0000      8.2154      2.2978     -0.3873     21.3474    102.1135     20.7907
   677.1000      8.2154      2.2946     -0.4182     21.5371     96.8304     21.3628
   677.2000      8.2154      2.2728     -0.4351     22.8589     92.9689     21.5861
   677.3000      8.2138      2.2295     -0.4695     25.4867     90.2038     21.5016
   677.4000      8.2138      2.1967     -0.4872     27.4756     88.0834     21.7067
   677.5000      8.2217      2.2050     -0.4960     26.9689     87.5697     21.5793
   677.6000      8.2217      2.2489     -0.4085     24.3114     88.4857     20.9452
   677.7000      8.2217      2.2887     -0.3512     21.8953     89.3392     20.1495
   677.8000      8.2114      2.2948     -0.4476     21.5243     91.8375     19.2487
   677.9000      8.2114      2.2891     -0.5231     21.8703     97.4523     18.9356
   678.0000      8.2108      2.2933     -0.3786     21.6191    104.6932     19.5832
   678.1000      8.2108      2.2833     -0.3938     22.2253    111.2657     20.4663
   678.2000      8.2108      2.2567     -0.4692     23.8391    115.4529     21.2696
   678.3000      8.2108      2.2513     -0.5125     24.1654    113.4895     21.7899
   678.4000      8.2108      2.2782     -0.4438     22.5333    105.3423     21.6380
   678.5000      8.2094      2.3006     -0.4015     21.1784     98.0563     21.2123
   678.6000      8.2094      2.2925     -0.4558     21.6644     95.7845     20.9179
   678.7000      8.2094      2.2747     -0.4450     22.7473     94.6292     20.4447
   678.8000      8.2062      2.2833     -0.4670     22.2237     91.3354     19.9967
   678.9000      8.2062      2.3281     -0.4872     19.5108     89.9814     20.2953
   679.0000      8.2073      2.3720     -0.3470     16.8461     92.8998     20.6834
   679.1000      8.2073      2.3775     -0.4484     16.5162     94.2412     20.3591
   679.2000      8.2073      2.3596     -0.4378     17.6002     91.3598     19.9484
   679.3000      8.2078      2.3424     -0.3598     18.6447     88.3017     19.8976
   679.4000      8.2078      2.3244     -0.4488     19.7345     87.9929     19.6551
   679.5000      8.2031      2.3060     -0.3963     20.8511     88.4684     19.2569
   679.6000      8.2031      2.2927     -0.4688     21.6548     84.7601     18.8682
   679.7000      8.2031      2.2909     -0.4993     21.7648     79.0277     18.1989
   679.8000      8.2020      2.2973     -0.4183     21.3734     77.6334     17.6348
   679.9000      8.2020      2.2989     -0.4367     21.2814     79.9675     17.7000
   680.0000      8.2022      2.2974     -0.4943     21.3710     83.7597     18.1872
   680.1000      8.2022      2.3025     -0.4525     21.0587     89.9679     18.3546
   680.2000      8.2022      2.3061     -0.4330     20.8396     96.5911     17.9575
   680.3000      8.2041      2.3027     -0.4210     21.0463     98.6770     17.3572
   680.4000      8.2041      2.2886     -0.3736     21.9049     93.9977     16.8516
   680.5000      8.2034      2.2523     -0.4088     24.1050     88.3188     16.4089
   680.6000      8.2034      2.2167     -0.5481     26.2578     87.9447     16.1042
   680.7000      8.2034      2.2236     -0.5181     25.8394     89.1903     16.1631
   680.8000      8.1960      2.2674     -0.4446     23.1880     88.9873     16.6174
   680.9000      8.1960      2.3020     -0.3638     21.0893     87.7145     17.5049
   681.0000      8.1932      2.3046     -0.4037     20.9348     83.1391     18.6975
   681.1000      8.1932      2.2946     -0.4099     21.5401     76.3503     19.3140
   681.2000      8.1932      2.2889     -0.3675     21.8875     73.0333     18.7998
   681.3000      8.1957      2.2863     -0.4474     22.0453     75.7912     17.7884
   681.4000      8.1957      2.2874     -0.3990     21.9746     79.2143     17.1259
   681.5000      8.1925      2.2904     -0.4953     21.7960     79.8145     16.9185
   681.6000      8.1925      2.2931     -0.4323     21.6311     81.9663     16.9922
   681.7000      8.1925      2.2953     -0.4680     21.4963     87.2057     17.4204
   681.8000      8.1864      2.2892     -0.4206     21.8676     89.9972     17.8890
   681.9000      8.1864      2.2656     -0.4738     23.2963     87.8608     17.9470
   682.0000      8.1592      2.2414     -0.5304     24.7650     86.4849     17.9993
   682.1000      8.1592      2.2386     -0.5016     24.9340     90.0924     18.6477
   682.2000      8.1592      2.2509     -0.4608     24.1875     96.1594     19.7762
   682.3000      8.1351      2.2684     -0.5325     23.1249    104.2863     21.1378
   682.4000      8.1351      2.2912     -0.4675     21.7427    116.6215     22.4704
   682.5000      8.1181      2.3066     -0.4391     20.8113    128.9195     22.9456
   682.6000      8.1181      2.2994     -0.4570     21.2513    134.6240     22.3834
   682.7000      8.1181      2.2786     -0.5176     22.5113    133.7603     21.7287
   682.8000      8.1222      2.2665     -0.4782     23.2439    129.7073     21.8106
   682.9000      8.1222      2.2740     -0.4973     22.7881    127.9521     22.3588
   683.0000      8.1366      2.3020     -0.4718     21.0905    129.9280     22.7899
   683.1000      8.1366      2.3287     -0.3620     19.4702    131.0402     23.1755
   683.2000      8.1366      2.3183     -0.4158     20.1010    131.4529     23.5411
   683.3000      8.1657      2.2735     -0.4498     22.8187    134.2949     23.8430
   683.4000      8.1657      2.2331     -0.5015     25.2649    137.4081     24.0909
   683.5000      8.1871      2.2254     -0.5025     25.7320    136.0482     24.1297
   683.6000      8.1871      2.2568     -0.4799     23.8297    128.1431     24.3666
   683.7000      8.1871      2.3141     -0.3938     20.3555    122.5358     25.0344
   683.8000      8.1904      2.3689     -0.4313     17.0390    130.2932     25.3621
   683.9000      8.1904      2.3948     -0.3728     15.4688    145.9343     24.9953
   684.0000      8.1895      2.3861     -0.4037     15.9969    155.5728     24.2734
   684.1000      8.1895      2.3637     -0.4345     17.3520    155.8700     23.3691
   684.2000      8.1895      2.3481     -0.4339     18.2980    153.5114     22.4417
   684.3000      8.1874      2.3449     -0.4930     18.4891    153.5941     22.0758
   684.4000      8.1874      2.3547     -0.4150     17.8986    153.9574     22.7100
   684.5000      8.1787      2.3702     -0.4327     16.9594    150.2378     23.6423
