~Version Information
VERS.                      2.0: CWLS Log ASCII Standard - VERSION 2.0
WRAP.                       NO: One line per depth step
~Well Information Block
STRT.FT               480.0000: 
STOP.FT              1629.0000: 
STEP.FT                 0.2500: 
NULL.                -999.2500: 
COMP.          Pioneer Natural Resources: COMPANY
WELL.          Dude Canyon 22-32 Tr: WELL
FLD.           Purgatoire River: FIELD
LOC.           1741' FNL & 2331' FWL: LOCATION
PROV.                 Colorado: PROVINCE
CNTY.               Las Animas: COUNTRY
SRVC.                Patterson: SERVICE COMPANY
DATE.          Sat Jul 09 01:36:28 2005: LOG DATE
UWI.           05 071 08421 00: UNIQUE WELL ID
~Curve Information Block
DEPT.FT            0 000 00 00: Depth
SN.Ohm-m                      : IEL Short Normal
SP.mV                         : IEL Spontaneous Potential
DIR.Ohm-m                     : IEL Induction Resistivity
GR.GAPI                       : Gamma Ray
~Parameter Information Block
~A  Depth        SN          SP         DIR          GR     
# ...
   781.5000     17.8645     37.0666     17.5640    135.9438
   781.7500     17.9646     36.8413     17.6025    134.7643
   782.0000     17.8863     36.6504     17.6416    133.3143
   782.2500     17.5561     36.4520     17.6768    132.2963
   782.5000     17.1045     36.2079     17.7105    130.2239
   782.7500     16.7555     35.9042     17.7455    128.4970
   783.0000     16.6380     35.5503     17.7764    126.2502
   783.2500     16.8022     35.1619     17.7892    125.7098
   783.5000     17.2941     34.7433     17.7689    126.9482
   783.7500     18.0191     34.2846     17.7074    128.9532
   784.0000     18.7325     33.7707     17.6067    133.3041
   784.2500     19.2497     33.1929     17.4729    137.1481
   784.5000     19.5239     32.5554     17.3086    144.3372
   784.7500     19.6021     31.8739     17.1097    149.5581
   785.0000     19.5708     31.1691     16.8759    156.5965
   785.2500     19.4875     30.4598     16.6256    160.3710
   785.5000     19.3811     29.7663     16.3985    165.1212
   785.7500     19.2725     29.1291     16.2396    167.8690
   786.0000     19.1361     28.6336     16.1795    170.3522
   786.2500     18.8813     28.4137     16.2244    169.9735
   786.5000     18.4259     28.6068     16.3596    165.9399
   786.7500     17.8172     29.2629     16.5567    161.6973
   787.0000     17.2711     30.2678     16.7841    154.9018
   787.2500     17.0341     31.3680     17.0157    150.8524
   787.5000     17.1921     32.3056     17.2362    145.9961
   787.7500     17.5985     32.9522     17.4387    143.6568
   788.0000     17.9623     33.3403     17.6189    141.7250
   788.2500     18.0658     33.6077     17.7750    141.6816
   788.5000     17.9315     33.9306     17.9152    143.5327
   788.7500     17.7832     34.4622     18.0663    145.6886
   789.0000     17.8646     35.2601     18.2749    149.1720
   789.2500     18.2993     36.2300     18.5957    151.0946
   789.5000     19.0432     37.1559     19.0739    153.1424
   789.7500     19.8995     37.8259     19.7263    154.0652
   790.0000     20.6801     38.1536     20.5349    154.6015
   790.2500     21.4002     38.1915     21.4567    153.9252
   790.5000     22.2620     38.0501     22.4454    150.6326
   790.7500     23.4541     37.8196     23.4671    146.9390
   791.0000     25.0561     37.5466     24.4999    139.6996
   791.2500     27.0983     37.2485     25.5228    134.0277
   791.5000     29.5391     36.9281     26.5141    124.8969
   791.7500     32.1406     36.5925     27.4649    119.2665
   792.0000     34.4814     36.2899     28.3899    113.7167
   792.2500     36.2236     36.1475     29.3158    112.9593
   792.5000     37.3631     36.3592     30.2478    116.2142
   792.7500     38.1090     37.0861     31.1400    120.1385
   793.0000     38.5693     38.3138     31.9028    125.8267
   793.2500     38.6385     39.7928     32.4494    128.4091
   793.5000     38.1472     41.1500     32.7440    130.7757
   793.7500     37.0863     42.0974     32.8039    132.4139
   794.0000     35.6668     42.5581     32.6632    136.3740
   794.2500     34.2064     42.6310     32.3423    139.8256
   794.5000     32.9599     42.4753     31.8588    144.4088
   794.7500     32.0091     42.2267     31.2562    145.9644
   795.0000     31.2920     41.9705     30.6120    145.3057
   795.2500     30.6560     41.7462     30.0152    143.1104
   795.5000     29.9220     41.5583     29.5277    138.2885
   795.7500     29.0597     41.3902     29.1587    135.0183
   796.0000     28.2811     41.2181     28.8675    131.8238
   796.2500     27.8446     41.0220     28.5965    131.3403
   796.5000     27.7652     40.7898     28.3114    132.2417
   796.7500     27.7921     40.5179     28.0151    132.8751
   797.0000     27.6948     40.2118     27.7264    132.7370
   797.2500     27.4394     39.8873     27.4499    132.0781
   797.5000     27.0816     39.5671     27.1648    131.3481
   797.7500     26.6777     39.2685     26.8405    131.5788
   798.0000     26.2881     38.9930     26.4637    133.1265
   798.2500     25.9282     38.7258     26.0528    134.6792
   798.5000     25.5641     38.4473     25.6459    137.1474
   798.7500     25.1975     38.1472     25.2729    138.4097
   799.0000     24.8612     37.8310     24.9348    138.7790
   799.2500     24.5516     37.5147     24.6044    137.8152
   799.5000     24.2976     37.2121     24.2463    135.4328
   799.7500     24.2147     36.9248     23.8425    133.9935
   800.0000     24.3238     36.6399     23.4121    132.5077
   800.2500     24.4291     36.3361     23.0136    131.7510
   800.5000     24.3205     35.9934     22.7247    131.0963
   800.7500     24.0149     35.6006     22.6078    131.5927
   801.0000     23.7008     35.1575     22.6753    134.5058
   801.2500     23.4969     34.6763     22.8760    137.4768
   801.5000     23.3483     34.1867     23.1101    141.4153
   801.7500     23.1597     33.7372     23.2696    142.2889
   802.0000     22.9393     33.3840     23.2884    139.2332
   802.2500     22.7325     33.1657     23.1677    134.0882
   802.5000     22.4887     33.0852     22.9649    123.3127
   802.7500     22.1367     33.1103     22.7615    116.0857
   803.0000     21.7687     33.1896     22.6335    109.1620
   803.2500     21.6256     33.2678     22.6376    108.7020
   803.5000     21.8560     33.2989     22.8037    114.0565
   803.7500     22.3359     33.2596     23.1280    120.0976
   804.0000     22.8365     33.1585     23.5639    129.7564
   804.2500     23.2979     33.0323     24.0198    135.4671
   804.5000     23.7800     32.9266     24.3800    142.1150
   804.7500     24.2891     32.8759     24.5505    144.8766
   805.0000     24.8332     32.8916     24.5081    145.8887
   805.2500     25.4878     32.9597     24.3127    144.6241
   805.5000     26.2257     33.0461     24.0692    141.3071
   805.7500     26.8161     33.1051     23.8698    139.3453
   806.0000     27.0367     33.0936     23.7578    138.5050
   806.2500     26.8733     32.9816     23.7237    139.8564
   806.5000     26.4415     32.7544     23.7256    144.2712
   806.7500     25.8329     32.4042     23.7187    147.6921
   807.0000     25.0833     31.9243     23.6765    151.2915
   807.2500     24.2527     31.3158     23.5945    152.0957
   807.5000     23.4758     30.6037     23.4831    151.8350
   807.7500     22.8934     29.8566     23.3614    151.6970
   808.0000     22.5520     29.1969     23.2545    152.3541
   808.2500     22.3537     28.7849     23.1897    153.0534
   808.5000     22.1262     28.7568     23.1873    153.5312
   808.7500     21.8025     29.1416     23.2552    153.2080
   809.0000     21.4779     29.8221     23.3917    152.0388
   809.2500     21.2702     30.5906     23.5899    151.1683
   809.5000     21.2233     31.2581     23.8332    150.0586
   809.7500     21.2890     31.7295     24.0886    149.3264
   810.0000     21.3696     32.0008     24.3128    148.0291
   810.2500     21.5084     32.1128     24.4729    147.2014
   810.5000     21.9048     32.1137     24.5679    146.3175
   810.7500     22.6470     32.0437     24.6278    145.7261
   811.0000     23.6253     31.9311     24.6899    143.9003
   811.2500     24.6221     31.7894     24.7701    141.8085
   811.5000     25.3425     31.6213     24.8476    138.1618
   811.7500     25.5865     31.4310     24.8720    136.3146
   812.0000     25.4697     31.2336     24.7871    135.4677
   812.2500     25.2708     31.0476     24.5609    135.9836
   812.5000     25.1479     30.8795     24.2061    137.0572
   812.7500     25.1276     30.7139     23.7763    137.3730
   813.0000     25.1855     30.5198     23.3421    137.6355
   813.2500     25.2822     30.2710     22.9591    138.6459
   813.5000     25.3959     29.9660     22.6496    142.9330
   813.7500     25.5032     29.6308     22.4047    147.6156
   814.0000     25.5602     29.2993     22.2014    155.6666
   814.2500     25.5281     28.9888     22.0200    160.4254
   814.5000     25.3390     28.6935     21.8503    165.0338
   814.7500     24.9165     28.3959     21.6868    165.8969
