~Version Information
VERS.                      2.0: CWLS Log ASCII Standard - VERSION 2.0
WRAP.                       NO: One line per depth step
~Well Information Block
STRT.FT               350.0000: 
STOP.FT              1391.5000: 
STEP.FT                 0.2500: 
NULL.                -999.2500: 
COMP.          Petrogulf Corporation: COMPANY
WELL.             Leier 17-42R: WELL
FLD.           Purgatorie River: FIELD
LOC.           2398' FNL & 1109' FEL: LOCATION
PROV.                 Colorado: PROVINCE
CNTY.               Las Animas: COUNTRY
SRVC.                Patterson: SERVICE COMPANY
DATE.          Mon Oct 17 09:42:26 2005: LOG DATE
UWI.                          : UNIQUE WELL ID
~Curve Information Block
DEPT.FT            0 000 00 00: Depth
SP.mV                         : DIL Spontaneous Potential
RILD.Ohm-m                    : DIL Deep Resistivity
RILM.Ohm-m                    : DIL Medium Resistivity
RLL3.Ohm-m                    : DIL Shallow Resistivity
GR.GAPI                       : Gamma Ray
~Parameter Information Block
~A  Depth        SP         RILD        RILM        RLL3         GR     
# ...
   882.0000    232.9581     30.9429     33.7527     55.9806     67.3694
   882.2500    231.6588     32.1811     34.6495     55.1843     64.2681
   882.5000    230.4203     33.5472     35.5014     54.7281     62.6560
   882.7500    229.2280     34.9679     36.3208     54.5277     63.5122
   883.0000    228.0425     36.3693     37.1154     54.3678     66.1361
   883.2500    226.7932     37.6795     37.8922     54.1149     67.6598
   883.5000    225.3828     38.8393     38.6631     53.8108     68.4724
   883.7500    223.7012     39.8216     39.4482     53.5816     68.0471
   884.0000    221.6444     40.6490     40.2772     53.4845     66.7823
   884.2500    219.1395     41.3880     41.1879     53.4821     65.9964
   884.5000    216.1737     42.1234     42.2221     53.5732     64.8870
   884.7500    212.8195     42.9304     43.4215     53.9322     63.7227
   885.0000    209.2370     43.8580     44.8229     54.9290     60.7588
   885.2500    205.6381     44.9209     46.4543     57.0250     58.2590
   885.5000    202.2256     46.0961     48.3321     60.6082     55.0441
   885.7500    199.1457     47.3307     50.4585     65.8485     53.9275
   886.0000    196.4752     48.5680     52.8190     72.6664     53.9896
   886.2500    194.2366     49.7834     55.3757     80.8156     54.7508
   886.5000    192.4209     51.0005     58.0591     89.9245     55.7069
   886.7500    191.0069     52.2685     60.7555     99.3809     55.5923
   887.0000    189.9733     53.6160     63.2983    108.2569     54.1309
   887.2500    189.3004     55.0111     65.4716    115.5799     52.7297
   887.5000    188.9629     56.3495     67.0370    120.8110     50.9171
   887.7500    188.9212     57.4763     67.7868    123.9757     50.2815
   888.0000    189.1182     58.2326     67.6102    125.2240     50.4574
   888.2500    189.4870     58.5089     66.5408    124.3249     51.1947
   888.5000    189.9652     58.2774     64.7538    120.7104     52.5066
   888.7500    190.5085     57.5914     62.5128    114.0530     53.1538
   889.0000    191.0937     56.5611     60.0936    104.7958     54.0751
   889.2500    191.7139     55.3272     57.7214     94.1486     55.3552
   889.5000    192.3702     54.0358     55.5425     83.6002     59.3751
   889.7500    193.0677     52.8091     53.6266     74.3371     63.4623
   890.0000    193.8191     51.7192     51.9871     66.9003     70.5726
   890.2500    194.6478     50.7759     50.6078     61.1823     75.1568
   890.5000    195.5834     49.9392     49.4636     56.7101     81.2048
   890.7500    196.6488     49.1503     48.5336     53.0863     84.8515
   891.0000    197.8485     48.3644     47.8031     50.3683     89.9014
   891.2500    199.1689     47.5648     47.2581     49.0793     92.5527
   891.5000    200.5924     46.7574     46.8764     49.7136     94.4398
   891.7500    202.1114     45.9587     46.6203     52.1095     94.2998
   892.0000    203.7322     45.1889     46.4331     55.3631     93.2019
   892.2500    205.4667     44.4664     46.2408     58.4596     92.5828
   892.5000    207.3170     43.7995     45.9622     60.9372     91.8252
   892.7500    209.2611     43.1795     45.5216     62.8431     90.8188
   893.0000    211.2495     42.5864     44.8673     64.1392     87.7432
   893.2500    213.2156     42.0045     43.9851     64.3638     85.0150
   893.5000    215.0948     41.4371     42.9048     62.9282     81.8102
   893.7500    216.8356     40.9039     41.6943     59.6293     81.1354
   894.0000    218.3959     40.4228     40.4443     54.8414     82.0171
   894.2500    219.7357     39.9942     39.2476     49.3396     83.1842
   894.5000    220.8162     39.6016     38.1818     44.0286     85.7254
   894.7500    221.6102     39.2303     37.2984     39.7380     88.5685
   895.0000    222.1135     38.8803     36.6184     37.0773     95.0240
   895.2500    222.3501     38.5583     36.1349     36.3206    100.0368
   895.5000    222.3701     38.2568     35.8187     37.3346    105.8781
   895.7500    222.2426     37.9470     35.6281     39.5961    106.8761
   896.0000    222.0460     37.5994     35.5201     42.3349    102.4296
   896.2500    221.8538     37.2154     35.4616     44.7763     96.1517
   896.5000    221.7199     36.8393     35.4369     46.3934     84.9662
   896.7500    221.6692     36.5408     35.4495     47.0611     78.1738
   897.0000    221.6993     36.3819     35.5176     47.0239     70.5769
   897.2500    221.7876     36.3934     35.6660     46.6953     67.4765
   897.5000    221.8986     36.5695     35.9174     46.4363     65.9443
   897.7500    221.9884     36.8780     36.2865     46.4433     66.9927
   898.0000    222.0119     37.2761     36.7776     46.7457     70.8815
   898.2500    221.9319     37.7225     37.3846     47.2344     74.0362
   898.5000    221.7260     38.1845     38.0928     47.7066     77.8039
   898.7500    221.3843     38.6399     38.8804     47.9658     79.1374
   899.0000    220.9029     39.0732     39.7196     47.9666     79.9572
   899.2500    220.2814     39.4673     40.5758     47.8939     80.7495
   899.5000    219.5284     39.7941     41.4071     48.0495     83.8659
   899.7500    218.6668     40.0152     42.1633     48.6031     87.1750
   900.0000    217.7354     40.0964     42.7880     49.4514     92.1141
   900.2500    216.7866     40.0253     43.2245     50.3360     94.1432
   900.5000    215.8849     39.8166     43.4253     51.0620     94.6734
   900.7500    215.1021     39.5048     43.3646     51.5563     93.9703
   901.0000    214.5023     39.1321     43.0481     51.7384     92.7967
   901.2500    214.1222     38.7418     42.5164     51.4118     92.3571
   901.5000    213.9605     38.3727     41.8375     50.3567     92.0903
   901.7500    213.9821     38.0516     41.0932     48.5603     92.0160
   902.0000    214.1305     37.7854     40.3621     46.3581     92.1468
   902.2500    214.3417     37.5598     39.7068     44.3297     92.4750
   902.5000    214.5599     37.3440     39.1663     43.0027     93.0277
   902.7500    214.7520     37.0965     38.7551     42.5705     93.1378
   903.0000    214.9160     36.7705     38.4635     42.8308     92.8111
   903.2500    215.0781     36.3216     38.2592     43.4021     92.5220
   903.5000    215.2803     35.7186     38.0876     44.0682     92.5562
   903.7500    215.5671     34.9528     37.8724     44.9845     93.0048
   904.0000    215.9751     34.0387     37.5204     46.5342     93.9523
   904.2500    216.5281     33.0092     36.9354     48.8740     94.4564
   904.5000    217.2354     31.9078     36.0438     51.5027     94.7520
   904.7500    218.0929     30.7810     34.8219     53.2683     94.6160
   905.0000    219.0870     29.6705     33.3123     52.9180     94.1302
   905.2500    220.1979     28.6045     31.6147     49.8377     94.1746
   905.5000    221.3981     27.5908     29.8553     44.4499     96.3391
   905.7500    222.6508     26.6160     28.1495     38.0045     99.7096
   906.0000    223.9120     25.6527     26.5769     31.9765    106.7632
   906.2500    225.1395     24.6763     25.1733     27.5051    111.4830
   906.5000    226.3001     23.6840     23.9373     25.1320    116.6347
   906.7500    227.3682     22.7032     22.8446     24.7905    118.4781
   907.0000    228.3212     21.7835     21.8640     25.8921    119.5608
   907.2500    229.1391     20.9775     20.9716     27.4619    119.6921
   907.5000    229.8152     20.3211     20.1594     28.3994    119.5419
   907.7500    230.3678     19.8251     19.4362     27.9055    119.6824
   908.0000    230.8431     19.4748     18.8216     25.9028    121.8313
   908.2500    231.3070     19.2370     18.3374     23.1265    125.0767
   908.5000    231.8301     19.0679     17.9984     20.7571    130.8396
   908.7500    232.4742     18.9242     17.8065     19.8454    133.1170
   909.0000    233.2818     18.7737     17.7479     20.9086    131.8744
   909.2500    234.2691     18.6028     17.7940     23.8075    128.1684
   909.5000    235.4211     18.4150     17.9043     27.7421    119.9187
   909.7500    236.6928     18.2236     18.0338     31.3351    113.5747
