~Version Information
VERS.                      2.0: CWLS Log ASCII Standard - VERSION 2.0
WRAP.                       NO: One line per depth step
~Well Information Block
STRT.FT                -9.2500: 
STOP.FT              2685.7500: 
STEP.FT                 0.2500: 
NULL.                -999.2500: 
COMP.          Pioneer Natural Resources: COMPANY
WELL.          Beacon 11-18 Tr: WELL
FLD.           Purgatorie River: FIELD
LOC.           409' FNL & 203' FWL--: LOCATION
PROV.                       CO: PROVINCE
CNTY.               Las Animas: COUNTRY
SRVC.                         : SERVICE COMPANY
DATE.          Fri Jan 21 09:45:44 2005: LOG DATE
UWI.        005 071 08251  : UNIQUE WELL ID
~Curve Information Block
DEPT.FT            0 000 00 00: Depth
CCL.                          : Casing Collar Locator
TT3.usec                      : CBL 3' Travel Time
AMP3.mV                       : CBL 3' Amplitude
GR.GAPI                       : Gamma Ray
~Parameter Information Block
~A  Depth       CCL         TT3         AMP3         GR     
# ...
  1062.7500      0.0000    708.3212      5.9916     85.0528
  1063.0000      0.0000    711.1088      5.9995     78.0440
  1063.2500      0.0000    715.7344      5.9959     77.4095
  1063.5000      0.0000    720.7036      5.9843     84.9621
  1063.7500      0.0000    723.5133      5.9531     98.9657
  1064.0000      0.0000    722.2283      5.8828    114.8040
  1064.2500      0.0000    717.2249      5.7685    127.4213
  1064.5000      0.0000    711.4129      5.6298    133.5432
  1064.7500      0.0000    708.3304      5.4941    132.9292
  1065.0000      0.0000    709.8859      5.3777    128.7238
  1065.2500      0.0000    715.5452      5.2802    126.0897
  1065.5000      0.0000    722.9894      5.1895    128.6904
  1065.7500      0.0000    729.5198      5.0903    135.5799
  1066.0000      0.0000    733.3406      4.9770    142.0905
  1066.2500      0.0000    734.0282      4.8620    144.3297
  1066.5000      0.0000    732.3312      4.7680    142.5108
  1066.7500      0.0000    729.8460      4.7057    139.8058
  1067.0000      0.0000    728.3980      4.6650    138.9482
  1067.2500      0.0000    728.9676      4.6289    140.5778
  1067.5000      0.0000    731.1132      4.5936    143.7344
  1067.7500      0.0000    733.6435      4.5716    146.6759
  1068.0000      0.0000    735.7043      4.5764    147.6716
  1068.2500      0.0000    737.1097      4.6075    145.9055
  1068.5000      0.0000    738.0256      4.6494    141.6998
  1068.7500      0.0000    738.7304      4.6811    135.8954
  1069.0000      0.0000    739.6312      4.6862    129.3199
  1069.2500      0.0000    741.0991      4.6561    122.8608
  1069.5000      0.0000    742.8351      4.5880    117.6675
  1069.7500      0.0000    743.3215      4.4845    114.7906
  1070.0000      0.0000    740.5801      4.3600    114.2766
  1070.2500      0.0000    734.2671      4.2508    114.8195
  1070.5000      0.0000    726.8578      4.2133    114.8433
  1070.7500      0.0000    721.9159      4.2914    113.9582
  1071.0000      0.0000    720.9346      4.4767    113.0625
  1071.2500      0.0000    722.1968      4.7049    113.1502
  1071.5000      0.0000    722.7114      4.9002    114.2167
  1071.7500     -2.0000    720.5628      5.0259    115.2433
  1072.0000     -2.0000    714.9150      5.1051    115.1870
  1072.2500      0.0000    704.0999      5.2099    113.9213
  1072.5000      0.0000    685.5783      5.4275    112.2787
  1072.7500      0.0000    659.4479      5.7939    111.6185
  1073.0000      0.0000    631.4577      6.2277    113.5729
  1073.2500      0.0000    609.1912      6.5602    119.3195
  1073.5000      0.0000    593.0288      6.6686    128.1902
  1073.7500      0.0000    573.5037      6.5757    137.3950
  1074.0000      0.0000    541.1161      6.4026    144.1171
  1074.2500      0.0000    497.3813      6.2547    147.7383
  1074.5000      0.0000    453.3539      6.1695    149.3391
  1074.7500      0.0000    418.7895      6.1391    149.5610
  1075.0000      0.0000    395.8067      6.1418    148.0972
  1075.2500      0.0000    381.8006      6.1558    145.1344
  1075.5000      0.0000    374.4863      6.1656    142.1320
  1075.7500      0.0000    372.9886      6.1691    140.6018
  1076.0000      0.0000    376.1671      6.1785    140.6263
  1076.2500      0.0000    381.5274      6.2083    141.1977
  1076.5000      0.0000    385.9659      6.2625    141.8077
  1076.7500      0.0000    387.1300      6.3312    143.1301
  1077.0000      0.0000    384.2384      6.4009    146.1363
  1077.2500      0.0000    378.0808      6.4651    150.8036
  1077.5000      0.0000    370.5610      6.5255    155.6908
  1077.7500      0.0000    363.8191      6.5860    158.7963
  1078.0000      0.0000    359.2030      6.6478    159.0643
  1078.2500      0.0000    356.8311      6.7045    157.1034
  1078.5000      0.0000    356.0308      6.7404    154.6459
  1078.7500      0.0000    356.0959      6.7397    153.5215
  1079.0000      0.0000    356.7458      6.7024    154.6783
  1079.2500      0.0000    358.2532      6.6502    157.4670
  1079.5000      0.0000    361.3726      6.6140    159.8919
  1079.7500      0.0000    367.2109      6.6082    159.9597
  1080.0000      0.0000    377.2941      6.6218    156.7702
  1080.2500      0.0000    394.4085      6.6344    150.5491
  1080.5000      0.0000    423.5213      6.6377    142.3579
  1080.7500      0.0000    469.8671      6.6381    133.8904
  1081.0000      0.0000    533.0575      6.6472    126.7707
  1081.2500      0.0000    602.8698      6.6748    121.7160
  1081.5000      0.0000    663.7866      6.7180    118.6169
  1081.7500      0.0000    705.3048      6.7569    117.1567
  1082.0000      0.0000    727.2767      6.7608    116.8856
  1082.2500      0.0000    736.2766      6.7080    117.0795
  1082.5000      0.0000    739.1379      6.6055    117.1420
  1082.7500      0.0000    739.7441      6.4903    117.1087
  1083.0000      0.0000    739.1956      6.4070    117.6427
  1083.2500      0.0000    737.0047      6.3761    119.4382
  1083.5000      0.0000    732.0108      6.3789    122.3776
  1083.7500      0.0000    722.7727      6.3754    125.3322
  1084.0000      0.0000    707.0208      6.3378    126.9395
  1084.2500      0.0000    680.9909      6.2678    126.3272
  1084.5000      0.0000    641.4294      6.1872    122.9538
  1084.7500      0.0000    591.4388      6.1191    116.3192
  1085.0000      0.0000    544.3631      6.0776    106.3152
  1085.2500      0.0000    517.8021      6.0657     93.8439
  1085.5000      0.0000    520.3762      6.0760     80.9248
  1085.7500      0.0000    544.5618      6.0973     69.9174
  1086.0000      0.0000    573.2499      6.1216     62.1905
  1086.2500      0.0000    592.5258      6.1450     57.4115
  1086.5000      0.0000    598.5533      6.1598     54.3121
  1086.7500      0.0000    595.4070      6.1533     52.1034
  1087.0000      0.0000    589.1808      6.1191     50.9160
  1087.2500      0.0000    583.8416      6.0662     50.9900
  1087.5000      0.0000    580.3505      6.0089     52.0031
  1087.7500      0.0000    577.8436      5.9492     53.4684
  1088.0000      0.0000    574.9293      5.8747     55.3470
  1088.2500      0.0000    570.2148      5.7725     57.8266
  1088.5000      0.0000    562.3617      5.6480     60.6813
  1088.7500      0.0000    550.4032      5.5367     63.3195
  1089.0000      0.0000    534.3060      5.4944     65.6282
  1089.2500      0.0000    515.2925      5.5584     68.6086
  1089.5000      0.0000    495.6682      5.7110     73.9272
  1089.7500      0.0000    478.2672      5.8872     82.6639
  1090.0000      0.0000    465.3958      6.0220     94.4156
  1090.2500      0.0000    457.2438      6.0897    107.6706
  1090.5000      0.0000    451.1988      6.1043    121.0356
  1090.7500      0.0000    444.0028      6.0936    133.6493
  1091.0000      0.0000    435.2566      6.0757    144.0735
  1091.2500      0.0000    427.5691      6.0589    149.8295
  1091.5000      0.0000    422.7337      6.0558    149.5815
  1091.7500      0.0000    419.5608      6.0888    145.4037
  1092.0000      0.0000    416.3670      6.1730    141.2470
  1092.2500      0.0000    413.9031      6.2969    139.0396
  1092.5000      0.0000    414.6506      6.4225    137.3227
  1092.7500      0.0000    420.2177      6.5046    133.7991
  1093.0000      0.0000    430.2646      6.5181    128.4018
  1093.2500      0.0000    443.4683      6.4743    123.5120
  1093.5000      0.0000    458.5432      6.4116    121.3707
  1093.7500      0.0000    474.1417      6.3695    121.7472
  1094.0000      0.0000    488.3383      6.3690    122.6315
  1094.2500      0.0000    498.7461      6.4115    123.0570
  1094.5000      0.0000    503.2421      6.4906    124.4660
  1094.7500      0.0000    500.9722      6.5992    129.1201
  1095.0000      0.0000    493.2909      6.7267    137.5464
  1095.2500      0.0000    483.5411      6.8509    147.5571
  1095.5000      0.0000    475.1472      6.9424    155.4892
  1095.7500      0.0000    469.6936      6.9861    158.7753
  1096.0000      0.0000    466.8171      6.9972    158.0776
