~Version Information
VERS.                      2.0: CWLS Log ASCII Standard - VERSION 2.0
WRAP.                       NO: One line per depth step
~Well Information Block
STRT.FT               768.0000: 
STOP.FT              2635.5000: 
STEP.FT                 0.1000: 
NULL.                -999.2500: 
COMP.          Pioneer Natural Resources: COMPANY
WELL.               Zink 44-10: WELL
FLD.           Purgatoire River: FIELD
LOC.           548' FSL & 473' FEL: LOCATION
PROV.                 Colorado: PROVINCE
CNTY.               Las Animas: COUNTRY
SRVC.                Patterson: SERVICE COMPANY
DATE.          Tue May 31 07:05:25 2005: LOG DATE
UWI.           05 071 08380 00: UNIQUE WELL ID
~Curve Information Block
DEPT.FT            0 000 00 00: Depth
DCAL.in                       : CDL Caliper
RHOB.g/cc                     : CDL Bulk Density
RHOC.g/cc                     : CDL Density Correction
DPOR.pu                       : CDL Density Porosity
GR.GAPI                       : Gamma Ray
NPOR.pu                       : Neutron Porosity
~Parameter Information Block
~A  Depth       DCAL        RHOB        RHOC        DPOR         GR         NPOR    
# ...
  1507.2000      8.1180      2.6143      0.1669      2.1618    136.9995     30.8225
  1507.3000      8.1211      2.6286      0.1702      1.2976    137.5434     31.0347
  1507.4000      8.1211      2.6232      0.1230      1.6225    134.0796     31.6907
  1507.5000      8.1246      2.6107      0.1513      2.3811    128.9684     32.5990
  1507.6000      8.1246      2.5903      0.1281      3.6157    129.4276     32.7738
  1507.7000      8.1246      2.5580      0.1248      5.5771    136.6432     32.0384
  1507.8000      8.1476      2.5217      0.0026      7.7784    142.2229     31.2992
  1507.9000      8.1476      2.4935     -0.0154      9.4823    139.2577     30.9845
  1508.0000      8.1726      2.4692      0.0424     10.9597    133.3161     31.2035
  1508.1000      8.1726      2.4372      0.0114     12.8967    133.4626     31.8896
  1508.2000      8.1726      2.4085     -0.0112     14.6366    136.9272     32.2496
  1508.3000      8.1646      2.4010      0.0285     15.0896    136.0012     32.1076
  1508.4000      8.1646      2.4197     -0.0255     13.9600    131.5053     32.1094
  1508.5000      8.1675      2.4554      0.0641     11.7931    127.3030     32.2263
  1508.6000      8.1675      2.4879      0.0839      9.8227    125.0232     32.2560
  1508.7000      8.1675      2.5035      0.1162      8.8792    125.2315     32.2790
  1508.8000      8.1547      2.5051      0.0475      8.7824    127.7251     32.0595
  1508.9000      8.1547      2.5171     -0.0184      8.0562    130.6148     31.5581
  1509.0000      8.1849      2.5570      0.0389      5.6338    131.9042     31.3042
  1509.1000      8.1849      2.6033      0.0651      2.8310    132.5527     31.4068
  1509.2000      8.1849      2.6187      0.1276      1.8969    133.6721     31.3197
  1509.3000      8.1770      2.5968      0.0635      3.2250    134.0663     30.9697
  1509.4000      8.1770      2.5626      0.0979      5.2954    132.8733     31.0495
  1509.5000      8.1470      2.5310      0.0913      7.2124    130.8490     31.9991
  1509.6000      8.1470      2.5047      0.1142      8.8033    130.3564     32.9433
  1509.7000      8.1470      2.4913      0.0742      9.6154    133.1546     32.7923
  1509.8000      8.1468      2.4976      0.0739      9.2388    135.6480     31.8428
  1509.9000      8.1468      2.5198      0.0980      7.8884    133.1177     30.7513
  1510.0000      8.1388      2.5423      0.1325      6.5272    129.6563     29.6186
  1510.1000      8.1388      2.5499      0.1695      6.0692    132.1879     28.7924
  1510.2000      8.1388      2.5431      0.1325      6.4776    138.9919     29.0345
  1510.3000      8.1518      2.5390      0.1282      6.7272    146.4217     30.3663
  1510.4000      8.1518      2.5477      0.1032      6.1996    152.9279     31.6820
  1510.5000      8.1903      2.5590      0.1284      5.5165    151.2937     32.1486
  1510.6000      8.1903      2.5589      0.0984      5.5237    139.5525     31.9429
  1510.7000      8.1903      2.5440      0.1246      6.4272    128.6854     31.4829
  1510.8000      8.1499      2.5216      0.0658      7.7838    124.9841     31.1888
  1510.9000      8.1499      2.5033      0.0566      8.8915    124.8434     31.3679
  1511.0000      8.1493      2.4907      0.0832      9.6565    127.5603     31.3474
  1511.1000      8.1493      2.4832      0.0528     10.1069    133.5295     30.5319
  1511.2000      8.1493      2.4840      0.0738     10.0636    137.3339     29.6588
  1511.3000      8.1579      2.4877      0.1141      9.8377    135.8994     29.3750
  1511.4000      8.1579      2.4927      0.0785      9.5335    134.1691     29.6954
  1511.5000      8.1691      2.5120      0.1102      8.3648    135.1382     30.6732
  1511.6000      8.1691      2.5525      0.1789      5.9075    137.3769     31.7386
  1511.7000      8.1691      2.6013      0.2207      2.9528    139.8008     32.1581
  1511.8000      8.2155      2.6355      0.3038      0.8807    142.0319     32.2050
  1511.9000      8.2155      2.6407      0.2806      0.5615    143.7326     32.1019
  1512.0000      8.2121      2.6185      0.2710      1.9072    143.6003     31.7086
  1512.1000      8.2121      2.5726      0.1929      4.6884    140.2416     31.1757
  1512.2000      8.2121      2.5095      0.1154      8.5168    137.6489     30.6192
  1512.3000      8.2273      2.4477      0.0510     12.2579    140.6335     30.3513
  1512.4000      8.2273      2.4008      0.0386     15.1057    143.6582     30.6638
  1512.5000      8.2632      2.3627      0.0760     17.4122    140.4909     31.3215
  1512.6000      8.2632      2.3334      0.0596     19.1906    134.9086     31.6816
  1512.7000      8.2632      2.3268      0.0578     19.5900    130.8923     31.3925
  1512.8000      8.2072      2.3380      0.1377     18.9109    128.4375     31.2133
  1512.9000      8.2072      2.3504      0.1467     18.1588    126.4835     31.5656
  1513.0000      8.2593      2.3754      0.1211     16.6449    121.9409     31.3701
  1513.1000      8.2593      2.4220      0.2127     13.8160    115.6337     30.2285
  1513.2000      8.2593      2.4704      0.2527     10.8851    113.3818     29.1742
  1513.3000      8.3817      2.5178      0.1987      8.0100    113.6777     29.1320
  1513.4000      8.3817      2.5758      0.2453      4.4964    108.4511     29.7350
  1513.5000      8.3873      2.6178      0.2239      1.9515     96.0436     29.8546
  1513.6000      8.3873      2.6206      0.0043      1.7842     82.3546     28.9198
  1513.7000      8.3873      2.6137      0.0440      2.1974     73.5647     27.4160
  1513.8000      8.2941      2.6141      0.0897      2.1780     72.0182     26.1578
  1513.9000      8.2941      2.6045      0.0252      2.7590     72.5856     25.3959
  1514.0000      8.0915      2.5857     -0.0318      3.8949     70.2346     25.1707
  1514.1000      8.0915      2.5739      0.0082      4.6139     67.9600     25.2397
  1514.2000      8.0915      2.5741      0.0313      4.5997     67.8545     24.8020
  1514.3000      8.0569      2.5833      0.0045      4.0427     68.6958     23.9334
  1514.4000      8.0569      2.5967      0.0402      3.2320     69.5220     23.1970
  1514.5000      8.0569      2.6065      0.0611      2.6357     69.0051     22.5863
  1514.6000      8.0569      2.5965      0.0678      3.2446     69.1733     22.3782
  1514.7000      8.0569      2.5493      0.0242      6.1004     72.7314     22.9766
  1514.8000      8.0687      2.4779      0.0269     10.4281     76.1072     24.0472
  1514.9000      8.0687      2.4084      0.0042     14.6396     75.6357     25.1754
  1515.0000      8.0495      2.3407     -0.0212     18.7446     75.2894     26.2992
  1515.1000      8.0495      2.2682     -0.0673     23.1372     78.5823     26.9269
  1515.2000      8.0495      2.2064     -0.0822     26.8838     82.6943     26.9762
  1515.3000      8.1105      2.1672     -0.0522     29.2633     86.0105     27.2756
  1515.4000      8.1105      2.1425     -0.0604     30.7605     90.2272     28.2066
  1515.5000      8.1171      2.1290     -0.0235     31.5784     94.9330     29.4965
  1515.6000      8.1171      2.1455     -0.0021     30.5750     98.4976     30.5145
  1515.7000      8.1171      2.2026      0.1500     27.1180    101.7444     30.8432
  1515.8000      8.0526      2.2678      0.2325     23.1644    105.4922     30.7669
  1515.9000      8.0526      2.3144      0.2286     20.3400    109.1780     30.7370
  1516.0000      8.0096      2.3597      0.1480     17.5962    111.5508     31.0219
  1516.1000      8.0096      2.4160      0.1913     14.1789    113.2172     31.8174
  1516.2000      8.0096      2.4664      0.2036     11.1263    115.5231     32.6280
  1516.3000      8.0145      2.5040      0.1982      8.8491    116.6086     32.5427
  1516.4000      8.0145      2.5371      0.1801      6.8412    116.4985     31.7782
  1516.5000      8.0495      2.5575      0.1546      5.6073    118.3505     31.3827
  1516.6000      8.0495      2.5586      0.0466      5.5386    122.5292     31.5680
  1516.7000      8.0495      2.5555      0.0632      5.7278    125.8799     31.7770
