~Version Information
VERS.                      2.0: CWLS Log ASCII Standard - VERSION 2.0
WRAP.                       NO: One line per depth step
~Well Information Block
STRT.FT               451.7500: 
STOP.FT              1387.0000: 
STEP.FT                 0.2500: 
NULL.                -999.2500: 
COMP.          Petrogulf Corporation: COMPANY
WELL.          Great Plains 22-22R: WELL
FLD.           Purgatoire River: FIELD
LOC.           2042' FNL & 1657' FWL--: LOCATION
PROV.                 Colorado: PROVINCE
CNTY.               Las Animas: COUNTRY
SRVC.                Patterson: SERVICE COMPANY
DATE.          Fri Sep 09 10:42:01 2005: LOG DATE
UWI.           05 071 08028 00: UNIQUE WELL ID
~Curve Information Block
DEPT.FT            0 000 00 00: Depth
SP.mV                         : DIL Spontaneous Potential
RILD.Ohm-m                    : DIL Deep Resistivity
RILM.Ohm-m                    : DIL Medium Resistivity
RLL3.Ohm-m                    : DIL Shallow Resistivity
GR.GAPI                       : Gamma Ray
~Parameter Information Block
~A  Depth        SP         RILD        RILM        RLL3         GR     
# ...
   759.7500     56.5489     12.2311     12.2106     12.9992    123.1866
   760.0000     56.1636     12.2993     12.2786     12.9383    126.6213
   760.2500     55.7672     12.4106     12.4089     13.0660    128.3007
   760.5000     55.3721     12.5651     12.6017     13.5224    129.1355
   760.7500     54.9936     12.7580     12.8435     14.2854    128.6642
   761.0000     54.6437     12.9818     13.1133     15.1858    127.4355
   761.2500     54.3263     13.2317     13.3926     15.9976    126.9153
   761.5000     54.0379     13.5095     13.6757     16.5573    126.9381
   761.7500     53.7719     13.8229     13.9731     16.8589    127.1638
   762.0000     53.5224     14.1814     14.3070     17.0629    126.8196
   762.2500     53.2864     14.5899     14.7014     17.3957    125.7277
   762.5000     53.0616     15.0465     15.1717     18.0097    122.9950
   762.7500     52.8451     15.5448     15.7211     18.9011    120.9910
   763.0000     52.6328     16.0779     16.3438     19.9245    118.7994
   763.2500     52.4220     16.6425     17.0337     20.8818    118.3978
   763.5000     52.2137     17.2393     17.7928     21.6448    119.7271
   763.7500     52.0139     17.8722     18.6351     22.2661    121.4040
   764.0000     51.8321     18.5470     19.5825     23.0188    123.0415
   764.2500     51.6774     19.2695     20.6553     24.3167    122.4135
   764.5000     51.5560     20.0441     21.8631     26.5299    118.5855
   764.7500     51.4709     20.8747     23.1993     29.8087    114.8183
   765.0000     51.4241     21.7675     24.6450     34.0408    108.6681
   765.2500     51.4175     22.7327     26.1777     38.8968    104.5717
   765.5000     51.4525     23.7814     27.7785     43.8075     98.7072
   765.7500     51.5278     24.9179     29.4372     47.9749     95.3662
   766.0000     51.6380     26.1315     31.1520     50.7953     92.0043
   766.2500     51.7744     27.3940     32.9243     52.6169     90.9570
   766.5000     51.9290     28.6600     34.7442     54.9294     90.5077
   766.7500     52.0970     29.8700     36.5710     59.2772     90.3768
   767.0000     52.2790     30.9548     38.3226     65.5924     89.6980
   767.2500     52.4779     31.8470     39.8912     71.6306     88.7669
   767.5000     52.6956     32.5036     41.1792     74.4314     86.7900
   767.7500     52.9303     32.9283     42.1284     72.7361     85.3282
   768.0000     53.1774     33.1750     42.7130     68.0523     83.4992
   768.2500     53.4328     33.3203     42.9148     63.2360     82.8748
   768.5000     53.6958     33.4202     42.7227     60.0609     83.2315
   768.7500     53.9701     33.4796     42.1693     58.1516     84.3918
   769.0000     54.2638     33.4550     41.3629     55.9600     87.4244
   769.2500     54.5891     33.2848     40.4624     52.4694     90.1362
   769.5000     54.9618     32.9246     39.6094     48.0364     94.6076
   769.7500     55.3970     32.3652     38.8696     43.9008     97.3327
   770.0000     55.9023     31.6269     38.2197     41.0985    100.2735
   770.2500     56.4718     30.7435     37.5749     39.8091    101.2511
   770.5000     57.0875     29.7482     36.8342     39.5034    101.1794
   770.7500     57.7270     28.6715     35.9170     39.4955    100.2477
   771.0000     58.3738     27.5448     34.7815     39.3783     98.3005
   771.2500     59.0204     26.4021     33.4249     39.1040     97.3904
   771.5000     59.6655     25.2747     31.8719     38.7499     97.7841
   771.7500     60.3086     24.1868     30.1648     38.2143     99.4497
   772.0000     60.9464     23.1560     28.3579     37.1576    103.5967
   772.2500     61.5713     22.1989     26.5141     35.2627    106.9979
   772.5000     62.1705     21.3360     24.7015     32.5338    112.3417
   772.7500     62.7247     20.5890     22.9859     29.3330    115.6546
   773.0000     63.2105     19.9737     21.4223     26.1589    119.4590
   773.2500     63.6068     19.4935     20.0499     23.3954    120.9613
   773.5000     63.9024     19.1378     18.8931     21.1990    122.0769
   773.7500     64.0993     18.8863     17.9675     19.5311    122.6363
   774.0000     64.2103     18.7143     17.2872     18.2600    123.6869
   774.2500     64.2520     18.5970     16.8667     17.2880    124.2043
   774.5000     64.2385     18.5096     16.7191     16.6856    123.6713
   774.7500     64.1795     18.4282     16.8500     16.7818    122.1322
   775.0000     64.0830     18.3347     17.2492     18.1430    118.3564
   775.2500     63.9587     18.2263     17.8799     21.4198    115.2662
   775.5000     63.8188     18.1202     18.6664     27.0971    110.4069
   775.7500     63.6776     18.0521     19.4880     35.1445    107.3736
   776.0000     63.5506     18.0671     20.1935     44.5761    103.8730
   776.2500     63.4511     18.2099     20.6463     53.1975    102.7119
   776.5000     63.3864     18.5163     20.7885     58.1174    103.3120
   776.7500     63.3560     19.0071     20.6778     57.2084    105.1463
   777.0000     63.3552     19.6800     20.4656     50.6260    108.4999
   777.2500     63.3797     20.4986     20.3364     41.0388    109.6514
   777.5000     63.4308     21.3798     20.4542     32.3639    107.5348
   777.7500     63.5184     22.1904     20.9376     28.3137    103.0975
   778.0000     63.6606     22.7674     21.8486     31.9724     92.5685
   778.2500     63.8781     22.9666     23.1737     45.9960     83.7771
   778.5000     64.1849     22.7206     24.7803     71.9090     69.5440
   778.7500     64.5824     22.0702     26.3663    107.9153     60.5019
   779.0000     65.0608     21.1479     27.4707    146.9146     50.0637
   779.2500     65.6079     20.1223     27.6342    177.5013     46.6477
   779.5000     66.2149     19.1420     26.6704    188.7951     48.4981
   779.7500     66.8773     18.3020     24.8003    176.3503     54.5325
   780.0000     67.5903     17.6403     22.4933    144.7800     69.5382
   780.2500     68.3429     17.1501     20.1956    105.0161     82.0042
   780.5000     69.1144     16.7974     18.1847     68.3129    100.9234
   780.7500     69.8746     16.5359     16.5734     41.3282    111.6472
   781.0000     70.5896     16.3182     15.3716     25.0475    122.6198
   781.2500     71.2271     16.1032     14.5401     16.9163    126.2634
   781.5000     71.7605     15.8607     14.0232     13.6506    127.2848
   781.7500     72.1687     15.5754     13.7651     12.8674    126.0137
   782.0000     72.4383     15.2520     13.7162     13.3206    122.6423
   782.2500     72.5660     14.9167     13.8346     14.4553    119.8698
   782.5000     72.5603     14.6091     14.0848     15.9682    115.3578
   782.7500     72.4418     14.3683     14.4351     17.6411    112.5599
   783.0000     72.2379     14.2196     14.8557     19.3545    109.7222
   783.2500     71.9771     14.1718     15.3154     21.0979    108.9988
   783.5000     71.6829     14.2220     15.7792     22.9126    109.0619
   783.7500     71.3710     14.3612     16.2042     24.7937    109.4257
   784.0000     71.0484     14.5767     16.5405     26.5844    110.6796
   784.2500     70.7117     14.8495     16.7408     27.9042    112.5083
   784.5000     70.3476     15.1507     16.7784     28.2190    116.9886
   784.7500     69.9347     15.4397     16.6625     27.1276    120.6810
   785.0000     69.4478     15.6706     16.4377     24.7157    126.2496
   785.2500     68.8615     15.8034     16.1641     21.6497    129.5476
   785.5000     68.1532     15.8163     15.8926     18.8515    133.2013
   785.7500     67.3072     15.7093     15.6496     16.9958    134.2849
   786.0000     66.3205     15.5005     15.4353     16.2324    133.1334
   786.2500     65.2097     15.2189     15.2314     16.2771    130.4957
   786.5000     64.0143     14.9012     15.0142     16.6920    124.9742
   786.7500     62.7919     14.5894     14.7673     17.1120    121.5258
   787.0000     61.6070     14.3276     14.4925     17.3277    118.4403
   787.2500     60.5199     14.1543     14.2141     17.2666    117.8470
   787.5000     59.5843     14.0940     13.9746     16.9439    117.8796
