~Version Information
VERS.                      2.0: CWLS Log ASCII Standard - VERSION 2.0
WRAP.                       NO: One line per depth step
~Well Information Block
STRT.FT                -4.2500: 
STOP.FT              2500.7500: 
STEP.FT                 0.2500: 
NULL.                -999.2500: 
COMP.          Pioneer Natural Resources: COMPANY
WELL.          Cock-a-doodle-doo 44-27: WELL
FLD.           Purgatoire River: FIELD
LOC.           163' FSL & 54' FEL--: LOCATION
PROV.                 Colorado: PROVINCE
CNTY.               Las Animas: COUNTRY
SRVC.                Patterson: SERVICE COMPANY
DATE.          Wed Jul 06 10:56:34 2005: LOG DATE
UWI.                071 08429 : UNIQUE WELL ID
~Curve Information Block
DEPT.FT            0 000 00 00: Depth
CCL.                          : Casing Collar Locator
TT3.usec                      : CBL 3' Travel Time
AMP3.mV                       : CBL 3' Amplitude
GR.GAPI                       : Gamma Ray
~Parameter Information Block
~A  Depth       CCL         TT3         AMP3         GR     
# ...
   330.7500      0.0000    675.9534     12.2979     71.5685
   331.0000      0.0000    676.1183     12.2690     69.5052
   331.2500      0.0000    676.3276     12.2154     69.2318
   331.5000      0.0000    676.5896     12.1466     71.1640
   331.7500      0.0000    676.9149     12.0731     75.6309
   332.0000      0.0000    677.2920     11.9964     81.7209
   332.2500      0.0000    677.6869     11.9121     87.1095
   332.5000      0.0000    678.0621     11.8188     89.5222
   332.7500      0.0000    678.3902     11.7195     88.3751
   333.0000      0.0000    678.6596     11.6180     84.8895
   333.2500      0.0000    678.8800     11.5213     80.8904
   333.5000      0.0000    679.0782     11.4412     77.8211
   333.7500      0.0000    679.2736     11.3866     76.6967
   334.0000      0.0000    679.4561     11.3546     78.2541
   334.2500      0.0000    679.5950     11.3310     82.5574
   334.5000      0.0000    679.6678     11.2964     88.5590
   334.7500      0.0000    679.6666     11.2310     94.5273
   335.0000      0.0000    679.5717     11.1224     98.9845
   335.2500      0.0000    679.3398     10.9792    101.1495
   335.5000      0.0000    678.9379     10.8338    101.0000
   335.7500      0.0000    678.3854     10.7251     99.5453
   336.0000      0.0000    677.7053     10.6734     98.7327
   336.2500      0.0000    676.7846     10.6719    100.0698
   336.5000      0.0000    675.2570     10.6959    102.9328
   336.7500      0.0000    672.6663     10.7226    104.8593
   337.0000      0.0000    669.0757     10.7459    104.0890
   337.2500      0.0000    665.6426     10.7715    101.5500
   337.5000      0.0000    664.1418     10.8018     99.9261
   337.7500      0.0000    665.4304     10.8301    101.0096
   338.0000      0.0000    668.5639     10.8511    104.2371
   338.2500      0.0000    671.7299     10.8707    107.4556
   338.5000      0.0000    673.7880     10.9013    108.6531
   338.7500      0.0000    674.7169     10.9472    107.2548
   339.0000      0.0000    675.0107     10.9958    104.1735
   339.2500      0.0000    675.0691     11.0249    100.7560
   339.5000      0.0000    675.0649     11.0205     97.8598
   339.7500      0.0000    675.0736     10.9890     95.9352
   340.0000      0.0000    675.1563     10.9529     95.3933
   340.2500      0.0000    675.3339     10.9312     96.3493
   340.5000      0.0000    675.5432     10.9244     98.0722
   340.7500      0.0000    675.6740     10.9187     98.9938
   341.0000      0.0000    675.6502     10.9042     97.4939
   341.2500      0.0000    675.4764     10.8858     93.0948
   341.5000      0.0000    675.2258     10.8771     87.1360
   341.7500      0.0000    674.9969     10.8868     82.0482
   342.0000      0.0000    674.8750     10.9152     79.5734
   342.2500      0.0000    674.9197     10.9592     79.5710
   342.5000      0.0000    675.1599     11.0155     80.4613
   342.7500      0.0000    675.5723     11.0779     80.6970
   343.0000      0.0000    676.0613     11.1336     79.8867
   343.2500      0.0000    676.4992     11.1649     78.9113
   343.5000      0.0000    676.8249     11.1582     78.9749
   343.7500      0.0000    677.0897     11.1173     80.2561
   344.0000      0.0000    677.3716     11.0663     81.5281
   344.2500      0.0000    677.6516     11.0338     81.4227
   344.5000      0.0000    677.8187     11.0337     80.0898
   344.7500      0.0000    677.7986     11.0615     79.3423
   345.0000      0.0000    677.6316     11.1039     81.0145
   345.2500      0.0000    677.4186     11.1470     85.3581
   345.5000      0.0000    677.2341     11.1760     90.8925
   345.7500      0.0000    677.1006     11.1708     95.2840
   346.0000      0.0000    677.0040     11.1098     96.4949
   346.2500      0.0000    676.9017     10.9843     93.9596
   346.5000      0.0000    676.7470     10.8126     89.0816
   346.7500      0.0000    676.5334     10.6314     84.2232
   347.0000      0.0000    676.3068     10.4681     81.0096
   347.2500      0.0000    676.1272     10.3243     79.8059
   347.5000      0.0000    676.0200     10.1878     80.4778
   347.7500      0.0000    675.9597     10.0543     82.9030
   348.0000      0.0000    675.8928      9.9306     86.5892
   348.2500      0.0000    675.7872      9.8238     90.2662
   348.5000      0.0000    675.6650      9.7313     92.2913
   348.7500      0.0000    675.5694      9.6424     91.7746
   349.0000      0.0000    675.5028      9.5478     89.3570
   349.2500      0.0000    675.4235      9.4482     86.5994
   349.5000      0.0000    675.3052      9.3544     84.5158
   349.7500      0.0000    675.1720      9.2763     83.0231
   350.0000      0.0000    675.0671      9.2140     81.7388
   350.2500      0.0000    675.0140      9.1592     80.5619
   350.5000      0.0000    675.0228      9.1068     79.1963
   350.7500      0.0000    675.1110      9.0585     76.8720
   351.0000      0.0000    675.2827      9.0178     73.2131
   351.2500      0.0000    675.4833      8.9847     69.1100
   351.5000      0.0000    675.6057      8.9580     66.3153
   351.7500      0.0000    675.5627      8.9413     66.2264
   352.0000      0.0000    675.3638      8.9420     69.0055
   352.2500      0.0000    675.1264      8.9641     73.6045
   352.5000      0.0000    674.9907      9.0015     78.6018
   352.7500      0.0000    674.9879      9.0423     83.0340
   353.0000      0.0000    674.9555      9.0803     86.3652
   353.2500      0.0000    674.5689      9.1213     88.0606
   353.5000      0.0000    673.4198      9.1778     87.9849
   353.7500      0.0000    671.1719      9.2576     87.1847
   354.0000      0.0000    667.9850      9.3543     87.3562
   354.2500      0.0000    664.9708      9.4471     89.1362
   354.5000      0.0000    663.7910      9.5126     91.4337
   354.7500      0.0000    665.2597      9.5419     92.7660
   355.0000      0.0000    668.4847      9.5467     92.7396
   355.2500      0.0000    671.7200      9.5465     91.7065
   355.5000      0.0000    673.7895      9.5513     89.5562
   355.7500      0.0000    674.4412      9.5586     86.0291
   356.0000      0.0000    673.7281      9.5643     82.1830
   356.2500      0.0000    671.6193      9.5702     80.1179
   356.5000      0.0000    668.4127      9.5780     80.5604
   356.7500      0.0000    665.3099      9.5830     81.6403
   357.0000      0.0000    664.0060      9.5769     80.8599
   357.2500      0.0000    665.2858      9.5546     77.8622
   357.5000      0.0000    668.2424      9.5175     74.8147
   357.7500      0.0000    671.1978      9.4756     74.3057
   358.0000      0.0000    673.1291      9.4431     77.1181
   358.2500      0.0000    674.0341      9.4287     81.7992
   358.5000      0.0000    674.3524      9.4290     85.9387
   358.7500      0.0000    674.4251      9.4328     87.7119
   359.0000      0.0000    674.3828      9.4324     86.7179
   359.2500      0.0000    674.2653      9.4304     84.0543
   359.5000      0.0000    674.1426      9.4371     81.5645
   359.7500      0.0000    674.1427      9.4632     80.4930
   360.0000      0.0000    674.3621      9.5088     80.8173
   360.2500      0.0000    674.7755      9.5617     81.8609
   360.5000      0.0000    675.2531      9.6043     83.1094
   360.7500      0.0000    675.6853      9.6264     84.3479
   361.0000      0.0000    676.0557      9.6248     85.5641
   361.2500      0.0000    676.3127      9.5846     86.9707
   361.5000      0.0000    676.0598      9.4552     88.7798
   361.7500      0.0000    674.2462      9.1665     90.7429
   362.0000      0.0000    669.5930      8.7029     91.9965
   362.2500      0.0000    662.1976      8.1619     91.4771
   362.5000      0.0000    655.1525      7.6882     88.6024
   362.7500      0.0000    653.5455      7.3316     83.7403
   363.0000      0.0000    660.2663      7.0258     78.1125
   363.2500      0.0000    672.3988      6.7136     73.2768
   363.5000      0.0000    682.9723      6.4229     70.7017
   363.7500      0.0000    687.3700      6.2056     71.4723
   364.0000     -2.0000    687.1108      6.0681     75.7133
