~Version Information
VERS.                      2.0: CWLS Log ASCII Standard - VERSION 2.0
WRAP.                       NO: One line per depth step
~Well Information Block
STRT.FT                30.0000: 
STOP.FT              2789.0000: 
STEP.FT                 0.1000: 
NULL.                -999.2500: 
COMP.          Pioneer Natural Resources: COMPANY
WELL.          Rabbit Bush Federal 44-19: WELL
FLD.           Purgatorie River: FIELD
LOC.           826' FSL & 1127' FEL: LOCATION
CNTY.               Las Animas: COUNTY
SRVC.                Patterson: SERVICE COMPANY
DATE.          Mon Aug 28 10:56:57 2006: LOG DATE
UWI.           05-071-08149-00: UNIQUE WELL ID
STAT.                 Colorado: STATE
~Curve Information Block
DEPT.FT            0 000 00 00: Depth
DCAL.in                       : CDL Caliper
RHOB.g/cc                     : CDL Bulk Density
RHOC.g/cc                     : CDL Density Correction
DPOR.pu                       : CDL Density Porosity
GR.GAPI                       : Gamma Ray
NPOR.pu                       : Neutron Porosity
~Parameter Information Block
~A  Depth       DCAL        RHOB        RHOC        DPOR         GR         NPOR    
    30.0000     16.9211      2.1931      2.0000     -0.0091     86.3630     22.9245
    30.1000     16.9211      2.2095      2.0000     -0.0088     83.5800     22.9574
    30.2000     16.9211      2.2255      2.0000     -0.0085     82.9986     23.2209
    30.3000     16.9211      2.2310      2.0000     -0.0084     85.7789     23.1083
    30.4000     16.9211      2.2257      2.0000     -0.0085     87.0698     22.9169
    30.5000     16.9207      2.2121      2.0000     -0.0088     85.6179     23.0765
    30.6000     16.9207      2.1944      2.0000     -0.0091     86.1078     23.2944
    30.7000     16.9207      2.1767      2.0000     -0.0095     88.5192     23.4369
    30.8000     16.9196      2.1475      2.0000     -0.0101     89.8826     23.7214
    30.9000     16.9196      2.1106      2.0000     -0.0108     90.4080     24.1979
    31.0000     16.9199      2.0958      2.0000     -0.0111     90.2917     24.7941
    31.1000     16.9199      2.1113      2.0000     -0.0108     89.9417     25.2928
    31.2000     16.9199      2.1283      2.0000     -0.0104     91.9018     25.4703
    31.3000     16.9210      2.1263      2.0000     -0.0105     95.9874     25.3691
    31.4000     16.9210      2.1105      2.0000     -0.0108     97.9249     25.2654
    31.5000     16.9211      2.0896      2.0000     -0.0112     96.9644     25.1875
    31.6000     16.9211      2.0810      2.0000     -0.0114     96.2092     25.0882
    31.7000     16.9211      2.1001      2.0000     -0.0110     94.2434     25.1550
    31.8000     16.9225      2.1288      2.0000     -0.0104     89.7174     25.4706
    31.9000     16.9225      2.1427      2.0000     -0.0102     85.8918     25.5813
    32.0000     16.9251      2.1433      2.0000     -0.0101     83.7808     25.2757
    32.1000     16.9251      2.1310      2.0000     -0.0104     81.6117     25.0531
    32.2000     16.9251      2.1195      2.0000     -0.0106     80.7195     24.9337
    32.3000     16.9277      2.1352      2.0000     -0.0103     82.1845     24.6175
    32.4000     16.9277      2.1660      2.0000     -0.0097     82.1696     24.2529
    32.5000     16.9277      2.1797      2.0000     -0.0094     78.1778     23.9038
    32.6000     16.9277      2.1636      2.0000     -0.0097     72.2534     23.5085
    32.7000     16.9277      2.1366      2.0000     -0.0103     66.7423     22.9168
    32.8000     16.9255      2.1245      2.0000     -0.0105     63.2803     22.3631
    32.9000     16.9255      2.1163      2.0000     -0.0107     63.5036     22.4302
    33.0000     16.9247      2.0956      2.0000     -0.0111     64.5171     22.8259
    33.1000     16.9247      2.0786      2.0000     -0.0114     62.8383     22.9057
    33.2000     16.9247      2.0798      2.0000     -0.0114     61.0401     22.6859
    33.3000     16.9254      2.0829      2.0000     -0.0113     61.4962     22.3386
    33.4000     16.9254      2.0679      2.0000     -0.0116     62.8097     22.0736
    33.5000     16.9248      2.0443      2.0000     -0.0121     63.7059     22.1325
    33.6000     16.9248      2.0307      2.0000     -0.0124     63.8193     22.3905
    33.7000     16.9248      2.0312      2.0000     -0.0124     64.2108     22.6709
    33.8000     16.9241      2.0442      2.0000     -0.0121     66.8344     22.9040
    33.9000     16.9241      2.0724      2.0000     -0.0116     70.7050     23.0747
    34.0000     16.9240      2.1092      2.0000     -0.0108     73.6971     23.3178
    34.1000     16.9240      2.1282      2.0000     -0.0104     73.9904     23.5058
    34.2000     16.9240      2.1229      2.0000     -0.0105     70.0604     23.4136
    34.3000     16.9243      2.1192      2.0000     -0.0106     66.3123     23.1369
    34.4000     16.9243      2.1233      2.0000     -0.0105     69.8659     22.8585
    34.5000     16.9250      2.1197      2.0000     -0.0106     78.0363     22.8149
    34.6000     16.9250      2.1060      2.0000     -0.0109     81.9308     22.9586
    34.7000     16.9250      2.0929      2.0000     -0.0111     81.9620     23.1709
    34.8000     16.9260      2.0927      2.0000     -0.0112     80.5183     23.6180
    34.9000     16.9260      2.1165      2.0000     -0.0107     75.4999     24.4736
    35.0000     16.9284      2.1725      2.0000     -0.0096     69.3540     25.8675
    35.1000     16.9284      2.2602      2.0000     -0.0078     64.4450     27.6894
    35.2000     16.9284      2.3562      2.0000     -0.0059     61.2046     29.5344
    35.3000     16.9298      2.4412      2.0000     -0.0042     61.2129     31.1964
    35.4000     16.9298      2.4961      2.0000     -0.0031     61.7613     32.8206
    35.5000     16.9282      2.4680      2.0000     -0.0036     58.4899     34.1110
    35.6000     16.9282      2.3078      2.0000     -0.0068     52.7348     34.4904
    35.7000     16.9282      2.0393      2.0000     -0.0122     47.8401     33.9560
    35.8000     16.9257      1.7771      2.0000     -0.0175     45.8021     32.7853
    35.9000     16.9257      1.6468      2.0000     -0.0201     48.0552     31.1431
    36.0000     16.9233      1.6609      2.0000     -0.0198     52.5880     29.2631
    36.1000     16.9233      1.7170      2.0000     -0.0187     55.0395     27.4763
    36.2000     16.9233      1.7709      2.0000     -0.0176     54.7464     25.8862
    36.3000     16.9215      1.8825      2.0000     -0.0154     54.8568     24.5484
    36.4000     16.9215      2.0446      2.0000     -0.0121     56.5940     23.8581
    36.5000     16.9201      2.1433      2.0000     -0.0101     58.2342     23.6774
    36.6000     16.9201      2.1341      2.0000     -0.0103     57.6043     23.0715
    36.7000     16.9201      2.0976      2.0000     -0.0111     55.6793     21.9907
    36.8000     16.9204      2.0885      2.0000     -0.0112     55.1028     21.4417
    36.9000     16.9204      2.0790      2.0000     -0.0114     55.2216     21.8709
    37.0000     16.9227      2.0511      2.0000     -0.0120     55.6914     22.7713
    37.1000     16.9227      2.0253      2.0000     -0.0125     57.6924     23.6280
    37.2000     16.9227      2.0203      2.0000     -0.0126     59.1997     23.9933
    37.3000     16.9252      2.0439      2.0000     -0.0121     58.9807     23.8242
    37.4000     16.9252      2.0766      2.0000     -0.0115     59.6994     23.5881
    37.5000     16.9258      2.0791      2.0000     -0.0114     61.9908     23.3617
    37.6000     16.9258      2.0527      2.0000     -0.0120     63.9355     22.9313
    37.7000     16.9258      2.0283      2.0000     -0.0124     62.9426     22.6225
    37.8000     16.9262      2.0221      2.0000     -0.0126     58.4327     22.8863
    37.9000     16.9262      2.0349      2.0000     -0.0123     55.0458     23.4756
    38.0000     16.9273      2.0460      2.0000     -0.0121     54.9584     23.6714
    38.1000     16.9273      2.0332      2.0000     -0.0123     54.9929     23.1383
    38.2000     16.9273      2.0157      2.0000     -0.0127     54.3143     22.3643
    38.3000     16.9275      2.0169      2.0000     -0.0127     55.5027     22.1272
    38.4000     16.9275      2.0130      2.0000     -0.0127     58.8055     22.2599
    38.5000     16.9276      1.9830      2.0000     -0.0133     61.5041     21.9740
    38.6000     16.9276      1.9520      2.0000     -0.0140     62.3607     21.4230
    38.7000     16.9276      1.9475      2.0000     -0.0141     62.2688     21.1541
    38.8000     16.9287      1.9685      2.0000     -0.0136     61.7565     21.2414
    38.9000     16.9287      1.9921      2.0000     -0.0132     60.7847     21.5704
    39.0000     16.9279      1.9996      2.0000     -0.0130     58.9835     22.0496
    39.1000     16.9279      1.9975      2.0000     -0.0131     58.6017     22.7223
    39.2000     16.9279      1.9998      2.0000     -0.0130     61.3475     23.6052
    39.3000     16.9261      2.0051      2.0000     -0.0129     64.4917     24.2680
    39.4000     16.9261      2.0073      2.0000     -0.0129     65.7699     24.2497
    39.5000     16.9267      2.0077      2.0000     -0.0129     65.5887     23.7507
