~Version Information
VERS.                      2.0: CWLS Log ASCII Standard - VERSION 2.0
WRAP.                       NO: One line per depth step
~Well Information Block
STRT.FT               294.0000: 
STOP.FT              1961.5000: 
STEP.FT                 0.2500: 
NULL.                -999.2500: 
COMP.          Pioneer Natural Resources: COMPANY
WELL.          Commander 43-26 Tr: WELL
FLD.           Purgatoire River: FIELD
LOC.           2439' FSL & 446' FEL: LOCATION
PROV.                 Colorado: PROVINCE
CNTY.               Las Animas: COUNTRY
SRVC.                Patterson: SERVICE COMPANY
DATE.          Thu Apr 14 18:26:07 2005: LOG DATE
UWI.           05 071 08341 00: UNIQUE WELL ID
~Curve Information Block
DEPT.FT            0 000 00 00: Depth
SN.Ohm-m                      : IEL Short Normal
SP.mV                         : IEL Spontaneous Potential
DIR.Ohm-m                     : IEL Induction Resistivity
GR.GAPI                       : Gamma Ray
~Parameter Information Block
~A  Depth        SN          SP         DIR          GR     
# ...
  1835.0000     12.9847     30.5512     12.3714    127.6955
  1835.2500     13.0119     30.5160     12.3566    128.4949
  1835.5000     12.9032     30.4233     12.3966    131.2458
  1835.7500     12.7900     30.2855     12.4859    133.6363
  1836.0000     12.7858     30.1317     12.6011    136.6279
  1836.2500     12.8442     29.9978     12.7088    137.4374
  1836.5000     12.8672     29.9064     12.7842    136.4149
  1836.7500     12.8605     29.8519     12.8268    134.5266
  1837.0000     12.9196     29.8061     12.8609    130.5603
  1837.2500     13.0651     29.7399     12.9208    127.2765
  1837.5000     13.2101     29.6451     13.0316    121.2425
  1837.7500     13.3139     29.5428     13.1966    116.4950
  1838.0000     13.4648     29.4763     13.3972    108.5999
  1838.2500     13.7332     29.4923     13.6042    103.0680
  1838.5000     14.0340     29.6194     13.7941     95.0507
  1838.7500     14.2500     29.8549     13.9607     90.5570
  1839.0000     14.3564     30.1651     14.1159     86.2402
  1839.2500     14.3661     30.4987     14.2809     85.2212
  1839.5000     14.3208     30.8055     14.4743     85.8258
  1839.7500     14.3207     31.0522     14.7051     86.8563
  1840.0000     14.4459     31.2301     14.9719     87.9887
  1840.2500     14.6432     31.3547     15.2649     87.9798
  1840.5000     14.7839     31.4550     15.5681     86.6761
  1840.7500     14.8501     31.5539     15.8614     85.1871
  1841.0000     14.9249     31.6565     16.1246     82.7153
  1841.2500     15.0429     31.7547     16.3426     81.2612
  1841.5000     15.2061     31.8458     16.5113     79.4679
  1841.7500     15.4365     31.9434     16.6345     78.2649
  1842.0000     15.7379     32.0689     16.7156     75.9148
  1842.2500     16.0740     32.2326     16.7488     73.8987
  1842.5000     16.3754     32.4204     16.7240     70.4462
  1842.7500     16.6164     32.5971     16.6445     68.0706
  1843.0000     16.8873     32.7211     16.5396     64.9102
  1843.2500     17.2279     32.7609     16.4557     63.6154
  1843.5000     17.4915     32.7070     16.4312     63.8643
  1843.7500     17.5402     32.5746     16.4755     65.4732
  1844.0000     17.4011     32.3983     16.5647     68.6470
  1844.2500     17.1792     32.2211     16.6539     70.3197
  1844.5000     16.9534     32.0815     16.6982     71.7918
  1844.7500     16.7464     32.0038     16.6720     72.6056
  1845.0000     16.5544     31.9928     16.5763     74.4568
  1845.2500     16.3970     32.0324     16.4314     76.0037
  1845.5000     16.3073     32.0931     16.2656     77.7232
  1845.7500     16.2766     32.1510     16.1066     77.9991
  1846.0000     16.2789     32.2050     15.9794     77.4346
  1846.2500     16.3347     32.2742     15.9031     77.0115
  1846.5000     16.4458     32.3806     15.8858     76.9226
  1846.7500     16.5382     32.5365     15.9207     77.1021
  1847.0000     16.5711     32.7411     15.9895     77.2186
  1847.2500     16.6275     32.9800     16.0715     77.0519
  1847.5000     16.7938     33.2246     16.1525     76.4970
  1847.7500     17.0033     33.4378     16.2302     75.9624
  1848.0000     17.1162     33.5889     16.3117     74.8274
  1848.2500     17.1129     33.6676     16.4051     73.7911
  1848.5000     17.1137     33.6853     16.5126     71.8854
  1848.7500     17.2267     33.6657     16.6308     70.4881
  1849.0000     17.4438     33.6341     16.7551     68.3505
  1849.2500     17.6895     33.6082     16.8815     66.9273
  1849.5000     17.9040     33.5896     17.0007     64.7877
  1849.7500     18.0877     33.5670     17.0932     63.3970
  1850.0000     18.2968     33.5322     17.1325     61.6329
  1850.2500     18.6019     33.4924     17.0963     60.8651
  1850.5000     19.0506     33.4634     16.9718     60.3968
  1850.7500     19.6078     33.4491     16.7532     60.3840
  1851.0000     20.1014     33.4289     16.4389     60.5206
  1851.2500     20.3373     33.3675     16.0328     60.7605
  1851.5000     20.2286     33.2413     15.5500     62.0393
  1851.7500     19.7127     33.0571     15.0198     64.2010
  1852.0000     18.7344     32.8490     14.4810     70.5112
  1852.2500     17.3703     32.6616     13.9706     76.9394
  1852.5000     15.8145     32.5336     13.5112     89.0228
  1852.7500     14.2979     32.4828     13.1068     97.6401
  1853.0000     13.1065     32.4966     12.7483    109.3667
  1853.2500     12.4987     32.5381     12.4246    115.4862
  1853.5000     12.4399     32.5722     12.1290    121.4921
  1853.7500     12.6039     32.5920     11.8593    123.4702
  1854.0000     12.7415     32.6249     11.6152    124.0160
  1854.2500     12.8171     32.7086     11.3973    123.3753
  1854.5000     12.8355     32.8568     11.2076    122.3063
  1854.7500     12.7961     33.0487     11.0503    122.1393
  1855.0000     12.7430     33.2514     10.9312    122.4649
  1855.2500     12.7367     33.4447     10.8545    122.2213
  1855.5000     12.8199     33.6189     10.8189    119.8695
  1855.7500     12.9823     33.7602     10.8127    116.8892
  1856.0000     13.1839     33.8551     10.8142    110.9055
  1856.2500     13.4154     33.9075     10.7962    106.2003
  1856.5000     13.6355     33.9433     10.7377     98.5790
  1856.7500     13.7204     33.9903     10.6341     93.9346
  1857.0000     13.5669     34.0573     10.4990     90.0859
  1857.2500     13.1960     34.1321     10.3567     91.0024
  1857.5000     12.7276     34.1987     10.2303     98.4360
  1857.7500     12.2829     34.2526     10.1319    106.7155
  1858.0000     11.9140     34.3003     10.0594    121.2985
  1858.2500     11.6131     34.3471      9.9989    130.3567
  1858.5000     11.3295     34.3873      9.9304    139.7808
  1858.7500     10.9837     34.4069      9.8351    142.4679
  1859.0000     10.5628     34.3949      9.7014    142.0886
  1859.2500     10.1782     34.3503      9.5274    140.4082
  1859.5000      9.9417     34.2824      9.3205    138.2093
  1859.7500      9.8705     34.2076      9.0963    137.6018
  1860.0000      9.9594     34.1466      8.8765    137.6319
  1860.2500     10.1970     34.1199      8.6842    137.7302
  1860.5000     10.5025     34.1406      8.5388    137.4404
  1860.7500     10.7811     34.2094      8.4511    137.0637
  1861.0000     11.0216     34.3107      8.4236    136.8956
  1861.2500     11.2442     34.4162      8.4514    137.4207
  1861.5000     11.4132     34.4993      8.5253    139.2137
  1861.7500     11.4895     34.5510      8.6338    140.6707
  1862.0000     11.4869     34.5842      8.7637    142.3180
  1862.2500     11.4114     34.6232      8.9024    142.8290
  1862.5000     11.2421     34.6926      9.0375    142.9679
  1862.7500     10.9673     34.8084      9.1575    142.7111
  1863.0000     10.5933     34.9729      9.2534    141.0384
  1863.2500     10.1662     35.1721      9.3224    138.2957
  1863.5000      9.7501     35.3772      9.3722    131.1407
  1863.7500      9.3956     35.5544      9.4178    124.9725
  1864.0000      9.2195     35.6818      9.4750    116.0783
  1864.2500      9.4336     35.7620      9.5528    111.8286
  1864.5000     10.1679     35.8207      9.6533    108.9993
  1864.7500     11.2788     35.8882      9.7746    109.0315
  1865.0000     12.3967     35.9833      9.9148    110.3277
  1865.2500     13.1895     36.1063     10.0714    111.3056
  1865.5000     13.5746     36.2392     10.2391    112.6377
  1865.7500     13.6993     36.3465     10.4095    113.4883
  1866.0000     13.7465     36.3901     10.5751    114.6055
  1866.2500     13.7804     36.3555     10.7346    115.1499
  1866.5000     13.7624     36.2616     10.8944    115.7068
  1866.7500     13.6678     36.1400     11.0661    115.8703
  1867.0000     13.5548     36.0068     11.2641    115.3174
  1867.2500     13.4785     35.8628     11.5034    114.1426
  1867.5000     13.4629     35.7146     11.7991    111.4269
  1867.7500     13.6023     35.5889     12.1619    109.5267
  1868.0000     13.9792     35.5265     12.5942    107.4063
  1868.2500     14.5073     35.5648     13.0911    106.5202
