~Version Information
VERS.                      2.0: CWLS Log ASCII Standard - VERSION 2.0
WRAP.                       NO: One line per depth step
~Well Information Block
STRT.FT               450.0000: 
STOP.FT              1739.2500: 
STEP.FT                 0.2500: 
NULL.                -999.2500: 
COMP.          Pioneer Natural Resources: COMPANY
WELL.            Harlee L 34-9: WELL
FLD.           Purgatoire River: FIELD
LOC.           600' FSL & 2125' FEL: LOCATION
PROV.                 Colorado: PROVINCE
CNTY.               Las Animas: COUNTRY
SRVC.                Patterson: SERVICE COMPANY
DATE.          Wed Jan 26 02:00:08 2005: LOG DATE
UWI.           05 071 08009 00: UNIQUE WELL ID
~Curve Information Block
DEPT.FT            0 000 00 00: Depth
SN.Ohm-m                      : IEL Short Normal
SP.mV                         : IEL Spontaneous Potential
DIR.Ohm-m                     : IEL Induction Resistivity
GR.GAPI                       : Gamma Ray
~Parameter Information Block
~A  Depth        SN          SP         DIR          GR     
# ...
  1120.0000     25.9639   -167.0036     21.5392     72.8734
  1120.2500     25.9896   -166.8723     21.7943     72.9963
  1120.5000     25.9620   -166.7714     21.9816     73.5953
  1120.7500     25.9272   -166.6929     22.0592     74.2801
  1121.0000     25.9231   -166.6323     22.0060     75.4371
  1121.2500     25.9672   -166.5901     21.8272     76.0853
  1121.5000     26.0549   -166.5691     21.5652     76.7422
  1121.7500     26.1684   -166.5694     21.3077     77.0538
  1122.0000     26.2879   -166.5858     21.1686     77.3988
  1122.2500     26.4004   -166.6078     21.2419     77.3858
  1122.5000     26.5033   -166.6213     21.5552     76.6542
  1122.7500     26.6021   -166.6127     22.0504     75.7128
  1123.0000     26.7069   -166.5705     22.6087     74.0299
  1123.2500     26.8296   -166.4885     23.1087     72.9880
  1123.5000     26.9819   -166.3663     23.4802     71.9069
  1123.7500     27.1711   -166.2114     23.7133     71.7183
  1124.0000     27.3959   -166.0406     23.8291     72.4945
  1124.2500     27.6479   -165.8803     23.8505     73.7185
  1124.5000     27.9201   -165.7650     23.7957     76.4123
  1124.7500     28.2163   -165.7338     23.6849     78.6310
  1125.0000     28.5493   -165.8238     23.5488     82.3524
  1125.2500     28.9275   -166.0623     23.4296     84.9728
  1125.5000     29.3417   -166.4593     23.3768     88.8027
  1125.7500     29.7656   -167.0012     23.4333     90.8125
  1126.0000     30.1605   -167.6471     23.6152     91.5063
  1126.2500     30.4700   -168.3285     23.8957     89.6052
  1126.5000     30.6107   -168.9554     24.1990     83.4253
  1126.7500     30.4798   -169.4281     24.4133     78.4366
  1127.0000     29.9846   -169.6551     24.4204     72.8082
  1127.2500     29.0874   -169.5727     24.1367     71.6006
  1127.5000     27.8445   -169.1600     23.5466     74.1773
  1127.7500     26.4033   -168.4447     22.7014     78.5831
  1128.0000     24.9395   -167.4969     21.6872     88.8944
  1128.2500     23.5705   -166.4143     20.5876     98.0345
  1128.5000     22.3186   -165.3018     19.4685    113.6104
  1128.7500     21.1536   -164.2530     18.3837    123.4550
  1129.0000     20.0635   -163.3363     17.3826    134.5431
  1129.2500     19.0833   -162.5904     16.5099    139.0026
  1129.5000     18.2666   -162.0254     15.7977    142.2556
  1129.7500     17.6415   -161.6299     15.2595    142.6649
  1130.0000     17.1959   -161.3794     14.8921    140.5859
  1130.2500     16.8979   -161.2433     14.6836    137.4256
  1130.5000     16.7240   -161.1902     14.6203    131.4092
  1130.7500     16.6740   -161.1916     14.6889    127.8442
  1131.0000     16.7649   -161.2238     14.8738    124.3406
  1131.2500     17.0082   -161.2705     15.1551    122.8800
  1131.5000     17.3830   -161.3232     15.5093    120.8650
  1131.7500     17.8294   -161.3825     15.9116    119.5060
  1132.0000     18.2749   -161.4554     16.3363    118.0852
  1132.2500     18.6733   -161.5517     16.7572    117.8670
  1132.5000     19.0204   -161.6784     17.1508    118.3756
  1132.7500     19.3388   -161.8359     17.5009    118.6531
  1133.0000     19.6525   -162.0163     17.8026    117.6441
  1133.2500     19.9699   -162.2052     18.0625    115.5789
  1133.5000     20.2827   -162.3853     18.2962    110.8783
  1133.7500     20.5737   -162.5408     18.5252    107.5579
  1134.0000     20.8313   -162.6612     18.7732    103.7836
  1134.2500     21.0634   -162.7424     19.0574    102.3903
  1134.5000     21.2990   -162.7870     19.3788    101.5226
  1134.7500     21.5675   -162.8029     19.7175    101.2531
  1135.0000     21.8727   -162.8007     20.0399    100.5299
  1135.2500     22.1858   -162.7906     20.3174     99.5099
  1135.5000     22.4706   -162.7795     20.5411     97.1040
  1135.7500     22.7126   -162.7698     20.7219     95.2518
  1136.0000     22.9272   -162.7598     20.8787     92.9209
  1136.2500     23.1438   -162.7469     21.0284     91.9468
  1136.5000     23.3851   -162.7310     21.1840     91.2126
  1136.7500     23.6564   -162.7180     21.3564     90.8694
  1137.0000     23.9485   -162.7212     21.5564     90.1857
  1137.2500     24.2517   -162.7589     21.7922     89.8104
  1137.5000     24.5673   -162.8505     22.0672     90.0428
  1137.7500     24.9080   -163.0093     22.3772     90.7587
  1138.0000     25.2843   -163.2377     22.7098     91.8087
  1138.2500     25.6907   -163.5243     23.0514     91.9002
  1138.5000     26.1046   -163.8464     23.3957     90.7397
  1138.7500     26.4943   -164.1754     23.7454     89.1813
  1139.0000     26.8292   -164.4822     24.1056     85.8769
  1139.2500     27.0931   -164.7416     24.4743     83.1384
  1139.5000     27.2985   -164.9342     24.8396     78.5612
  1139.7500     27.4883   -165.0479     25.1816     75.5636
  1140.0000     27.7116   -165.0782     25.4734     72.1846
  1140.2500     27.9876   -165.0292     25.6785     71.3987
  1140.5000     28.2826   -164.9128     25.7491     73.1321
  1140.7500     28.5228   -164.7465     25.6348     75.9463
  1141.0000     28.6354   -164.5501     25.3132     81.0660
  1141.2500     28.5866   -164.3422     24.8259     83.9906
  1141.5000     28.3926   -164.1381     24.2847     86.3796
  1141.7500     28.1063   -163.9495     23.8264     86.3538
  1142.0000     27.7960   -163.7857     23.5499     83.9092
  1142.2500     27.5266   -163.6541     23.4809     80.9669
  1142.5000     27.3440   -163.5593     23.5799     75.7211
  1142.7500     27.2614   -163.5016     23.7732     72.5655
  1143.0000     27.2529   -163.4765     23.9861     69.5600
  1143.2500     27.2648   -163.4754     24.1588     68.9529
  1143.5000     27.2458   -163.4877     24.2510     69.8973
  1143.7500     27.1716   -163.5029     24.2442     71.5010
  1144.0000     27.0514   -163.5116     24.1458     74.9138
  1144.2500     26.9190   -163.5058     23.9882     77.5696
  1144.5000     26.8170   -163.4788     23.8184     81.6693
  1144.7500     26.7752   -163.4269     23.6838     84.3650
  1145.0000     26.7907   -163.3503     23.6187     88.3915
  1145.2500     26.8273   -163.2533     23.6331     91.0646
  1145.5000     26.8328   -163.1434     23.7085     94.8350
  1145.7500     26.7628   -163.0280     23.8024     96.9427
  1146.0000     26.5987   -162.9115     23.8667     98.9242
  1146.2500     26.3558   -162.7928     23.8688     99.1457
  1146.5000     26.0754   -162.6656     23.8050     97.7710
  1146.7500     25.8078   -162.5211     23.6977     96.0624
  1147.0000     25.5945   -162.3512     23.5814     93.1106
  1147.2500     25.4565   -162.1520     23.4878     91.2153
  1147.5000     25.3908   -161.9244     23.4337     88.8767
  1147.7500     25.3738   -161.6738     23.4149     87.8879
  1148.0000     25.3720   -161.4085     23.4102     87.5780
  1148.2500     25.3555   -161.1383     23.3925     88.2163
  1148.5000     25.3076   -160.8740     23.3412     90.4377
  1148.7500     25.2279   -160.6279     23.2492     92.7386
  1149.0000     25.1292   -160.4115     23.1230     97.0037
  1149.2500     25.0320   -160.2344     22.9824     99.7077
  1149.5000     24.9587   -160.1001     22.8571    102.0051
  1149.7500     24.9312   -160.0056     22.7798    101.8592
  1150.0000     24.9678   -159.9419     22.7740     99.6126
  1150.2500     25.0783   -159.8987     22.8436     97.4928
  1150.5000     25.2595   -159.8687     22.9714     94.2928
  1150.7500     25.4967   -159.8516     23.1289     92.2830
  1151.0000     25.7691   -159.8531     23.2914     89.3388
  1151.2500     26.0565   -159.8819     23.4483     87.3485
  1151.5000     26.3452   -159.9440     23.6036     84.3888
  1151.7500     26.6333   -160.0393     23.7676     82.6268
  1152.0000     26.9280   -160.1607     23.9487     80.6912
  1152.2500     27.2386   -160.2952     24.1483     79.9519
  1152.5000     27.5691   -160.4280     24.3626     79.4747
  1152.7500     27.9171   -160.5454     24.5863     79.3662
  1153.0000     28.2756   -160.6374     24.8165     79.2263
  1153.2500     28.6347   -160.6998     25.0523     79.0720
