~Version Information
VERS.                      2.0: CWLS Log ASCII Standard - VERSION 2.0
WRAP.                       NO: One line per depth step
~Well Information Block
STRT.FT               700.0000: 
STOP.FT              1869.5000: 
STEP.FT                 0.2500: 
NULL.                -999.2500: 
COMP.          Petrogulf Corporation: COMPANY
WELL.             State 16-24R: WELL
FLD.           Purgatorie River: FIELD
LOC.           541' FSL & 2371' FWL: LOCATION
PROV.                 Colorado: PROVINCE
CNTY.               Las Animas: COUNTRY
SRVC.                Patterson: SERVICE COMPANY
DATE.          Fri Aug 12 09:07:22 2005: LOG DATE
UWI.                071-08312 : UNIQUE WELL ID
~Curve Information Block
DEPT.FT            0 000 00 00: Depth
SP.mV                         : DIL Spontaneous Potential
RILD.Ohm-m                    : DIL Deep Resistivity
RILM.Ohm-m                    : DIL Medium Resistivity
RLL3.Ohm-m                    : DIL Shallow Resistivity
GR.GAPI                       : Gamma Ray
~Parameter Information Block
~A  Depth        SP         RILD        RILM        RLL3         GR     
   700.0000   2000.0000   -999.2500   -999.2500   -999.2500     98.8494
   700.2500   2000.0000   -999.2500   -999.2500   -999.2500     98.4744
   700.5000   2000.0000   -999.2500   -999.2500   -999.2500     92.3375
   700.7500   2000.0000   -999.2500   -999.2500   -999.2500    100.6040
   701.0000   2000.0000   -999.2500   -999.2500   -999.2500    104.3409
   701.2500   2000.0000     13.2722   -999.2500   -999.2500    100.5012
   701.5000   2000.0000     14.2180   -999.2500   -999.2500     98.9863
   701.7500   2000.0000     14.3186   -999.2500   -999.2500    102.1572
   702.0000   2000.0000     13.1732   -999.2500   -999.2500    107.7484
   702.2500   2000.0000     12.6477   -999.2500   -999.2500    108.1171
   702.5000   2000.0000     12.1490   -999.2500   -999.2500    107.4040
   702.7500   2000.0000     12.8001   -999.2500   -999.2500    103.9650
   703.0000   2000.0000     12.9467   -999.2500   -999.2500    103.4526
   703.2500   2000.0000     12.9668   -999.2500   -999.2500    108.3386
   703.5000   2000.0000     13.4777   -999.2500   -999.2500    102.0159
   703.7500   2000.0000     14.3912   -999.2500   2000.0000     99.4137
   704.0000   2000.0000     15.8521   -999.2500   2000.0000     98.4640
   704.2500   2000.0000     15.4761   -999.2500   2000.0000    102.5939
   704.5000   2000.0000     14.0180   -999.2500   2000.0000    101.7589
   704.7500   2000.0000     13.7542   -999.2500   2000.0000     97.0818
   705.0000   2000.0000     14.2955   -999.2500   2000.0000     97.4885
   705.2500   2000.0000     14.9804   -999.2500   2000.0000    103.7609
   705.5000   2000.0000     14.5129   -999.2500   2000.0000     96.0786
   705.7500   2000.0000     14.3259   -999.2500   2000.0000     91.6818
   706.0000   2000.0000     13.7471 100000.0000   2000.0000     86.4604
   706.2500   2000.0000     12.9457 100000.0000   2000.0000     81.5326
   706.5000   2000.0000     12.4849 100000.0000   2000.0000     78.9702
   706.7500   2000.0000     13.1013 100000.0000   2000.0000     71.5774
   707.0000   2000.0000     13.1186 100000.0000   2000.0000     66.9928
   707.2500   2000.0000     12.4917 100000.0000   2000.0000     69.1946
   707.5000   2000.0000     13.6336 100000.0000   2000.0000     70.1861
   707.7500   2000.0000     15.0788 100000.0000   2000.0000     70.0971
   708.0000   2000.0000     15.0753 100000.0000   2000.0000     82.9866
   708.2500   2000.0000     14.0039 100000.0000   2000.0000     84.8976
   708.5000   2000.0000     14.3854 100000.0000   2000.0000     84.8190
   708.7500   2000.0000     14.6397 100000.0000   2000.0000     91.4366
   709.0000   2000.0000     14.1354 100000.0000   2000.0000     92.0266
   709.2500   2000.0000     13.3154 100000.0000   2000.0000     87.2479
   709.5000   2000.0000     12.7522 100000.0000   2000.0000     86.2184
   709.7500   2000.0000     12.3815 100000.0000   2000.0000     81.6395
   710.0000   2000.0000     12.1618 100000.0000   2000.0000     80.4744
   710.2500   2000.0000     12.0471 100000.0000   2000.0000     85.7611
   710.5000   2000.0000     12.2144 100000.0000   2000.0000     86.3082
   710.7500   2000.0000     12.8110 100000.0000   2000.0000     90.7819
   711.0000   2000.0000     12.5509 100000.0000   2000.0000     91.2203
   711.2500   2000.0000     12.9828 100000.0000   2000.0000     90.7299
   711.5000   2000.0000     13.7424 100000.0000   2000.0000     88.3236
   711.7500   2000.0000     14.0008 100000.0000   2000.0000     89.2213
   712.0000   2000.0000     13.8600 100000.0000   2000.0000     92.4035
   712.2500   2000.0000     14.3756 100000.0000   2000.0000     91.7548
   712.5000   2000.0000     14.3636 100000.0000   2000.0000     92.4275
   712.7500   2000.0000     14.1167 100000.0000   2000.0000     89.0993
   713.0000   2000.0000     13.7342 100000.0000   2000.0000     94.2948
   713.2500   2000.0000     13.2743 100000.0000   2000.0000     87.1921
   713.5000   2000.0000     13.0095 100000.0000   2000.0000     85.1334
   713.7500   2000.0000     12.9550 100000.0000   2000.0000     94.6971
   714.0000   2000.0000     12.5319 100000.0000   2000.0000     88.9861
   714.2500   2000.0000     12.3244 100000.0000   2000.0000     89.8753
   714.5000   2000.0000     11.9582 100000.0000   2000.0000    101.0312
   714.7500   2000.0000     12.1257 100000.0000   2000.0000    103.3837
   715.0000   2000.0000     11.9682 100000.0000   2000.0000     97.6927
   715.2500   2000.0000     13.1654 100000.0000   2000.0000     94.9877
   715.5000   2000.0000     14.3175 100000.0000   2000.0000     95.9714
   715.7500   2000.0000     14.7886 100000.0000   2000.0000     92.4503
   716.0000   2000.0000     14.4810 100000.0000   2000.0000     99.9008
   716.2500   2000.0000     14.6341 100000.0000   2000.0000     98.8834
   716.5000   2000.0000     14.2313 100000.0000   2000.0000     98.3007
   716.7500   2000.0000     13.0547 100000.0000   2000.0000     97.5033
   717.0000   2000.0000     10.8683 100000.0000   2000.0000     90.4902
   717.2500   2000.0000      9.7972 100000.0000   2000.0000     94.9451
   717.5000   2000.0000     10.5681 100000.0000   2000.0000     97.7924
   717.7500   2000.0000     13.0481 100000.0000   2000.0000     90.8615
   718.0000   2000.0000     14.9329 100000.0000   2000.0000     90.7901
   718.2500   2000.0000     16.7458 100000.0000   2000.0000     92.8728
   718.5000   2000.0000     15.4304 100000.0000   2000.0000     97.9403
   718.7500   2000.0000     14.7996 100000.0000   2000.0000     92.2884
   719.0000   2000.0000     17.1466 100000.0000   2000.0000     85.1739
   719.2500   2000.0000     17.0032 100000.0000   2000.0000     88.4594
   719.5000   2000.0000     14.7772 100000.0000   2000.0000     87.5032
   719.7500   2000.0000     14.0615 100000.0000   2000.0000     78.1640
   720.0000   2000.0000     16.3085 100000.0000   2000.0000     79.4874
   720.2500   2000.0000     25.9593 100000.0000   2000.0000     86.5852
   720.5000   2000.0000    135.8238 100000.0000   2000.0000     91.6608
   720.7500   2000.0000 100000.0000 100000.0000   2000.0000     98.1100
   721.0000   2000.0000 100000.0000 100000.0000   2000.0000    100.5955
   721.2500   2000.0000     24.1717 100000.0000   2000.0000     96.3713
   721.5000   2000.0000     13.9949 100000.0000   2000.0000    119.4705
   721.7500   2000.0000     12.0211 100000.0000   2000.0000    122.5167
   722.0000   2000.0000     11.8749 100000.0000   2000.0000    129.6823
   722.2500   2000.0000     11.4078 100000.0000   2000.0000    128.9255
   722.5000   2000.0000     11.5846 100000.0000   2000.0000    115.7201
   722.7500   2000.0000     11.5379 100000.0000   2000.0000    117.4354
   723.0000   2000.0000     10.0736 100000.0000   2000.0000    118.5799
   723.2500   2000.0000     13.6339 100000.0000   2000.0000    126.8749
   723.5000   2000.0000 100000.0000 100000.0000   2000.0000    125.5524
   723.7500   2000.0000 100000.0000 100000.0000   2000.0000    125.1780
   724.0000   2000.0000 100000.0000 100000.0000   2000.0000    138.8881
   724.2500   2000.0000     53.4519 100000.0000   2000.0000    147.1568
   724.5000   2000.0000      5.7229 100000.0000   2000.0000    155.1481
   724.7500   2000.0000      4.3592 100000.0000   2000.0000    172.1430
   725.0000   2000.0000      4.8134 100000.0000   2000.0000    184.9081
   725.2500   2000.0000      5.6802 100000.0000   2000.0000    184.3621
   725.5000   2000.0000      6.1701 100000.0000   2000.0000    172.3233
   725.7500   2000.0000      6.1141 100000.0000   2000.0000    175.3517
   726.0000   2000.0000      6.2305 100000.0000   2000.0000    187.2805
   726.2500   2000.0000     14.5543 100000.0000   2000.0000    191.1380
   726.5000   2000.0000 100000.0000 100000.0000   2000.0000    181.4798
   726.7500   2000.0000     11.1184 100000.0000   2000.0000    178.5616
   727.0000   2000.0000      2.1649 100000.0000   2000.0000    187.3893
   727.2500   2000.0000      1.0304 100000.0000   2000.0000    184.9602
   727.5000   2000.0000      1.1790 100000.0000   2000.0000    181.9904
   727.7500   2000.0000      2.4070      2.7409   2000.0000    188.2102
