~Version Information
VERS.                      2.0: CWLS Log ASCII Standard - VERSION 2.0
WRAP.                       NO: One line per depth step
~Well Information Block
STRT.FT               770.0000: 
STOP.FT              1997.7000: 
STEP.FT                 0.1000: 
NULL.                -999.2500: 
COMP.          Pioneer Natural Resources: COMPANY
WELL.          Titan Federal 34-17: WELL
FLD.           Purgatoire River: FIELD
LOC.           321' FSL & 1911' FEL--: LOCATION
STAT.                 Colorado: State
CNTY.               Las Animas: COUNTY
CTRY. USA : Country
SECT. 17 : Section
TOWN. 32S : Township
RANG. 65W : Range
SRVC.                Patterson: SERVICE COMPANY
DATE.          Thu Oct 06 15:09:27 2005: LOG DATE
API.           05 071 08272 00: UNIQUE WELL ID
~Curve Information Block
DEPT.FT            0 000 00 00: Depth
DCAL.in                       : CDL Caliper
RHOB.g/cc                     : CDL Bulk Density
RHOC.g/cc                     : CDL Density Correction
DPOR.pu                       : CDL Density Porosity
NPOR.pu                       : Neutron Porosity
GR.GAPI                       : Gamma Ray
~Parameter Information Block
~A  Depth       DCAL        RHOB        RHOC        DPOR        NPOR         GR     
# ...
   846.8000      8.1261      2.4777      0.0168     10.4409     25.0413    132.1042
   846.9000      8.1261      2.4635     -0.0256     11.3030     24.6024    134.0748
   847.0000      8.1267      2.4612      0.0331     11.4445     24.5781    135.5369
   847.1000      8.1267      2.4687     -0.0114     10.9860     24.4693    136.4549
   847.2000      8.1267      2.4897      0.0207      9.7166     23.6877    137.5465
   847.3000      8.1270      2.5165      0.0389      8.0916     22.5062    140.9919
   847.4000      8.1270      2.5305      0.0714      7.2431     21.9986    145.3431
   847.5000      8.1250      2.5257      0.0624      7.5352     22.2728    144.0482
   847.6000      8.1250      2.5147      0.0363      8.2017     22.3766    135.7867
   847.7000      8.1250      2.5089      0.0792      8.5501     22.2740    129.3645
   847.8000      8.1229      2.5065      0.0633      8.6941     22.7145    130.1282
   847.9000      8.1229      2.5062      0.0217      8.7156     23.3816    131.9012
   848.0000      8.1226      2.5093      0.0307      8.5248     23.6612    129.7071
   848.1000      8.1226      2.5164     -0.0147      8.0947     24.2361    126.0536
   848.2000      8.1226      2.5239      0.0404      7.6434     25.8942    126.7247
   848.3000      8.1242      2.5189      0.0170      7.9432     27.6684    136.0389
   848.4000      8.1242      2.5055     -0.0256      8.7566     28.2465    147.1694
   848.5000      8.1268      2.5010      0.0277      9.0303     27.8261    149.8675
   848.6000      8.1268      2.5020      0.0408      8.9669     27.3672    145.7817
   848.7000      8.1268      2.5011      0.0099      9.0218     27.4723    142.4126
   848.8000      8.1279      2.5010      0.0270      9.0300     27.8183    142.2319
   848.9000      8.1279      2.4941      0.0075      9.4470     27.9215    144.4468
   849.0000      8.1271      2.4711      0.0190     10.8421     27.7360    147.1671
   849.1000      8.1271      2.4404      0.0048     12.7041     27.3518    146.3219
   849.2000      8.1271      2.4155      0.0075     14.2121     26.7655    142.0043
   849.3000      8.1265      2.3956      0.0078     15.4173     25.7597    139.3727
   849.4000      8.1265      2.3672      0.0293     17.1414     24.4817    141.2616
   849.5000      8.1256      2.3233     -0.0201     19.8023     23.3338    147.3025
   849.6000      8.1256      2.2805     -0.0418     22.3926     22.4172    152.3788
   849.7000      8.1256      2.2610     -0.0336     23.5743     21.5697    149.9708
   849.8000      8.1272      2.2553      0.0282     23.9226     20.7681    142.7461
   849.9000      8.1272      2.2359     -0.0142     25.0953     20.1260    138.0968
   850.0000      8.1327      2.2049     -0.0436     26.9729     19.6556    135.0813
   850.1000      8.1327      2.1828     -0.0252     28.3129     19.1259    129.3448
   850.2000      8.1327      2.1719      0.0402     28.9772     18.2993    124.4110
   850.3000      8.1361      2.1574      0.0642     29.8566     17.5033    123.7599
   850.4000      8.1361      2.1312      0.0383     31.4446     17.2297    125.2554
   850.5000      8.1353      2.0955      0.0385     33.6039     17.3069    126.3922
   850.6000      8.1353      2.0498      0.0465     36.3739     17.0916    125.8321
   850.7000      8.1353      1.9869      0.0310     40.1900     16.3258    124.9247
   850.8000      8.1338      1.8994      0.0039     45.4933     15.3918    126.4252
   850.9000      8.1338      1.7967     -0.0841     51.7159     14.5722    127.5956
   851.0000      8.1336      1.7063     -0.0598     57.1946     13.5544    126.9956
   851.1000      8.1336      1.6508     -0.0398     60.5580     12.1778    125.6843
   851.2000      8.1336      1.6422     -0.0318     61.0768     10.9259    121.9517
   851.3000      8.1327      1.6879     -0.0238     58.3076     10.0360    115.6578
   851.4000      8.1327      1.7841      0.0563     52.4779      9.3565    109.0152
   851.5000      8.1313      1.9093      0.1578     44.8930      8.7791    105.5145
   851.6000      8.1313      2.0360      0.2759     37.2105      8.3690    105.2107
   851.7000      8.1313      2.1464      0.3211     30.5224      8.3142    106.2963
   851.8000      8.1285      2.2400      0.3150     24.8471      8.7700    109.5243
   851.9000      8.1285      2.3289      0.3323     19.4630      9.6818    113.4330
   852.0000      8.1178      2.4156      0.3149     14.2052     10.7602    118.2916
   852.1000      8.1178      2.4877      0.2879      9.8378     11.7705    125.4513
   852.2000      8.1178      2.5318      0.2040      7.1611     12.8148    130.6720
   852.3000      8.1031      2.5495      0.1368      6.0913     14.0066    130.8038
   852.4000      8.1031      2.5544      0.0662      5.7947     15.1390    127.5141
   852.5000      8.0967      2.5564      0.1394      5.6698     16.0709    124.1552
   852.6000      8.0967      2.5598      0.1051      5.4657     16.9498    123.7971
   852.7000      8.0967      2.5650      0.1242      5.1527     17.7575    123.4314
   852.8000      8.0972      2.5652      0.0996      5.1400     18.8510    117.3970
   852.9000      8.0972      2.5625      0.0315      5.3017     20.9370    110.3282
   853.0000      8.0980      2.5686      0.0506      4.9352     23.3665    107.2602
   853.1000      8.0980      2.5840      0.0685      3.9984     24.9829    105.6703
   853.2000      8.0980      2.5962      0.0903      3.2600     25.8541    103.0034
   853.3000      8.0976      2.5929      0.1086      3.4588     26.4380     98.7071
   853.4000      8.0976      2.5850      0.0504      3.9376     26.9543     95.4244
   853.5000      8.0971      2.5971      0.0580      3.2059     27.4418     97.6479
   853.6000      8.0971      2.6287      0.0721      1.2916     27.8730    103.7298
   853.7000      8.0971      2.6584      0.0805     -0.5077     28.1356    106.3605
   853.8000      8.0979      2.6724      0.0795     -1.3554     28.1337    105.6051
   853.9000      8.0979      2.6725      0.0442     -1.3650     27.9726    105.8931
   854.0000      8.1000      2.6661      0.0180     -0.9750     27.6340    105.2053
   854.1000      8.1000      2.6565      0.0161     -0.3947     27.2829    103.6811
   854.2000      8.1000      2.6482      0.0328      0.1101     27.3535    106.0495
   854.3000      8.0999      2.6522     -0.0069     -0.1341     27.6537    111.3624
   854.4000      8.0999      2.6762      0.0353     -1.5887     27.5560    115.3980
   854.5000      8.0970      2.7077      0.0299     -3.4958     27.1068    116.8731
   854.6000      8.0970      2.7297      0.0351     -4.8282     26.9048    114.3632
   854.7000      8.0970      2.7442      0.0587     -5.7065     27.2383    105.9459
   854.8000      8.0952      2.7559      0.0586     -6.4176     27.8575     94.7609
   854.9000      8.0952      2.7545      0.0558     -6.3328     28.3326     88.1835
   855.0000      8.0961      2.7391      0.0168     -5.3982     28.5814     87.6943
   855.1000      8.0961      2.7283      0.0198     -4.7468     28.9162     86.5583
   855.2000      8.0961      2.7230      0.1161     -4.4262     29.4856     80.4482
   855.3000      8.0956      2.7141      0.0302     -3.8857     30.1051     73.0444
   855.4000      8.0956      2.7105      0.0406     -3.6687     30.6721     68.0852
   855.5000      8.0941      2.7072      0.0566     -3.4672     31.1406     66.6539
   855.6000      8.0941      2.6860      0.0036     -2.1839     30.9939     68.8165
   855.7000      8.0941      2.6519     -0.0342     -0.1165     29.7529     72.7142
   855.8000      8.0951      2.6164     -0.0578      2.0372     27.7373     76.0201
   855.9000      8.0951      2.5824     -0.0535      4.0958     25.9778     77.5233
   856.0000      8.0969      2.5680     -0.0564      4.9703     25.2712     79.0385
   856.1000      8.0969      2.5806      0.0524      4.2045     25.0334     82.3585
   856.2000      8.0969      2.5934      0.0577      3.4292     24.2257     84.9373
   856.3000      8.0973      2.5900      0.0327      3.6351     23.1238     85.2637
