~Version Information
VERS.                      2.0: CWLS Log ASCII Standard - VERSION 2.0
WRAP.                       NO: One line per depth step
~Well Information Block
STRT.FT               664.0000: 
STOP.FT              1615.5000: 
STEP.FT                 0.2500: 
NULL.                -999.2500: 
COMP.          Petrogulf Corporation: COMPANY
WELL.          Great Plains 22-21R: WELL
FLD.           Purgatorie River: FIELD
LOC.           73' FNL & 1992' FWL: LOCATION
PROV.                 Colorado: PROVINCE
CNTY.               Las Animas: COUNTRY
SRVC.                Patterson: SERVICE COMPANY
DATE.          Thu Sep 08 08:05:26 2005: LOG DATE
UWI.                          : UNIQUE WELL ID
~Curve Information Block
DEPT.FT            0 000 00 00: Depth
SP.mV                         : DIL Spontaneous Potential
RILD.Ohm-m                    : DIL Deep Resistivity
RILM.Ohm-m                    : DIL Medium Resistivity
RLL3.Ohm-m                    : DIL Shallow Resistivity
GR.GAPI                       : Gamma Ray
~Parameter Information Block
~A  Depth        SP         RILD        RILM        RLL3         GR     
# ...
   972.0000    155.9940      7.3851      7.2102      9.5047    140.8205
   972.2500    156.2717      7.5976      7.1769      8.9181    137.6721
   972.5000    156.5701      7.8446      7.1662      8.1397    123.0770
   972.7500    156.8943      8.1250      7.2534      7.5262    127.3343
   973.0000    157.2581      8.2978      7.4207      7.7499    133.5339
   973.2500    157.7362      8.5641      7.8959      8.6168    131.7978
   973.5000    158.3663      8.8128      8.6350     11.4628    124.4917
   973.7500    159.2134      8.9272      9.5518     18.6643    123.1368
   974.0000    160.0018      8.9703     10.5501     34.2862     89.7614
   974.2500    160.6389      8.8244     11.4180     62.7467     78.8188
   974.5000    161.2882      8.6548     12.1430     96.2548     64.2026
   974.7500    161.8248      8.5400     12.2452    104.5810     63.7175
   975.0000    162.3065      8.4059     11.9083     77.9500     73.4291
   975.2500    162.6919      8.3957     11.1463     42.5700     75.8060
   975.5000    162.9400      8.3677     10.2827     18.2480     96.3078
   975.7500    163.1023      8.4255      9.4774     11.2458    109.3395
   976.0000    163.3625      8.3959      8.7915      9.4280    126.2049
   976.2500    163.5470      8.3174      8.1954      8.2577    141.9612
   976.5000    163.5881      8.2623      7.8032      7.7290    166.6760
   976.7500    163.4402      7.9948      7.4611      7.4117    163.5295
   977.0000    163.2290      7.7947      7.2698      6.8013    150.4970
   977.2500    163.0240      7.4682      7.1068      6.8206    156.7698
   977.5000    162.7732      7.1357      7.0233      7.1575    152.0093
   977.7500    162.5529      6.7374      6.9550      8.2448    165.9273
   978.0000    162.3724      6.4335      6.8877      8.5801    167.2325
   978.2500    162.2451      6.1454      6.7440      8.9909    162.7788
   978.5000    162.1522      5.9578      6.5519      9.4908    147.8604
   978.7500    162.2048      5.8238      6.3218      9.8457    148.7947
   979.0000    162.3397      5.6880      6.0593      9.5246    152.1536
   979.2500    162.4131      5.6056      5.8094      8.5671    145.2481
   979.5000    162.3813      5.6056      5.6160      7.3940    151.3315
   979.7500    162.3486      5.6279      5.4267      6.9710    160.4353
   980.0000    162.2330      5.6484      5.2963      6.2183    166.1206
   980.2500    162.0630      5.6279      5.2428      5.9286    165.1517
   980.5000    161.8073      5.6551      5.2440      5.6390    157.9634
   980.7500    161.4603      5.6169      5.2899      6.1379    164.9935
   981.0000    160.9999      5.5198      5.3559      6.7104    162.5753
   981.2500    160.5146      5.4513      5.4589      7.3384    175.1544
   981.5000    159.8836      5.3776      5.5554      8.3072    182.9872
   981.7500    159.2437      5.3375      5.5749      8.6201    191.1033
   982.0000    158.5914      5.2973      5.5716      9.1147    227.0934
   982.2500    158.0119      5.2787      5.5529      8.2289    215.4563
   982.5000    157.4839      5.3081      5.5186      7.3299    171.3504
   982.7500    157.0565      5.3943      5.5045      7.4694    150.2813
   983.0000    156.6456      5.4366      5.5211      7.4854    133.3300
   983.2500    156.2368      5.5655      5.5851      7.9150    124.7183
   983.5000    155.9005      5.7007      5.5940      8.2288    128.5602
   983.7500    155.5053      5.8623      5.6598      8.5044    123.9156
   984.0000    155.0221      6.0320      5.6930      8.3674    112.4370
   984.2500    154.5841      6.2554      5.7321      7.8102    107.6847
   984.5000    153.9632      6.4740      5.8261      7.0276    107.8395
   984.7500    153.2068      6.7807      6.0551      6.8003    110.1329
   985.0000    152.4972      7.1144      6.4313      6.7226    113.3680
   985.2500    151.8274      7.4396      7.0097      7.6780    127.9556
   985.5000    151.3636      7.7880      7.5943     10.5963    123.1358
   985.7500    150.9785      8.2029      8.5055     13.3740    114.6333
   986.0000    150.5381      8.6371      9.4128     15.6755    104.0812
   986.2500    150.1866      9.0887     10.5187     20.3323    105.0205
   986.5000    149.9203      9.5978     11.4740     26.7675     92.1399
   986.7500    150.0085     10.2887     12.5456     33.7009     92.4792
   987.0000    150.1187     11.0995     13.6585     36.6658     98.0084
   987.2500    150.2593     11.9082     14.9015     30.8762     93.2666
   987.5000    150.5116     12.9054     16.2648     26.0837    101.7710
   987.7500    150.7848     13.6854     17.6748     25.4508    113.3761
   988.0000    151.1674     14.7444     18.9837     29.9316    118.5959
   988.2500    151.5177     15.4980     20.2966     34.8401    113.8370
   988.5000    151.7585     16.0580     21.0851     32.9106    124.5941
   988.7500    151.9722     16.7381     21.7443     26.4065    140.0695
   989.0000    152.0452     16.6701     22.2535     23.7803    126.8026
   989.2500    152.0241     16.7815     22.1378     27.4654    125.6975
   989.5000    152.0964     16.4076     22.0872     28.5642    142.5365
   989.7500    152.4200     15.8320     21.7565     25.2525    150.1049
   990.0000    152.7332     15.3392     21.4548     22.9483    143.5195
   990.2500    152.9103     14.7447     20.8216     25.4991    138.8333
   990.5000    153.1300     14.0370     19.6196     33.7451    127.5786
   990.7500    153.2167     13.3951     17.8710     35.3699    120.6036
   991.0000    153.2994     12.8579     16.0759     26.5042    136.2810
   991.2500    153.4850     12.5398     14.3289     19.6946    152.4582
   991.5000    153.5761     12.2626     13.1678     14.4380    159.7410
   991.7500    153.5196     11.6106     12.1121     11.4258    162.8393
   992.0000    153.4606     11.2531     11.4259     10.7432    172.4550
   992.2500    153.3294     10.8708     10.9511     11.0592    175.7547
   992.5000    153.3235     10.6483     10.5693     11.1750    178.5301
   992.7500    153.5347     10.3297     10.3162     11.7193    172.3135
   993.0000    153.7521     10.0366      9.8602     12.2563    168.7044
   993.2500    153.8022      9.8371      9.4842     12.4422    162.1897
   993.5000    153.9851      9.7282      9.1907     11.9151    163.5529
   993.7500    154.0429      9.7365      9.0184     10.9627    166.6433
   994.0000    153.9859      9.8101      8.8622     10.0988    175.2021
   994.2500    153.7408      9.9548      8.9118     10.4596    162.5559
   994.5000    153.4630     10.1751      9.1529     10.7763    162.9335
   994.7500    153.1688     10.6767      9.5199     11.3378    158.6910
   995.0000    153.0024     10.9896     10.1547     11.6010    158.5523
   995.2500    153.1196     11.3105     10.9356     12.3783    154.9899
   995.5000    153.3387     11.6319     12.0556     13.9420    143.4134
   995.7500    153.6884     12.0327     13.4640     17.3804    141.1669
   996.0000    153.9613     12.4017     15.1687     30.7764    115.8657
   996.2500    154.0809     12.7525     16.3038     56.0943    122.2428
   996.5000    154.0945     13.3860     16.8882     85.2980    124.5534
   996.7500    153.9085     14.1208     16.7868     85.8455    111.0549
   997.0000    153.6709     14.6673     16.8461     52.8701    122.6705
   997.2500    153.4165     15.5538     16.5176     28.3697    136.3235
   997.5000    152.9069     16.3539     16.7458     18.3683    139.5228
   997.7500    152.2078     17.5877     17.2096     16.9180    137.5161
   998.0000    151.5607     18.8668     18.3191     17.8024    134.4039
   998.2500    150.9056     19.6076     19.9404     20.1984    131.8931
   998.5000    150.2186     20.2356     21.6516     25.8157    118.3238
   998.7500    149.5368     20.3310     23.3271     28.1668    113.4273
   999.0000    148.9774     20.7961     24.3041     26.4564    114.5416
   999.2500    148.3085     20.8437     25.9125     29.8391    114.5763
   999.5000    147.5203     20.9404     27.1610     39.0338    111.6203
   999.7500    146.6726     21.3741     28.0306     50.9573    100.4381
