~Version Information
VERS.                      2.0: CWLS Log ASCII Standard - VERSION 2.0
WRAP.                       NO: One line per depth step
~Well Information Block
STRT.FT                -8.2500: 
STOP.FT              1175.7500: 
STEP.FT                 0.2500: 
NULL.                -999.2500: 
COMP.          Evergreen Operating Corporation: COMPANY
WELL.             Justin 32-10: WELL
FLD.           Purgatorie River: FIELD
LOC.           2994' FNL & 1449' FEL: LOCATION
PROV.                 Colorado: PROVINCE
CNTY.               Las Animas: COUNTRY
SRVC.                         : SERVICE COMPANY
DATE.          Wed Sep 29 10:00:10 2004: LOG DATE
UWI.           05 071 08053 00: UNIQUE WELL ID
~Curve Information Block
DEPT.FT            0 000 00 00: Depth
GR.GAPI                       : Gamma Ray
CCL.                          : Casing Collar Locator
TT3.usec                      : CBL 3' Travel Time
AMP3.mV                       : CBL 3' Amplitude
~Parameter Information Block
~A  Depth        GR         CCL         TT3         AMP3    
# ...
   460.7500     85.5780      0.0000    861.6367      4.2462
   461.0000     89.3935      0.0000    866.9257      4.2424
   461.2500     93.3382      0.0000    866.5118      4.2406
   461.5000     95.6331      0.0000    860.6285      4.2447
   461.7500     95.3144      0.0000    852.0075      4.2526
   462.0000     92.8103      0.0000    844.0291      4.2582
   462.2500     89.6375      0.0000    838.8911      4.2543
   462.5000     87.7111      0.0000    836.9388      4.2377
   462.7500     88.4473      0.0000    837.3126      4.2116
   463.0000     91.8500      0.0000    839.1340      4.1829
   463.2500     96.4782      0.0000    841.9070      4.1548
   463.5000    100.5653      0.0000    844.6470      4.1236
   463.7500    103.0104      0.0000    844.4824      4.0830
   464.0000    103.2914      0.0000    837.1290      4.0284
   464.2500    101.1567      0.0000    820.3214      3.9450
   464.5000     96.9258      0.0000    797.8743      3.7996
   464.7500     91.6526      0.0000    780.0287      3.5659
   465.0000     86.3701      0.0000    777.6832      3.2694
   465.2500     81.1848      0.0000    793.6672      2.9875
   465.5000     75.5826      0.0000    819.9631      2.7928
   465.7500     69.8237     -0.8121    845.1334      2.7054
   466.0000     65.5123     -1.6415    863.6240      2.7014
   466.2500     64.1777      0.9128    875.8293      2.7506
   466.5000     65.4690      0.0000    880.7427      2.8457
   466.7500     67.2585      0.0000    873.9310      3.0062
   467.0000     67.6332      0.0000    855.1470      3.2514
   467.2500     66.5645      0.0000    834.1384      3.5568
   467.5000     65.5115      0.0000    824.3947      3.8479
   467.7500     65.7029      0.0000    831.1442      4.0537
   468.0000     67.2295      0.0000    848.1434      4.1576
   468.2500     69.7469      0.0000    866.2069      4.1880
   468.5000     73.4735      0.0000    881.8177      4.1803
   468.7500     79.0732      0.0000    895.9848      4.1599
   469.0000     86.5851      0.0000    908.4472      4.1443
   469.2500     94.6107      0.0000    916.8096      4.1419
   469.5000    100.7003      0.0000    920.1346      4.1493
   469.7500    102.7610      0.0000    920.3000      4.1575
   470.0000    100.4607      0.0000    920.0236      4.1614
   470.2500     95.5171      0.0000    920.8621      4.1637
   470.5000     90.5846      0.0000    922.6055      4.1696
   470.7500     87.6690      0.0000    923.4096      4.1802
   471.0000     87.2782      0.0000    920.8511      4.1915
   471.2500     88.5410      0.0000    914.2083      4.1999
   471.5000     90.0397      0.0000    906.0405      4.2049
   471.7500     91.0636      0.0000    900.5578      4.2080
   472.0000     92.2488      0.0000    899.6770      4.2067
   472.2500     94.7060      0.0000    901.1710      4.1922
   472.5000     98.6179      0.0000    901.1785      4.1563
   472.7500    103.0609      0.0000    898.0745      4.1027
   473.0000    106.9882      0.0000    893.3217      4.0475
   473.2500    109.9430      0.0000    889.0403      4.0083
   473.5000    112.0506      0.0000    886.0923      3.9965
   473.7500    113.8296      0.0000    885.1119      4.0200
   474.0000    116.0620      0.0000    887.8898      4.0876
   474.2500    119.4475      0.0000    895.7808      4.2007
   474.5000    124.0410      0.0000    907.1404      4.3418
   474.7500    128.9135      0.0000    917.7646      4.4776
   475.0000    132.4361      0.0000    923.9332      4.5794
   475.2500    133.1632      0.0000    924.5784      4.6412
   475.5000    130.8768      0.0000    921.0367      4.6791
   475.7500    126.9179      0.0000    915.5167      4.7130
   476.0000    123.1799      0.0000    909.8677      4.7504
   476.2500    120.4146      0.0000    905.0276      4.7840
   476.5000    117.7477      0.0000    900.9422      4.8019
   476.7500    114.1444      0.0000    897.3073      4.7988
   477.0000    109.9887      0.0000    894.8672      4.7757
   477.2500    106.6858      0.0000    895.7630      4.7284
   477.5000    104.7882      0.0000    902.2136      4.6452
   477.7500    102.9746      0.0000    914.6257      4.5220
   478.0000     99.2500      0.0000    930.5970      4.3723
   478.2500     93.1664      0.0000    945.8875      4.2158
   478.5000     86.5472      0.0000    956.9978      4.0598
   478.7500     81.9101      0.0000    962.6504      3.8992
   479.0000     80.5564      0.0000    962.9356      3.7291
   479.2500     82.1448      0.0000    958.7523      3.5517
   479.5000     85.3225      0.0000    952.4100      3.3782
   479.7500     88.4992      0.0000    946.4738      3.2279
   480.0000     90.7673      0.0000    941.5660      3.1222
   480.2500     92.5239      0.0000    938.0115      3.0707
   480.5000     94.9455      0.0000    939.8682      3.0649
   480.7500     98.7442      0.0000    954.4227      3.0899
   481.0000    103.6611      0.0000    986.4055      3.1412
   481.2500    108.9399      0.0000   1032.3130      3.2236
   481.5000    113.8157      0.0000   1078.7162      3.3378
   481.7500    117.5641      0.0000   1107.7438      3.4741
   482.0000    119.4594      0.0000   1109.1542      3.6226
   482.2500    119.0035      0.0000   1087.3099      3.7842
   482.5000    116.4746      0.0000   1054.1089      3.9668
   482.7500    113.2632      0.0000   1018.3001      4.1684
   483.0000    111.2369      0.0000    984.2502      4.3641
   483.2500    111.3377      0.0000    955.7987      4.5133
   483.5000    112.8869      0.0000    936.1028      4.5843
   483.7500    114.3600      0.0000    925.2773      4.5770
   484.0000    114.4935      0.0000    920.9231      4.5227
   484.2500    112.5607      0.0000    920.7718      4.4632
   484.5000    108.3120      0.0000    924.1646      4.4277
   484.7500    102.3074      0.0000    931.8005      4.4206
   485.0000     96.0489      0.0000    944.9247      4.4276
   485.2500     91.3035      0.0000    965.6529      4.4363
   485.5000     89.2519      0.0000    997.6340      4.4498
   485.7500     90.2775      0.0000   1042.7994      4.4745
   486.0000     94.1490      0.0000   1093.6475      4.5009
   486.2500    100.0398      0.0000   1130.6591      4.5080
   486.5000    106.6727      0.0000   1133.1902      4.4879
   486.7500    112.8334      0.0000   1095.1864      4.4564
   487.0000    117.6086      0.0000   1029.9735      4.4338
   487.2500    120.0063      0.0000    961.5358      4.4249
   487.5000    118.8909      0.0000    911.2950      4.4233
   487.7500    113.9231      0.0000    888.6265      4.4268
   488.0000    106.4978      0.0000    889.2375      4.4400
   488.2500     99.2696      0.0000    901.1136      4.4654
   488.5000     94.5851      0.0000    912.7864      4.4995
   488.7500     93.3221      0.0000    918.2190      4.5378
   489.0000     94.9199      0.0000    916.7238      4.5789
   489.2500     98.4631      0.0000    910.2618      4.6267
   489.5000    103.8244      0.0000    901.2249      4.6878
   489.7500    111.3176      0.0000    892.0107      4.7642
   490.0000    120.0001      0.0000    884.2230      4.8455
   490.2500    127.1940      0.0000    876.8558      4.9141
   490.5000    130.5090      0.0000    867.7404      4.9604
   490.7500    129.8982      0.0000    858.2186      4.9899
   491.0000    127.0993      0.0000    853.3862      5.0115
   491.2500    123.4226      0.0000    856.4092      5.0281
   491.5000    118.7432      0.0000    865.8018      5.0404
   491.7500    112.4110      0.0000    878.8125      5.0544
   492.0000    104.4275      0.0000    893.7466      5.0766
   492.2500     95.6432      0.0000    908.4303      5.1060
   492.5000     87.1852      0.0000    919.7740      5.1308
   492.7500     79.8293      0.0000    926.2018      5.1328
   493.0000     73.9213      0.0000    928.8141      5.0937
   493.2500     69.9008      0.0000    928.9293      5.0052
   493.5000     68.5982      0.0000    924.6642      4.8777
   493.7500     70.5724      0.0000    911.3398      4.7384
   494.0000     75.1256      0.0000    886.9799      4.6161
