~Version Information
VERS.                      2.0: CWLS Log ASCII Standard - VERSION 2.0
WRAP.                       NO: One line per depth step
~Well Information Block
STRT.FT                -7.2500: 
STOP.FT               765.5000: 
STEP.FT                 0.2500: 
NULL.                -999.2500: 
COMP.          Pioneer Natural Resources: COMPANY
WELL.          Barrelman 41-27: WELL
FLD.           Purgatorie River: FIELD
LOC.           371' FNL & 493' FEL--: LOCATION
PROV.                       CO: PROVINCE
CNTY.               Las Animas: COUNTRY
SRVC.          Patterson Wireline: SERVICE COMPANY
DATE.          Wed May 25 09:32:20 2005: LOG DATE
UWI.           05 071 08334 00: UNIQUE WELL ID
~Curve Information Block
DEPT.FT            0 000 00 00: Depth
CCL.                          : Casing Collar Locator
TT3.usec                      : CBL 3' Travel Time
AMP3.mV                       : CBL 3' Amplitude
GR.GAPI                       : Gamma Ray
~Parameter Information Block
~A  Depth       CCL         TT3         AMP3         GR     
# ...
   495.2500      0.0000    809.8464      8.5931     49.4715
   495.5000      0.0000    807.9780      8.5995     49.3452
   495.7500      0.0000    807.1111      8.6177     48.2463
   496.0000      0.0000    806.6870      8.6493     46.6327
   496.2500      0.0000    806.5195      8.6834     44.9848
   496.5000      0.0000    806.6820      8.7030     43.4159
   496.7500      0.0000    807.4604      8.6978     41.7963
   497.0000      0.0000    809.2062      8.6714     40.1883
   497.2500      0.0000    811.8698      8.6372     39.1362
   497.5000      0.0000    814.5435      8.6059     39.3465
   497.7500      0.0000    815.8102      8.5773     40.8624
   498.0000      0.0000    814.9381      8.5432     42.6469
   498.2500      0.0000    812.5967      8.4995     43.2768
   498.5000      0.0000    810.1534      8.4568     42.1725
   498.7500      0.0000    808.4720      8.4382     40.0967
   499.0000      0.0000    807.5683      8.4610     38.4918
   499.2500      0.0000    807.1083      8.5174     38.3939
   499.5000      0.0000    806.8787      8.5722     39.8948
   499.7500      0.0000    806.8154      8.5834     42.3762
   500.0000      0.0000    806.8365      8.5298     45.0507
   500.2500      0.0000    806.8124      8.4234     47.4147
   500.5000      0.0000    806.6927      8.2961     49.3965
   500.7500      0.0000    806.6182      8.1788     51.0504
   501.0000      0.0000    806.9484      8.0864     52.0330
   501.2500      0.0000    808.3009      8.0090     51.5753
   501.5000      0.0000    811.7205      7.9099     49.3098
   501.7500      0.0000    818.6484      7.7355     46.1452
   502.0000      0.0000    830.7479      7.4545     43.9158
   502.2500      0.0000    849.6237      7.1127     43.8405
   502.5000      0.0000    875.9447      6.8295     45.4547
   502.7500      0.0000    907.5361      6.6935     47.2758
   503.0000      0.0000    938.4183      6.6647     48.2885
   503.2500      0.0000    961.6799      6.6328     48.4593
   503.5000      0.0000    974.9642      6.5550     48.1710
   503.7500      0.0000    982.2646      6.4792     47.7791
   504.0000      0.0000    988.2214      6.4526     47.5715
   504.2500      0.0000    990.6865      6.4765     47.6320
   504.5000      2.0000    981.6597      6.5442     47.7468
   504.7500      0.0000    956.1204      6.6872     47.6543
   505.0000      0.0000    917.7111      6.9733     47.3266
   505.2500      0.0000    876.1756      7.4460     46.9881
   505.5000      0.0000    841.3185      8.0385     46.9675
   505.7500      0.0000    818.3040      8.5614     47.5115
   506.0000      0.0000    806.4396      8.8384     48.6111
   506.2500      0.0000    801.5792      8.8593     49.9485
   506.5000      0.0000    799.7350      8.7669     51.0523
   506.7500      0.0000    799.0422      8.7076     51.6266
   507.0000      0.0000    799.5504      8.7297     51.7635
   507.2500      0.0000    801.5646      8.8024     51.8045
   507.5000      0.0000    804.0793      8.8829     51.9798
   507.7500      0.0000    805.1543      8.9536     52.2350
   508.0000      0.0000    803.9141      9.0179     52.4087
   508.2500      0.0000    801.1904      9.0830     52.5525
   508.5000      0.0000    798.0599      9.1498     53.0373
   508.7500      0.0000    794.8640      9.2117     54.3047
   509.0000      0.0000    792.0494      9.2558     56.4253
   509.2500      0.0000    790.8031      9.2685     58.8460
   509.5000      0.0000    791.8873      9.2424     60.6816
   509.7500      0.0000    794.1501      9.1746     61.4834
   510.0000      0.0000    795.0430      9.0611     61.7208
   510.2500      0.0000    792.9693      8.9050     62.3089
   510.5000      0.0000    788.7267      8.7356     63.6165
   510.7500      0.0000    784.4242      8.6076     65.0852
   511.0000      0.0000    781.5098      8.5665     65.8344
   511.2500      0.0000    780.2131      8.6130     65.5358
   511.5000      0.0000    780.4389      8.7044     64.6996
   511.7500      0.0000    782.7778      8.7901     64.2426
   512.0000      0.0000    788.7449      8.8419     64.8170
   512.2500      0.0000    799.8140      8.8536     66.4195
   512.5000      0.0000    815.4424      8.8283     68.5449
   512.7500      0.0000    831.7087      8.7756     70.7657
   513.0000      0.0000    842.8748      8.7149     73.0679
   513.2500      0.0000    845.3483      8.6661     75.4496
   513.5000      0.0000    840.2878      8.6305     77.3417
   513.7500      0.0000    832.2169      8.5884     77.8952
   514.0000      0.0000    825.4763      8.5202     77.0045
   514.2500      0.0000    822.1001      8.4233     75.6973
   514.5000      0.0000    822.0455      8.3097     75.1762
   514.7500      0.0000    824.1464      8.1939     75.5111
   515.0000      0.0000    826.8106      8.0836     75.5850
   515.2500      0.0000    828.7466      7.9814     74.4647
   515.5000      0.0000    829.4975      7.8935     72.6242
   515.7500      0.0000    829.1426      7.8339     71.5356
   516.0000      0.0000    827.9547      7.8142     72.1073
   516.2500      0.0000    826.8363      7.8286     73.7750
   516.5000      0.0000    827.3921      7.8532     75.2182
   516.7500      0.0000    830.5528      7.8632     75.7917
   517.0000      0.0000    834.9649      7.8521     76.0521
   517.2500      0.0000    837.0687      7.8321     76.8803
   517.5000      0.0000    833.3505      7.8183     78.2472
   517.7500      0.0000    823.0904      7.8116     79.0703
   518.0000      0.0000    809.1700      7.7999     78.4082
   518.2500      0.0000    796.0615      7.7724     76.6514
   518.5000      0.0000    786.8353      7.7322     75.3214
   518.7500      0.0000    781.8775      7.6953     75.7538
   519.0000      0.0000    779.8594      7.6801     78.0596
   519.2500      0.0000    779.2872      7.6991     81.1182
   519.5000      0.0000    779.2523      7.7552     83.2910
   519.7500      0.0000    779.3632      7.8392     83.3427
   520.0000      0.0000    779.4813      7.9311     81.2618
   520.2500      0.0000    779.5693      8.0078     78.3761
   520.5000      0.0000    779.6403      8.0542     76.2748
   520.7500      0.0000    779.7254      8.0693     75.4119
   521.0000      0.0000    779.8325      8.0606     75.0041
   521.2500      0.0000    779.9454      8.0365     74.2874
   521.5000      0.0000    780.1182      8.0065     73.4760
   521.7500      0.0000    780.6783      7.9875     73.4243
   522.0000      0.0000    782.5135      8.0015     74.6489
   522.2500      0.0000    787.1442      8.0615     76.7712
   522.5000      0.0000    796.0363      8.1631     78.7071
   522.7500      0.0000    809.2094      8.2886     79.4170
   523.0000      0.0000    824.5121      8.4173     78.6979
   523.2500      0.0000    838.9376      8.5288     77.2912
   523.5000      0.0000    850.9676      8.6073     76.1277
   523.7500      0.0000    861.2954      8.6467     75.4648
   524.0000      0.0000    871.1467      8.6524     74.6430
   524.2500      0.0000    880.3518      8.6292     72.6812
   524.5000      0.0000    887.2385      8.5726     69.3243
   524.7500      0.0000    889.9799      8.4782     65.5335
   525.0000      0.0000    887.8341      8.3555     62.8389
   525.2500      0.0000    881.6191      8.2247     62.2418
   525.5000      0.0000    873.4918      8.1026     63.5891
   525.7500      0.0000    865.9779      7.9972     65.7553
   526.0000      0.0000    860.7045      7.9159     67.5624
   526.2500      0.0000    857.8676      7.8676     68.7406
   526.5000      0.0000    856.8132      7.8534     69.8766
   526.7500      0.0000    857.0027      7.8591     71.4387
   527.0000      0.0000    858.6788      7.8667     73.1044
   527.2500      0.0000    862.9484      7.8712     74.1371
   527.5000      0.0000    871.0330      7.8814     74.2727
   527.7500      0.0000    882.9517      7.9049     74.0563
   528.0000      0.0000    896.8093      7.9375     74.2497
   528.2500      0.0000    909.5505      7.9651     75.0195
   528.5000      0.0000    918.3220      7.9721     75.7286
