~Version Information
VERS.                      2.0: CWLS Log ASCII Standard - VERSION 2.0
WRAP.                       NO: One line per depth step
~Well Information Block
STRT.FT                -8.5000: 
STOP.FT              1597.7500: 
STEP.FT                 0.2500: 
NULL.                -999.2500: 
COMP.          Pioneer Natural Resources: COMPANY
WELL.          Dude Canyon 22-32 Tr: WELL
FLD.           Purgatorie River: FIELD
LOC.           1741' FnL & 2331' FWL--: LOCATION
PROV.                       CO: PROVINCE
CNTY.               Las Animas: COUNTRY
SRVC.          Patterson Wireline: SERVICE COMPANY
DATE.          Fri Jul 15 14:44:37 2005: LOG DATE
UWI.           05 071 08421 00: UNIQUE WELL ID
~Curve Information Block
DEPT.FT            0 000 00 00: Depth
CCL.                          : Casing Collar Locator
TT3.usec                      : CBL 3' Travel Time
AMP3.mV                       : CBL 3' Amplitude
GR.GAPI                       : Gamma Ray
~Parameter Information Block
~A  Depth       CCL         TT3         AMP3         GR     
# ...
   929.5000      0.0000    719.3849      6.7344    106.6233
   929.7500      0.0000    715.1902      6.7514    111.4269
   930.0000      0.0000    692.1829      6.7507    114.1141
   930.2500      0.0000    647.8340      6.7498    114.5521
   930.5000      0.0000    585.2714      6.7644    114.5130
   930.7500      0.0000    516.5731      6.7933    115.9146
   931.0000      0.0000    457.4454      6.8267    118.6348
   931.2500      0.0000    417.5734      6.8611    120.4825
   931.5000      0.0000    396.5851      6.8994    119.3406
   931.7500      0.0000    388.4704      6.9417    115.0226
   932.0000      0.0000    388.4712      6.9806    109.1756
   932.2500      0.0000    396.9374      6.9993    103.7963
   932.5000      0.0000    418.8394      6.9750    100.0286
   932.7500      0.0000    458.7742      6.9038     98.1256
   933.0000      0.0000    513.3947      6.8197     98.0042
   933.2500      0.0000    567.9031      6.7678     99.3319
   933.5000      0.0000    602.3143      6.7570    101.2819
   933.7500      0.0000    603.5180      6.7548    102.7986
   934.0000      0.0000    573.4871      6.7303    103.2398
   934.2500      0.0000    528.6445      6.6864    102.6676
   934.5000      0.0000    491.5222      6.6488    101.7042
   934.7500      0.0000    479.6010      6.6396    101.1520
   935.0000      0.0000    497.9337      6.6631    101.2688
   935.2500      0.0000    538.6948      6.7071    101.2105
   935.5000      0.0000    585.0322      6.7432     99.5996
   935.7500      0.0000    616.5325      6.7348     96.0197
   936.0000      0.0000    616.8533      6.6681     92.0264
   936.2500      0.0000    582.5312      6.5777     90.4447
   936.5000      0.0000    526.1799      6.5195     93.0672
   936.7500      0.0000    468.6753      6.5121     98.6522
   937.0000      0.0000    425.9012      6.5253    103.7957
   937.2500      0.0000    401.7649      6.5272    106.2428
   937.5000      0.0000    391.4375      6.5201    106.8228
   937.7500      0.0000    388.3106      6.5236    108.0200
   938.0000      0.0000    387.9270      6.5422    111.4284
   938.2500      0.0000    388.2149      6.5631    116.7295
   938.5000      0.0000    388.4213      6.5753    122.4503
   938.7500      0.0000    388.3581      6.5808    127.2058
   939.0000      0.0000    388.0751      6.5908    130.1563
   939.2500      0.0000    387.7466      6.6046    130.7505
   939.5000      0.0000    387.6124      6.5963    128.8687
   939.7500      0.0000    388.1769      6.5385    125.4145
   940.0000      0.0000    390.8192      6.4381    122.0596
   940.2500      0.0000    398.7314      6.3255    119.9083
   940.5000      0.0000    417.0791      6.2008    118.7525
   940.7500      0.0000    450.3452      6.0208    117.9390
   941.0000      0.0000    497.0789      5.7649    117.5690
   941.2500      0.0000    546.9688      5.4945    118.2485
   941.5000      0.0000    584.9872      5.3078    119.7003
   941.7500      0.0000    599.4708      5.2400    120.3026
   942.0000      0.0000    586.7885      5.2417    118.3189
   942.2500      0.0000    551.2861      5.2527    113.2891
   942.5000      0.0000    504.1770      5.2589    106.1735
   942.7500      0.0000    462.0837      5.2727     98.4133
   943.0000     -2.0000    442.6224      5.2890     90.9412
   943.2500      0.0000    456.7062      5.2816     83.9881
   943.5000      0.0000    501.7254      5.2402     77.7479
   943.7500      0.0000    561.6382      5.1994     72.9576
   944.0000      0.0000    615.5337      5.2163     70.5236
   944.2500      0.0000    648.7261      5.3125     70.6054
   944.5000      0.0000    658.9858      5.4464     72.4475
   944.7500      0.0000    655.8531      5.5530     75.3124
   945.0000      0.0000    653.4786      5.5911     79.2842
   945.2500      0.0000    659.9579      5.5369     84.7698
   945.5000      0.0000    672.5852      5.3624     91.3755
   945.7500      0.0000    684.4440      5.0589     97.6836
   946.0000      0.0000    693.7832      4.6765    101.9976
   946.2500      0.0000    705.3589      4.3123    103.0129
   946.5000      0.0000    724.3482      4.0501    100.1993
   946.7500      0.0000    750.5105      3.9145     94.4351
   947.0000      0.0000    777.6803      3.8776     88.4906
   947.2500      0.0000    798.2846      3.8954     86.0536
   947.5000      0.0000    808.3378      3.9340     89.5081
   947.7500      0.0000    808.8460      3.9756     98.6120
   948.0000      0.0000    803.9360      4.0232    111.2651
   948.2500      0.0000    798.0850      4.1071    124.7918
   948.5000      0.0000    793.3525      4.2721    136.2393
   948.7500      0.0000    788.1083      4.5430    142.6726
   949.0000      0.0000    779.3864      4.8984    142.5878
   949.2500      0.0000    766.9656      5.2798    137.2983
   949.5000      0.0000    754.1308      5.6220    130.5235
   949.7500      0.0000    744.4059      5.8776    126.0936
   950.0000      0.0000    738.7402      6.0265    125.5202
   950.2500      0.0000    735.7823      6.0833    127.4845
   950.5000      0.0000    733.5202      6.0933    129.4945
   950.7500      0.0000    730.1762      6.1039    129.8651
   951.0000      0.0000    724.3475      6.1311    128.4448
   951.2500      0.0000    715.1616      6.1554    126.2972
   951.5000      0.0000    702.4133      6.1545    125.0029
   951.7500      0.0000    686.5991      6.1337    125.6245
   952.0000      0.0000    669.4526      6.1223    127.9471
   952.2500      0.0000    654.6199      6.1427    131.1351
   952.5000      0.0000    646.2900      6.1901    135.2221
   952.7500      0.0000    645.6874      6.2401    141.0805
   953.0000      0.0000    649.6798      6.2721    148.6669
   953.2500      0.0000    653.9762      6.2835    156.1299
   953.5000      0.0000    656.9514      6.2841    161.1269
   953.7500      0.0000    659.4830      6.2792    162.5291
   954.0000      0.0000    662.1954      6.2594    160.4769
   954.2500      0.0000    664.4927      6.2101    155.4129
   954.5000      0.0000    666.2627      6.1336    148.0199
   954.7500      0.0000    668.9876      6.0596    140.0344
   955.0000      0.0000    674.1027      6.0265    134.1270
   955.2500      0.0000    681.0941      6.0503    132.3369
   955.5000      0.0000    688.4093      6.1125    134.7035
   955.7500      0.0000    696.0466      6.1782    139.3701
   956.0000      0.0000    706.4534      6.2236    143.6444
   956.2500      0.0000    722.5767      6.2415    145.0147
   956.5000      0.0000    744.6413      6.2290    142.0306
   956.7500      0.0000    768.5295      6.1831    135.1680
   957.0000      0.0000    787.6495      6.1125    127.1467
   957.2500      0.0000    797.0327      6.0459    121.7973
   957.5000      0.0000    796.4623      6.0186    121.6868
   957.7500      0.0000    790.7026      6.0473    126.2428
   958.0000      0.0000    786.6799      6.1175    132.1697
   958.2500      0.0000    788.8086      6.1970    135.8619
   958.5000      0.0000    795.8960      6.2622    135.5909
   958.7500      0.0000    802.4509      6.3126    131.9175
   959.0000      0.0000    802.6190      6.3607    126.6089
   959.2500      0.0000    792.8477      6.4126    121.0518
   959.5000      0.0000    772.4819      6.4602    115.1585
   959.7500      0.0000    743.2410      6.4908    107.4902
   960.0000      0.0000    707.9648      6.4974     96.5196
   960.2500      0.0000    669.4344      6.4823     82.1201
   960.5000      0.0000    629.8827      6.4601     66.1700
   960.7500      0.0000    589.9401      6.4616     51.6673
   961.0000      0.0000    547.9168      6.5226     40.9615
   961.2500      0.0000    503.4288      6.6525     34.5994
   961.5000      0.0000    463.0096      6.8094     31.7351
   961.7500      0.0000    438.0240      6.9173     31.3732
   962.0000      0.0000    434.2034      6.9209     32.9381
   962.2500      0.0000    445.4870      6.8270     35.7571
   962.5000      0.0000    461.0554      6.6965     38.5727
   962.7500      0.0000    477.5902      6.5971     40.1488
