~Version Information
VERS.                      2.0: CWLS Log ASCII Standard - VERSION 2.0
WRAP.                       NO: One line per depth step
~Well Information Block
STRT.FT                -8.2500: 
STOP.FT               871.5000: 
STEP.FT                 0.2500: 
NULL.                -999.2500: 
COMP.          Pioneer Natural Resources: COMPANY
WELL.             Tomcat 32-10: WELL
FLD.           Purgatorie River: FIELD
LOC.           2286' FNL & 2463' FEL------: LOCATION
PROV.                       CO: PROVINCE
CNTY.               Las Animas: COUNTRY
SRVC.          Patterson Wireline: SERVICE COMPANY
DATE.          Mon Mar 28 09:03:25 2005: LOG DATE
UWI.           05 071 08301 00: UNIQUE WELL ID
~Curve Information Block
DEPT.FT            0 000 00 00: Depth
CCL.                          : Casing Collar Locator
TT3.usec                      : CBL 3' Travel Time
AMP3.mV                       : CBL 3' Amplitude
GR.GAPI                       : Gamma Ray
~Parameter Information Block
~A  Depth       CCL         TT3         AMP3         GR     
# ...
   728.7500      0.0000    766.3753      5.3857     86.8844
   729.0000      0.0000    769.3609      5.4037     85.4644
   729.2500      0.0000    770.5092      5.3558     84.7316
   729.5000      0.0000    771.0771      5.2693     84.8129
   729.7500      0.0000    774.3414      5.2025     86.6366
   730.0000      0.0000    783.7691      5.2122     91.5300
   730.2500      0.0000    799.3187      5.3150     99.1873
   730.5000      0.0000    816.4174      5.4713    106.8290
   730.7500      0.0000    829.6817      5.6070    111.2934
   731.0000      0.0000    837.1907      5.6568    111.6840
   731.2500      0.0000    840.7334      5.5976    109.6919
   731.5000      0.0000    842.8265      5.4549    107.8330
   731.7500      0.0000    844.3323      5.2887    107.6352
   732.0000      0.0000    844.6282      5.1654    109.0346
   732.2500      0.0000    843.0876      5.1271    110.8323
   732.5000      0.0000    840.0646      5.1720    111.4548
   732.7500      0.0000    836.7249      5.2601    109.5551
   733.0000      0.0000    834.2026      5.3450    104.6377
   733.2500      0.0000    833.0215      5.4094     97.6347
   733.5000      0.0000    833.1575      5.4723     90.5721
   733.7500      0.0000    834.2430      5.5570     85.1689
   734.0000      0.0000    835.4797      5.6521     81.6878
   734.2500      0.0000    835.6714      5.7108     79.2606
   734.5000      0.0000    833.6560      5.6902     77.1968
   734.7500      0.0000    828.3448      5.5909     75.8165
   735.0000      0.0000    818.1699      5.4585     75.9375
   735.2500      0.0000    801.6360      5.3473     77.7334
   735.5000      0.0000    779.9301      5.2815     80.3862
   735.7500      0.0000    758.6829      5.2439     82.8937
   736.0000      0.0000    745.0428      5.2022     84.9221
   736.2500      0.0000    741.8367      5.1474     86.7704
   736.5000      0.0000    745.5793      5.1073     88.6753
   736.7500      0.0000    751.0946      5.1175     90.2598
   737.0000      0.0000    756.9573      5.1786     90.6384
   737.2500      0.0000    764.7729      5.2449     89.1219
   737.5000      0.0000    773.5764      5.2571     85.8537
   737.7500      0.0000    777.4652      5.1871     81.7971
   738.0000      0.0000    770.7567      5.0524     78.3611
   738.2500      0.0000    754.8685      4.8929     77.1179
   738.5000      0.0000    738.2939      4.7409     79.1742
   738.7500      0.0000    729.9995      4.6171     84.0461
   739.0000      0.0000    734.2295      4.5465     89.2775
   739.2500      0.0000    750.4083      4.5616     91.8680
   739.5000      0.0000    774.6205      4.6823     90.3754
   739.7500      0.0000    800.2466      4.8986     85.6155
   740.0000      0.0000    819.8507      5.1741     79.5111
   740.2500      0.0000    828.8566      5.4635     73.5967
   740.5000      0.0000    827.4543      5.7299     68.6262
   740.7500      0.0000    818.8184      5.9633     65.1263
   741.0000      0.0000    806.3514      6.1937     63.6921
   741.2500      0.0000    792.8268      6.4807     64.5725
   741.5000      0.0000    780.8166      6.8789     67.2776
   741.7500      0.0000    772.6820      7.4037     70.9191
   742.0000      0.0000    770.2231      8.0191     74.9610
   742.2500      0.0000    774.4562      8.6477     79.4720
   742.5000      0.0000    784.9078      9.1926     84.5953
   742.7500      0.0000    798.8181      9.5666     89.9465
   743.0000      0.0000    812.0414      9.7266     94.5992
   743.2500      0.0000    821.5623      9.6972     97.5477
   743.5000      0.0000    827.0247      9.5571     98.1435
   743.7500      0.0000    829.9683      9.3854     96.3506
   744.0000      0.0000    832.1205      9.2119     92.8503
   744.2500      0.0000    834.2901      9.0151     88.8183
   744.5000      0.0000    836.2343      8.7640     85.2583
   744.7500      0.0000    837.4362      8.4577     82.4291
   745.0000      0.0000    838.2257      8.1272     79.9980
   745.2500      0.0000    839.8884      7.8118     77.6733
   745.5000      0.0000    843.2174      7.5393     75.6166
   745.7500      0.0000    847.2422      7.3234     74.5145
   746.0000      0.0000    850.0490      7.1707     75.3523
   746.2500      0.0000    850.7910      7.0830     78.6119
   746.5000      0.0000    850.2634      7.0502     83.4129
   746.7500      0.0000    849.5321      7.0423     87.9180
   747.0000      0.0000    848.6631      7.0213     90.8038
   747.2500      0.0000    846.7111      6.9668     91.8651
   747.5000      0.0000    842.2027      6.8869     91.1905
   747.7500      0.0000    833.8363      6.8004     88.6816
   748.0000      0.0000    821.2855      6.7171     84.8232
   748.2500      0.0000    805.0215      6.6367     81.1610
   748.5000      0.0000    785.4072      6.5573     79.3045
   748.7500      0.0000    763.1091      6.4744     79.6417
   749.0000      0.0000    740.5474      6.3754     81.3350
   749.2500      0.0000    721.6607      6.2424     83.4223
   749.5000      0.0000    709.6893      6.0597     85.7260
   749.7500      0.0000    705.9518      5.8223     88.8523
   750.0000      0.0000    710.7336      5.5455     93.3973
   750.2500      0.0000    724.0233      5.2707     98.9487
   750.5000      0.0000    744.6042      5.0477    103.7954
   750.7500      0.0000    769.2906      4.9005    105.8954
   751.0000      0.0000    794.1614      4.8172    104.2651
   751.2500      0.0000    816.3857      4.7820     99.4492
   751.5000      0.0000    834.3619      4.8053     93.0722
   751.7500      0.0000    846.7391      4.9060     87.2639
   752.0000      0.0000    852.2952      5.0707     83.9153
   752.2500      0.0000    850.8674      5.2505     83.5321
   752.5000     -2.0000    843.9506      5.3951     84.7896
   752.7500     -2.0000    834.2544      5.4864     85.7929
   753.0000      0.0000    824.9688      5.5433     85.7707
   753.2500      0.0000    819.2574      5.6009     85.2073
   753.5000      0.0000    819.3592      5.6826     84.7361
   753.7500      0.0000    825.3492      5.8064     84.5030
   754.0000      0.0000    834.9868      6.0203     84.3685
   754.2500      0.0000    845.2128      6.3901     84.1833
   754.5000      0.0000    853.7693      6.9114     83.9246
   754.7500      0.0000    859.6962      7.4586     83.8882
   755.0000      0.0000    863.0804      7.8595     84.6601
   755.2500      0.0000    864.6650      8.0187     86.5734
   755.5000      0.0000    865.3556      7.9627     89.1189
   755.7500      0.0000    865.7500      7.7869     91.0815
   756.0000      0.0000    865.9569      7.5811     91.5794
   756.2500      0.0000    865.6821      7.3927     90.9570
   756.5000      0.0000    864.3735      7.2311     90.3434
   756.7500      0.0000    861.3732      7.0845     90.4156
   757.0000      0.0000    855.8740      6.9354     90.9105
   757.2500      0.0000    846.6629      6.7777     91.2050
   757.5000      0.0000    832.4108      6.6273     91.1297
   757.7500      0.0000    813.0999      6.5112     91.2857
   758.0000      0.0000    791.4174      6.4404     92.4872
   758.2500      0.0000    772.3518      6.3956     94.5929
   758.5000      0.0000    761.0533      6.3421     96.1893
   758.7500      0.0000    760.1194      6.2576     95.8969
   759.0000      0.0000    767.7434      6.1518     93.6175
   759.2500      0.0000    778.6978      6.0638     90.0793
   759.5000      0.0000    787.9858      6.0347     85.8710
   759.7500      0.0000    793.6517      6.0719     81.6441
   760.0000      0.0000    796.4200      6.1344     78.6223
   760.2500      0.0000    797.7162      6.1599     77.9238
   760.5000      0.0000    798.3495      6.1149     79.5199
   760.7500      0.0000    798.2247      6.0261     82.3950
   761.0000      0.0000    796.2631      5.9591     85.5882
   761.2500      0.0000    790.4473      5.9582     88.7684
   761.5000      0.0000    778.7151      6.0059     91.9726
   761.7500      0.0000    760.9225      6.0417     95.1361
   762.0000      0.0000    740.1371      6.0187     97.8828
