~Version Information
 VERS.                2.0:  CWLS LOG ASCII STANDARD -VERSION 2.0
 WRAP.                 NO:  ONE LINE PER DEPTH STEP
~WELL INFORMATION BLOCK
#MNEM.UNIT       DATA		            DESCRIPTION OF MNEMONIC
#---------    -------------            ------------------------
 STRT.FT  0.500                          :START DEPTH
 STOP.FT  1812.700                       :STOP DEPTH
 STEP.FT  0.100                          :STEP    UP_HOLE  
 NULL.    -999.25                        :NULL VALUE
 COMP.              EL PASO PRODUCTIONS  :COMPANY
 WELL.                     COREHOLE #38  :WELL
 FLD .                 PURGATOIRE RIVER  :FIELD
 LOC .      15   35S   65W               :LOCATION
 CNTY.                           COLFAX  :COUNTY
 STAT.                     NM            :STATE
 CTRY.                                   :
 SRVC.     O'DRISCOLL                    :SERVICE COMPANY
 DATE.   04/28/05                        :LOG DATE
 API .                                   :API NUMBER
 LIC .                                   :LICENSE NUMBER
~Curve Information Block
#MNEM.UNIT      API CODE     Curve Description
#---------    -------------  ------------------------
 DEPT     .FT        00 001 00 00          :  1  DEPTH   
 GAMMA    .API-GR    00 310 00 00          :  2                GAMMA
 TEMP     .DEG F     00 660 00 00          :  3                 TEMP
 RES(16N) .OHM-M     00 040 00 00          :  4             RES(16N)
 RES(64N) .OHM-M     00 060 00 00          :  5             RES(64N)
 RES      .OHM       00 000 00 00          :  6                  RES
 LATERAL  .OHM-M     00 070 00 00          :  7              LATERAL
 NEUTRON  .API-N     00 000 00 00          :  8              NEUTRON
 POR(NEU) .PERCENT   00 330 00 00          :  9             POR(NEU)
 SANGB    .DEG       00 631 00 00          : 10                SANGB
 DEL_TEMP .DEG F     00 000 00 00          : 11             DEL_TEMP
 SANG     .DEG       00 620 00 00          : 12                 SANG
 SP       .MV        00 010 00 00          : 13                   SP
 TIME     .MINUTES   00 000 00 00          : 14                 TIME
~Parameter Information Block
#MNEM.UNIT   Information     Description
#---------- ---------------  ------------------------
 FILE.      ORIGINAL           :File Type
 FIID.      9057A              :File Type Identifier
 VERS.      3.58G              :System Version
 SER .      1                  :System Serial Number
 TRUK.      .498775            :Truck Calibration Number
 TOOL.        1061             :Tool Serial Number
 TIME.      1335               :Time    HrHrMinMin
 LAT .       36 59'            :Latitude
 LON .       104 39'           :Longitude
 LMF .            GL           :Log Measured From
 DMF .            GL           :Driller Measured From
 PD  .            GL           :Permanent Data
 PDEV.                         :Elevation Permanent Data
 EKB .M                        :Elevation Kelly Bushing
 ELEV.DF                       :Elevation DF
 EGL .M        7777            :Elevation Ground Level
 DRDP.          1825           :Driller's Depth
 CASD.       10.               :Casing Diameter
 CASB.           300           :Casing Bottom
 CASX.         STEEL           :Casing Type
 CAST.                         :Casing Thickness
 TNOC.                         :Time Circulation Stopped
 LOGU.        108              :Logging Unit
 RECB.           R.SIPES       :Recorded By
 OSR1.          9139           :Other Services
 OSR2.                         :Other Services
 OSR3.                         :Other Services
 BS  .MM         3.5           :Bit Size
 MST .                         :Mean Surface Temperature
 TGRD.                         :Temperature Gradiant
 MAGN.            12           :Magnetic Declination
 MDEN.       2.7               :Density Matrix
 MATR.      SANDSTONE          :Neutron Matrix
 DTMT.            54           :Delta T Matrix
 DTFL.                         :Delta T Fluid
 MUDS.                         :Mud Sample Source
 MRS .                         :Mud Resistivity
 MTP .                         :Mud Temperature
 MFRS.                         :Resistivity Mud Filtrate
 MFTP.                         :Temperature Mud Filtrate
 MCRS.                         :Resistivity Mud Cake
 MCTP.                         :Temperature Mud Cake
 FTYP.                         :Fluid Type
 FD  .K/M3                     :Fluid Density
 DFV .S                        :Fluid Viscosity
 FPH .                         :Fuild PH
 ELCO.       50000             :Electron Cutoff
~Other Information
#MNEM.UNIT  Information      Description
#---------- ---------------  ------------------------
# -------------------------- 
~A DEPTH  GAMMA    TEMP  RES(16N) RES(64N) RES      LATERAL  NEUTRON  POR(NEU) SANGB  DEL_TEMP SANG   SP    TIME    
# ...
 964.700     98.5  74.2      1.1     11.1      8.4     -2.0   1100.9  28.7  21.90  0.07  2.82  -1317.6 0.20000 
 964.800     99.0  74.2      3.6     11.4      8.0      1.1   1158.7  28.8  33.98  -0.02  2.91  -1317.6 0.20000 
 964.900    103.2  74.2      2.6     11.9      7.7     -0.0   1182.2  28.5  33.20  -0.06  2.87  -1317.6 0.20000 
 965.000    101.6  74.2     -1.3     12.2      8.0     -5.6   1165.0  28.4  33.23  0.01  2.87  -1317.8 0.20000 
 965.100    110.6  74.2      0.6     12.2      8.2     -3.2   1186.9  28.1  13.82  0.00  2.87  -1317.8 0.20000 
 965.200    113.3  74.2      2.2     12.1      8.2     -1.4   1171.3  28.0  14.18  0.02  2.93  -1317.8 0.20000 
 965.300    113.3  74.2      2.4     11.9      8.2     -1.6   1138.4  27.8  13.51  -0.03  2.90  -1317.8 0.20000 
 965.400    105.3  74.2     -0.5     11.7      8.0     -5.1   1107.1  27.9  13.50  0.02  2.90  -1317.8 0.20000 
 965.500    104.3  74.2      2.3     11.6      8.6     -1.6   1132.2  27.8  319.44 0.01  2.90  -1317.8 0.20000 
 965.600    104.3  74.2      3.2     11.5      8.5     -0.9   1133.7  27.6  319.40 -0.04  2.93  -1317.8 0.20000 
 965.700     99.5  74.2      2.8     11.5      8.0     -1.1   1186.9  27.7  319.40 0.05  2.93  -1317.8 0.20000 
 965.800     99.0  74.2      0.7     11.4      8.1     -2.6   1175.9  27.8  319.22 -0.04  2.93  -1317.7 0.20000 
 965.900    103.2  74.2     -0.4     11.3      8.4     -3.6   1207.2  27.8  352.36 0.06  2.93  -1317.6 0.20000 
 966.000    102.2  74.2      1.7     11.1      8.2     -0.3   1188.5  27.6  354.76 -0.04  2.91  -1317.6 0.20000 
 966.100     98.5  74.2      1.6     10.6      8.2     -0.5   1168.1  27.3  354.70 -0.01  2.91  -1317.6 0.20000 
 966.200     95.8  74.2      0.7     10.1      7.8     -1.8   1160.3  27.2  354.63 0.03  2.91  -1317.7 0.20000 
 966.300     99.5  74.2     -0.4      9.7      8.2     -3.6   1199.4  27.1  26.11  -0.04  2.91  -1317.7 0.20000 
 966.400     93.2  74.2      2.1      9.3      8.5     -0.7   1182.2  27.2  54.70  0.03  2.85  -1317.7 0.20000 
 966.500     89.5  74.2      3.1      8.9      8.0      0.7   1172.8  27.3  55.06  -0.07  2.87  -1317.7 0.20000 
 966.600     87.9  74.2      0.5      8.8      7.7     -2.8   1216.6  27.9  55.40  0.00  2.87  -1317.8 0.20000 
 966.700     86.8  74.2     -0.6      8.8      7.9     -3.9   1211.9  27.8  58.55  0.10  2.87  -1317.8 0.20000 
 966.800     79.9  74.2      1.5      8.8      7.8     -0.5   1194.7  27.9  12.52  0.01  2.80  -1317.8 0.20000 
 966.900     73.6  74.2      2.5      8.8      8.0      1.4   1204.1  27.7  14.90  -0.07  2.82  -1317.8 0.20000 
 967.000     76.8  74.2      0.2      8.7      7.6     -2.3   1215.0  27.6  14.90  0.00  2.82  -1317.8 0.20000 
 967.100     78.9  74.2     -1.0      8.8      7.8     -4.6   1172.8  27.8  354.20 -0.03  2.82  -1317.7 0.10000 
 967.200     85.8  74.3      0.9      8.8      7.8     -1.8   1111.8  27.8  324.29 -0.01  2.75  -1317.7 0.20000 
 967.300     88.9  74.3      2.4      8.8      7.7      0.3   1105.6  27.8  326.57 0.05  2.74  -1317.7 0.20000 
 967.400     96.3  74.3      0.4      8.5      7.8     -2.4   1108.7  27.6  326.57 -0.03  2.74  -1317.7 0.20000 
 967.500     97.4  74.2     -0.4      7.8      8.1     -3.2   1130.6  27.9  356.86 0.08  2.74  -1317.7 0.20000 
 967.600     99.5  74.2      2.1      7.4      7.6      0.3   1144.7  27.8  65.56  -0.08  2.75  -1317.7 0.20000 
 967.700    102.2  74.2      2.4      7.5      7.6      0.6   1180.6  27.7  65.08  0.00  2.76  -1317.7 0.20000 
 967.800    101.1  74.2     -0.5      7.4      7.4     -4.1   1197.8  27.6  65.08  0.04  2.76  -1317.7 0.20000 
 967.900     99.0  74.3     -1.6      6.7      7.7     -5.8   1191.6  27.5  65.78  -0.01  2.76  -1317.6 0.20000 
 968.000     93.7  74.2     -0.3      7.3      7.5     -3.7   1188.5  27.2  13.45  -0.04  2.78  -1317.6 0.20000 
 968.100     83.1  74.3      1.8      7.3      7.6      0.7   1177.5  26.5  12.38  0.03  2.77  -1317.6 0.20000 
 968.200     86.8  74.3      2.0      7.4      7.9      3.0   1210.4  26.4  12.38  -0.05  2.77  -1317.6 0.20000 
 968.300     83.1  74.3     -1.5      8.1      7.8     -2.9   1216.6  26.1  356.23 0.04  2.77  -1317.6 0.20000 
 968.400     85.2  74.3     -0.2      8.9      7.6     -2.5   1224.4  25.9  331.76 -0.01  2.82  -1317.6 0.20000 
 968.500     81.0  74.3      1.0      8.5      7.4     -0.6   1218.2  25.7  330.02 0.01  2.82  -1317.6 0.20000 
 968.600     76.2  74.3      2.0      7.7      7.5      2.8   1265.1  25.5  330.02 -0.04  2.82  -1317.6 0.20000 
 968.700     72.0  74.3     -1.2      6.6      8.1     -7.6   1279.2  25.5  348.67 0.04  2.82  -1317.7 0.20000 
 968.800     74.1  74.3      0.7      4.7      8.0     -2.2   1272.9  25.4  26.30  -0.05  2.87  -1317.7 0.20000 
 968.900     75.7  74.3      1.6      4.8      7.9     -1.3   1313.6  25.4  24.60  0.07  2.86  -1317.7 0.20000 
 969.000     77.3  74.3      1.6      6.0      7.6     -3.8   1360.5  25.2  24.60  -0.07  2.86  -1317.7 0.20000 
 969.100     73.1  74.2     -1.1      5.7      7.9     -8.3   1348.0  25.2  24.61  0.08  2.86  -1317.7 0.20000 
 969.200     65.6  74.2      0.4      6.4      8.2      0.3   1321.4  25.2  12.84  0.10  2.86  -1317.7 0.20000 
 969.300     61.9  74.2      2.6      7.5      7.6      3.7   1319.8  25.1   3.89  -0.13  2.91  -1317.7 0.10000 
 969.400     58.2  74.2      2.3      8.3      7.8      4.9   1285.4  24.9   3.00  -0.04  2.87  -1317.7 0.20000 
 969.500     56.1  74.3     -0.8      7.8      7.9      5.3   1249.4  25.1   3.02  0.04  2.87  -1317.5 0.20000 
 969.600     58.8  74.3      1.1      8.0      8.2     -0.9   1236.9  25.1  306.97 -0.07  2.87  -1317.5 0.20000 
 969.700     53.5  74.3      2.6      7.8      8.2     -2.0   1254.1  24.9  308.60 0.07  2.85  -1317.5 0.20000 
 969.800     51.3  74.3      2.9      7.4      8.2      4.3   1268.2  24.9  309.24 -0.07  2.88  -1317.5 0.20000 
 969.900     52.4  74.3     -0.5      6.8      7.8     -6.5   1276.0  25.4  309.20 0.06  2.88  -1317.8 0.20000 
 970.000     48.2  74.3      1.2      7.6      8.2     -5.8   1282.3  25.4   8.60  -0.04  2.88  -1317.8 0.20000 
 970.100     59.8  74.3      2.0      8.4      7.6     -0.8   1276.0  25.2  28.21  0.07  2.82  -1317.8 0.20000 
 970.200     59.8  74.3      0.9      8.9      7.6     -2.4   1287.0  25.2  29.17  -0.07  2.87  -1317.8 0.20000 
 970.300     60.9  74.3     -1.1     11.9      7.8     -5.6   1315.1  25.0  29.22  -0.04  2.87  -1317.8 0.20000 
 970.400     63.5  74.3     -1.4     13.7      8.2     -4.5   1333.9  25.0  345.86 0.04  2.87  -1317.7 0.20000 
 970.500     61.4  74.3      1.0     13.9      8.4     -2.4   1291.7  25.0  337.83 0.00  2.88  -1317.7 0.20000 
 970.600     65.1  74.3      0.5     15.6      8.1     -3.2   1318.3  25.0  337.78 -0.04  2.88  -1317.7 0.20000 
 970.700     62.5  74.3      3.2     15.0      7.6      0.3   1315.1  25.0  337.82 0.09  2.88  -1317.7 0.20000 
 970.800     60.3  74.3      0.6     13.9      7.4     -3.3   1279.2  25.0  313.69 -0.07  2.88  -1317.6 0.20000 
 970.900     64.1  74.3      3.7     13.0      7.7      4.2   1268.2  24.9  312.98 0.07  2.92  -1317.6 0.20000 
 971.000     57.7  74.3      5.3     13.3      7.5     -1.7   1315.1  24.5  312.63 -0.07  2.91  -1317.6 0.20000 
 971.100     55.6  74.3      3.7     13.6      7.8     -6.2   1285.4  24.5  312.63 0.00  2.91  -1317.6 0.20000 
 971.200     56.6  74.3     -1.9     13.2      7.6     -9.3   1287.0  24.6  323.94 0.06  2.91  -1317.6 0.20000 
 971.300     55.6  74.3      0.4     12.7      8.6     -7.8   1285.4  24.8  346.99 -0.04  2.91  -1317.6 0.20000 
 971.400     54.5  74.3     -1.0     11.1      8.1     -3.8   1282.3  24.5  347.16 -0.02  2.93  -1317.6 0.20000 
 971.500     52.9  74.3     -5.7      9.7      8.6     -9.8   1301.1  24.7  347.16 -0.05  2.93  -1317.7 0.10000 
 971.600     54.0  74.3     -0.9      8.1      8.6      0.0   1352.7  24.8  325.30 0.02  2.93  -1317.7 0.20000 
 971.700     50.8  74.3      3.3      7.5      8.9     -0.9   1363.6  24.9  310.53 0.01  2.92  -1317.7 0.20000 
 971.800     49.2  74.3      0.2      4.8      7.6     -4.9   1379.2  24.8  310.49 0.05  2.91  -1317.7 0.20000 
