~Version Information
 VERS.                                  2.0 : CWLS LAS VERSION
 WRAP.                                   NO : WRAPING MODE
 SWARE .                 MController 2.5.0J : SOFTWARE VERSION
~Well Information
 WELL.                         Leier 17-24V : WELL
 COMP.                Petrogulf Corporation : COMPANY
 FLD.                      Purgatoire River : FIELD
 LOC.                SE/NE Sec 17 T33S R67W : LOCATION
 DATE.                             09/21/05 : DATE(S) LOGGED
 SRVC.       BLANCO Geological Services LLC : SERVICE COMPANY
 STAT.                                   CO : STATE
 CNTY.                           Las Animas : COUNTY
 CTRY.                                  USA : COUNTRY
 API.                       05-071-08409-00 : API NUMBER
 STRT.FT                             1.00 : START DEPTH
 STOP.FT                            2455.00 : STOP DEPTH
 STEP.FT                               1.00 : DEPTH INCREMENT
 NULL.                                -9999 : NULL VALUE
~Curve information
 DEPTH.FT                                   :
 ROP.MIN/FT                                 :
 GAS.UNITS                                  :
~ASCII Log data
# ...
      1996.0         0.33         59.7 
      1997.0         0.23         58.9 
      1998.0         0.33         58.7 
      1999.0         0.30         57.8 
      2000.0         0.30         57.4 
      2001.0         0.33         56.9 
      2002.0         0.27         56.2 
      2003.0         0.28         56.7 
      2004.0         0.27         57.3 
      2005.0         0.37         57.2 
      2006.0         4.52        107.7 
      2007.0         0.30         85.0 
      2008.0         0.20         96.2 
      2009.0         0.17        103.7 
      2010.0         0.17        107.2 
      2011.0         0.27        107.4 
      2012.0         0.32        104.5 
      2013.0         0.30         96.4 
      2014.0         0.23         90.2 
      2015.0         0.30         86.4 
      2016.0         0.27         81.4 
      2017.0         0.20         77.5 
      2018.0         0.23         72.1 
      2019.0         0.23         68.1 
      2020.0         0.23         67.1 
      2021.0         0.23         65.9 
      2022.0         0.20         64.6 
      2023.0         0.20         63.6 
      2024.0         0.23         62.5 
      2025.0         0.20         61.1 
      2026.0         0.25         60.5 
      2027.0         0.20         59.7 
      2028.0         0.13         60.3 
      2029.0         0.20         60.9 
      2030.0         0.23         61.1 
      2031.0         0.23         60.5 
      2032.0         0.27         59.5 
      2033.0         0.23         58.1 
      2034.0         0.27         57.1 
      2035.0         0.33         56.1 
      2036.0         4.18        105.6 
      2037.0         0.42         87.6 
      2038.0         0.47         93.3 
      2039.0         0.57         91.7 
      2040.0         0.40         85.5 
      2041.0         0.33         84.1 
      2042.0         0.37         80.7 
      2043.0         0.33         75.8 
      2044.0         0.30         70.3 
      2045.0         0.28         66.5 
      2046.0         0.27         64.1 
      2047.0         0.23         62.2 
      2048.0         0.13         61.4 
      2049.0         0.17         61.1 
      2050.0         0.17         60.8 
      2051.0         0.23         59.9 
      2052.0         0.23         58.9 
      2053.0         0.20         57.8 
      2054.0         0.20         57.5 
      2055.0         0.13         56.9 
      2056.0         0.17         57.9 
      2057.0         0.10         60.4 
      2058.0         0.13         65.1 
      2059.0         0.20         71.2 
      2060.0         0.20         74.1 
      2061.0         0.33         74.5 
      2062.0         0.32         72.7 
      2063.0         0.27         68.9 
      2064.0         0.17         66.7 
      2065.0         0.30         64.3 
      2066.0         4.92        109.1 
      2067.0         0.50         94.7 
      2068.0         0.52         94.5 
      2069.0         0.23         87.7 
      2070.0         0.30         86.0 
      2071.0         0.27         84.3 
      2072.0         0.30         82.2 
      2073.0         0.27         79.9 
      2074.0         0.30         77.4 
      2075.0         0.30         74.2 
      2076.0         0.33         69.8 
      2077.0         0.23         65.6 
      2078.0         0.13         63.6 
      2079.0         0.23         63.5 
      2080.0         0.28         63.3 
      2081.0         0.27         61.4 
      2082.0         0.27         59.4 
      2083.0         0.23         57.8 
      2084.0         0.27         56.3 
      2085.0         0.23         55.0 
      2086.0         0.27         53.8 
      2087.0         0.27         53.1 
      2088.0         0.27         52.5 
      2089.0         0.27         51.9 
      2090.0         0.23         51.6 
      2091.0         0.20         53.6 
      2092.0         0.20         60.8 
      2093.0         0.15         65.2 
      2094.0         0.13         65.4 
      2095.0         0.13         63.3 
      2096.0         4.05        100.6 
      2097.0         0.17         78.8 
      2098.0         0.33         91.4 
      2099.0         0.33         94.8 
      2100.0         0.30         94.4 
      2101.0         0.30         90.0 
      2102.0         0.35         84.0 
      2103.0         0.27         79.2 
      2104.0         0.23         79.3 
      2105.0         0.13         80.5 
      2106.0         0.17         83.7 
      2107.0         0.30         86.1 
      2108.0         0.30         85.6 
      2109.0         0.30         81.2 
      2110.0         0.33         76.8 
      2111.0         0.33         71.3 
      2112.0         0.23         67.3 
      2113.0         0.23         65.3 
      2114.0         0.18         63.1 
      2115.0         0.17         61.0 
      2116.0         0.20         59.9 
      2117.0         0.17         59.0 
      2118.0         0.17         58.3 
      2119.0         0.20         58.0 
      2120.0         0.23         57.4 
      2121.0         0.27         56.8 
      2122.0         0.20         56.5 
      2123.0         0.13         56.5 
      2124.0         0.20         57.0 
      2125.0         0.30         57.0 
      2126.0         4.20         99.3 
      2127.0         0.27         86.0 
      2128.0         0.27         93.5 
      2129.0         0.27         94.8 
      2130.0         0.23         93.8 
      2131.0         0.27         91.1 
      2132.0         0.37         86.7 
      2133.0         0.53         80.2 
      2134.0         0.42         73.1 
      2135.0         0.37         70.2 
      2136.0         0.33         64.3 
      2137.0         0.30         59.5 
      2138.0         0.33         56.7 
      2139.0         0.27         54.6 
      2140.0         0.30         52.9 
      2141.0         0.23         57.1 
      2142.0         0.27         65.4 
      2143.0         0.32         73.7 
      2144.0         0.37         77.5 
      2145.0         0.37         77.6 
      2146.0         0.43         74.8 
      2147.0         0.40         70.1 
      2148.0         0.40         67.4 
      2149.0         0.33         65.1 
      2150.0         0.38         63.1 
      2151.0         0.40         61.5 
      2152.0         0.40         62.1 
      2153.0         0.37         61.7 
      2154.0         0.47         60.7 
      2155.0         0.53         60.1 
      2156.0         4.33        104.6 
      2157.0         0.23         84.1 
      2158.0         0.27         95.0 
      2159.0         0.33         97.8 
      2160.0         0.30         97.3 
      2161.0         0.33         93.3 
      2162.0         0.35         90.4 
      2163.0         0.33         90.7 
      2164.0         0.27         89.9 
      2165.0         0.30         86.6 
      2166.0         0.23         80.0 
      2167.0         0.23         74.6 
      2168.0         0.23         70.2 
      2169.0         0.27         67.4 
      2170.0         0.37         64.5 
      2171.0         0.30         61.7 
      2172.0         0.23         59.5 
      2173.0         0.23         58.0 
      2174.0         0.35         56.5 
      2175.0         0.30         54.8 
      2176.0         0.30         53.9 
      2177.0         0.33         52.9 
      2178.0         0.30         51.3 
      2179.0         0.23         49.4 
      2180.0         0.17         51.3 
      2181.0         0.20         57.5 
      2182.0         0.27         65.3 
      2183.0         0.27         67.2 
      2184.0         0.23         67.0 
      2185.0         0.30         65.5 
      2186.0         4.20        113.0 
      2187.0         0.33         90.8 
      2188.0         0.27         98.3 
      2189.0         0.33         99.2 
      2190.0         0.33         98.0 
      2191.0         0.33         91.1 
      2192.0         0.23         85.0 
      2193.0         0.33         83.7 
      2194.0         0.28         81.8 
      2195.0         0.23         78.1 
