~Version Information
VERS.                      2.0: CWLS Log ASCII Standard - VERSION 2.0
WRAP.                       NO: One line per depth step
~Well Information Block
STRT.FT               483.0000: 
STOP.FT              1701.5000: 
STEP.FT                 0.1000: 
NULL.                -999.2500: 
COMP.          Pioneer Natural Resources: COMPANY
WELL.            Mad Dog 42-31: WELL
FLD.           Purgatorie River: FIELD
LOC.           2064' FNL & 479' FEL: LOCATION
PROV.                 Colorado: PROVINCE
CNTY.               Las Animas: COUNTRY
SRVC.                         : SERVICE COMPANY
DATE.          Sun Oct 10 04:38:02 2004: LOG DATE
UWI.           05 071 08195 00: UNIQUE WELL ID
~Curve Information Block
DEPT.FT            0 000 00 00: Depth
LTEN.lb                       : Surface Line Tension
DCAL.in                       : CDL Caliper
RHOB.g/cc                     : CDL Bulk Density
RHOC.g/cc                     : CDL Density Correction
DPOR.pu                       : CDL Density Porosity
GR.GAPI                       : Gamma Ray
NPOR.pu                       : Neutron Porosity
~Parameter Information Block
~A  Depth       LTEN        DCAL        RHOB        RHOC        DPOR         GR         NPOR    
# ...
  1045.8000    913.3582      7.9063      2.6141      0.0956      2.1728     95.4821     22.2374
  1045.9000    913.3582      7.9063      2.6068      0.0685      2.6180     90.6988     21.5023
  1046.0000    950.7792      7.8791      2.5677      0.0393      4.9864     84.2694     20.9202
  1046.1000    950.7792      7.8791      2.5401     -0.0191      6.6631     75.7509     20.6805
  1046.2000    950.7792      7.8791      2.5429      0.0486      6.4917     70.2504     20.6490
  1046.3000    935.2230      7.8599      2.5487      0.0978      6.1389     69.2895     20.3014
  1046.4000    935.2230      7.8599      2.5374     -0.0099      6.8218     68.7926     19.3936
  1046.5000    938.2501      7.8474      2.5275      0.0353      7.4252     66.3581     18.3555
  1046.6000    938.2501      7.8474      2.5319     -0.0249      7.1588     64.8035     17.4701
  1046.7000    938.2501      7.8474      2.5378      0.0218      6.7998     67.2504     17.0093
  1046.8000    922.4097      7.8406      2.5308      0.0311      7.2257     73.2557     17.3727
  1046.9000    922.4097      7.8406      2.5207      0.0233      7.8365     80.6243     18.0247
  1047.0000    931.8275      7.8461      2.5251      0.0273      7.5715     87.9347     18.0765
  1047.1000    931.8275      7.8461      2.5415      0.0409      6.5745     94.8108     17.7442
  1047.2000    931.8275      7.8461      2.5568      0.0505      5.6497     99.0583     17.6703
  1047.3000    946.6918      7.8487      2.5675      0.0692      4.9979     99.9222     18.0874
  1047.4000    946.6918      7.8487      2.5770      0.1154      4.4270     99.0610     18.9904
  1047.5000    932.5627      7.8311      2.5828      0.1346      4.0736     99.8940     19.9720
  1047.6000    932.5627      7.8311      2.5826      0.1155      4.0876    106.6628     20.6052
  1047.7000    932.5627      7.8311      2.5821      0.0742      4.1122    116.0326     20.7153
  1047.8000    945.5800      7.8323      2.5827      0.0895      4.0804    121.0187     20.4218
  1047.9000    945.5800      7.8323      2.5813      0.0739      4.1618    121.4306     20.2922
  1048.0000    947.5267      7.8329      2.5780      0.0910      4.3635    121.1055     20.4868
  1048.1000    947.5267      7.8329      2.5696      0.0979      4.8755    121.6834     20.5389
  1048.2000    947.5267      7.8329      2.5585      0.0388      5.5441    122.3939     20.4014
  1048.3000    916.8342      7.8386      2.5564      0.0787      5.6709    121.0443     20.5309
  1048.4000    916.8342      7.8386      2.5693      0.0564      4.8887    115.3730     21.1691
  1048.5000    936.9828      7.8487      2.5922      0.0931      3.5019    108.5843     22.0538
  1048.6000    936.9828      7.8487      2.6139      0.0572      2.1880    106.9688     22.4386
  1048.7000    936.9828      7.8487      2.6277      0.0835      1.3487    109.0838     22.0549
  1048.8000    955.1439      7.8460      2.6324      0.0733      1.0677    110.8059     21.4605
  1048.9000    955.1439      7.8460      2.6296      0.0482      1.2355    111.3663     20.8101
  1049.0000    938.3420      7.8412      2.6205      0.0792      1.7905    109.6566     19.8597
  1049.1000    938.3420      7.8412      2.6051      0.0493      2.7235    109.5428     19.0021
  1049.2000    938.3420      7.8412      2.5885      0.0583      3.7280    115.6750     18.9303
  1049.3000    964.9899      7.8233      2.5743      0.0480      4.5866    122.3794     19.4467
  1049.4000    964.9899      7.8233      2.5580      0.0464      5.5786    121.4365     19.8442
  1049.5000    958.0623      7.8190      2.5362      0.0052      6.8983    117.3146     19.8749
  1049.6000    958.0623      7.8190      2.5241     -0.0736      7.6282    121.5722     19.9734
  1049.7000    958.0623      7.8190      2.5390      0.0284      6.7302    131.2593     20.5662
  1049.8000    937.8868      7.8227      2.5720      0.0294      4.7281    134.7035     21.6760
  1049.9000    937.8868      7.8227      2.6000      0.0771      3.0298    133.7349     22.7057
  1050.0000    962.5225      7.8256      2.6095      0.0920      2.4516    136.8215     22.7696
  1050.1000    962.5225      7.8256      2.6106      0.0410      2.3859    144.9694     22.2121
  1050.2000    962.5225      7.8256      2.6180      0.0872      1.9422    154.3944     22.1082
  1050.3000    963.5632      7.8095      2.6315      0.0735      1.1198    163.0845     22.4187
  1050.4000    963.5632      7.8095      2.6463      0.0738      0.2270    167.2836     22.6034
  1050.5000    962.6150      7.8132      2.6541      0.0805     -0.2501    163.4914     22.8386
  1050.6000    962.6150      7.8132      2.6522      0.0657     -0.1338    157.1639     23.2919
  1050.7000    962.6150      7.8132      2.6521      0.1070     -0.1261    155.8344     23.7392
  1050.8000    981.8906      7.8336      2.6652      0.0962     -0.9195    161.1682     24.0722
  1050.9000    981.8906      7.8336      2.6822      0.1388     -1.9525    171.1761     24.3553
  1051.0000    972.9637      7.8350      2.6693      0.1436     -1.1721    175.2860     24.6198
  1051.1000    972.9637      7.8350      2.6247      0.0032      1.5355    167.6415     24.9169
  1051.2000    972.9637      7.8350      2.5973      0.0256      3.1914    161.3180     25.5559
  1051.3000    933.9151      7.8398      2.6005      0.0649      2.9976    163.5136     26.1435
  1051.4000    933.9151      7.8398      2.5951      0.0774      3.3292    168.2497     25.7052
  1051.5000    944.7034      7.8422      2.5687      0.0292      4.9285    174.5719     24.5868
  1051.6000    944.7034      7.8422      2.5498      0.0344      6.0742    181.5799     23.7624
  1051.7000    944.7034      7.8422      2.5586     -0.0121      5.5422    179.3626     23.4177
  1051.8000    963.4002      7.8441      2.5933      0.0948      3.4363    163.5889     23.6737
  1051.9000    963.4002      7.8441      2.6406      0.1185      0.5694    146.4597     24.7150
  1052.0000    957.3245      7.8377      2.6893      0.1539     -2.3847    138.4541     26.2338
  1052.1000    957.3245      7.8377      2.7368      0.1297     -5.2628    133.9062     27.1818
  1052.2000    957.3245      7.8377      2.7760      0.1530     -7.6336    124.4074     26.5493
  1052.3000    970.0060      7.8238      2.7900      0.1743     -8.4819    114.9170     24.8815
  1052.4000    970.0060      7.8238      2.7807      0.1053     -7.9194    109.7434     23.7027
  1052.5000    948.4667      7.8310      2.7732      0.0986     -7.4678    105.0212     23.3048
  1052.6000    948.4667      7.8310      2.7738      0.1269     -7.5026    101.1802     22.7369
  1052.7000    948.4667      7.8310      2.7674      0.0395     -7.1166    102.6952     21.8469
  1052.8000    939.4938      7.8355      2.7535      0.0456     -6.2738    108.5030     21.3616
  1052.9000    939.4938      7.8355      2.7405      0.0200     -5.4830    114.2392     21.4955
  1053.0000    974.7766      7.8357      2.7303      0.0410     -4.8647    119.3416     21.7300
  1053.1000    974.7766      7.8357      2.7215      0.0353     -4.3323    123.5845     21.6940
  1053.2000    974.7766      7.8357      2.7111      0.0639     -3.7022    127.8144     21.4919
  1053.3000    949.9937      7.8539      2.6865      0.1339     -2.2130    132.9845     21.4476
  1053.4000    949.9937      7.8539      2.6387      0.1033      0.6859    136.9569     21.8821
  1053.5000    935.7975      7.8036      2.5874      0.0103      3.7918    141.8571     22.3186
  1053.6000    935.7975      7.8036      2.5467      0.0316      6.2579    152.4515     22.4997
  1053.7000    935.7975      7.8036      2.4981      0.0126      9.2066    165.8947     23.2108
  1053.8000    974.7563      7.7934      2.4488     -0.0673     12.1948    173.1207     24.4171
  1053.9000    974.7563      7.7934      2.4459     -0.0340     12.3722    172.0944     25.4916
  1054.0000    944.1753      7.8329      2.5077      0.0536      8.6251    168.8468     26.6642
  1054.1000    944.1753      7.8329      2.5962      0.1691      3.2634    169.0879     28.1157
