~Version Information
VERS.                      2.0: CWLS Log ASCII Standard - VERSION 2.0
WRAP.                       NO: One line per depth step
~Well Information Block
STRT.FT               483.0000: 
STOP.FT              1702.5000: 
STEP.FT                 0.2500: 
NULL.                -999.2500: 
COMP.          Pioneer Natural Resources: COMPANY
WELL.            Mad Dog 42-31: WELL
FLD.           Purgatorie River: FIELD
LOC.           2064' FNL & 479' FEL: LOCATION
PROV.                 Colorado: PROVINCE
CNTY.               Las Animas: COUNTRY
SRVC.                         : SERVICE COMPANY
DATE.          Sun Oct 10 04:26:24 2004: LOG DATE
UWI.           05 071 08195 00: UNIQUE WELL ID
~Curve Information Block
DEPT.FT            0 000 00 00: Depth
LTEN.lb                       : Surface Line Tension
SN.Ohm-m                      : IEL Short Normal
SP.mV                         : IEL Spontaneous Potential
DIR.Ohm-m                     : IEL Induction Resistivity
GR.GAPI                       : Gamma Ray
~Parameter Information Block
~A  Depth       LTEN         SN          SP         DIR          GR     
# ...
   875.0000    632.3314     17.8849   -206.1174     17.7802     98.4839
   875.2500    628.4987     17.0112   -205.2796     16.9722     99.1642
   875.5000    623.5542     16.0323   -204.6270     16.2402    100.5639
   875.7500    619.3744     14.9833   -204.2216     15.5436    102.2535
   876.0000    616.8436     13.9245   -204.0981     14.8471    106.7659
   876.2500    615.2224     12.9233   -204.2647     14.1310    111.4848
   876.5000    613.4790     12.0328   -204.7110     13.4029    121.0194
   876.7500    611.5844     11.2831   -205.4118     12.6902    128.2745
   877.0000    610.4636     10.6858   -206.3419     12.0237    138.6398
   877.2500    611.1237     10.2383   -207.4840     11.4271    144.3599
   877.5000    613.6672      9.9214   -208.8213     10.9173    150.6852
   877.7500    616.9437      9.6998   -210.3268     10.5065    153.5274
   878.0000    619.6075      9.5358   -211.9367     10.2013    156.0535
   878.2500    621.5951      9.4098   -213.5432     10.0023    156.7091
   878.5000    623.8194      9.3281   -214.9958      9.9061    156.4752
   878.7500    626.1983      9.3099   -216.1305      9.9097    155.7902
   879.0000    627.1597      9.3686   -216.8094     10.0107    154.4281
   879.2500    625.7481      9.5059   -216.9660     10.2027    153.4865
   879.5000    623.1442      9.7221   -216.6327     10.4679    152.2880
   879.7500    621.3848     10.0288   -215.9418     10.7731    151.6459
   880.0000    621.5261     10.4525   -215.0946     11.0768    150.3996
   880.2500    623.4316     11.0274   -214.3169     11.3490    148.7893
   880.5000    626.2164     11.7814   -213.8004     11.5896    144.1526
   880.7500    628.7348     12.7203   -213.6608     11.8316    139.2307
   881.0000    630.6403     13.8128   -213.9147     12.1268    129.3888
   881.2500    632.8037     14.9813   -214.4984     12.5266    121.9887
   881.5000    635.8317     16.1081   -215.2937     13.0644    111.8492
   881.7500    638.6509     17.0590   -216.1755     13.7352    107.0954
   882.0000    639.4335     17.7167   -217.0435     14.4735    104.2803
   882.2500    637.4911     18.0089   -217.8410     15.1501    105.0125
   882.5000    633.6789     17.9216   -218.5452     15.6121    108.2310
   882.7500    629.4378     17.4980   -219.1537     15.7648    110.7959
   883.0000    625.8047     16.8233   -219.6597     15.6270    114.6959
   883.2500    623.0038     15.9996   -220.0488     15.3034    117.4349
   883.5000    620.9099     15.1197   -220.2972     14.9077    121.6598
   883.7500    619.7478     14.2548   -220.3869     14.5070    124.1744
   884.0000    619.7227     13.4560   -220.3120     14.1136    126.7653
   884.2500    620.1497     12.7597   -220.0860     13.7034    127.5697
   884.5000    620.1165     12.1847   -219.7301     13.2410    127.9208
   884.7500    619.8900     11.7214   -219.2604     12.6995    128.2554
   885.0000    620.5286     11.3285   -218.6754     12.0757    130.1674
   885.2500    622.3959     10.9446   -217.9553     11.3976    132.7916
   885.5000    624.9261     10.5146   -217.0714     10.7171    138.5324
   885.7500    627.1310     10.0136   -216.0130     10.0910    143.0918
   886.0000    627.8019      9.4558   -214.8033      9.5614    150.1834
   886.2500    626.4049      8.8835   -213.5171      9.1434    154.4968
   886.5000    624.3334      8.3497   -212.2688      8.8259    158.8111
   886.7500    624.1397      7.9014   -211.1930      8.5820    159.3966
   887.0000    627.1216      7.5686   -210.4069      8.3841    157.0309
   887.2500    632.3768      7.3564   -209.9810      8.2152    154.6627
   887.5000    637.8909      7.2439   -209.9181      8.0706    152.8123
   887.7500    641.5475      7.1942   -210.1579      7.9515    153.5296
   888.0000    641.5472      7.1724   -210.5988      7.8614    156.7252
   888.2500    637.4914      7.1592   -211.1300      7.8037    159.0797
   888.5000    631.5336      7.1527   -211.6665      7.7815    161.2481
   888.7500    627.2992      7.1558   -212.1748      7.7917    161.4571
   889.0000    626.8503      7.1660   -212.6732      7.8206    160.2039
   889.2500    629.1541      7.1760   -213.2224      7.8457    158.6512
   889.5000    631.8900      7.1819   -213.8953      7.8452    155.9135
   889.7500    634.0875      7.1844   -214.7516      7.8077    154.2122
   890.0000    636.3794      7.1814   -215.8187      7.7372    152.1478
   890.2500    639.2856      7.1628   -217.0817      7.6503    151.1081
   890.5000    642.2438      7.1166   -218.4878      7.5697    150.4825
   890.7500    644.2720      7.0393   -219.9655      7.5165    151.2213
   891.0000    644.7568      6.9375   -221.4356      7.5002    154.5057
   891.2500    643.3783      6.8186   -222.8246      7.5126    157.6870
   891.5000    639.9443      6.6842   -224.0726      7.5279    162.4038
   891.7500    634.7230      6.5368   -225.1348      7.5145    164.8286
   892.0000    628.6734      6.3911   -225.9779      7.4537    167.4134
   892.2500    623.1122      6.2716   -226.5748      7.3523    168.9836
   892.5000    619.1020      6.1967   -226.9012      7.2376    171.8824
   892.7500    617.0944      6.1638   -226.9352      7.1411    174.0104
   893.0000    616.9893      6.1505   -226.6551      7.0827    176.1500
   893.2500    618.2885      6.1306   -226.0548      7.0652    175.9712
   893.5000    620.0658      6.0885   -225.1429      7.0772    172.7041
   893.7500    621.2119      6.0250   -223.9624      7.0998    169.1512
   894.0000    621.3030      5.9538   -222.5912      7.1119    164.2086
   894.2500    621.1506      5.8934   -221.1387      7.0965    162.5227
   894.5000    621.9039      5.8581   -219.7321      7.0454    162.7440
   894.7500    623.7740      5.8496   -218.4890      6.9621    163.6478
   895.0000    626.2621      5.8550   -217.4934      6.8604    163.7536
   895.2500    629.1575      5.8529   -216.7725      6.7565    162.1887
   895.5000    632.4246      5.8248   -216.2904      6.6621    157.3949
   895.7500    635.5449      5.7655   -215.9566      6.5813    153.2377
   896.0000    637.8865      5.6849   -215.6491      6.5117    147.5921
   896.2500    639.3566      5.6029   -215.2542      6.4500    145.5665
   896.5000    640.0321      5.5381   -214.6926      6.3978    146.4877
   896.7500    639.6183      5.4987   -213.9418      6.3636    149.5281
   897.0000    637.9927      5.4801   -213.0408      6.3582    156.0206
   897.2500    636.0937      5.4703   -212.0682      6.3876    160.5385
   897.5000    635.5826      5.4572   -211.1202      6.4479    166.4963
   897.7500    637.2736      5.4362   -210.2755      6.5277    169.7533
   898.0000    640.1520      5.4164   -209.5840      6.6163    173.6429
   898.2500    642.4003      5.4239   -209.0621      6.7102    175.6210
   898.5000    643.2318      5.4984   -208.7161      6.8119    177.2051
   898.7500    643.0898      5.6778   -208.5579      6.9262    176.5373
   899.0000    642.1736      5.9802   -208.6196      7.0582    171.5435
   899.2500    639.8137      6.3920   -208.9450      7.2145    165.7768
   899.5000    635.6765      6.8702   -209.5680      7.4041    156.2891
   899.7500    630.8286      7.3604   -210.4771      7.6367    151.3414
   900.0000    627.0552      7.8177   -211.5965      7.9176    147.1716
   900.2500    625.3625      8.2183   -212.7941      8.2442    145.9477
   900.5000    625.3922      8.5585   -213.9107      8.6017    145.2502
   900.7500    626.1378      8.8451   -214.8092      8.9611    145.4553
   901.0000    627.0245      9.0902   -215.4212      9.2852    146.9011
   901.2500    628.2007      9.3095   -215.7778      9.5444    148.2661
   901.5000    629.8395      9.5223   -216.0022      9.7354    149.6965
   901.7500    631.5126      9.7494   -216.2770      9.8839    149.7320
   902.0000    632.6049     10.0063   -216.7863     10.0263    148.5357
   902.2500    633.1953     10.2915   -217.6584     10.1838    147.3536
   902.5000    634.2974     10.5747   -218.9180     10.3482    145.5357
   902.7500    637.0262     10.7965   -220.4675     10.4868    144.2429
