~Version Information
VERS.                      2.0: CWLS Log ASCII Standard - VERSION 2.0
WRAP.                       NO: One line per depth step
~Well Information Block
STRT.FT               698.9000: 
STOP.FT              2460.4000: 
STEP.FT                 0.1000: 
NULL.                -999.2500: 
COMP.          Petrogulf Corporation: COMPANY
WELL.             State 16-23V: WELL
FLD.           Purgatorie River: FIELD
LOC.           2414' FSL & 2215' FWL: LOCATION
PROV.                 Colorado: PROVINCE
CNTY.               Las Animas: COUNTRY
SRVC.                         : SERVICE COMPANY
DATE.          Mon Jun 09 14:24:56 2003: LOG DATE
UWI.           05 071 07865 00: UNIQUE WELL ID
~Curve Information Block
DEPT.FT            0 000 00 00: Depth
DCAL.in                       : CDL Caliper
RHOB.g/cc                     : CDL Bulk Density
RHOC.g/cc                     : CDL Density Correction
DPOR.pu                       : CDL Density Porosity
GR.GAPI                       : Gamma Ray
NPOR.pu                       : Neutron Porosity
~Parameter Information Block
~A  Depth       DCAL        RHOB        RHOC        DPOR         GR         NPOR    
# ...
  1994.9000      8.2183      2.5032      0.2202      8.8986    114.9274     28.5950
  1995.0000      8.2305      2.5096      0.2367      8.5112    114.9200     28.6463
  1995.1000      8.2305      2.5165      0.2514      8.0923    114.9335     28.6842
  1995.2000      8.2305      2.5236      0.2633      7.6585    114.9850     28.7085
  1995.3000      8.2105      2.5308      0.2714      7.2268    115.0879     28.7189
  1995.4000      8.2105      2.5376      0.2753      6.8125    115.2504     28.7145
  1995.5000      8.1927      2.5439      0.2747      6.4290    115.4749     28.6948
  1995.6000      8.1927      2.5496      0.2699      6.0867    115.7554     28.6593
  1995.7000      8.1927      2.5544      0.2612      5.7927    116.0756     28.6080
  1995.8000      8.1859      2.5584      0.2496      5.5509    116.4134     28.5418
  1995.9000      8.1859      2.5615      0.2361      5.3624    116.7372     28.4620
  1996.0000      8.1659      2.5638      0.2214      5.2259    117.0166     28.3710
  1996.1000      8.1659      2.5652      0.2066      5.1388    117.2212     28.2714
  1996.2000      8.1659      2.5659      0.1923      5.0974    117.3301     28.1663
  1996.3000      8.1361      2.5659      0.1788      5.0977    117.3331     28.0591
  1996.4000      8.1361      2.5653      0.1661      5.1356    117.2370     27.9534
  1996.5000      8.1133      2.5641      0.1543      5.2073    117.0614     27.8524
  1996.6000      8.1133      2.5624      0.1432      5.3090    116.8371     27.7595
  1996.7000      8.1133      2.5603      0.1325      5.4371    116.5988     27.6780
  1996.8000      8.0981      2.5578      0.1222      5.5880    116.3777     27.6111
  1996.9000      8.0981      2.5550      0.1125      5.7577    116.1958     27.5620
  1997.0000      8.0879      2.5520      0.1033      5.9422    116.0626     27.5333
  1997.1000      8.0879      2.5487      0.0950      6.1378    115.9786     27.5269
  1997.2000      8.0879      2.5454      0.0878      6.3407    115.9381     27.5426
  1997.3000      8.0842      2.5420      0.0818      6.5483    115.9361     27.5784
  1997.4000      8.0842      2.5385      0.0771      6.7588    115.9705     27.6292
  1997.5000      8.0891      2.5350      0.0737      6.9725    116.0480     27.6876
  1997.6000      8.0891      2.5313      0.0713      7.1913    116.1808     27.7443
  1997.7000      8.0891      2.5276      0.0699      7.4195    116.3826     27.7899
  1997.8000      8.0973      2.5236      0.0691      7.6636    116.6659     27.8163
  1997.9000      8.0973      2.5191      0.0687      7.9319    117.0357     27.8186
  1998.0000      8.1000      2.5141      0.0683      8.2342    117.4872     27.7966
  1998.1000      8.1000      2.5084      0.0678      8.5809    118.0064     27.7548
  1998.2000      8.1000      2.5018      0.0668      8.9822    118.5697     27.7019
  1998.3000      8.1026      2.4941      0.0653      9.4468    119.1482     27.6498
  1998.4000      8.1026      2.4853      0.0632      9.9811    119.7077     27.6110
  1998.5000      8.1130      2.4753      0.0606     10.5880    120.2147     27.5972
  1998.6000      8.1130      2.4641      0.0575     11.2660    120.6354     27.6170
  1998.7000      8.1130      2.4519      0.0542     12.0085    120.9419     27.6755
  1998.8000      8.1302      2.4387      0.0511     12.8040    121.1175     27.7739
  1998.9000      8.1302      2.4250      0.0484     13.6355    121.1562     27.9095
  1999.0000      8.1451      2.4111      0.0464     14.4816    121.0697     28.0768
  1999.1000      8.1451      2.3973      0.0455     15.3172    120.8822     28.2677
  1999.2000      8.1451      2.3841      0.0458     16.1150    120.6257     28.4725
  1999.3000      8.1488      2.3720      0.0475     16.8469    120.3346     28.6797
  1999.4000      8.1488      2.3615      0.0504     17.4860    120.0381     28.8774
  1999.5000      8.1455      2.3529      0.0544     18.0076    119.7521     29.0526
  1999.6000      8.1455      2.3465      0.0591     18.3914    119.4778     29.1923
  1999.7000      8.1455      2.3427      0.0642     18.6222    119.2027     29.2850
  1999.8000      8.1416      2.3416      0.0692     18.6909    118.9056     29.3209
  1999.9000      8.1416      2.3432      0.0735     18.5950    118.5603     29.2938
  2000.0000      8.1414      2.3474      0.0768     18.3385    118.1442     29.2020
  2000.1000      8.1414      2.3541      0.0788     17.9313    117.6429     29.0484
  2000.2000      8.1414      2.3631      0.0793     17.3891    117.0514     28.8412
  2000.3000      8.1415      2.3739      0.0783     16.7316    116.3768     28.5931
  2000.4000      8.1415      2.3863      0.0759     15.9818    115.6372     28.3196
  2000.5000      8.1297      2.3998      0.0723     15.1646    114.8622     28.0385
  2000.6000      8.1297      2.4140      0.0681     14.3054    114.0919     27.7674
  2000.7000      8.1297      2.4284      0.0635     13.4291    113.3751     27.5222
  2000.8000      8.1188      2.4428      0.0592     12.5588    112.7635     27.3155
  2000.9000      8.1188      2.4567      0.0556     11.7150    112.3088     27.1553
  2001.0000      8.1354      2.4699      0.0529     10.9152    112.0567     27.0446
  2001.1000      8.1354      2.4821      0.0515     10.1734    112.0381     26.9809
  2001.2000      8.1354      2.4933      0.0514      9.4999    112.2655     26.9563
  2001.3000      8.1536      2.5031      0.0527      8.9017    112.7353     26.9594
  2001.4000      8.1536      2.5117      0.0553      8.3827    113.4259     26.9761
  2001.5000      8.1573      2.5189      0.0590      7.9439    114.3054     26.9920
  2001.6000      8.1573      2.5249      0.0634      7.5844    115.3345     26.9940
  2001.7000      8.1573      2.5295      0.0683      7.3010    116.4710     26.9723
  2001.8000      8.1687      2.5330      0.0734      7.0894    117.6729     26.9211
  2001.9000      8.1687      2.5354      0.0781      6.9439    118.8933     26.8398
  2002.0000      8.1921      2.5368      0.0823      6.8578    120.0822     26.7324
  2002.1000      8.1921      2.5374      0.0855      6.8232    121.1828     26.6067
  2002.2000      8.1921      2.5373      0.0876      6.8316    122.1357     26.4732
  2002.3000      8.1977      2.5366      0.0885      6.8735    122.8824     26.3434
  2002.4000      8.1977      2.5355      0.0882      6.9384    123.3751     26.2283
  2002.5000      8.1745      2.5342      0.0867      7.0154    123.5866     26.1372
  2002.6000      8.1745      2.5330      0.0842      7.0931    123.5162     26.0765
  2002.7000      8.1745      2.5319      0.0812      7.1600    123.1922     26.0490
  2002.8000      8.1502      2.5311      0.0779      7.2050    122.6644     26.0543
  2002.9000      8.1502      2.5309      0.0749      7.2178    121.9948     26.0886
  2003.0000      8.1363      2.5314      0.0726      7.1898    121.2431     26.1456
  2003.1000      8.1363      2.5326      0.0714      7.1140    120.4545     26.2172
  2003.2000      8.1363      2.5347      0.0715      6.9861    119.6526     26.2944
  2003.3000      8.1246      2.5377      0.0731      6.8046    118.8382     26.3677
  2003.4000      8.1246      2.5416      0.0762      6.5711    117.9969     26.4280
  2003.5000      8.1082      2.5462      0.0807      6.2903    117.1126     26.4668
  2003.6000      8.1082      2.5515      0.0862      5.9698    116.1743     26.4767
  2003.7000      8.1082      2.5573      0.0924      5.6196    115.1892     26.4520
  2003.8000      8.0818      2.5633      0.0988      5.2518    114.1858     26.3885
  2003.9000      8.0818      2.5695      0.1049      4.8795    113.2074     26.2847
  2004.0000      8.0522      2.5755      0.1102      4.5159    112.3072     26.1411
  2004.1000      8.0522      2.5811      0.1143      4.1734    111.5392     25.9607
  2004.2000      8.0522      2.5863      0.1170      3.8627    110.9450     25.7485
  2004.3000      8.0467      2.5907      0.1180      3.5920    110.5482     25.5104
  2004.4000      8.0467      2.5945      0.1173      3.3663    110.3497     25.2531
