~Version Information
VERS.                      2.0: CWLS Log ASCII Standard - VERSION 2.0
WRAP.                       NO: One line per depth step
~Well Information Block
STRT.FT               294.0000: 
STOP.FT              1958.0000: 
STEP.FT                 0.1000: 
NULL.                -999.2500: 
COMP.          Pioneer Natural Resources: COMPANY
WELL.          Commander 43-26 Tr: WELL
FLD.           Purgatoire River: FIELD
LOC.           2439' FSL & 446' FEL: LOCATION
PROV.                 Colorado: PROVINCE
CNTY.               Las Animas: COUNTRY
SRVC.                Patterson: SERVICE COMPANY
DATE.          Fri Apr 15 07:31:08 2005: LOG DATE
UWI.           05 071 08341 00: UNIQUE WELL ID
~Curve Information Block
DEPT.FT            0 000 00 00: Depth
DCAL.in                       : CDL Caliper
RHOB.g/cc                     : CDL Bulk Density
RHOC.g/cc                     : CDL Density Correction
DPOR.pu                       : CDL Density Porosity
GR.GAPI                       : Gamma Ray
NPOR.pu                       : Neutron Porosity
~Parameter Information Block
~A  Depth       DCAL        RHOB        RHOC        DPOR         GR         NPOR    
# ...
   620.4000      8.3066      2.4395     -0.0034     12.7597    143.9168     29.4384
   620.5000      8.3275      2.4276     -0.0174     13.4783    143.3958     28.7632
   620.6000      8.3275      2.4287     -0.0577     13.4116    146.3435     27.9721
   620.7000      8.3275      2.4382     -0.0077     12.8372    145.7029     27.2974
   620.8000      8.3389      2.4508     -0.0351     12.0742    138.4971     26.9936
   620.9000      8.3389      2.4747     -0.0187     10.6216    133.9778     27.0613
   621.0000      8.3425      2.5187     -0.0031      7.9566    140.1503     27.3900
   621.1000      8.3425      2.5620      0.0523      5.3310    150.2772     27.7679
   621.2000      8.3425      2.5788      0.0686      4.3148    152.1079     27.9328
   621.3000      8.3493      2.5777      0.0535      4.3829    145.9983     27.7563
   621.4000      8.3493      2.5800      0.0313      4.2451    141.8655     27.1938
   621.5000      8.3637      2.5898      0.0701      3.6483    145.4357     26.5314
   621.6000      8.3637      2.6032      0.0378      2.8361    150.4173     26.1850
   621.7000      8.3637      2.6094      0.1374      2.4623    149.2316     26.1002
   621.8000      8.3655      2.5911      0.1066      3.5687    143.6384     26.1358
   621.9000      8.3655      2.5544      0.0391      5.7911    140.2322     26.2217
   622.0000      8.3280      2.5212      0.0120      7.8057    140.8511     26.3026
   622.1000      8.3280      2.5003      0.0169      9.0702    143.0225     26.4526
   622.2000      8.3280      2.4970     -0.0058      9.2734    145.2890     26.7195
   622.3000      8.3222      2.5118      0.0657      8.3735    147.3691     26.8623
   622.4000      8.3222      2.5341      0.0202      7.0241    148.0635     26.7168
   622.5000      8.3285      2.5586      0.0814      5.5399    146.2762     26.5490
   622.6000      8.3285      2.5759      0.1003      4.4882    143.5661     26.6500
   622.7000      8.3285      2.5716      0.0658      4.7521    142.2838     27.0180
   622.8000      8.3395      2.5469      0.0545      6.2475    143.1184     27.3904
   622.9000      8.3395      2.5174      0.0533      8.0362    144.3125     27.7631
   623.0000      8.3428      2.5056      0.0247      8.7525    143.7145     28.2042
   623.1000      8.3428      2.5258     -0.0034      7.5282    141.4517     28.3599
   623.2000      8.3428      2.5532      0.0485      5.8661    141.9849     27.9721
   623.3000      8.3296      2.5453      0.0408      6.3436    145.9590     27.3748
   623.4000      8.3296      2.5031      0.0092      8.9051    148.9508     27.1803
   623.5000      8.3277      2.4638     -0.0015     11.2876    147.6407     27.5030
   623.6000      8.3277      2.4541     -0.0493     11.8727    140.8859     27.9884
   623.7000      8.3277      2.4743     -0.0143     10.6480    133.1696     28.2434
   623.8000      8.3306      2.4990      0.0356      9.1527    131.9270     28.1478
   623.9000      8.3306      2.5036      0.0406      8.8745    136.9485     27.9013
   624.0000      8.3325      2.4971     -0.0446      9.2686    137.6876     27.8504
   624.1000      8.3325      2.4992      0.0376      9.1378    130.6085     28.0420
   624.2000      8.3325      2.5083      0.0184      8.5867    125.2022     28.0910
   624.3000      8.3331      2.5179      0.0307      8.0061    125.8781     27.9926
   624.4000      8.3331      2.5207      0.0298      7.8362    128.8936     28.0679
   624.5000      8.3328      2.5064      0.0209      8.7002    131.9555     28.3147
   624.6000      8.3328      2.4828     -0.0102     10.1352    134.7334     28.5934
   624.7000      8.3328      2.4773     -0.0304     10.4694    136.9362     28.7956
   624.8000      8.3332      2.4947      0.0641      9.4114    138.7934     28.8694
   624.9000      8.3332      2.5071     -0.0174      8.6590    138.8811     28.9466
   625.0000      8.3303      2.5054     -0.0028      8.7631    133.0021     29.1815
   625.1000      8.3303      2.5021     -0.0363      8.9647    123.7425     29.3172
   625.2000      8.3303      2.5029      0.0020      8.9155    121.8492     29.1113
   625.3000      8.3316      2.5064      0.0383      8.7032    131.2193     28.7641
   625.4000      8.3316      2.5209     -0.0365      7.8247    141.7181     28.4291
   625.5000      8.3311      2.5567      0.0092      5.6530    143.7458     28.0492
   625.6000      8.3311      2.6026      0.0530      2.8752    143.4070     27.5799
   625.7000      8.3311      2.6430      0.0572      0.4231    148.5692     27.2117
   625.8000      8.3357      2.6621      0.1365     -0.7352    155.2030     27.0313
   625.9000      8.3357      2.6398      0.1176      0.6188    155.9767     26.9350
   626.0000      8.3338      2.5882      0.0203      3.7483    150.9894     27.0471
   626.1000      8.3338      2.5423      0.0037      6.5262    147.7521     27.3377
   626.2000      8.3338      2.5156     -0.0019      8.1450    149.4541     27.2587
   626.3000      8.3357      2.5042      0.0053      8.8366    149.5870     26.5404
   626.4000      8.3357      2.4966      0.0384      9.2951    144.8859     25.8551
   626.5000      8.3389      2.4834     -0.0481     10.0992    141.1478     25.7554
   626.6000      8.3389      2.4677      0.0461     11.0472    139.8356     25.9082
   626.7000      8.3389      2.4493      0.0315     12.1641    139.0590     26.0813
   626.8000      8.3403      2.4310      0.0105     13.2718    142.3801     26.4525
   626.9000      8.3403      2.4213     -0.0031     13.8598    151.5022     26.9323
   627.0000      8.3410      2.4264      0.0031     13.5542    162.2523     27.0862
   627.1000      8.3410      2.4468      0.0111     12.3150    170.7082     26.8141
   627.2000      8.3410      2.4635      0.0781     11.3060    177.9579     26.4110
   627.3000      8.3420      2.4536      0.0713     11.9038    182.3673     26.0802
   627.4000      8.3420      2.4302      0.0042     13.3220    179.1771     25.9459
   627.5000      8.3424      2.4176      0.0309     14.0822    172.9731     26.0199
   627.6000      8.3424      2.4120      0.0196     14.4226    168.8599     26.0301
   627.7000      8.3424      2.4016      0.0305     15.0568    163.9330     25.6672
   627.8000      8.3440      2.3913      0.0116     15.6807    157.4480     25.1000
   627.9000      8.3440      2.3928      0.0065     15.5898    151.4234     24.7757
   628.0000      8.3417      2.4044      0.0471     14.8855    149.6673     24.6777
   628.1000      8.3417      2.4218      0.0377     13.8298    155.6277     24.8842
   628.2000      8.3417      2.4455      0.0523     12.3942    165.8838     25.5500
   628.3000      8.3404      2.4590      0.1364     11.5776    171.0195     26.1635
   628.4000      8.3404      2.4464      0.0982     12.3410    168.5530     26.4017
   628.5000      8.3403      2.4261      0.0789     13.5722    165.3412     26.5348
   628.6000      8.3403      2.4195      0.0981     13.9714    164.4678     26.6820
   628.7000      8.3403      2.4258      0.1024     13.5903    161.5277     26.6287
   628.8000      8.3437      2.4365      0.1362     12.9420    155.2405     26.4499
   628.9000      8.3437      2.4436      0.1088     12.5112    152.9572     26.6764
   629.0000      8.3451      2.4463      0.0954     12.3460    157.3930     27.2597
   629.1000      8.3451      2.4414      0.1281     12.6416    161.2422     27.7825
   629.2000      8.3451      2.4253      0.0510     13.6198    159.4715     28.2087
   629.3000      8.3438      2.4178     -0.0198     14.0732    153.5268     28.7425
   629.4000      8.3438      2.4318      0.0566     13.2261    144.6202     29.2193
   629.5000      8.3543      2.4514      0.0202     12.0343    137.7512     29.1202
   629.6000      8.3543      2.4676      0.0638     11.0572    138.9948     28.5833
   629.7000      8.3543      2.4862      0.0377      9.9297    144.3941     28.1555
   629.8000      8.3642      2.5110      0.0795      8.4226    147.9699     28.0137
   629.9000      8.3642      2.5340      0.1072      7.0278    150.7220     27.9571
