~Version Information
VERS.                      2.0: CWLS Log ASCII Standard - VERSION 2.0
WRAP.                       NO: One line per depth step
~Well Information Block
STRT.FT               946.8000: 
STOP.FT              2134.5000: 
STEP.FT                 0.1000: 
NULL.                -999.2500: 
COMP.          Petrogulf Corporation: COMPANY
WELL.             Valejo 8-12R: WELL
FLD.           Purgatorie River: FIELD
LOC.           1351'' FNL & 1562' FWL: LOCATION
CNTY.               Las Animas: COUNTY
SRVC.                         : SERVICE COMPANY
DATE.          Wed Apr 28 13:22:45 2004: LOG DATE
UWI.           05 071 08038 00: UNIQUE WELL ID
STAT.                 Colorado: STATE
~Curve Information Block
DEPT.FT            0 000 00 00: Depth
DCAL.in                       : CDL Caliper
RHOB.g/cc                     : CDL Bulk Density
RHOC.g/cc                     : CDL Density Correction
DPOR.pu                       : CDL Density Porosity
NPOR.pu                       : Neutron Porosity
GR.GAPI                       : Gamma Ray
~Parameter Information Block
~A  Depth       DCAL        RHOB        RHOC        DPOR        NPOR         GR     
# ...
  1186.8000      8.0817      2.6142      0.0599      2.1676     28.0959    139.4907
  1186.9000      8.0817      2.6102      0.0334      2.4150     28.4947    136.8290
  1187.0000      8.0827      2.5975      0.0921      3.1812     29.5354    128.5362
  1187.1000      8.0827      2.5813      0.0443      4.1636     30.7998    124.2098
  1187.2000      8.0827      2.5739      0.0376      4.6109     31.4050    127.0139
  1187.3000      8.0872      2.5801      0.0762      4.2386     30.9595    129.6266
  1187.4000      8.0872      2.5925      0.0734      3.4820     30.0196    128.8681
  1187.5000      8.0919      2.6052      0.0494      2.7122     29.4244    130.8687
  1187.6000      8.0919      2.6116      0.0699      2.3292     29.3478    138.5315
  1187.7000      8.0919      2.6096      0.0670      2.4483     29.4762    145.1413
  1187.8000      8.0931      2.6145      0.0676      2.1493     29.3411    147.2487
  1187.9000      8.0931      2.6295      0.1677      1.2444     28.7038    148.2636
  1188.0000      8.1122      2.6356      0.1473      0.8699     28.1712    148.7453
  1188.1000      8.1122      2.6302      0.1084      1.2026     28.4315    146.8853
  1188.2000      8.1122      2.6202      0.1648      1.8033     28.8889    145.5359
  1188.3000      8.1261      2.6043      0.1501      2.7709     28.7294    150.5749
  1188.4000      8.1261      2.5866      0.0773      3.8418     28.5394    156.9500
  1188.5000      8.1310      2.5706      0.0835      4.8112     28.7790    155.2384
  1188.6000      8.1310      2.5550      0.0429      5.7601     28.8964    150.6101
  1188.7000      8.1310      2.5409      0.1110      6.6124     28.8181    151.6467
  1188.8000      8.1292      2.5266      0.0976      7.4799     28.9599    153.0358
  1188.9000      8.1292      2.5205      0.0797      7.8511     29.2242    148.8911
  1189.0000      8.1371      2.5341      0.1366      7.0224     29.2164    147.2861
  1189.1000      8.1371      2.5589      0.1791      5.5190     28.9289    152.1713
  1189.2000      8.1371      2.5749      0.2141      4.5520     28.7511    157.4399
  1189.3000      8.1476      2.5660      0.2338      5.0904     28.7007    157.7285
  1189.4000      8.1476      2.5377      0.1631      6.8074     28.4058    151.6483
  1189.5000      8.1486      2.5160      0.1286      8.1225     28.1607    144.0014
  1189.6000      8.1486      2.5113      0.1092      8.4037     28.3076    143.6721
  1189.7000      8.1486      2.5074      0.1311      8.6440     28.3924    150.2160
  1189.8000      8.1555      2.4901      0.1521      9.6899     28.4908    156.2982
  1189.9000      8.1555      2.4689      0.1053     10.9772     29.1501    155.9553
  1190.0000      8.1917      2.4666      0.0900     11.1132     30.0039    144.8468
  1190.1000      8.1917      2.4931      0.0956      9.5099     30.5611    129.8213
  1190.2000      8.1917      2.5364      0.1282      6.8820     30.6427    123.3018
  1190.3000      8.2168      2.5774      0.1830      4.3981     30.1479    125.9448
  1190.4000      8.2168      2.5992      0.2522      3.0793     29.5696    130.7627
  1190.5000      8.1521      2.5970      0.2481      3.2095     29.7050    131.6988
  1190.6000      8.1521      2.5904      0.2098      3.6101     30.3824    125.8690
  1190.7000      8.1521      2.5971      0.2125      3.2045     30.5892    117.6122
  1190.8000      8.0428      2.6060      0.2306      2.6655     30.0577    112.7685
  1190.9000      8.0428      2.6059      0.1950      2.6699     29.5742    111.4575
  1191.0000      8.0448      2.6032      0.1499      2.8356     29.3701    113.3206
  1191.1000      8.0448      2.5983      0.1390      3.1346     28.8271    120.3449
  1191.2000      8.0448      2.5894      0.0765      3.6719     27.9377    130.3320
  1191.3000      8.0604      2.5889      0.0722      3.7004     27.2795    135.6431
  1191.4000      8.0604      2.5971      0.0956      3.2067     27.1668    133.7483
  1191.5000      8.0603      2.5994      0.0724      3.0657     27.3495    130.0452
  1191.6000      8.0603      2.5968      0.0730      3.2232     26.9939    128.1564
  1191.7000      8.0603      2.5984      0.0941      3.1292     25.7772    127.3466
  1191.8000      8.0636      2.6059      0.0605      2.6715     24.6693    127.7173
  1191.9000      8.0636      2.6135      0.0873      2.2123     24.4727    130.6931
  1192.0000      8.0629      2.6109      0.0912      2.3711     24.8180    130.5299
  1192.1000      8.0629      2.6025      0.0358      2.8763     25.1336    120.3410
  1192.2000      8.0629      2.6046      0.0502      2.7530     25.1752    105.7802
  1192.3000      8.0647      2.6171      0.0064      1.9945     24.9504     96.1731
  1192.4000      8.0647      2.6231      0.0781      1.6275     24.7333     93.8274
  1192.5000      8.0735      2.6167      0.0443      2.0172     24.8398     96.3009
  1192.6000      8.0735      2.6149      0.0491      2.1267     25.0814    101.2019
  1192.7000      8.0735      2.6259      0.0498      1.4579     24.8722    104.0274
  1192.8000      8.0690      2.6359      0.0719      0.8547     24.1991    101.1487
  1192.9000      8.0690      2.6342      0.0760      0.9562     23.7111     98.6039
  1193.0000      8.0726      2.6281      0.0503      1.3259     23.7739    102.3573
  1193.1000      8.0726      2.6238      0.0577      1.5907     24.3375    105.8151
  1193.2000      8.0726      2.6208      0.0094      1.7687     24.9210    101.9144
  1193.3000      8.0729      2.6244      0.0679      1.5517     25.0668     92.5188
  1193.4000      8.0729      2.6351      0.0670      0.9056     24.8573     84.7359
  1193.5000      8.0709      2.6521      0.0668     -0.1285     24.5369     84.6300
  1193.6000      8.0709      2.6753      0.1031     -1.5341     24.2905     89.5080
  1193.7000      8.0709      2.6902      0.1224     -2.4382     24.3335     93.6063
  1193.8000      8.0747      2.6829      0.1074     -1.9926     24.4532     94.5022
  1193.9000      8.0747      2.6645      0.0586     -0.8794     24.4314     91.3752
  1194.0000      8.0724      2.6607      0.0571     -0.6456     24.5525     87.4444
  1194.1000      8.0724      2.6747      0.1162     -1.4959     24.7617     89.2999
  1194.2000      8.0724      2.6847      0.1121     -2.1017     24.8523     96.8456
  1194.3000      8.0751      2.6739      0.1065     -1.4479     24.8447    103.9566
  1194.4000      8.0751      2.6433      0.0716      0.4080     24.7493    110.4832
  1194.5000      8.0796      2.6097      0.0328      2.4428     24.7179    119.2915
  1194.6000      8.0796      2.5913      0.0232      3.5584     24.7982    129.1798
  1194.7000      8.0796      2.5906      0.0345      3.5971     24.9944    137.6102
  1194.8000      8.0837      2.5992      0.0275      3.0761     25.5909    138.4489
  1194.9000      8.0837      2.6102      0.0289      2.4113     26.6524    128.7543
  1195.0000      8.0926      2.6194      0.0655      1.8518     27.3233    118.7414
  1195.1000      8.0926      2.6214      0.0980      1.7343     27.0916    117.9523
  1195.2000      8.0926      2.6152      0.0513      2.1095     26.8151    123.2754
  1195.3000      8.1023      2.6070      0.0801      2.6050     27.1410    128.2996
  1195.4000      8.1023      2.5999      0.0561      3.0345     27.5627    132.9699
  1195.5000      8.1208      2.5959      0.0440      3.2812     27.6067    136.9521
  1195.6000      8.1208      2.5958      0.0812      3.2873     27.6374    136.5912
  1195.7000      8.1208      2.5946      0.0889      3.3590     28.2139    131.4912
  1195.8000      8.1356      2.5879      0.0758      3.7644     29.3153    124.7168
  1195.9000      8.1356      2.5697      0.0256      4.8676     30.2475    118.6451
  1196.0000      8.1413      2.5328      0.0614      7.1003     30.7779    115.9150
  1196.1000      8.1413      2.4826      0.0032     10.1448     31.4588    118.9969
  1196.2000      8.1413      2.4227      0.0478     13.7756     32.2680    124.8007
  1196.3000      8.1496      2.3337      0.0233     19.1673     32.8565    126.5481
