~Version Information
VERS.                      2.0: CWLS Log ASCII Standard - VERSION 2.0
WRAP.                       NO: One line per depth step
~Well Information Block
STRT.FT                -7.6500: 
STOP.FT              3097.2500: 
STEP.FT                 0.0500: 
NULL.                -999.2500: 
COMP.          Pioneer Natural Resources: COMPANY
WELL.            Paradise 13-8: WELL
FLD.           Purgatoire River: FIELD
LOC.           1896' FSL & 1120' FWL--: LOCATION
PROV.                 Colorado: PROVINCE
CNTY.               Las Animas: COUNTRY
SRVC.                Patterson: SERVICE COMPANY
DATE.          Fri Feb 04 16:52:25 2005: LOG DATE
UWI.           05 071 07946 00: UNIQUE WELL ID
~Curve Information Block
DEPT.FT            0 000 00 00: Depth
CCL.                          : Casing Collar Locator
TT3.usec                      : CBL 3' Travel Time
AMP3.mV                       : CBL 3' Amplitude
GR.GAPI                       : Gamma Ray
~Parameter Information Block
~A  Depth       CCL         TT3         AMP3         GR     
# ...
  3081.0500      0.0000    620.7458      2.3303     62.3903
  3081.1000      0.0000    620.7458      2.3303     62.3903
  3081.1500      0.0000    620.7458      2.3303     62.3903
  3081.2000      0.0000    620.7458      2.3303     62.3903
  3081.2500      0.0000    621.0659      2.2877     48.0035
  3081.3000      0.0000    621.0659      2.2877     48.0035
  3081.3500      0.0000    621.0659      2.2877     48.0035
  3081.4000      0.0000    621.0659      2.2877     48.0035
  3081.4500      0.0000    621.0659      2.2877     48.0035
  3081.5000      0.0000    621.3356      2.2481     31.4052
  3081.5500      0.0000    621.3356      2.2481     31.4052
  3081.6000      0.0000    621.3356      2.2481     31.4052
  3081.6500      0.0000    621.3356      2.2481     31.4052
  3081.7000      0.0000    621.3356      2.2481     31.4052
  3081.7500      0.0000    621.5159      2.2092     17.0820
  3081.8000      0.0000    621.5159      2.2092     17.0820
  3081.8500      0.0000    621.5159      2.2092     17.0820
  3081.9000      0.0000    621.5159      2.2092     17.0820
  3081.9500      0.0000    621.5159      2.2092     17.0820
  3082.0000      0.0000    621.6092      2.1673      7.6066
  3082.0500      0.0000    621.6092      2.1673      7.6066
  3082.1000      0.0000    621.6092      2.1673      7.6066
  3082.1500      0.0000    621.6092      2.1673      7.6066
  3082.2000      0.0000    621.6092      2.1673      7.6066
  3082.2500      0.0000    621.6490      2.1230      2.7422
  3082.3000      0.0000    621.6490      2.1230      2.7422
  3082.3500      0.0000    621.6490      2.1230      2.7422
  3082.4000      0.0000    621.6490      2.1230      2.7422
  3082.4500      0.0000    621.6490      2.1230      2.7422
  3082.5000      0.0000    621.6797      2.0838      0.7940
  3082.5500      0.0000    621.6797      2.0838      0.7940
  3082.6000      0.0000    621.6797      2.0838      0.7940
  3082.6500      0.0000    621.6797      2.0838      0.7940
  3082.7000      0.0000    621.6797      2.0838      0.7940
  3082.7500      0.0000    621.7308      2.0580      0.1831
  3082.8000      0.0000    621.7308      2.0580      0.1831
  3082.8500      0.0000    621.7308      2.0580      0.1831
  3082.9000      0.0000    621.7308      2.0580      0.1831
  3082.9500      0.0000    621.7308      2.0580      0.1831
  3083.0000      0.0000    621.7998      2.0471      0.0329
  3083.0500      0.0000    621.7998      2.0471      0.0329
  3083.1000      0.0000    621.7998      2.0471      0.0329
  3083.1500      0.0000    621.7998      2.0471      0.0329
  3083.2000      0.0000    621.7998      2.0471      0.0329
  3083.2500      0.0000    621.8558      2.0446      0.0040
  3083.3000      0.0000    621.8558      2.0446      0.0040
  3083.3500      0.0000    621.8558      2.0446      0.0040
  3083.4000      0.0000    621.8558      2.0446      0.0040
  3083.4500      0.0000    621.8558      2.0446      0.0040
  3083.5000      0.0000    621.8638      2.0427      0.0000
  3083.5500      0.0000    621.8638      2.0427      0.0000
  3083.6000      0.0000    621.8638      2.0427      0.0000
  3083.6500      0.0000    621.8638      2.0427      0.0000
  3083.7000      0.0000    621.8638      2.0427      0.0000
  3083.7500      0.0000    621.8192      2.0389      0.0000
  3083.8000      0.0000    621.8192      2.0389      0.0000
  3083.8500      0.0000    621.8192      2.0389      0.0000
  3083.9000      0.0000    621.8192      2.0389      0.0000
  3083.9500      0.0000    621.8192      2.0389      0.0000
  3084.0000      0.0000    621.7648      2.0408   -999.2500
  3084.0500      0.0000    621.7648      2.0408   -999.2500
  3084.1000      0.0000    621.7648      2.0408   -999.2500
  3084.1500      0.0000    621.7648      2.0408   -999.2500
  3084.2000      0.0000    621.7648      2.0408   -999.2500
  3084.2500      0.0000    621.7690      2.0624   -999.2500
  3084.3000      0.0000    621.7690      2.0624   -999.2500
  3084.3500      0.0000    621.7690      2.0624   -999.2500
  3084.4000      0.0000    621.7690      2.0624   -999.2500
  3084.4500      0.0000    621.7690      2.0624   -999.2500
  3084.5000      0.0000    621.8819      2.1179   -999.2500
  3084.5500      0.0000    621.8819      2.1179   -999.2500
  3084.6000      0.0000    621.8819      2.1179   -999.2500
  3084.6500      0.0000    621.8819      2.1179   -999.2500
  3084.7000      0.0000    621.8819      2.1179   -999.2500
  3084.7500      0.0000    622.1132      2.2162   -999.2500
  3084.8000      0.0000    622.1132      2.2162   -999.2500
  3084.8500      0.0000    622.1132      2.2162   -999.2500
  3084.9000      0.0000    622.1132      2.2162   -999.2500
  3084.9500      0.0000    622.1132      2.2162   -999.2500
  3085.0000      0.0000    622.3999      2.3588   -999.2500
  3085.0500      0.0000    622.3999      2.3588   -999.2500
  3085.1000      0.0000    622.3999      2.3588   -999.2500
  3085.1500      0.0000    622.3999      2.3588   -999.2500
  3085.2000      0.0000    622.3999      2.3588   -999.2500
  3085.2500      0.0000    622.5154      2.5388   -999.2500
  3085.3000      0.0000    622.5154      2.5388   -999.2500
  3085.3500      0.0000    622.5154      2.5388   -999.2500
  3085.4000      0.0000    622.5154      2.5388   -999.2500
  3085.4500      0.0000    622.5154      2.5388   -999.2500
  3085.5000      0.0000    621.5284      2.7386   -999.2500
  3085.5500      0.0000    621.5284      2.7386   -999.2500
  3085.6000      0.0000    621.5284      2.7386   -999.2500
  3085.6500      0.0000    621.5284      2.7386   -999.2500
  3085.7000      0.0000    621.5284      2.7386   -999.2500
  3085.7500      0.0000    616.4046      2.9234   -999.2500
  3085.8000      0.0000    616.4046      2.9234   -999.2500
  3085.8500      0.0000    616.4046      2.9234   -999.2500
  3085.9000      0.0000    616.4046      2.9234   -999.2500
  3085.9500      0.0000    616.4046      2.9234   -999.2500
  3086.0000      0.0000    599.8066      3.0307   -999.2500
  3086.0500      0.0000    599.8066      3.0307   -999.2500
  3086.1000      0.0000    599.8066      3.0307   -999.2500
  3086.1500      0.0000    599.8066      3.0307   -999.2500
  3086.2000      0.0000    599.8066      3.0307   -999.2500
  3086.2500      0.0000    559.5335      2.9699   -999.2500
  3086.3000      0.0000    559.5335      2.9699   -999.2500
  3086.3500      0.0000    559.5335      2.9699   -999.2500
  3086.4000      0.0000    559.5335      2.9699   -999.2500
  3086.4500      0.0000    559.5335      2.9699   -999.2500
  3086.5000      0.0000    484.0888      2.6604   -999.2500
  3086.5500      0.0000    484.0888      2.6604   -999.2500
  3086.6000      0.0000    484.0888      2.6604   -999.2500
  3086.6500      0.0000    484.0888      2.6604   -999.2500
  3086.7000      0.0000    484.0888      2.6604   -999.2500
  3086.7500      0.0000    374.2495      2.1041   -999.2500
  3086.8000      0.0000    374.2495      2.1041   -999.2500
  3086.8500      0.0000    374.2495      2.1041   -999.2500
  3086.9000      0.0000    374.2495      2.1041   -999.2500
  3086.9500      0.0000    374.2495      2.1041   -999.2500
  3087.0000      0.0000    249.7717      1.4242   -999.2500
  3087.0500      0.0000    249.7717      1.4242   -999.2500
  3087.1000      0.0000    249.7717      1.4242   -999.2500
  3087.1500      0.0000    249.7717      1.4242   -999.2500
  3087.2000      0.0000    249.7717      1.4242   -999.2500
  3087.2500      0.0000    139.9204      0.8046   -999.2500
  3087.3000      0.0000    139.9204      0.8046   -999.2500
  3087.3500      0.0000    139.9204      0.8046   -999.2500
  3087.4000      0.0000    139.9204      0.8046   -999.2500
  3087.4500      0.0000    139.9204      0.8046   -999.2500
  3087.5000      0.0000     64.4222      0.3723   -999.2500
  3087.5500      0.0000     64.4222      0.3723   -999.2500
  3087.6000      0.0000     64.4222      0.3723   -999.2500
  3087.6500      0.0000     64.4222      0.3723   -999.2500
  3087.7000      0.0000     64.4222      0.3723   -999.2500
