~Version Information
VERS.                      2.0: CWLS Log ASCII Standard - VERSION 2.0
WRAP.                       NO: One line per depth step
~Well Information Block
STRT.FT               825.0000: 
STOP.FT              2446.5000: 
STEP.FT                 0.2500: 
NULL.                -999.2500: 
COMP.          Petrogulf Corporation: COMPANY
WELL.            Kraft 17-23 V: WELL
FLD.           Purgatorie River: FIELD
LOC.           1500' FSL & 1773' FWL: LOCATION
CNTY.               Las Animas: COUNTY
SRVC.                         : SERVICE COMPANY
DATE.          Thu Nov 20 06:35:41 2003: LOG DATE
UWI.                          : UNIQUE WELL ID
STAT.                 Colorado: STATE
~Curve Information Block
DEPT.FT            0 000 00 00: Depth
SN.Ohm-m                      : IEL Short Normal
SP.mV                         : IEL Spontaneous Potential
DIR.Ohm-m                     : IEL Induction Resistivity
GR.GAPI                       : Gamma Ray
~Parameter Information Block
~A  Depth        SN          SP         DIR          GR     
# ...
  2299.0000     25.2052    -20.2300     13.6676     63.4463
  2299.2500     23.6154    -20.5605     13.1898     70.2530
  2299.5000     21.8806    -21.0768     12.5197     78.1157
  2299.7500     20.2649    -22.0062     11.7091     82.2967
  2300.0000     19.0349    -23.5669     10.8631     88.5483
  2300.2500     18.0689    -25.8242     10.0817     93.1026
  2300.5000     17.0684    -28.6061      9.4221     99.5905
  2300.7500     15.9138    -31.6010      8.8928    102.5317
  2301.0000     14.6960    -34.5308      8.4673    103.1068
  2301.2500     13.5238    -37.2255      8.1043    100.6533
  2301.5000     12.4750    -39.6010      7.7667     93.9766
  2301.7500     11.7154    -41.6344      7.4359     89.0704
  2302.0000     11.3957    -43.3596      7.1172     84.1645
  2302.2500     11.2669    -44.8523      6.8323     84.1559
  2302.5000     10.6950    -46.1877      6.6060     90.5270
  2302.7500      9.5921    -47.3714      6.4557     98.6085
  2303.0000      8.8923    -48.2866      6.3867    113.1939
  2303.2500      9.1573    -48.7513      6.3938    121.8370
  2303.5000      9.7392    -48.6749      6.4681    129.8238
  2303.7500     10.1168    -48.1603      6.6038    131.8453
  2304.0000     10.4894    -47.4440      6.8018    133.2099
  2304.2500     10.9177    -46.7449      7.0675    135.4974
  2304.5000     11.1302    -46.1545      7.4013    143.4075
  2304.7500     11.0612    -45.6529      7.7871    151.1480
  2305.0000     11.0105    -45.2279      8.1870    162.5430
  2305.2500     11.2418    -44.9399      8.5510    167.0882
  2305.5000     11.7257    -44.8352      8.8427    166.2065
  2305.7500     12.3636    -44.8607      9.0642    160.7171
  2306.0000     13.1367    -44.9851      9.2564    148.3059
  2306.2500     13.9582    -45.3601      9.4745    139.2458
  2306.5000     14.7571    -46.1876      9.7608    125.7558
  2306.7500     15.7336    -47.4175     10.1289    116.4197
  2307.0000     16.9872    -48.7015     10.5645    101.7123
  2307.2500     18.0226    -49.6541     11.0359     92.5079
  2307.5000     18.3568    -50.1152     11.5116     82.1357
  2307.7500     18.2732    -50.2265     11.9735     78.1244
  2308.0000     18.3170    -50.3179     12.4171     75.4982
  2308.2500     18.5796    -50.6823     12.8401     74.9866
  2308.5000     18.8400    -51.4055     13.2281     74.7804
  2308.7500     18.9900    -52.3769     13.5535     74.6841
  2309.0000     19.0893    -53.4033     13.7829     74.4765
  2309.2500     19.0946    -54.2901     13.8944     74.3421
  2309.5000     18.8609    -54.8930     13.8847     74.4769
  2309.7500     18.4522    -55.1649     13.7636     75.1547
  2310.0000     18.1020    -55.1541     13.5459     77.5897
  2310.2500     17.9397    -54.9420     13.2493     80.0521
  2310.5000     17.9676    -54.5827     12.9014     83.8424
  2310.7500     18.1361    -54.0982     12.5458     85.4926
  2311.0000     18.3045    -53.5328     12.2390     85.5974
  2311.2500     18.3010    -53.0056     12.0388     84.1641
  2311.5000     18.1459    -52.6537     11.9882     80.8348
  2311.7500     18.0685    -52.4743     12.1066     78.4742
  2312.0000     18.1867    -52.2689     12.3845     75.2662
  2312.2500     18.3438    -51.8024     12.7862     73.5251
  2312.5000     18.3678    -50.9832     13.2630     71.9950
  2312.7500     18.1980    -49.8611     13.7727     71.8452
  2313.0000     17.8291    -48.5169     14.2916     72.2624
  2313.2500     17.4104    -47.0240     14.8076     72.1321
  2313.5000     17.0800    -45.4840     15.2946     70.1542
  2313.7500     16.7230    -44.0337     15.6855     67.6487
  2314.0000     16.3046    -42.7867     15.8842     63.4881
  2314.2500     16.0961    -41.7754     15.8212     61.5622
  2314.5000     16.2236    -40.9416     15.5166     60.8980
  2314.7500     16.4052    -40.1647     15.0820     61.5634
  2315.0000     16.4454    -39.2960     14.6573     62.8812
  2315.2500     16.6586    -38.1979     14.3408     63.4314
  2315.5000     17.4675    -36.8026     14.1643     63.2997
  2315.7500     18.7070    -35.1578     14.1017     62.3512
  2316.0000     19.6388    -33.4064     14.0923     59.7798
  2316.2500     19.6978    -31.6890     14.0655     57.9464
  2316.5000     19.1363    -30.0354     13.9616     56.3575
  2316.7500     18.8011    -28.3259     13.7507     56.3466
  2317.0000     19.3256    -26.3747     13.4428     57.2844
  2317.2500     20.6863    -24.1024     13.0827     57.9391
  2317.5000     22.2969    -21.6378     12.7279     58.2670
  2317.7500     23.2947    -19.2346     12.4235     57.9922
  2318.0000     23.2227    -17.1076     12.1907     56.9728
  2318.2500     22.4395    -15.3386     12.0359     55.8148
  2318.5000     21.5148    -13.8648     11.9658     53.1026
  2318.7500     20.6846    -12.5229     11.9934     50.7885
  2319.0000     19.9358    -11.1594     12.1285     47.6169
  2319.2500     19.2577     -9.7467     12.3586     46.4463
  2319.5000     18.7077     -8.3974     12.6370     46.6059
  2319.7500     18.3095     -7.2555     12.8925     47.7195
  2320.0000     18.0308     -6.3710     13.0601     50.2079
  2320.2500     17.8132     -5.6625     13.1141     52.1727
  2320.5000     17.5835     -4.9850     13.0755     55.1643
  2320.7500     17.2133     -4.2207     12.9921     56.7711
  2321.0000     16.4844     -3.2977     12.9122     57.8900
  2321.2500     15.4136     -2.1564     12.8705     57.6311
  2321.5000     14.6664     -0.7562     12.8906     56.1607
  2321.7500     15.0432      0.8829     12.9877     54.9832
  2322.0000     16.4913      2.6771     13.1704     53.7214
  2322.2500     18.1364      4.5105     13.4359     53.3733
  2322.5000     19.0482      6.2486     13.7601     53.3538
  2322.7500     18.9658      7.7376     14.0917     53.4442
  2323.0000     18.4994      8.8691     14.3570     53.5272
  2323.2500     18.2896      9.7302     14.4838     53.6302
  2323.5000     18.2803     10.6818     14.4358     54.0503
  2323.7500     18.1536     12.1474     14.2327     54.3849
  2324.0000     17.9299     14.1977     13.9383     54.4934
  2324.2500     17.8131     16.4057     13.6268     54.2815
  2324.5000     17.8315     18.2094     13.3529     54.2157
  2324.7500     17.8349     19.3697     13.1411     54.6953
  2325.0000     17.6713     20.0293     12.9912     55.8556
  2325.2500     17.3115     20.4323     12.8897     56.3318
  2325.5000     16.8885     20.6773     12.8207     56.0800
  2325.7500     16.6090     20.7069     12.7711     55.5475
  2326.0000     16.4546     20.4652     12.7321     54.9644
  2326.2500     16.1820     20.0381     12.6978     54.8480
  2326.5000     15.8557     19.6437     12.6650     54.8821
  2326.7500     15.9112     19.5075     12.6334     55.0739
  2327.0000     16.5693     19.7665     12.6011     56.0396
  2327.2500     17.4868     20.4526     12.5625     57.2817
  2327.5000     17.9387     21.4768     12.5069     59.7464
  2327.7500     17.5760     22.6019     12.4269     61.3538
  2328.0000     16.8464     23.5183     12.3283     62.7680
  2328.2500     16.2554     24.0409     12.2372     62.6352
  2328.5000     15.8790     24.2135     12.1953     61.0021
  2328.7500     15.7205     24.2098     12.2464     59.5922
  2329.0000     15.8252     24.2165     12.4216     58.0267
  2329.2500     16.1313     24.4405     12.7253     57.4590
  2329.5000     16.5050     25.0932     13.1244     56.8887
  2329.7500     16.8301     26.2571     13.5457     56.3959
  2330.0000     17.0700     27.7813     13.8883     54.9961
  2330.2500     17.2258     29.3270     14.0648     53.4227
  2330.5000     17.2194     30.5154     14.0515     50.3624
  2330.7500     17.0234     31.1191     13.9053     48.3872
  2331.0000     16.8069     31.2198     13.7290     46.5243
  2331.2500     16.6478     31.1381     13.6158     46.4053
  2331.5000     16.4408     31.1212     13.6133     47.9894
  2331.7500     16.2690     31.1336     13.7172     49.7832
  2332.0000     16.2832     31.0210     13.8862     52.3060
  2332.2500     16.4325     30.7993     14.0645     53.3371
