~Version Information
VERS.                      2.0: CWLS Log ASCII Standard - VERSION 2.0
WRAP.                       NO: One line per depth step
~Well Information Block
STRT.FT                -7.2500: 
STOP.FT               765.5000: 
STEP.FT                 0.2500: 
NULL.                -999.2500: 
COMP.          Pioneer Natural Resources: COMPANY
WELL.          Barrelman 41-27: WELL
FLD.           Purgatorie River: FIELD
LOC.           371' FNL & 493' FEL--: LOCATION
PROV.                       CO: PROVINCE
CNTY.               Las Animas: COUNTRY
SRVC.          Patterson Wireline: SERVICE COMPANY
DATE.          Wed May 25 09:32:20 2005: LOG DATE
UWI.           05 071 08334 00: UNIQUE WELL ID
~Curve Information Block
DEPT.FT            0 000 00 00: Depth
CCL.                          : Casing Collar Locator
TT3.usec                      : CBL 3' Travel Time
AMP3.mV                       : CBL 3' Amplitude
GR.GAPI                       : Gamma Ray
~Parameter Information Block
~A  Depth       CCL         TT3         AMP3         GR     
# ...
   327.7500      0.0000    816.8331      9.1130     47.0590
   328.0000      0.0000    817.1035      9.1833     48.7640
   328.2500      0.0000    817.5474      9.2367     49.4654
   328.5000      0.0000    818.1539      9.2556     49.4593
   328.7500      0.0000    818.9341      9.2426     49.3813
   329.0000      0.0000    819.9752      9.2149     49.3091
   329.2500      0.0000    821.6060      9.1869     48.7319
   329.5000      0.0000    824.4780      9.1608     47.2047
   329.7500      0.0000    829.1852      9.1366     44.8536
   330.0000      0.0000    835.4449      9.1239     42.3998
   330.2500      0.0000    841.7536      9.1377     40.7872
   330.5000      0.0000    846.4302      9.1830     40.5940
   330.7500      0.0000    849.2458      9.2477     41.6851
   331.0000      0.0000    851.6397      9.3119     43.5264
   331.2500      0.0000    854.9496      9.3660     45.7524
   331.5000      0.0000    858.6259      9.4152     48.1041
   331.7500      0.0000    860.4368      9.4692     49.8795
   332.0000      0.0000    858.3656      9.5295     50.0614
   332.2500      0.0000    852.2605      9.5874     48.3262
   332.5000      0.0000    843.8435      9.6279     45.6740
   332.7500      0.0000    835.4437      9.6361     43.8467
   333.0000      0.0000    828.7495      9.6070     44.0983
   333.2500      0.0000    824.3240      9.5518     46.3969
   333.5000      0.0000    821.8135      9.4907     49.6758
   333.7500      0.0000    820.5192      9.4379     52.7789
   334.0000      0.0000    819.8977      9.3960     55.1640
   334.2500      0.0000    819.7051      9.3648     56.9800
   334.5000      0.0000    819.8323      9.3504     58.8616
   334.7500      0.0000    820.0972      9.3623     61.4885
   335.0000      0.0000    820.2365      9.4054     64.8843
   335.2500      0.0000    820.0417      9.4773     68.1888
   335.5000      0.0000    819.4385      9.5680     70.4256
   335.7500      0.0000    818.3705      9.6607     71.3540
   336.0000      0.0000    816.7380      9.7367     71.4191
   336.2500      0.0000    814.6627      9.7871     71.3418
   336.5000      0.0000    812.8244      9.8179     72.1522
   336.7500      0.0000    812.2050      9.8479     75.0867
   337.0000      0.0000    813.2187      9.8995     80.6225
   337.2500      0.0000    815.2435      9.9899     87.6514
   337.5000      0.0000    817.2092     10.1238     94.2378
   337.7500      0.0000    818.4879     10.2869     99.3037
   338.0000      0.0000    819.0901     10.4474    103.2164
   338.2500      0.0000    819.2693     10.5736    106.8093
   338.5000      0.0000    819.2028     10.6502    110.2446
   338.7500      0.0000    818.9831     10.6743    112.7832
   339.0000      0.0000    818.6983     10.6410    113.4325
   339.2500      0.0000    818.4325     10.5420    111.9461
   339.5000      0.0000    818.2375     10.3793    109.1415
   339.7500      0.0000    818.1270     10.1742    105.8854
   340.0000      0.0000    818.0826      9.9627    101.9454
   340.2500      0.0000    818.0624      9.7830     96.2879
   340.5000      0.0000    818.0297      9.6639     88.3311
   340.7500      0.0000    817.9793      9.6108     78.6942
   341.0000      0.0000    817.9275      9.6029     69.1891
   341.2500      0.0000    817.8909      9.6044     62.2666
   341.5000      0.0000    817.8960      9.5807     59.7783
   341.7500      0.0000    817.9860      9.5048     61.7229
   342.0000      0.0000    818.1900      9.3610     66.3728
   342.2500      0.0000    818.4663      9.1586     71.7237
   342.5000      0.0000    818.6589      8.9430     76.6688
   342.7500      0.0000    818.4647      8.7793     81.0425
   343.0000      0.0000    817.5307      8.7136     85.1664
   343.2500      0.0000    815.8332      8.7481     89.5353
   343.5000      0.0000    814.0648      8.8512     94.5515
   343.7500      0.0000    813.3607      8.9811    100.2170
   344.0000      0.0000    814.3010      9.1015    105.9327
   344.2500      0.0000    816.2594      9.1871    110.6866
   344.5000      0.0000    817.8837      9.2270    113.7521
   344.7500      0.0000    818.1288      9.2243    115.3046
   345.0000      0.0000    816.9153      9.1879    116.1660
   345.2500      0.0000    815.1556      9.1271    116.8225
   345.5000      0.0000    814.1193      9.0561    116.7582
   345.7500      0.0000    814.3787      9.0005    114.9587
   346.0000      0.0000    815.2573      8.9905    111.3654
   346.2500      0.0000    815.4830      9.0409    107.7313
   346.5000      0.0000    814.4469      9.1346    106.4238
   346.7500      0.0000    812.8305      9.2291    108.0530
   347.0000      0.0000    812.0093      9.2844    110.7257
   347.2500      0.0000    812.7643      9.2912    111.9615
   347.5000      0.0000    814.6148      9.2708    110.9640
   347.7500      0.0000    816.4329      9.2494    108.8261
   348.0000      0.0000    817.4749      9.2354    107.0745
   348.2500      0.0000    817.7276      9.2200    106.3233
   348.5000      0.0000    817.5997      9.1930    105.9828
   348.7500      0.0000    817.5982      9.1485    105.0917
   349.0000      0.0000    818.2422      9.0855    103.5947
   349.2500      0.0000    819.9653      9.0081    102.5793
   349.5000      0.0000    822.7360      8.9289    102.8918
   349.7500      0.0000    825.6584      8.8653    103.8644
   350.0000      0.0000    827.3006      8.8314    103.9492
   350.2500      0.0000    826.8596      8.8309    102.3740
   350.5000      0.0000    824.9189      8.8592     99.7681
   350.7500      0.0000    822.8583      8.9102     97.4243
   351.0000      0.0000    821.7349      8.9791     96.2873
   351.2500      0.0000    821.9199      9.0593     96.5412
   351.5000      0.0000    823.3765      9.1401     97.8881
   351.7500      0.0000    825.6946      9.2131    100.0619
   352.0000      0.0000    827.8616      9.2774    103.0348
   352.2500      0.0000    828.6317      9.3361    106.6823
   352.5000      0.0000    827.6119      9.3886    110.1655
   352.7500      0.0000    825.8105      9.4254    111.8906
   353.0000      0.0000    824.7123      9.4178    110.5364
   353.2500      0.0000    824.6674      9.3066    106.1846
   353.5000      0.0000    824.3096      9.0330    100.4448
   353.7500      0.0000    821.9431      8.6180     95.7545
   354.0000      0.0000    818.1586      8.1930     94.2291
   354.2500      0.0000    817.0510      7.8929     96.2942
   354.5000      0.0000    823.6409      7.7229    100.2693
   354.7500      0.0000    839.0909      7.5896    103.8354
   355.0000      0.0000    858.9911      7.4432    105.9432
   355.2500      0.0000    877.0093      7.3208    107.0002
   355.5000      0.0000    889.3054      7.2667    107.6469
   355.7500      0.0000    894.9421      7.2787    108.0952
   356.0000      2.0000    894.0967      7.3351    108.4991
   356.2500      0.0000    887.3916      7.4404    109.2196
   356.5000      0.0000    875.7935      7.6361    110.5102
   356.7500      0.0000    860.6072      7.9582    112.2930
   357.0000      0.0000    844.3485      8.3657    114.3217
   357.2500      0.0000    830.7829      8.7253    116.2322
   357.5000      0.0000    822.6361      8.9085    117.4204
   357.7500      0.0000    819.6270      8.8970    117.3869
   358.0000      0.0000    819.4325      8.7696    116.3067
   358.2500      0.0000    819.9703      8.6112    114.8120
   358.5000      0.0000    820.3821      8.4672    113.2833
   358.7500      0.0000    820.6050      8.3545    111.9281
   359.0000      0.0000    820.7518      8.2803    111.3745
   359.2500      0.0000    820.8797      8.2477    112.4034
   359.5000      0.0000    821.0521      8.2559    114.8804
   359.7500      0.0000    821.4324      8.3035    117.3421
   360.0000      0.0000    822.3175      8.3872    118.0348
   360.2500      0.0000    824.0189      8.4952    116.3417
   360.5000      0.0000    826.4808      8.6000    112.8518
   360.7500      0.0000    828.8849      8.6637    108.0643
   361.0000      0.0000    829.9784      8.6573    101.8134
