~Version Information
 VERS.                                  2.0 : CWLS LAS VERSION
 WRAP.                                   NO : WRAPING MODE
 SWARE .                 MController 2.5.0E : SOFTWARE VERSION
~Well Information
 WELL.                                  N/A : WELL
 COMP.                                  N/A : COMPANY
 FLD.                                   N/A : FIELD
 LOC.                                   N/A : LOCATION
 DATE.                                  N/A : DATE(S) LOGGED
 SRVC.                                  N/A : SERVICE COMPANY
 STAT.                                  N/A : STATE
 CNTY.                                  N/A : COUNTY
 CTRY.                                  N/A : COUNTRY
 API.                                   N/A : API NUMBER
 STRT.FT                             838.00 : START DEPTH
 STOP.FT                            2499.00 : STOP DEPTH
 STEP.FT                               1.00 : DEPTH INCREMENT
 NULL.                                -9999 : NULL VALUE
~Curve information
 DEPTH.FT                                   :
 ROP.MIN/FT                                 :
 GAS.UNITS                                  :
~ASCII Log data
# ...
     1838.00        0.233          9.6 
     1839.00        0.200          9.4 
     1840.00        0.233          9.9 
     1841.00        0.200         10.3 
     1842.00        0.200         10.5 
     1843.00        0.200         10.6 
     1844.00        0.167         10.9 
     1845.00        0.167         10.9 
     1846.00        0.167         12.4 
     1847.00        0.183         12.9 
     1848.00        0.167         12.9 
     1849.00        0.167         10.5 
     1850.00        0.167          9.2 
     1851.00        0.200          7.0 
     1852.00        0.167          6.7 
     1853.00        0.167          6.7 
     1854.00        0.200          6.5 
     1855.00        0.533          7.0 
     1856.00        2.983         66.3 
     1857.00        0.767         58.4 
     1858.00        0.367         32.4 
     1859.00        0.367         23.0 
     1860.00        0.333         18.0 
     1861.00        0.283         16.1 
     1862.00        0.233         15.4 
     1863.00        0.267         13.6 
     1864.00        0.233         12.9 
     1865.00        0.233         12.7 
     1866.00        0.200         12.0 
     1867.00        0.233         11.9 
     1868.00        0.167         11.9 
     1869.00        0.200         12.7 
     1870.00        0.200         12.4 
     1871.00        0.167         12.4 
     1872.00        0.167         11.8 
     1873.00        0.167         11.4 
     1874.00        0.200         10.9 
     1875.00        0.167         10.6 
     1876.00        0.200         10.2 
     1877.00        0.217         10.2 
     1878.00        0.167         12.1 
     1879.00        0.167         12.1 
     1880.00        0.167         12.1 
     1881.00        0.167          8.9 
     1882.00        0.233          8.4 
     1883.00        0.200          6.3 
     1884.00        0.200          6.1 
     1885.00        0.200          5.4 
     1886.00        0.300          5.6 
     1887.00        0.267          6.3 
     1888.00        2.883         71.8 
     1889.00        0.767         73.5 
     1890.00        0.333         37.2 
     1891.00        0.300         26.6 
     1892.00        0.317         20.2 
     1893.00        0.300         14.9 
     1894.00        0.300         12.7 
     1895.00        0.300         11.1 
     1896.00        0.300         10.7 
     1897.00        0.233         10.3 
     1898.00        0.267         10.2 
     1899.00        0.233          9.7 
     1900.00        0.233          9.5 
     1901.00        0.233          9.6 
     1902.00        0.233          9.4 
     1903.00        0.233          9.4 
     1904.00        0.167          9.3 
     1905.00        0.167          9.1 
     1906.00        0.217          9.1 
     1907.00        0.167          9.6 
     1908.00        0.233          9.3 
     1909.00        0.167          9.6 
     1910.00        0.167          9.6 
     1911.00        0.167         11.2 
     1912.00        0.167         11.2 
     1913.00        0.167         10.1 
     1914.00        0.200          8.3 
     1915.00        0.167          8.3 
     1916.00        0.167          6.8 
     1917.00        0.167          6.1 
     1918.00        3.483         22.3 
     1919.00        0.600         20.7 
     1920.00        0.400         15.3 
     1921.00        0.350         14.0 
     1922.00        0.300         12.3 
     1923.00        0.367         11.4 
     1924.00        0.333         10.3 
     1925.00        0.267         10.0 
     1926.00        0.267         10.1 
     1927.00        0.233          9.8 
     1928.00        0.200          9.8 
     1929.00        0.233          9.8 
     1930.00        0.233          9.2 
     1931.00        0.200          8.6 
     1932.00        0.233          8.2 
     1933.00        0.200          7.9 
     1934.00        0.217          8.7 
     1935.00        0.167         10.7 
     1936.00        0.200         11.9 
     1937.00        0.133         13.1 
     1938.00        0.167         13.1 
     1939.00        0.133         14.1 
     1940.00        0.167         14.1 
     1941.00        0.233         12.2 
     1942.00        0.200         10.2 
     1943.00        0.200          8.9 
     1944.00        0.200          7.2 
     1945.00        0.167          4.1 
     1946.00        0.200          2.3 
     1947.00        0.200          2.3 
     1948.00        2.683         19.9 
     1949.00        0.300         22.4 
     1950.00        0.433         21.2 
     1951.00        0.333         17.0 
     1952.00        0.367         11.0 
     1953.00        0.283         11.0 
     1954.00        0.300          9.3 
     1955.00        0.300          8.2 
     1956.00        0.300          6.9 
     1957.00        0.300          6.1 
     1958.00        0.300          5.2 
     1959.00        0.400          5.8 
     1960.00        0.333          6.3 
     1961.00        0.333          6.3 
     1962.00        0.300          5.6 
     1963.00        0.350          5.4 
     1964.00        0.367          5.3 
     1965.00        0.300          5.3 
     1966.00        0.333          5.2 
     1967.00        0.267          4.8 
     1968.00        0.300          4.2 
     1969.00        0.267          4.3 
     1970.00        0.267          5.2 
     1971.00        0.233          5.4 
     1972.00        0.267          5.4 
     1973.00        0.267          6.2 
     1974.00        0.333          6.0 
     1975.00        0.350          5.2 
     1976.00        0.367          4.0 
     1977.00        0.367          2.9 
     1978.00        0.300          2.7 
     1979.00        2.950         23.4 
     1980.00        0.233         16.8 
     1981.00        0.233         14.9 
     1982.00        0.200         15.5 
     1983.00        0.167         12.8 
     1984.00        0.200         11.6 
     1985.00        0.300         10.8 
     1986.00        0.233         10.6 
     1987.00        0.233          9.0 
     1988.00        0.267          8.0 
     1989.00        0.267          7.5 
     1990.00        0.250          7.4 
     1991.00        0.233          7.2 
     1992.00        0.233          6.1 
     1993.00        0.267          6.7 
     1994.00        0.233          7.6 
     1995.00        0.200          7.7 
     1996.00        0.167          7.5 
     1997.00        0.133          7.8 
     1998.00        0.200          7.1 
     1999.00        0.200          7.1 
     2000.00        0.200          7.5 
     2001.00        0.233          7.0 
     2002.00        0.233          5.7 
     2003.00        0.233          4.3 
     2004.00        0.233          3.1 
     2005.00        0.250          2.8 
     2006.00        0.200          2.7 
     2007.00        0.200          2.7 
     2008.00        3.217         33.5 
     2009.00        0.500         33.7 
     2010.00        0.433         23.0 
     2011.00        0.367         17.1 
     2012.00        0.333         11.0 
     2013.00        0.333          9.2 
     2014.00        0.200          7.3 
     2015.00        0.200          6.2 
     2016.00        0.233          5.6 
     2017.00        0.267          5.2 
     2018.00        0.250          5.2 
     2019.00        0.233          5.8 
     2020.00        0.233          5.4 
     2021.00        0.267          5.7 
     2022.00        0.233          5.4 
     2023.00        0.233          5.5 
     2024.00        0.200          4.6 
     2025.00        0.233          5.0 
     2026.00        0.233          4.0 
     2027.00        0.233          4.6 
     2028.00        0.200          4.6 
     2029.00        0.200          5.5 
     2030.00        0.200          5.3 
     2031.00        0.200          4.0 
     2032.00        0.200          4.0 
     2033.00        0.250          3.5 
     2034.00        0.200          2.8 
     2035.00        0.233          2.5 
     2036.00        0.167          2.6 
     2037.00        0.167          2.3 
