~Version Information
 VERS.                                  2.0 : CWLS LAS VERSION
 WRAP.                                   NO : WRAPING MODE
 SWARE .                 MController 2.5.0J : SOFTWARE VERSION
~Well Information
 WELL.                  Great Plains 22-22R : WELL
 COMP.                Petrogulf Corporation : COMPANY
 FLD.                      Purgatoire River : FIELD
 LOC.                SE/NW Sec 22 T33S R67W : LOCATION
 DATE.                        09/08-09/2005 : DATE(S) LOGGED
 SRVC.       BLANCO Geological Services LLC : SERVICE COMPANY
 STAT.                                   CO : STATE
 CNTY.                           Las Animas : COUNTY
 CTRY.                                  USA : COUNTRY
 API.                       05-071-08028-00 : API NUMBER
 STRT.FT                              23.00 : START DEPTH
 STOP.FT                            1400.00 : STOP DEPTH
 STEP.FT                               1.00 : DEPTH INCREMENT
 NULL.                                -9999 : NULL VALUE
~Curve information
 DEPTH.FT                                   :
 ROP.MIN/FT                                 :
 GAS.UNITS                                  :
~ASCII Log data
# ...
       423.0         0.30          3.1 
       424.0         0.27          3.3 
       425.0         0.17          3.1 
       426.0         0.17          3.6 
       427.0         0.17          3.6 
       428.0         0.17          3.3 
       429.0         0.17          2.8 
       430.0         0.17          3.0 
       431.0         0.18          3.0 
       432.0         0.23          3.6 
       433.0         0.20          3.7 
       434.0         0.23          3.5 
       435.0         0.20          3.1 
       436.0         0.33          3.3 
       437.0         0.27          3.2 
       438.0         0.37          3.7 
       439.0         0.40          3.3 
       440.0         0.37          3.6 
       441.0         0.30          3.6 
       442.0         0.30          3.5 
       443.0         0.28          3.6 
       444.0         0.20          3.5 
       445.0         0.40          3.4 
       446.0         0.83          3.8 
       447.0         0.17          3.5 
       448.0         0.17          3.5 
       449.0         0.37          3.8 
       450.0         0.17          3.8 
       451.0         0.13          3.5 
       452.0         0.13          3.5 
       453.0         0.20          3.3 
       454.0         0.20          3.5 
       455.0         0.18          3.5 
       456.0         0.13          3.7 
       457.0         0.33          3.4 
       458.0         0.17          3.5 
       459.0         0.17          3.5 
       460.0         0.17          3.4 
       461.0         0.23          3.5 
       462.0         0.23          3.2 
       463.0         0.27          3.6 
       464.0         0.30          2.9 
       465.0         0.27          3.1 
       466.0         0.27          3.1 
       467.0         0.30          3.2 
       468.0         0.30          3.4 
       469.0         0.28          3.4 
       470.0         0.27          4.0 
       471.0         0.30          3.6 
       472.0         0.37          4.0 
       473.0         0.33          3.9 
       474.0         0.50          4.2 
       475.0         0.37          4.1 
       476.0         1.32          4.3 
       477.0         0.27          3.9 
       478.0         0.33          3.7 
       479.0         0.27          4.3 
       480.0         0.27          3.9 
       481.0         0.23          4.1 
       482.0         0.27          4.0 
       483.0         0.23          3.7 
       484.0         0.30          4.1 
       485.0         0.17          3.9 
       486.0         0.17          4.2 
       487.0         0.20          4.2 
       488.0         0.20          3.9 
       489.0         0.20          4.3 
       490.0         0.22          4.3 
       491.0         0.20          4.3 
       492.0         0.20          4.6 
       493.0         0.20          4.5 
       494.0         0.23          4.5 
       495.0         0.23          7.0 
       496.0         0.20          7.0 
       497.0         0.23          8.5 
       498.0         0.23          9.8 
       499.0         0.27         10.3 
       500.0         0.27         13.2 
       501.0         0.53         22.7 
       502.0         0.62         27.4 
       503.0         0.73         30.3 
       504.0         0.30         29.7 
       505.0         0.90         30.1 
       506.0        26.37         43.1 
       507.0         2.92         21.3 
       508.0         0.50          0.0 
       509.0       611.85          4.2 
       510.0         2.45          1.4 
       511.0         0.23          1.2 
       512.0         0.25          1.1 
       513.0         0.23          1.1 
       514.0         0.20          1.3 
       515.0         0.20          1.3 
       516.0         0.23          2.6 
       517.0         0.23          2.7 
       518.0         0.20          2.9 
       519.0         0.20          2.6 
       520.0         0.17          2.5 
       521.0         0.20          4.9 
       522.0         0.17          4.3 
       523.0         0.23          4.5 
       524.0         0.20          4.5 
       525.0         0.20          4.4 
       526.0         0.25          4.3 
       527.0         0.23          4.0 
       528.0         0.17          3.3 
       529.0         0.27          3.1 
       530.0         0.33          3.0 
       531.0         0.30          4.8 
       532.0         0.23         55.9 
       533.0         0.17         90.3 
       534.0         0.27         93.0 
       535.0         0.33         74.3 
       536.0         0.85         36.2 
       537.0         0.20          4.6 
       538.0         0.17          2.9 
       539.0         0.23          2.0 
       540.0         0.17          1.3 
       541.0         0.17          1.0 
       542.0         0.17          0.5 
       543.0         0.13          0.7 
       544.0         0.20          0.5 
       545.0         0.20          0.5 
       546.0         0.20          0.5 
       547.0         0.23          0.9 
       548.0         0.30          1.2 
       549.0         0.32          4.3 
       550.0         0.23          4.8 
       551.0         0.27          4.0 
       552.0         0.20          2.4 
       553.0         0.13          2.1 
       554.0         0.17          1.8 
       555.0         0.23          2.1 
       556.0         0.13          1.6 
       557.0         0.13          1.8 
       558.0         0.10          1.8 
       559.0         0.30          2.0 
       560.0         0.13          2.0 
       561.0         0.17          2.2 
       562.0         0.17          2.4 
       563.0         0.17          2.3 
       564.0         0.10          2.7 
       565.0         0.13          2.8 
       566.0         1.02          4.5 
       567.0         0.17          4.6 
       568.0         0.30          5.1 
       569.0         0.20          5.4 
       570.0         0.17          5.7 
       571.0         0.17          5.5 
       572.0         0.23          5.5 
       573.0         0.20          5.6 
       574.0         0.20          5.4 
       575.0         0.20          5.1 
       576.0         0.17          5.2 
       577.0         0.20          5.0 
       578.0         0.17          4.6 
       579.0         0.15          4.2 
       580.0         0.20          4.0 
       581.0         0.13          3.5 
       582.0         0.17          3.4 
       583.0         0.13          2.8 
       584.0         0.13          2.8 
       585.0         0.13          2.3 
       586.0         0.13          2.3 
       587.0         0.13          2.1 
       588.0         0.17          2.1 
       589.0         0.20          2.3 
       590.0         0.17          2.7 
       591.0         0.17          2.9 
       592.0         0.17          2.9 
       593.0         0.13          2.7 
       594.0         0.17          2.8 
       595.0         0.17          2.7 
       596.0         0.13          2.6 
       597.0         0.17          2.8 
       598.0         0.98          2.9 
       599.0         0.13          2.9 
       600.0         0.17          2.9 
       601.0         0.27          3.6 
       602.0         0.17          3.4 
       603.0         0.20          3.3 
       604.0         0.17          3.3 
       605.0         0.17          3.7 
       606.0         0.20          3.7 
       607.0         0.17          3.6 
       608.0         0.17          3.5 
       609.0         0.17          3.8 
       610.0         0.13          3.4 
       611.0         0.17          3.5 
       612.0         0.17          3.5 
       613.0         0.23          4.7 
       614.0         0.18          4.3 
       615.0         0.20          4.4 
       616.0         0.20          4.0 
       617.0         0.17          3.4 
       618.0         0.17          3.6 
       619.0         0.20          3.3 
       620.0         0.33          6.7 
       621.0         0.17         11.1 
       622.0         0.17         16.9 
