~Version Information
VERS.                      2.0: CWLS Log ASCII Standard - VERSION 2.0
WRAP.                       NO: One line per depth step
~Well Information Block
STRT.FT               521.0000: 
STOP.FT              2732.5000: 
STEP.FT                 0.2500: 
NULL.                -999.2500: 
COMP.          Petrogulf Corporation: COMPANY
WELL.              Silva 6-22V: WELL
FLD.           Purgatorie River: FIELD
LOC.           1936' FNL & 1798' FWL: LOCATION
CNTY.               Las Animas: COUNTY
SRVC.                         : SERVICE COMPANY
DATE.          Tue Nov 09 08:09:38 2004: LOG DATE
UWI.           05 071 08143 00: UNIQUE WELL ID
STAT.                 Colorado: STATE
~Curve Information Block
DEPT.FT            0 000 00 00: Depth
SP.mV                         : DIL Spontaneous Potential
RILD.Ohm-m                    : DIL Deep Resistivity
RILM.Ohm-m                    : DIL Medium Resistivity
RLL3.Ohm-m                    : DIL Shallow Resistivity
GR.GAPI                       : Gamma Ray
~Parameter Information Block
~A  Depth        SP         RILD        RILM        RLL3         GR     
# ...
   829.0000   2000.0000     14.0562     13.8728   2000.0000    152.3705
   829.2500   2000.0000     14.1352     13.8526   2000.0000    153.3768
   829.5000   2000.0000     14.2200     13.8656   2000.0000    153.0784
   829.7500   2000.0000     14.3116     13.9188   2000.0000    152.5708
   830.0000   2000.0000     14.4098     14.0140   2000.0000    151.9294
   830.2500   2000.0000     14.5130     14.1484   2000.0000    150.9395
   830.5000   2000.0000     14.6188     14.3144   2000.0000    147.3009
   830.7500   2000.0000     14.7248     14.5013   2000.0000    143.7290
   831.0000   2000.0000     14.8300     14.6956   2000.0000    139.0362
   831.2500   2000.0000     14.9348     14.8839   2000.0000    137.7248
   831.5000   2000.0000     15.0411     15.0540   2000.0000    139.0436
   831.7500   2000.0000     15.1515     15.1974   2000.0000    141.4255
   832.0000   2000.0000     15.2677     15.3102   2000.0000    145.4817
   832.2500   2000.0000     15.3888     15.3930   2000.0000    147.6709
   832.5000   2000.0000     15.5101     15.4488   2000.0000    149.4131
   832.7500   2000.0000     15.6234     15.4814   2000.0000    149.4775
   833.0000   2000.0000     15.7171     15.4929   2000.0000    148.4934
   833.2500   2000.0000     15.7790     15.4817   2000.0000    147.8424
   833.5000   2000.0000     15.7987     15.4433   2000.0000    148.2008
   833.7500   2000.0000     15.7696     15.3705   2000.0000    149.7037
   834.0000   2000.0000     15.6911     15.2573   2000.0000    153.6956
   834.2500   2000.0000     15.5683     15.1015   2000.0000    157.2088
   834.5000   2000.0000     15.4108     14.9068   2000.0000    162.9346
   834.7500   2000.0000     15.2302     14.6834   2000.0000    166.3490
   835.0000   2000.0000     15.0387     14.4461   2000.0000    169.8434
   835.2500   2000.0000     14.8469     14.2114   2000.0000    171.0291
   835.5000   2000.0000     14.6631     13.9945   2000.0000    171.8849
   835.7500   2000.0000     14.4936     13.8069   2000.0000    172.3436
   836.0000   2000.0000     14.3427     13.6555   2000.0000    172.8720
   836.2500   2000.0000     14.2135     13.5424   2000.0000    172.5362
   836.5000   2000.0000     14.1083     13.4657   2000.0000    169.8697
   836.7500   2000.0000     14.0290     13.4212   2000.0000    166.4784
   837.0000   2000.0000     13.9769     13.4031   2000.0000    159.6545
   837.2500   2000.0000     13.9527     13.4059   2000.0000    154.5830
   837.5000   2000.0000     13.9565     13.4250   2000.0000    147.3274
   837.7500   2000.0000     13.9871     13.4572   2000.0000    143.3597
   838.0000   2000.0000     14.0423     13.5010   2000.0000    139.3904
   838.2500   2000.0000     14.1184     13.5558   2000.0000    137.9403
   838.5000   2000.0000     14.2106     13.6211   2000.0000    136.5334
   838.7500   2000.0000     14.3129     13.6959   2000.0000    135.5354
   839.0000   2000.0000     14.4192     13.7778   2000.0000    133.8855
   839.2500   2000.0000     14.5230     13.8631   2000.0000    133.0158
   839.5000   2000.0000     14.6182     13.9470   2000.0000    132.0004
   839.7500   2000.0000     14.6989     14.0242   2000.0000    130.8427
   840.0000   2000.0000     14.7602     14.0898   2000.0000    127.2943
   840.2500   2000.0000     14.7978     14.1404   2000.0000    123.9782
   840.5000   2000.0000     14.8095     14.1737   2000.0000    119.5534
   840.7500   2000.0000     14.7953     14.1896   2000.0000    118.0626
   841.0000   2000.0000     14.7582     14.1889   2000.0000    118.1743
   841.2500   2000.0000     14.7053     14.1733   2000.0000    119.0345
   841.5000   2000.0000     14.6460     14.1450   2000.0000    120.2458
   841.7500   2000.0000     14.5919     14.1065   2000.0000    120.9066
   842.0000   2000.0000     14.5539     14.0609   2000.0000    122.4349
   842.2500   2000.0000     14.5405     14.0116   2000.0000    124.3541
   842.5000   2000.0000     14.5567     13.9633   2000.0000    128.9006
   842.7500   2000.0000     14.6023     13.9213   2000.0000    132.6451
   843.0000   2000.0000     14.6726     13.8923   2000.0000    138.0293
   843.2500   2000.0000     14.7591     13.8826   2000.0000    140.8730
   843.5000   2000.0000     14.8506     13.8981   2000.0000    143.7416
   843.7500   2000.0000     14.9360     13.9433   2000.0000    144.7825
   844.0000   2000.0000     15.0057     14.0201   2000.0000    145.3271
   844.2500   2000.0000     15.0533     14.1279   2000.0000    145.4075
   844.5000   2000.0000     15.0770     14.2629   2000.0000    145.8103
   844.7500   2000.0000     15.0799     14.4190   2000.0000    146.1835
   845.0000   2000.0000     15.0690     14.5887   2000.0000    145.7126
   845.2500   2000.0000     15.0543     14.7641   2000.0000    144.0101
   845.5000   2000.0000     15.0474     14.9382   2000.0000    139.2992
   845.7500   2000.0000     15.0595     15.1057   2000.0000    135.3151
   846.0000   2000.0000     15.1000     15.2639   2000.0000    129.4034
   846.2500   2000.0000     15.1749     15.4128   2000.0000    126.1355
   846.5000   2000.0000     15.2861     15.5537   2000.0000    122.7988
   846.7500   2000.0000     15.4310     15.6890   2000.0000    121.5073
   847.0000   2000.0000     15.6027     15.8210   2000.0000    120.1858
   847.2500   2000.0000     15.7907     15.9506   2000.0000    119.3889
   847.5000   2000.0000     15.9824     16.0766   2000.0000    118.7061
   847.7500   2000.0000     16.1649     16.1959   2000.0000    119.0199
   848.0000   2000.0000     16.3260     16.3027   2000.0000    120.3100
   848.2500   2000.0000     16.4564     16.3895   2000.0000    120.7727
   848.5000   2000.0000     16.5500     16.4474   2000.0000    119.4993
   848.7500   2000.0000     16.6049     16.4675   2000.0000    117.4714
   849.0000   2000.0000     16.6230     16.4417   2000.0000    114.1784
   849.2500   2000.0000     16.6100     16.3645   2000.0000    112.5863
   849.5000   2000.0000     16.5741     16.2341   2000.0000    111.1629
   849.7500   2000.0000     16.5257     16.0537   2000.0000    110.3366
   850.0000   2000.0000     16.4750     15.8320   2000.0000    108.5629
   850.2500   2000.0000     16.4319     15.5821   2000.0000    107.0954
   850.5000   2000.0000     16.4036     15.3206   2000.0000    105.1782
   850.7500   2000.0000     16.3944     15.0647   2000.0000    104.4744
   851.0000   2000.0000     16.4049     14.8302   2000.0000    104.7305
   851.2500   2000.0000     16.4313     14.6296   2000.0000    106.0934
   851.5000   2000.0000     16.4667     14.4708   2000.0000    110.4966
   851.7500   2000.0000     16.5006     14.3565   2000.0000    114.9975
   852.0000   2000.0000     16.5208     14.2852   2000.0000    123.1509
   852.2500   2000.0000     16.5157     14.2520   2000.0000    128.6783
   852.5000   2000.0000     16.4758     14.2497   2000.0000    135.8315
   852.7500   2000.0000     16.3966     14.2701   2000.0000    139.3236
   853.0000   2000.0000     16.2793     14.3050   2000.0000    142.0481
   853.2500   2000.0000     16.1312     14.3468   2000.0000    142.0074
   853.5000   2000.0000     15.9637     14.3887   2000.0000    139.4227
   853.7500   2000.0000     15.7904     14.4245   2000.0000    136.7043
   854.0000   2000.0000     15.6241     14.4492   2000.0000    133.0927
   854.2500   2000.0000     15.4751     14.4589   2000.0000    132.0354
   854.5000   2000.0000     15.3501     14.4518   2000.0000    132.6950
   854.7500   2000.0000     15.2523     14.4292   2000.0000    133.7296
   855.0000   2000.0000     15.1827     14.3956   2000.0000    134.3312
   855.2500   2000.0000     15.1410     14.3589   2000.0000    133.7486
   855.5000   2000.0000     15.1271     14.3290   2000.0000    132.3137
   855.7500   2000.0000     15.1418     14.3170   2000.0000    131.9072
   856.0000   2000.0000     15.1873     14.3334   2000.0000    133.3299
   856.2500   2000.0000     15.2669     14.3872   2000.0000    135.6579
   856.5000   2000.0000     15.3842     14.4859   2000.0000    139.8763
   856.7500   2000.0000     15.5433     14.6352   2000.0000    142.0678
