~Version Information
VERS.                      2.0: CWLS Log ASCII Standard - VERSION 2.0
WRAP.                       NO: One line per depth step
~Well Information Block
STRT.FT               742.0000: 
STOP.FT              2582.0000: 
STEP.FT                 0.2500: 
NULL.                -999.2500: 
COMP.          Petrogulf Corporation: COMPANY
WELL.            Montoya 7-12V: WELL
FLD.           Purgatorie River: FIELD
LOC.           728' FWL & 1764' FNL: LOCATION
CNTY.               Las Animas: COUNTY
SRVC.                         : SERVICE COMPANY
DATE.          Thu Feb 19 20:58:32 2004: LOG DATE
UWI.           05-071-07887-00: UNIQUE WELL ID
STAT.                 Colorado: STATE
~Curve Information Block
DEPT.FT            0 000 00 00: Depth
SP.mV                         : DIL Spontaneous Potential
RILD.Ohm-m                    : DIL Deep Resistivity
RILM.Ohm-m                    : DIL Medium Resistivity
RLL3.Ohm-m                    : DIL Shallow Resistivity
GR.GAPI                       : Gamma Ray
~Parameter Information Block
~A  Depth        SP         RILD        RILM        RLL3         GR     
# ...
  2450.0000    -10.9240     18.4198     19.6317     24.7306     54.0777
  2450.2500    -10.7000     18.6759     19.8147     25.0239     51.6941
  2450.5000    -10.4819     18.9618     20.0587     24.6463     49.2368
  2450.7500    -10.2960     19.2681     20.3509     23.8829     48.1095
  2451.0000    -10.1492     19.5838     20.6733     22.9867     46.5038
  2451.2500    -10.0360     19.8911     21.0147     22.1309     45.2220
  2451.5000     -9.9466     20.1632     21.3755     21.4362     43.3292
  2451.7500     -9.8728     20.3671     21.7590     20.9902     42.7415
  2452.0000     -9.8092     20.4733     22.1561     20.8291     43.8420
  2452.2500     -9.7547     20.4668     22.5359     20.9139     45.8818
  2452.5000     -9.7156     20.3520     22.8491     21.1477     49.9784
  2452.7500     -9.7052     20.1475     23.0423     21.4249     52.7440
  2453.0000     -9.7375     19.8763     23.0744     21.6658     55.9580
  2453.2500     -9.8143     19.5587     22.9241     21.8287     56.9162
  2453.5000     -9.9186     19.2126     22.5829     21.9221     55.8423
  2453.7500    -10.0184     18.8568     22.0461     21.9980     53.5757
  2454.0000    -10.0804     18.5116     21.3146     22.0719     49.3772
  2454.2500    -10.0835     18.1955     20.4123     22.0074     47.2892
  2454.5000    -10.0243     17.9188     19.4024     21.4997     46.6890
  2454.7500     -9.9173     17.6804     18.3816     20.2425     48.1384
  2455.0000     -9.7937     17.4683     17.4537     18.1958     52.5691
  2455.2500     -9.6975     17.2644     16.6987     15.7452     56.5363
  2455.5000     -9.6752     17.0518     16.1559     13.5752     62.9531
  2455.7500     -9.7595     16.8208     15.8226     12.2932     66.8531
  2456.0000     -9.9549     16.5711     15.6630     12.0787     71.1966
  2456.2500    -10.2373     16.3102     15.6201     12.6340     72.7920
  2456.5000    -10.5648     16.0493     15.6302     13.4410     73.0006
  2456.7500    -10.8920     15.7999     15.6375     14.0837     71.7723
  2457.0000    -11.1808     15.5716     15.6054     14.4052     68.8402
  2457.2500    -11.4061     15.3730     15.5206     14.4601     67.0720
  2457.5000    -11.5601     15.2113     15.3899     14.3758     65.7756
  2457.7500    -11.6538     15.0910     15.2302     14.2429     65.7102
  2458.0000    -11.7121     15.0112     15.0581     14.0766     65.7352
  2458.2500    -11.7640     14.9628     14.8818     13.8352     65.3061
  2458.5000    -11.8314     14.9320     14.7011     13.4651     64.2006
  2458.7500    -11.9210     14.9058     14.5144     12.9469     63.8876
  2459.0000    -12.0260     14.8773     14.3284     12.3264     65.1335
  2459.2500    -12.1350     14.8434     14.1607     11.7189     66.9489
  2459.5000    -12.2446     14.7994     14.0353     11.2757     69.6882
  2459.7500    -12.3628     14.7364     13.9712     11.1152     70.7840
  2460.0000    -12.5022     14.6439     13.9729     11.2653     71.2230
  2460.2500    -12.6715     14.5181     14.0258     11.6683     71.0456
  2460.5000    -12.8716     14.3648     14.0990     12.2319     70.4587
  2460.7500    -13.0988     14.1982     14.1551     12.8618     69.9418
  2461.0000    -13.3459     14.0347     14.1628     13.4502     69.2693
  2461.2500    -13.6018     13.8876     14.1073     13.8654     69.0976
  2461.5000    -13.8519     13.7646     13.9926     13.9929     69.2755
  2461.7500    -14.0835     13.6672     13.8362     13.8087     69.4263
  2462.0000    -14.2926     13.5918     13.6590     13.4086     69.1011
  2462.2500    -14.4835     13.5332     13.4780     12.9442     68.4028
  2462.5000    -14.6618     13.4876     13.3043     12.5155     67.1418
  2462.7500    -14.8299     13.4535     13.1457     12.1216     66.5867
  2463.0000    -14.9896     13.4317     13.0116     11.7088     66.3165
  2463.2500    -15.1480     13.4241     12.9152     11.2627     66.2053
  2463.5000    -15.3173     13.4329     12.8706     10.8687     65.8324
  2463.7500    -15.5093     13.4607     12.8883     10.7019     65.7462
  2464.0000    -15.7296     13.5103     12.9703     10.9421     66.6891
  2464.2500    -15.9769     13.5832     13.1083     11.6478     68.1340
  2464.5000    -16.2448     13.6813     13.2879     12.6712     70.7476
  2464.7500    -16.5218     13.8087     13.4944     13.7037     72.0840
  2465.0000    -16.7912     13.9730     13.7208     14.4502     72.3983
  2465.2500    -17.0328     14.1838     13.9706     14.8114     71.1034
  2465.5000    -17.2267     14.4491     14.2578     14.9338     67.2110
  2465.7500    -17.3590     14.7720     14.6028     15.1015     64.1939
  2466.0000    -17.4258     15.1486     15.0267     15.5848     60.8414
  2466.2500    -17.4355     15.5678     15.5452     16.5753     59.8205
  2466.5000    -17.4089     16.0135     16.1626     18.2172     59.3703
  2466.7500    -17.3754     16.4703     16.8663     20.6229     59.0435
  2467.0000    -17.3670     16.9305     17.6226     23.7613     57.8761
  2467.2500    -17.4106     17.3975     18.3792     27.2602     56.8104
  2467.5000    -17.5206     17.8828     19.0787     30.3379     55.5754
  2467.7500    -17.6978     18.3991     19.6818     32.0972     55.5001
  2468.0000    -17.9331     18.9545     20.1857     32.1087     57.2426
  2468.2500    -18.2138     19.5520     20.6219     30.8018     59.8620
  2468.5000    -18.5246     20.1899     21.0353     29.2138     65.5251
  2468.7500    -18.8462     20.8625     21.4620     28.2538     69.5728
  2469.0000    -19.1561     21.5602     21.9200     28.1363     74.1807
  2469.2500    -19.4326     22.2701     22.4167     28.4292     75.7362
  2469.5000    -19.6611     22.9763     22.9631     28.5604     76.6684
  2469.7500    -19.8349     23.6611     23.5843     28.3204     77.5525
  2470.0000    -19.9508     24.3083     24.3203     28.0348     80.8650
  2470.2500    -20.0018     24.9097     25.2136     28.3552     84.4470
  2470.5000    -19.9746     25.4689     26.2865     29.8299     90.6408
  2470.7500    -19.8576     25.9948     27.5211     32.5411     94.3161
  2471.0000    -19.6521     26.4894     28.8529     36.0708     97.8480
  2471.2500    -19.3758     26.9389     30.1871     39.8287     98.7910
  2471.5000    -19.0555     27.3214     31.4295     43.4695     99.3497
  2471.7500    -18.7141     27.6238     32.5092     47.0134    100.1530
  2472.0000    -18.3633     27.8581     33.3777     50.5159    102.3243
  2472.2500    -18.0056     28.0599     33.9947     53.5685    103.6122
  2472.5000    -17.6434     28.2689     34.3223     55.1874    104.2643
  2472.7500    -17.2866     28.5006     34.3412     54.3778    104.4640
  2473.0000    -16.9517     28.7256     34.0738     50.9469    106.7571
  2473.2500    -16.6541     28.8750     33.5919     45.7731    110.3612
  2473.5000    -16.3988     28.8744     32.9958     40.2782    117.7619
  2473.7500    -16.1785     28.6884     32.3735     35.6561    122.5193
  2474.0000    -15.9750     28.3408     31.7669     32.4822    127.2238
  2474.2500    -15.7628     27.8956     31.1626     30.7459    128.0918
  2474.5000    -15.5143     27.4170     30.5149     30.0163    125.2891
  2474.7500    -15.2069     26.9424     29.7862     29.6331    120.4108
  2475.0000    -14.8329     26.4843     28.9840     28.9853    109.4255
  2475.2500    -14.4033     26.0507     28.1692     27.8021    101.2454
  2475.5000    -13.9424     25.6592     27.4310     26.2418     90.8862
  2475.7500    -13.4757     25.3307     26.8479     24.7068     86.2187
  2476.0000    -13.0193     25.0685     26.4578     23.5469     81.9909
  2476.2500    -12.5785     24.8439     26.2494     22.8790     79.9917
  2476.5000    -12.1541     24.6051     26.1726     22.6067     76.9665
  2476.7500    -11.7512     24.3058     26.1582     22.5565     74.9237
  2477.0000    -11.3820     23.9367     26.1381     22.5856     72.5912
  2477.2500    -11.0614     23.5341     26.0598     22.6029     71.8207
  2477.5000    -10.8020     23.1589     25.8940     22.5484     71.4221
  2477.7500    -10.6127     22.8617     25.6360     22.3908     71.0922
