~Version Information
VERS.                      2.0: CWLS Log ASCII Standard - VERSION 2.0
WRAP.                       NO: One line per depth step
~Well Information Block
STRT.FT               375.0000: 
STOP.FT              2637.0000: 
STEP.FT                 0.1000: 
NULL.                -999.2500: 
COMP.          Pioneer Natural Resources: COMPANY
WELL.            Cortina 23-25: WELL
FLD.           Purgatoire River: FIELD
LOC.           2344' FWL & 2526' FSL----: LOCATION
PROV.                 Colorado: PROVINCE
CNTY.               Las Animas: COUNTRY
SRVC.                Patterson: SERVICE COMPANY
DATE.          Thu Mar 24 07:44:45 2005: LOG DATE
UWI.           05 071 08340 00: UNIQUE WELL ID
~Curve Information Block
DEPT.FT            0 000 00 00: Depth
DCAL.in                       : CDL Caliper
DPOR.pu                       : CDL Density Porosity
NPOR.pu                       : Neutron Porosity
RHOB.g/cc                     : CDL Bulk Density
RHOC.g/cc                     : CDL Density Correction
GR.GAPI                       : Gamma Ray
~Parameter Information Block
~A  Depth       DCAL        DPOR        NPOR        RHOB        RHOC         GR     
# ...
  2621.4000      7.8529      2.8774     24.3466      2.6025      0.0432   -999.2500
  2621.5000      7.8542      1.4197     23.6575      2.6266      0.0721   -999.2500
  2621.6000      7.8542      1.2227     22.8491      2.6298      0.0861   -999.2500
  2621.7000      7.8542      2.3689     22.3699      2.6109      0.0670   -999.2500
  2621.8000      7.8568      3.6082     21.9453      2.5905      0.0298   -999.2500
  2621.9000      7.8568      3.8501     21.1897      2.5865      0.0323   -999.2500
  2622.0000      7.8571      2.8175     20.6333      2.6035      0.0210   -999.2500
  2622.1000      7.8571      0.9988     20.5146      2.6335      0.0353   -999.2500
  2622.2000      7.8571     -0.3373     20.3567      2.6556      0.0613   -999.2500
  2622.3000      7.8553     -0.4130     20.3901      2.6568      0.0468   -999.2500
  2622.4000      7.8553      0.2767     20.9618      2.6454      0.0569   -999.2500
  2622.5000      7.8538      1.0643     21.5505      2.6324      0.0768   -999.2500
  2622.6000      7.8538      1.3747     21.7353      2.6273      0.0430   -999.2500
  2622.7000      7.8538      0.8582     21.5665      2.6358      0.0336   -999.2500
  2622.8000      7.8523      0.0580     21.2960      2.6490      0.0424   -999.2500
  2622.9000      7.8523     -0.0371     21.3220      2.6506      0.0751   -999.2500
  2623.0000      7.8504      0.5975     21.5256      2.6401      0.0418   -999.2500
  2623.1000      7.8504      0.9701     21.4323      2.6340      0.0657   -999.2500
  2623.2000      7.8504      0.8581     21.0668      2.6358      0.0654   -999.2500
  2623.3000      7.8530      0.7631     20.6814      2.6374      0.0524   -999.2500
  2623.4000      7.8530      1.0467     20.3256      2.6327      0.0599   -999.2500
  2623.5000      7.8555      1.7645     20.0879      2.6209      0.0241   -999.2500
  2623.6000      7.8555      2.5259     20.1573      2.6083      0.0274   -999.2500
  2623.7000      7.8555      3.1778     20.5048      2.5976      0.0508   -999.2500
  2623.8000      7.8558      3.7366     21.0672      2.5883      0.0087   -999.2500
  2623.9000      7.8558      3.8808     21.4728      2.5860     -0.0051   -999.2500
  2624.0000      7.8572      3.7696     21.1549      2.5878      0.0544   -999.2500
  2624.1000      7.8572      3.8995     20.4507      2.5857      0.0435   -999.2500
  2624.2000      7.8572      4.1284     20.2859      2.5819      0.0573   -999.2500
  2624.3000      7.8568      4.3941     21.3779      2.5775      0.0682   -999.2500
  2624.4000      7.8568      5.0695     25.0360      2.5664      0.0228   -999.2500
  2624.5000      7.8552      6.0525     32.9888      2.5501      0.0167   -999.2500
  2624.6000      7.8552      6.8713     43.1531      2.5366      0.0159   -999.2500
  2624.7000      7.8552      7.1465     49.9572      2.5321      0.0290   -999.2500
  2624.8000      7.8560      6.6378     52.3814      2.5405      0.0101   -999.2500
  2624.9000      7.8560      5.3380     52.8550      2.5619      0.0456   -999.2500
  2625.0000      7.8573      3.8488     52.9049      2.5865      0.0542   -999.2500
  2625.1000      7.8573      3.0871     52.9077      2.5991      0.0716   -999.2500
  2625.2000      7.8573      3.2677   -999.2500      2.5961      0.0417   -999.2500
  2625.3000      7.8566      3.6756   -999.2500      2.5894      0.0194   -999.2500
  2625.4000      7.8566      4.0453   -999.2500      2.5833      0.0584   -999.2500
  2625.5000      7.8544      4.9048   -999.2500      2.5691      0.0357   -999.2500
  2625.6000      7.8544      6.3760   -999.2500      2.5448      0.0340   -999.2500
  2625.7000      7.8544      7.5629   -999.2500      2.5252     -0.0006   -999.2500
  2625.8000      7.8547      7.5128   -999.2500      2.5260      0.0087   -999.2500
  2625.9000      7.8547      6.6676   -999.2500      2.5400      0.0585   -999.2500
  2626.0000      7.8571      6.1078   -999.2500      2.5492      0.0510   -999.2500
  2626.1000      7.8571      6.1190   -999.2500      2.5490      0.0722   -999.2500
  2626.2000      7.8571      6.0624   -999.2500      2.5500      0.0091   -999.2500
  2626.3000      7.8582      5.0944   -999.2500      2.5659      0.0265   -999.2500
  2626.4000      7.8582      3.8111   -999.2500      2.5871      0.0675   -999.2500
  2626.5000      7.8555      3.6194   -999.2500      2.5903      0.0536   -999.2500
  2626.6000      7.8555      4.5878   -999.2500      2.5743      0.0347   -999.2500
  2626.7000      7.8555      5.5570   -999.2500      2.5583      0.0449   -999.2500
  2626.8000      7.8463      5.6363   -999.2500      2.5570      0.0490   -999.2500
  2626.9000      7.8463      4.9574   -999.2500      2.5682      0.0418   -999.2500
  2627.0000      7.8284      4.2347   -999.2500      2.5801      0.0387   -999.2500
  2627.1000      7.8284      4.0107   -999.2500      2.5838      0.0355   -999.2500
  2627.2000      7.8284      4.0288   -999.2500      2.5835      0.0304   -999.2500
  2627.3000      7.8110      3.6899   -999.2500      2.5891      0.0698   -999.2500
  2627.4000      7.8110      3.3054   -999.2500      2.5955      0.0618   -999.2500
  2627.5000      7.8036      3.5430   -999.2500      2.5915      0.0700   -999.2500
  2627.6000      7.8036      4.1572   -999.2500      2.5814      0.0747   -999.2500
  2627.7000      7.8036      4.2836   -999.2500      2.5793      0.0242   -999.2500
  2627.8000      7.8034      3.8346   -999.2500      2.5867      0.0563   -999.2500
  2627.9000      7.8034      3.8084   -999.2500      2.5872      0.0798   -999.2500
  2628.0000      7.8043      4.6647   -999.2500      2.5730      0.0703   -999.2500
  2628.1000      7.8043      5.7670   -999.2500      2.5548      0.0340   -999.2500
  2628.2000      7.8043      6.5292   -999.2500      2.5423      0.0369   -999.2500
  2628.3000      7.8036      6.7333   -999.2500      2.5389      0.0252   -999.2500
  2628.4000      7.8036      6.3828   -999.2500      2.5447      0.0660   -999.2500
  2628.5000      7.8023      6.1731   -999.2500      2.5481      0.1039   -999.2500
  2628.6000      7.8023      6.4459   -999.2500      2.5436      0.0599   -999.2500
  2628.7000      7.8023      6.2123   -999.2500      2.5475      0.0165   -999.2500
  2628.8000      7.8013      5.1118   -999.2500      2.5657      0.0795   -999.2500
  2628.9000      7.8013      4.2722   -999.2500      2.5795      0.0655   -999.2500
  2629.0000      7.7995      4.3759   -999.2500      2.5778      0.0574   -999.2500
  2629.1000      7.7995      5.2678   -999.2500      2.5631      0.0756   -999.2500
  2629.2000      7.7995      6.0951   -999.2500      2.5494      0.0350   -999.2500
  2629.3000      7.7977      5.6947   -999.2500      2.5560      0.0336   -999.2500
  2629.4000      7.7977      4.5166   -999.2500      2.5755      0.0824   -999.2500
  2629.5000      7.7970      3.9823   -999.2500      2.5843      0.0755   -999.2500
  2629.6000      7.7970      3.9436   -999.2500      2.5849      0.0434   -999.2500
  2629.7000      7.7970      3.5554   -999.2500      2.5913      0.0776   -999.2500
  2629.8000      7.7980      3.3568   -999.2500      2.5946      0.0669   -999.2500
  2629.9000      7.7980      4.0384   -999.2500      2.5834      0.0524   -999.2500
  2630.0000      7.7996      4.8460   -999.2500      2.5700      0.0143   -999.2500
  2630.1000      7.7996      4.7859   -999.2500      2.5710      0.0389   -999.2500
  2630.2000      7.7996      4.1759   -999.2500      2.5811      0.0592   -999.2500
  2630.3000      7.7982      3.8353   -999.2500      2.5867      0.0418   -999.2500
  2630.4000      7.7982      3.8646   -999.2500      2.5862      0.0430   -999.2500
  2630.5000      7.7911      3.9925   -999.2500      2.5841      0.0603   -999.2500
  2630.6000      7.7911      3.9925   -999.2500      2.5841      0.0229   -999.2500
  2630.7000      7.7911      3.8534   -999.2500      2.5864      0.0610   -999.2500
  2630.8000      7.7790      4.0370   -999.2500      2.5834      0.0463   -999.2500
  2630.9000      7.7790      4.5991   -999.2500      2.5741      0.0296   -999.2500
