~Version Information
VERS.                      2.0: CWLS Log ASCII Standard - VERSION 2.0
WRAP.                       NO: One line per depth step
~Well Information Block
STRT.FT                -9.7500: 
STOP.FT              2158.2500: 
STEP.FT                 0.2500: 
NULL.                -999.2500: 
COMP.          Petrogulf Corporation: COMPANY
WELL.             State 16-41V: WELL
FLD.           Purgatoire River: FIELD
LOC.           335' FNL & 823' FEL--: LOCATION
PROV.                 Colorado: PROVINCE
CNTY.               Las Animas: COUNTRY
SRVC.                Patterson: SERVICE COMPANY
DATE.          Wed Aug 17 12:15:10 2005: LOG DATE
UWI.           05 071 08344 00: UNIQUE WELL ID
~Curve Information Block
DEPT.FT            0 000 00 00: Depth
CCL.                          : Casing Collar Locator
TT3.usec                      : CBL 3' Travel Time
AMP3.mV                       : CBL 3' Amplitude
GR.GAPI                       : Gamma Ray
~Parameter Information Block
~A  Depth       CCL         TT3         AMP3         GR     
# ...
  1430.7500      0.0000    716.1382     10.7584     96.7771
  1431.0000      0.0000    723.1414     10.3128     97.6162
  1431.2500      0.0000    730.8201      9.9138     97.8597
  1431.5000      0.0000    736.8026      9.5811     96.1813
  1431.7500      0.0000    739.1296      9.3485     92.9214
  1432.0000      0.0000    737.2702      9.2339     90.1430
  1432.2500      0.0000    732.3956      9.2203     90.1068
  1432.5000      0.0000    726.9094      9.2690     93.7404
  1432.7500      0.0000    723.1967      9.3430    100.3632
  1433.0000      0.0000    722.1513      9.4128    108.3996
  1433.2500      0.0000    722.7618      9.4477    116.1806
  1433.5000      0.0000    723.1579      9.4237    122.4956
  1433.7500      0.0000    722.0343      9.3494    126.9902
  1434.0000      0.0000    719.3406      9.2786    130.1258
  1434.2500      0.0000    716.0255      9.2758    132.4890
  1434.5000      0.0000    713.1829      9.3565    134.1468
  1434.7500      0.0000    711.2928      9.4630    134.8750
  1435.0000      0.0000    710.1577      9.5070    134.8659
  1435.2500      0.0000    709.3882      9.4392    134.7373
  1435.5000      0.0000    708.8284      9.2764    134.8162
  1435.7500      0.0000    708.6369      9.0705    134.8910
  1436.0000      0.0000    709.1508      8.8635    134.7327
  1436.2500      0.0000    710.6434      8.6749    134.4336
  1436.5000      0.0000    712.9362      8.5187    134.0973
  1436.7500      0.0000    715.1318      8.4201    133.4221
  1437.0000      0.0000    716.0093      8.4031    131.8041
  1437.2500      0.0000    715.0183      8.4566    129.0083
  1437.5000      0.0000    712.7759      8.5190    125.7106
  1437.7500      0.0000    710.4092      8.5145    123.0392
  1438.0000      0.0000    708.6130      8.4142    121.4735
  1438.2500      0.0000    707.4850      8.2583    120.6488
  1438.5000      0.0000    706.9350      8.1175    120.3392
  1438.7500      0.0000    706.9472      8.0365    120.8330
  1439.0000      0.0000    707.5957      8.0113    121.9837
  1439.2500      0.0000    709.0885      8.0100    122.5530
  1439.5000      0.0000    711.7769      8.0089    121.0337
  1439.7500      0.0000    715.7850      8.0071    116.9461
  1440.0000      0.0000    720.3832      8.0131    111.2181
  1440.2500      0.0000    723.9838      8.0237    105.6305
  1440.5000      0.0000    725.2630      8.0169    102.0788
  1440.7500      0.0000    724.2359      7.9693    101.9958
  1441.0000      0.0000    721.7847      7.8818    105.8402
  1441.2500      0.0000    718.3119      7.7828    112.6709
  1441.5000      0.0000    713.4526      7.6979    120.3637
  1441.7500      0.0000    707.0588      7.6205    126.8263
  1442.0000      0.0000    699.9727      7.5224    131.3885
  1442.2500      0.0000    693.7201      7.3913    134.9185
  1442.5000      0.0000    689.5620      7.2481    138.4454
  1442.7500      0.0000    687.9158      7.1304    141.9093
  1443.0000      0.0000    688.5606      7.0619    144.5664
  1443.2500      0.0000    690.9232      7.0336    146.4503
  1443.5000      0.0000    693.9292      7.0121    148.7710
  1443.7500      0.0000    696.0015      6.9680    152.3160
  1444.0000      0.0000    695.3251      6.9029    155.7602
  1444.2500      0.0000    689.9728      6.8508    156.5030
  1444.5000      0.0000    678.9482      6.8549    153.3383
  1444.7500      0.0000    664.7652      6.9415    147.4837
  1445.0000      0.0000    654.2593      7.1097    140.8727
  1445.2500      0.0000    654.1700      7.3338    134.3976
  1445.5000      0.0000    665.0820      7.5692    128.1116
  1445.7500      0.0000    681.0950      7.7631    122.3316
  1446.0000      0.0000    695.6035      7.8778    118.0037
  1446.2500      0.0000    706.1527      7.9169    116.1698
  1446.5000      0.0000    713.9549      7.9274    117.3176
  1446.7500      0.0000    720.5405      7.9651    121.2090
  1447.0000      0.0000    725.7552      8.0573    127.0198
  1447.2500      0.0000    728.3630      8.2030    133.6117
  1447.5000      0.0000    727.6336      8.3998    140.0001
  1447.7500      0.0000    724.0551      8.6511    145.7916
  1448.0000      0.0000    718.9352      8.9424    151.1750
  1448.2500      0.0000    713.4816      9.2267    156.4333
  1448.5000      0.0000    707.6866      9.4532    161.3739
  1448.7500      0.0000    699.4112      9.6181    165.1579
  1449.0000      0.0000    685.0096      9.7763    166.7797
  1449.2500      0.0000    662.8510      9.9875    165.8207
  1449.5000      0.0000    637.9145     10.2479    162.7012
  1449.7500      0.0000    621.3989     10.4835    158.2388
  1450.0000      0.0000    622.2139     10.6098    153.0792
  1450.2500      0.0000    638.3278     10.5904    147.5540
  1450.5000      0.0000    658.8802     10.4421    141.9578
  1450.7500      0.0000    674.7092     10.2054    136.8810
  1451.0000      0.0000    684.3873      9.9209    133.2189
  1451.2500      0.0000    690.6627      9.6267    131.8235
  1451.5000      0.0000    694.5515      9.3601    132.9387
  1451.7500      0.0000    694.4722      9.1543    135.8258
  1452.0000      0.0000    689.7396      9.0307    139.0622
  1452.2500      0.0000    683.3051      8.9876    141.3844
  1452.5000      0.0000    680.2943      8.9970    142.3555
  1452.7500      0.0000    683.5104      9.0209    142.3748
  1453.0000      0.0000    690.9067      9.0330    142.1276
  1453.2500      0.0000    697.9347      9.0260    141.7425
  1453.5000      0.0000    701.7117      9.0053    140.2702
  1453.7500      0.0000    702.6112      8.9896    136.1667
  1454.0000      0.0000    702.7422      9.0137    128.5590
  1454.2500      0.0000    703.6726      9.1172    118.1498
  1454.5000      0.0000    705.3884      9.3227    106.9177
  1454.7500      0.0000    706.8658      9.6215     96.9811
  1455.0000      0.0000    707.1361      9.9771     89.6081
  1455.2500      0.0000    705.8159     10.3429     84.9197
  1455.5000      0.0000    703.1933     10.6831     82.0680
  1455.7500      0.0000    700.1177     10.9843     79.7400
  1456.0000      0.0000    697.1230     11.2468     76.9862
  1456.2500      0.0000    692.7242     11.4743     73.8855
  1456.5000      0.0000    682.7003     11.6771     71.2459
  1456.7500      0.0000    662.4346     11.8716     69.5805
  1457.0000      0.0000    631.4002     12.0520     68.5100
  1457.2500      0.0000    595.4796     12.1621     67.1319
  1457.5000      0.0000    563.8607     12.1161     64.9208
  1457.7500      0.0000    542.9768     11.8615     62.3779
  1458.0000      0.0000    533.2231     11.4195     60.7673
  1458.2500      0.0000    530.6880     10.8645     61.0435
  1458.5000      0.0000    531.3438     10.2703     63.0044
  1458.7500      0.0000    534.5355      9.6747     65.4355
  1459.0000      0.0000    543.7251      9.0872     66.9485
  1459.2500      0.0000    563.5250      8.5180     66.7988
  1459.5000      0.0000    594.6111      7.9897     65.1848
  1459.7500      0.0000    631.1187      7.5220     62.8941
  1460.0000      0.0000    663.8548      7.1165     60.5615
  1460.2500      0.0000    686.4904      6.7654     58.1920
  1460.5000      0.0000    698.5829      6.4666     55.3686
  1460.7500      0.0000    703.5278      6.2241     51.9283
  1461.0000      0.0000    704.9913      6.0412     48.3451
  1461.2500      0.0000    705.1231      5.9222     45.3912
  1461.5000      0.0000    704.5393      5.8771     43.5332
  1461.7500      0.0000    702.7297      5.9173     42.7071
  1462.0000      0.0000    698.3740      6.0436     42.4795
  1462.2500      0.0000    690.2006      6.2399     42.2798
  1462.5000      0.0000    678.8015      6.4786     41.6403
  1462.7500      0.0000    668.3027      6.7243     40.4919
  1463.0000      0.0000    665.6396      6.9326     39.2650
  1463.2500      0.0000    676.6940      7.0659     38.4931
  1463.5000      0.0000    701.6096      7.1274     38.2505
  1463.7500      0.0000    733.1010      7.1598     38.1548
  1464.0000      0.0000    759.8139      7.1940     38.0606
