~Version Information
VERS.                      2.0: CWLS Log ASCII Standard - VERSION 2.0
WRAP.                       NO: One line per depth step
~Well Information Block
STRT.FT               375.0000: 
STOP.FT              2795.7000: 
STEP.FT                 0.1000: 
NULL.                -999.2500: 
COMP.          Pioneer Natural Resources: COMPANY
WELL.              Getem 21-23: WELL
FLD.           Purgatoire River: FIELD
LOC.           2623' FWL & 790' FNL--: LOCATION
PROV.                 Colorado: PROVINCE
CNTY.               Las Animas: COUNTRY
SRVC.                Patterson: SERVICE COMPANY
DATE.          Mon Jun 20 07:26:21 2005: LOG DATE
UWI.           05 071 08411 00: UNIQUE WELL ID
~Curve Information Block
DEPT.FT            0 000 00 00: Depth
DCAL.in                       : CDL Caliper
RHOB.g/cc                     : CDL Bulk Density
RHOC.g/cc                     : CDL Density Correction
DPOR.pu                       : CDL Density Porosity
NPOR.pu                       : Neutron Porosity
GR.GAPI                       : Gamma Ray
~Parameter Information Block
~A  Depth       DCAL        RHOB        RHOC        DPOR        NPOR         GR     
# ...
  2765.4000      7.7309      2.3891      0.0208     15.8091     13.1547   -999.2500
  2765.5000      7.7283      2.3917      0.0465     15.6552     13.0679   -999.2500
  2765.6000      7.7283      2.4018      0.0291     15.0410     13.2169   -999.2500
  2765.7000      7.7283      2.4106      0.0526     14.5105     13.5755   -999.2500
  2765.8000      7.7237      2.4186      0.0621     14.0225     13.8753   -999.2500
  2765.9000      7.7237      2.4319      0.0670     13.2184     14.0274   -999.2500
  2766.0000      7.7180      2.4499      0.0880     12.1260     13.9172   -999.2500
  2766.1000      7.7180      2.4632      0.0852     11.3236     13.4781   -999.2500
  2766.2000      7.7180      2.4616      0.0780     11.4181     13.1644   -999.2500
  2766.3000      7.7109      2.4445      0.0861     12.4565     13.4535   -999.2500
  2766.4000      7.7109      2.4258      0.0322     13.5869     13.9526   -999.2500
  2766.5000      7.7060      2.4229      0.0600     13.7654     13.9350   -999.2500
  2766.6000      7.7060      2.4382      0.0603     12.8359     13.5931   -999.2500
  2766.7000      7.7060      2.4607      0.0967     11.4710     13.5847   -999.2500
  2766.8000      7.7045      2.4752      0.1275     10.5939     14.1959   -999.2500
  2766.9000      7.7045      2.4765      0.0781     10.5170     15.0417   -999.2500
  2767.0000      7.7021      2.4690      0.1063     10.9672     15.3442   -999.2500
  2767.1000      7.7021      2.4560      0.0822     11.7550     14.8804   -999.2500
  2767.2000      7.7021      2.4436      0.0953     12.5111     14.2594   -999.2500
  2767.3000      7.7004      2.4362      0.0545     12.9586     14.3362   -999.2500
  2767.4000      7.7004      2.4313      0.0659     13.2521     15.1066   -999.2500
  2767.5000      7.7023      2.4252      0.0681     13.6265     15.7177   -999.2500
  2767.6000      7.7023      2.4199      0.0578     13.9468     15.5986   -999.2500
  2767.7000      7.7023      2.4184      0.0710     14.0374     14.8357   -999.2500
  2767.8000      7.7030      2.4221      0.0487     13.8113     13.7809   -999.2500
  2767.9000      7.7030      2.4295      0.0809     13.3639     13.0259   -999.2500
  2768.0000      7.7018      2.4314      0.0725     13.2486     13.0600   -999.2500
  2768.1000      7.7018      2.4297      0.0382     13.3525     13.6116   -999.2500
  2768.2000      7.7018      2.4325      0.0706     13.1819     14.0048   -999.2500
  2768.3000      7.7034      2.4340      0.0629     13.0910     13.9585   -999.2500
  2768.4000      7.7034      2.4309      0.0765     13.2808     13.7022   -999.2500
  2768.5000      7.7062      2.4306      0.0636     13.2979     13.4493   -999.2500
  2768.6000      7.7062      2.4378      0.0757     12.8597     13.0655   -999.2500
  2768.7000      7.7062      2.4460      0.0542     12.3662     12.5939   -999.2500
  2768.8000      7.7047      2.4465      0.0610     12.3309     12.7897   -999.2500
  2768.9000      7.7047      2.4392      0.0605     12.7767     15.5962   -999.2500
  2769.0000      7.6998      2.4304      0.0428     13.3100     24.3867   -999.2500
  2769.1000      7.6998      2.4251      0.0521     13.6291     37.9791   -999.2500
  2769.2000      7.6998      2.4223      0.0438     13.8003     47.6197   -999.2500
  2769.3000      7.6966      2.4199      0.0434     13.9465     51.0256   -999.2500
  2769.4000      7.6966      2.4194      0.0429     13.9752     51.6853   -999.2500
  2769.5000      7.6941      2.4258      0.0282     13.5867     51.7548   -999.2500
  2769.6000      7.6941      2.4347      0.0700     13.0476     51.7587   -999.2500
  2769.7000      7.6941      2.4346      0.0309     13.0567   -999.2500   -999.2500
  2769.8000      7.6901      2.4292      0.0578     13.3817   -999.2500   -999.2500
  2769.9000      7.6901      2.4266      0.0515     13.5399   -999.2500   -999.2500
  2770.0000      7.6865      2.4254      0.0701     13.6132   -999.2500   -999.2500
  2770.1000      7.6865      2.4252      0.0513     13.6232   -999.2500   -999.2500
  2770.2000      7.6865      2.4225      0.0700     13.7897   -999.2500   -999.2500
  2770.3000      7.6874      2.4107      0.0260     14.5040   -999.2500   -999.2500
  2770.4000      7.6874      2.4033      0.0104     14.9509   -999.2500   -999.2500
  2770.5000      7.6912      2.4202      0.0126     13.9274   -999.2500   -999.2500
  2770.6000      7.6912      2.4534      0.0422     11.9130   -999.2500   -999.2500
  2770.7000      7.6912      2.4780      0.1048     10.4246   -999.2500   -999.2500
  2770.8000      7.6964      2.4860      0.0851      9.9419   -999.2500   -999.2500
  2770.9000      7.6964      2.4873      0.0806      9.8581   -999.2500   -999.2500
  2771.0000      7.6997      2.4854      0.0746      9.9786   -999.2500   -999.2500
  2771.1000      7.6997      2.4757      0.0993     10.5662   -999.2500   -999.2500
  2771.2000      7.6997      2.4609      0.0642     11.4594   -999.2500   -999.2500
  2771.3000      7.6990      2.4486      0.1041     12.2048   -999.2500   -999.2500
  2771.4000      7.6990      2.4410      0.0710     12.6663   -999.2500   -999.2500
  2771.5000      7.6961      2.4395      0.0506     12.7592   -999.2500   -999.2500
  2771.6000      7.6961      2.4425      0.0696     12.5740   -999.2500   -999.2500
  2771.7000      7.6961      2.4435      0.0627     12.5170   -999.2500   -999.2500
  2771.8000      7.6895      2.4426      0.0612     12.5722   -999.2500   -999.2500
  2771.9000      7.6895      2.4455      0.0684     12.3939   -999.2500   -999.2500
  2772.0000      7.6810      2.4536      0.0529     11.9017   -999.2500   -999.2500
  2772.1000      7.6810      2.4625      0.0877     11.3636   -999.2500   -999.2500
  2772.2000      7.6810      2.4642      0.0995     11.2613   -999.2500   -999.2500
  2772.3000      7.6731      2.4619      0.0538     11.4013   -999.2500   -999.2500
  2772.4000      7.6731      2.4666      0.0802     11.1136   -999.2500   -999.2500
  2772.5000      7.6656      2.4722      0.0807     10.7755   -999.2500   -999.2500
  2772.6000      7.6656      2.4652      0.0855     11.1988   -999.2500   -999.2500
  2772.7000      7.6656      2.4529      0.0544     11.9452   -999.2500   -999.2500
  2772.8000      7.6642      2.4540      0.0529     11.8763   -999.2500   -999.2500
  2772.9000      7.6642      2.4734      0.0544     10.7028   -999.2500   -999.2500
  2773.0000      7.6654      2.4975      0.1046      9.2450   -999.2500   -999.2500
  2773.1000      7.6654      2.5003      0.0993      9.0729   -999.2500   -999.2500
  2773.2000      7.6654      2.4748      0.0484     10.6173   -999.2500   -999.2500
  2773.3000      7.6564      2.4508     -0.0009     12.0727   -999.2500   -999.2500
  2773.4000      7.6564      2.4514      0.0432     12.0393   -999.2500   -999.2500
  2773.5000      7.6452      2.4645      0.0726     11.2398   -999.2500   -999.2500
  2773.6000      7.6452      2.4710      0.0698     10.8512   -999.2500   -999.2500
  2773.7000      7.6452      2.4683      0.0449     11.0115   -999.2500   -999.2500
  2773.8000      7.6370      2.4618      0.0667     11.4090   -999.2500   -999.2500
  2773.9000      7.6370      2.4486      0.0733     12.2050   -999.2500   -999.2500
  2774.0000      7.6216      2.4334      0.0281     13.1276   -999.2500   -999.2500
  2774.1000      7.6216      2.4283      0.0351     13.4364   -999.2500   -999.2500
  2774.2000      7.6216      2.4298      0.0639     13.3451   -999.2500   -999.2500
  2774.3000      7.5939      2.4273      0.0590     13.4988   -999.2500   -999.2500
  2774.4000      7.5939      2.4225      0.0266     13.7873   -999.2500   -999.2500
  2774.5000      7.5631      2.4244      0.0503     13.6704   -999.2500   -999.2500
  2774.6000      7.5631      2.4383      0.0442     12.8296   -999.2500   -999.2500
  2774.7000      7.5631      2.4604      0.0731     11.4890   -999.2500   -999.2500
  2774.8000      7.5456      2.4762      0.1034     10.5332   -999.2500   -999.2500
  2774.9000      7.5456      2.4778      0.0861     10.4366   -999.2500   -999.2500
