~Version Information
 VERS.                                  2.0 : CWLS LAS VERSION
 WRAP.                                   NO : WRAPING MODE
 SWARE .                 MController 2.5.0J : SOFTWARE VERSION
~Well Information
 WELL.                         Norton 9-14V : WELL
 COMP.                       Petrogulf Corp : COMPANY
 FLD.                      Purgatoire River : FIELD
 LOC.                 SW/SW Sec 9 T33S R67W : LOCATION
 DATE.                             10/27/04 : DATE(S) LOGGED
 SRVC.      Blanco Geological Servivces LLC : SERVICE COMPANY
 STAT.                                   CO : STATE
 CNTY.                           Las Animas : COUNTY
 CTRY.                                  USA : COUNTRY
 API.                       05-071-07891-00 : API NUMBER
 STRT.FT                             752.00 : START DEPTH
 STOP.FT                            2427.00 : STOP DEPTH
 STEP.FT                               1.00 : DEPTH INCREMENT
 NULL.                                -9999 : NULL VALUE
~Curve information
 DEPTH.FT                                   :
 ROP.MIN/FT                                 :
 GAS.UNITS                                  :
~ASCII Log data
# ...
      1352.0         0.20         14.4 
      1353.0         0.17         14.5 
      1354.0         0.13         15.1 
      1355.0         0.27         14.1 
      1356.0         0.33         14.5 
      1357.0         0.30         13.9 
      1358.0         0.27         13.7 
      1359.0         0.22         15.0 
      1360.0         0.17         16.1 
      1361.0         0.17         17.2 
      1362.0         0.20         17.2 
      1363.0         0.17         18.2 
      1364.0         0.23         20.6 
      1365.0         0.17         20.6 
      1366.0         0.20         22.7 
      1367.0         0.20         22.7 
      1368.0         0.20         22.7 
      1369.0         0.17         21.0 
      1370.0         0.17         21.0 
      1371.0         0.20         19.6 
      1372.0         0.37         18.9 
      1373.0         0.17         16.6 
      1374.0         0.20         15.7 
      1375.0         0.28         15.9 
      1376.0         0.27         16.2 
      1377.0         0.40         15.4 
      1378.0         0.37         14.9 
      1379.0         0.35         15.5 
      1380.0         0.27         16.0 
      1381.0         0.43         15.8 
      1382.0         0.20         15.0 
      1383.0         0.37         14.6 
      1384.0         0.23         14.5 
      1385.0         0.30         14.4 
      1386.0         0.30         14.2 
      1387.0         0.23         14.8 
      1388.0         0.23         14.3 
      1389.0         0.37         13.9 
      1390.0         0.20         14.4 
      1391.0         0.18         14.5 
      1392.0         0.20         14.7 
      1393.0         0.17         23.0 
      1394.0         0.23         22.4 
      1395.0         0.17         22.3 
      1396.0         0.27         22.5 
      1397.0         0.30         21.0 
      1398.0         0.23         21.1 
      1399.0         0.23         17.6 
      1400.0         0.23         17.2 
      1401.0         0.20         16.4 
      1402.0         0.23         15.7 
      1403.0         0.33         15.0 
      1404.0         0.17         15.4 
      1405.0         0.13         15.4 
      1406.0         0.28         15.1 
      1407.0         0.38         14.6 
      1408.0         0.43         15.3 
      1409.0         0.30         14.9 
      1410.0         0.30         14.1 
      1411.0         0.37         15.2 
      1412.0         0.40         14.6 
      1413.0         0.40         13.5 
      1414.0         0.27         13.4 
      1415.0         0.23         14.0 
      1416.0         0.23         14.3 
      1417.0         0.18         18.5 
      1418.0         0.20         18.5 
      1419.0         0.17         18.8 
      1420.0         0.17         22.3 
      1421.0         0.17         24.3 
      1422.0         0.17         23.9 
      1423.0         0.17         23.9 
      1424.0         0.17         22.7 
      1425.0         0.17         23.0 
      1426.0         0.13         21.8 
      1427.0         0.13         21.8 
      1428.0         0.13         21.4 
      1429.0         0.13         19.8 
      1430.0         0.17         19.8 
      1431.0         0.27         18.6 
      1432.0         0.17         17.8 
      1433.0         0.17         17.6 
      1434.0         0.17         18.5 
      1435.0         0.27         18.5 
      1436.0         0.27         18.9 
      1437.0         0.23         17.7 
      1438.0         0.13         17.1 
      1439.0         0.13         17.1 
      1440.0         0.27         18.0 
      1441.0         0.18         18.0 
      1442.0         0.23         18.9 
      1443.0         0.37         17.3 
      1444.0         0.27         17.4 
      1445.0         0.17         15.9 
      1446.0         0.13         15.9 
      1447.0         0.13         15.8 
      1448.0         0.23         16.1 
      1449.0         0.30         15.7 
      1450.0         0.20         14.5 
      1451.0         0.23         17.6 
      1452.0         0.20         17.6 
      1453.0         0.20         19.6 
      1454.0         0.23         22.0 
      1455.0         0.20         25.6 
      1456.0         0.22         25.9 
      1457.0         0.20         26.3 
      1458.0         0.20         24.2 
      1459.0         0.17         22.5 
      1460.0         0.20         22.1 
      1461.0         0.20         20.0 
      1462.0         0.20         20.6 
      1463.0         0.23         18.4 
      1464.0         0.17         16.9 
      1465.0         0.20         14.9 
      1466.0         0.40         15.5 
      1467.0         0.27         15.9 
      1468.0         0.33         16.6 
      1469.0         0.30         16.4 
      1470.0         0.30         16.0 
      1471.0         0.27         15.8 
      1472.0         0.27         13.9 
      1473.0         0.27         13.4 
      1474.0         0.25         13.6 
      1475.0         0.20         13.5 
      1476.0         0.23         12.4 
      1477.0         0.20         13.5 
      1478.0         0.23         13.2 
      1479.0         0.23         15.2 
      1480.0         0.13         14.5 
      1481.0         0.23         17.1 
      1482.0         0.20         18.7 
      1483.0         0.20         20.7 
      1484.0         0.20         23.4 
      1485.0         0.17         24.5 
      1486.0         0.17         25.9 
      1487.0         0.13         25.9 
      1488.0         0.17         26.0 
      1489.0         0.17         26.0 
      1490.0         0.20         23.5 
      1491.0         0.17         22.9 
      1492.0         0.15         21.6 
      1493.0         0.17         20.2 
      1494.0         0.17         18.7 
      1495.0         0.17         16.1 
      1496.0         0.82         16.2 
      1497.0         0.07         13.1 
      1498.0         0.37         13.5 
      1499.0         0.30         12.2 
      1500.0         0.27         12.4 
      1501.0         0.27         13.8 
      1502.0         0.40         16.0 
      1503.0         0.27         15.0 
      1504.0         0.23         13.9 
      1505.0         0.30         14.0 
      1506.0         0.20         14.5 
      1507.0         0.17         13.9 
      1508.0         0.20         13.9 
      1509.0         0.13         14.7 
      1510.0         0.22         14.1 
      1511.0         0.23         24.0 
      1512.0         0.27         24.0 
      1513.0         0.27         24.9 
      1514.0         0.20         23.4 
      1515.0         0.17         21.5 
      1516.0         0.20         20.7 
      1517.0         0.30         20.3 
      1518.0         0.20         18.2 
      1519.0         0.17         18.4 
      1520.0         0.20         16.7 
      1521.0         0.20         16.8 
      1522.0         0.17         16.0 
      1523.0         0.17         16.0 
      1524.0         0.13         15.2 
      1525.0         0.20         15.1 
      1526.0         0.28         16.1 
      1527.0         0.27         16.5 
      1528.0         0.27         15.6 
      1529.0         0.20         14.6 
      1530.0         0.27         14.4 
      1531.0         0.33         14.4 
      1532.0         0.30         14.9 
      1533.0         0.33         15.4 
      1534.0         0.27         14.2 
      1535.0         0.27         14.1 
      1536.0         0.33         13.6 
      1537.0         0.35         14.7 
      1538.0         0.33         14.4 
      1539.0         0.23         15.3 
      1540.0         0.20         14.7 
      1541.0         0.27         16.3 
      1542.0         0.23         17.1 
      1543.0         0.17         20.0 
      1544.0         0.17         23.5 
      1545.0         0.20         25.2 
      1546.0         0.17         26.3 
      1547.0         0.17         27.7 
      1548.0         0.13         25.8 
      1549.0         0.27         24.4 
      1550.0         0.27         21.0 
      1551.0         0.17         19.6 
