~Version Information
VERS.                      2.0: CWLS Log ASCII Standard - VERSION 2.0
WRAP.                       NO: One line per depth step
~Well Information Block
STRT.FT                -7.0500: 
STOP.FT              3072.6000: 
STEP.FT                 0.0500: 
NULL.                -999.2500: 
COMP.          Pioneer Natural Resources: COMPANY
WELL.              Stones 24-8: WELL
FLD.           Purgatoire River: FIELD
LOC.           648' FSL & 2264' FWL--: LOCATION
PROV.                 Colorado: PROVINCE
CNTY.               Las Animas: COUNTRY
SRVC.                Patterson: SERVICE COMPANY
DATE.          Fri Feb 04 12:43:19 2005: LOG DATE
UWI.           05 071 07945 00: UNIQUE WELL ID
~Curve Information Block
DEPT.FT            0 000 00 00: Depth
CCL.                          : Casing Collar Locator
TT3.usec                      : CBL 3' Travel Time
AMP3.mV                       : CBL 3' Amplitude
GR.GAPI                       : Gamma Ray
~Parameter Information Block
~A  Depth       CCL         TT3         AMP3         GR     
# ...
  3054.8500      0.0000    833.4252      1.4240     67.8046
  3054.9000      0.0000    833.4252      1.4240     67.8046
  3054.9500      0.0000    833.4252      1.4240     67.8046
  3055.0000      0.0000    790.6541      1.4523     64.0117
  3055.0500      0.0000    790.6541      1.4523     64.0117
  3055.1000      0.0000    790.6541      1.4523     64.0117
  3055.1500      0.0000    790.6541      1.4523     64.0117
  3055.2000      0.0000    790.6541      1.4523     64.0117
  3055.2500      0.0000    742.7302      1.4725     61.9318
  3055.3000      0.0000    742.7302      1.4725     61.9318
  3055.3500      0.0000    742.7302      1.4725     61.9318
  3055.4000      0.0000    742.7302      1.4725     61.9318
  3055.4500      0.0000    742.7302      1.4725     61.9318
  3055.5000      0.0000    702.3037      1.4746     62.0347
  3055.5500      0.0000    702.3037      1.4746     62.0347
  3055.6000      0.0000    702.3037      1.4746     62.0347
  3055.6500      0.0000    702.3037      1.4746     62.0347
  3055.7000      0.0000    702.3037      1.4746     62.0347
  3055.7500      0.0000    675.3157      1.4595     63.0123
  3055.8000      0.0000    675.3157      1.4595     63.0123
  3055.8500      0.0000    675.3157      1.4595     63.0123
  3055.9000      0.0000    675.3157      1.4595     63.0123
  3055.9500      0.0000    675.3157      1.4595     63.0123
  3056.0000      0.0000    661.3702      1.4426     62.0688
  3056.0500      0.0000    661.3702      1.4426     62.0688
  3056.1000      0.0000    661.3702      1.4426     62.0688
  3056.1500      0.0000    661.3702      1.4426     62.0688
  3056.2000      0.0000    661.3702      1.4426     62.0688
  3056.2500      0.0000    657.4084      1.4478     56.2814
  3056.3000      0.0000    657.4084      1.4478     56.2814
  3056.3500      0.0000    657.4084      1.4478     56.2814
  3056.4000      0.0000    657.4084      1.4478     56.2814
  3056.4500      0.0000    657.4084      1.4478     56.2814
  3056.5000      0.0000    659.8068      1.4935     44.8621
  3056.5500      0.0000    659.8068      1.4935     44.8621
  3056.6000      0.0000    659.8068      1.4935     44.8621
  3056.6500      0.0000    659.8068      1.4935     44.8621
  3056.7000      0.0000    659.8068      1.4935     44.8621
  3056.7500      0.0000    664.3704      1.5818     30.3609
  3056.8000      0.0000    664.3704      1.5818     30.3609
  3056.8500      0.0000    664.3704      1.5818     30.3609
  3056.9000      0.0000    664.3704      1.5818     30.3609
  3056.9500      0.0000    664.3704      1.5818     30.3609
  3057.0000      0.0000    666.9164      1.6977     17.0290
  3057.0500      0.0000    666.9164      1.6977     17.0290
  3057.1000      0.0000    666.9164      1.6977     17.0290
  3057.1500      0.0000    666.9164      1.6977     17.0290
  3057.2000      0.0000    666.9164      1.6977     17.0290
  3057.2500      0.0000    665.3472      1.8191      7.7878
  3057.3000      0.0000    665.3472      1.8191      7.7878
  3057.3500      0.0000    665.3472      1.8191      7.7878
  3057.4000      0.0000    665.3472      1.8191      7.7878
  3057.4500      0.0000    665.3472      1.8191      7.7878
  3057.5000      0.0000    660.7796      1.9275      2.8710
  3057.5500      0.0000    660.7796      1.9275      2.8710
  3057.6000      0.0000    660.7796      1.9275      2.8710
  3057.6500      0.0000    660.7796      1.9275      2.8710
  3057.7000      0.0000    660.7796      1.9275      2.8710
  3057.7500      0.0000    655.9217      2.0121      0.8463
  3057.8000      0.0000    655.9217      2.0121      0.8463
  3057.8500      0.0000    655.9217      2.0121      0.8463
  3057.9000      0.0000    655.9217      2.0121      0.8463
  3057.9500      0.0000    655.9217      2.0121      0.8463
  3058.0000      0.0000    652.5604      2.0692      0.1981
  3058.0500      0.0000    652.5604      2.0692      0.1981
  3058.1000      0.0000    652.5604      2.0692      0.1981
  3058.1500      0.0000    652.5604      2.0692      0.1981
  3058.2000      0.0000    652.5604      2.0692      0.1981
  3058.2500      0.0000    650.8111      2.1016      0.0363
  3058.3000      0.0000    650.8111      2.1016      0.0363
  3058.3500      0.0000    650.8111      2.1016      0.0363
  3058.4000      0.0000    650.8111      2.1016      0.0363
  3058.4500      0.0000    650.8111      2.1016      0.0363
  3058.5000      0.0000    649.9972      2.1178      0.0046
  3058.5500      0.0000    649.9972      2.1178      0.0046
  3058.6000      0.0000    649.9972      2.1178      0.0046
  3058.6500      0.0000    649.9972      2.1178      0.0046
  3058.7000      0.0000    649.9972      2.1178      0.0046
  3058.7500      0.0000    649.5325      2.1257      0.0000
  3058.8000      0.0000    649.5325      2.1257      0.0000
  3058.8500      0.0000    649.5325      2.1257      0.0000
  3058.9000      0.0000    649.5325      2.1257      0.0000
  3058.9500      0.0000    649.5325      2.1257      0.0000
  3059.0000      0.0000    649.1540      2.1255   -999.2500
  3059.0500      0.0000    649.1540      2.1255   -999.2500
  3059.1000      0.0000    649.1540      2.1255   -999.2500
  3059.1500      0.0000    649.1540      2.1255   -999.2500
  3059.2000      0.0000    649.1540      2.1255   -999.2500
  3059.2500      0.0000    648.8096      2.1134   -999.2500
  3059.3000      0.0000    648.8096      2.1134   -999.2500
  3059.3500      0.0000    648.8096      2.1134   -999.2500
  3059.4000      0.0000    648.8096      2.1134   -999.2500
  3059.4500      0.0000    648.8096      2.1134   -999.2500
  3059.5000      0.0000    648.5240      2.0900   -999.2500
  3059.5500      0.0000    648.5240      2.0900   -999.2500
  3059.6000      0.0000    648.5240      2.0900   -999.2500
  3059.6500      0.0000    648.5240      2.0900   -999.2500
  3059.7000      0.0000    648.5240      2.0900   -999.2500
  3059.7500      0.0000    648.3075      2.0634   -999.2500
  3059.8000      0.0000    648.3075      2.0634   -999.2500
  3059.8500      0.0000    648.3075      2.0634   -999.2500
  3059.9000      0.0000    648.3075      2.0634   -999.2500
  3059.9500      0.0000    648.3075      2.0634   -999.2500
  3060.0000      0.0000    648.1378      2.0420   -999.2500
  3060.0500      0.0000    648.1378      2.0420   -999.2500
  3060.1000      0.0000    648.1378      2.0420   -999.2500
  3060.1500      0.0000    648.1378      2.0420   -999.2500
  3060.2000      0.0000    648.1378      2.0420   -999.2500
  3060.2500      0.0000    647.9308      2.0289   -999.2500
  3060.3000      0.0000    647.9308      2.0289   -999.2500
  3060.3500      0.0000    647.9308      2.0289   -999.2500
  3060.4000      0.0000    647.9308      2.0289   -999.2500
  3060.4500      0.0000    647.9308      2.0289   -999.2500
  3060.5000      0.0000    647.4589      2.0223   -999.2500
  3060.5500      0.0000    647.4589      2.0223   -999.2500
  3060.6000      0.0000    647.4589      2.0223   -999.2500
  3060.6500      0.0000    647.4589      2.0223   -999.2500
  3060.7000      0.0000    647.4589      2.0223   -999.2500
  3060.7500      0.0000    645.8015      2.0174   -999.2500
  3060.8000      0.0000    645.8015      2.0174   -999.2500
  3060.8500      0.0000    645.8015      2.0174   -999.2500
  3060.9000      0.0000    645.8015      2.0174   -999.2500
  3060.9500      0.0000    645.8015      2.0174   -999.2500
  3061.0000      0.0000    639.8920      2.0037   -999.2500
  3061.0500      0.0000    639.8920      2.0037   -999.2500
  3061.1000      0.0000    639.8920      2.0037   -999.2500
  3061.1500      0.0000    639.8920      2.0037   -999.2500
  3061.2000      0.0000    639.8920      2.0037   -999.2500
  3061.2500      0.0000    622.2076      1.9563   -999.2500
  3061.3000      0.0000    622.2076      1.9563   -999.2500
  3061.3500      0.0000    622.2076      1.9563   -999.2500
  3061.4000      0.0000    622.2076      1.9563   -999.2500
  3061.4500      0.0000    622.2076      1.9563   -999.2500
  3061.5000      0.0000    580.1457      1.8327   -999.2500
