~Version Information
VERS.                      2.0: CWLS Log ASCII Standard - VERSION 2.0
WRAP.                       NO: One line per depth step
~Well Information Block
STRT.FT               419.7500: 
STOP.FT              1170.0000: 
STEP.FT                 0.2500: 
NULL.                -999.2500: 
COMP.          Evergreen Operating Corporation: COMPANY
WELL.             Bernice 21-3: WELL
FLD.           Purgatoire River: FIELD
LOC.           201' FNL & 2575' FWL: LOCATION
PROV.                 Colorado: PROVINCE
CNTY.               Las Animas: COUNTRY
SRVC.                Patterson: SERVICE COMPANY
DATE.          Mon Jan 26 13:04:04 2004: LOG DATE
UWI.           05 071 07912   : UNIQUE WELL ID
~Curve Information Block
DEPT.FT            0 000 00 00: Depth
SN.Ohm-m                      : IEL Short Normal
SP.mV                         : IEL Spontaneous Potential
DIR.Ohm-m                     : IEL Induction Resistivity
GR.GAPI                       : Gamma Ray
~Parameter Information Block
~A  Depth        SN          SP         DIR          GR     
# ...
   553.7500   2000.0000   2000.0000     21.6376     77.0634
   554.0000   2000.0000   2000.0000     21.4187     76.6239
   554.2500   2000.0000   2000.0000     21.1412     75.8906
   554.5000   2000.0000   2000.0000     20.9757     74.2289
   554.7500   2000.0000   2000.0000     21.0445     73.0385
   555.0000   2000.0000   2000.0000     21.3883     71.6665
   555.2500   2000.0000   2000.0000     21.9594     71.1565
   555.5000   2000.0000   2000.0000     22.6478     70.9170
   555.7500   2000.0000   2000.0000     23.3293     70.9914
   556.0000   2000.0000   2000.0000     23.9129     71.2068
   556.2500   2000.0000   2000.0000     24.3637     71.2066
   556.5000   2000.0000   2000.0000     24.6854     70.5982
   556.7500   2000.0000   2000.0000     24.8913     69.7694
   557.0000   2000.0000   2000.0000     24.9856     68.4626
   557.2500   2000.0000   2000.0000     24.9646     67.9549
   557.5000   2000.0000   2000.0000     24.8336     67.7789
   557.7500   2000.0000   2000.0000     24.6247     67.7014
   558.0000   2000.0000   2000.0000     24.4149     67.1870
   558.2500   2000.0000   2000.0000     24.3143     66.6505
   558.5000   2000.0000   2000.0000     24.4125     65.9391
   558.7500   2000.0000   2000.0000     24.6929     65.6469
   559.0000   2000.0000   2000.0000     24.9878     65.4172
   559.2500   2000.0000   2000.0000     25.0548     65.2874
   559.5000   2000.0000   2000.0000     24.7623     65.0072
   559.7500   2000.0000   2000.0000     24.2006     64.8450
   560.0000   2000.0000   2000.0000     23.5813     64.9657
   560.2500   2000.0000   2000.0000     23.0510     65.3780
   560.5000   2000.0000   2000.0000     22.6097     66.3680
   560.7500   2000.0000   2000.0000     22.1608     67.3036
   561.0000   2000.0000   2000.0000     21.6171     69.7383
   561.2500   2000.0000   2000.0000     20.9578     72.5150
   561.5000   2000.0000   2000.0000     20.1989     78.5507
   561.7500   2000.0000   2000.0000     19.3436     83.3106
   562.0000   2000.0000   2000.0000     18.3820     90.1478
   562.2500   2000.0000   2000.0000     17.3350     93.9280
   562.5000   2000.0000   2000.0000     16.2771     98.6324
   562.7500   2000.0000   2000.0000     15.3052    101.8258
   563.0000   2000.0000   2000.0000     14.4913    107.8259
   563.2500   2000.0000   2000.0000     13.8559    112.7276
   563.5000   2000.0000   2000.0000     13.3724    120.5253
   563.7500   2000.0000   2000.0000     12.9883    125.1480
   564.0000   2000.0000   2000.0000     12.6515    129.8144
   564.2500   2000.0000   2000.0000     12.3312    131.0070
   564.5000   2000.0000   2000.0000     12.0237    130.4259
   564.7500   2000.0000   2000.0000     11.7454    129.3938
   565.0000   2000.0000   2000.0000     11.5222    128.6298
   565.2500   2000.0000   2000.0000     11.3821    129.1955
   565.5000   2000.0000   2000.0000     11.3497    131.6127
   565.7500   2000.0000   2000.0000     11.4415    133.9749
   566.0000   2000.0000   2000.0000     11.6606    137.9447
   566.2500   2000.0000   2000.0000     11.9939    140.2186
   566.5000   2000.0000   2000.0000     12.4132    141.7303
   566.7500   2000.0000   2000.0000     12.8778    141.0193
   567.0000   2000.0000   2000.0000     13.3353    137.5893
   567.2500   2000.0000   2000.0000     13.7299    134.1441
   567.5000   2000.0000   2000.0000     14.0306    127.6996
   567.7500   2000.0000   2000.0000     14.2727    122.5624
   568.0000   2000.0000   2000.0000     14.5677    113.5605
   568.2500   2000.0000   2000.0000     15.0534    106.9497
   568.5000   2000.0000   2000.0000     15.8163     97.2512
   568.7500   2000.0000   2000.0000     16.8261     91.7871
   569.0000   2000.0000   2000.0000     17.9124     86.2192
   569.2500   2000.0000   2000.0000     18.8169     84.4705
   569.5000   2000.0000   2000.0000     19.3324     84.4033
   569.7500   2000.0000   2000.0000     19.4343     85.5373
   570.0000   2000.0000   2000.0000     19.2758     88.0112
   570.2500   2000.0000   2000.0000     19.0685     89.7925
   570.5000   2000.0000   2000.0000     18.9705     92.6164
   570.7500   2000.0000   2000.0000     19.0416     94.8325
   571.0000   2000.0000   2000.0000     19.2483     98.9785
   571.2500   2000.0000   2000.0000     19.4881    102.0927
   571.5000   2000.0000   2000.0000     19.6372    105.9109
   571.7500   2000.0000   2000.0000     19.6099    106.7103
   572.0000   2000.0000   2000.0000     19.3993    103.9908
   572.2500   2000.0000   2000.0000     19.0642     99.8963
   572.5000   2000.0000   2000.0000     18.6819     92.5595
   572.7500   2000.0000   2000.0000     18.3097     88.3053
   573.0000   2000.0000   2000.0000     17.9706     84.2970
   573.2500   2000.0000   2000.0000     17.6612     83.4729
   573.5000   2000.0000   2000.0000     17.3732     85.3580
   573.7500   2000.0000   2000.0000     17.1127     89.0728
   574.0000   2000.0000   2000.0000     16.9020     98.8160
   574.2500   2000.0000   2000.0000     16.7618    107.8172
   574.5000   2000.0000   2000.0000     16.6911    123.1639
   574.7500   2000.0000   2000.0000     16.6628    132.9944
   575.0000   2000.0000   2000.0000     16.6380    144.7372
   575.2500   2000.0000   2000.0000     16.5869    149.8331
   575.5000   2000.0000   2000.0000     16.4991    153.1259
   575.7500   2000.0000   2000.0000     16.3829    152.5763
   576.0000   2000.0000   2000.0000     16.2604    148.1606
   576.2500   2000.0000   2000.0000     16.1642    143.3213
   576.5000   2000.0000   2000.0000     16.1342    134.4406
   576.7500   2000.0000   2000.0000     16.2056    128.1743
   577.0000   2000.0000   2000.0000     16.3946    119.1419
   577.2500   2000.0000   2000.0000     16.6888    113.6967
   577.5000   2000.0000   2000.0000     17.0529    106.9924
   577.7500   2000.0000   2000.0000     17.4393    103.9178
   578.0000   2000.0000   2000.0000     17.8005    101.8867
   578.2500   2000.0000   2000.0000     18.1003    102.1156
   578.5000   2000.0000   2000.0000     18.3247    103.8062
   578.7500   2000.0000   2000.0000     18.4847    105.1269
   579.0000   2000.0000   2000.0000     18.6031    106.7220
   579.2500   2000.0000   2000.0000     18.6945    107.4679
   579.5000   2000.0000   2000.0000     18.7593    108.2375
   579.7500   2000.0000   2000.0000     18.7910    108.5957
   580.0000   2000.0000   2000.0000     18.7771    108.8855
   580.2500   2000.0000   2000.0000     18.6926    108.7725
   580.5000   2000.0000   2000.0000     18.5053    107.8303
   580.7500   2000.0000   2000.0000     18.1997    106.6130
   581.0000   2000.0000   2000.0000     17.8012    104.0914
   581.2500   2000.0000   2000.0000     17.3703    102.2617
   581.5000   2000.0000   2000.0000     16.9789    100.2455
   581.7500   2000.0000   2000.0000     16.6831    100.0684
   582.0000   2000.0000   2000.0000     16.5041    102.3733
   582.2500   2000.0000   2000.0000     16.4209    105.6259
   582.5000   2000.0000   2000.0000     16.3811    112.2414
   582.7500   2000.0000   2000.0000     16.3308    117.0484
   583.0000   2000.0000   2000.0000     16.2405    123.6120
   583.2500   2000.0000   2000.0000     16.1005    126.9890
   583.5000   2000.0000   2000.0000     15.9003    129.6636
   583.7500   2000.0000   2000.0000     15.6267    129.3233
   584.0000   2000.0000   2000.0000     15.2875    125.2094
   584.2500   2000.0000   2000.0000     14.9237    120.5316
   584.5000   2000.0000   2000.0000     14.5919    112.7293
   584.7500   2000.0000   2000.0000     14.3378    108.5130
   585.0000   2000.0000   2000.0000     14.1865    105.6639
   585.2500   2000.0000   2000.0000     14.1443    106.7441
   585.5000   2000.0000   2000.0000     14.1995    113.1796
   585.7500   2000.0000   2000.0000     14.3213    120.2000
   586.0000   2000.0000   2000.0000     14.4684    132.4412
   586.2500   2000.0000   2000.0000     14.6063    139.8105
   586.5000   2000.0000   2000.0000     14.7226    146.9385
   586.7500   2000.0000   2000.0000     14.8250    148.3773
   587.0000   2000.0000   2000.0000     14.9290    145.8011
