~Version Information
VERS.                      2.0: CWLS Log ASCII Standard - VERSION 2.0
WRAP.                       NO: One line per depth step
~Well Information Block
STRT.FT               954.4000: 
STOP.FT              2380.0000: 
STEP.FT                 0.1000: 
NULL.                -999.2500: 
COMP.          Petrogulf Corporation: COMPANY
WELL.             State 16-24V: WELL
FLD.           Purgatorie River: FIELD
LOC.           481' FSL & 2419' FWL: LOCATION
CNTY.               Las Animas: COUNTY
SRVC.                         : SERVICE COMPANY
DATE.          Tue May 04 07:31:25 2004: LOG DATE
UWI.           05 071 08014 00: UNIQUE WELL ID
STAT.                 Colorado: STATE
~Curve Information Block
DEPT.FT            0 000 00 00: Depth
DCAL.in                       : CDL Caliper
RHOB.g/cc                     : CDL Bulk Density
RHOC.g/cc                     : CDL Density Correction
DPOR.pu                       : CDL Density Porosity
GR.GAPI                       : Gamma Ray
~Parameter Information Block
~A  Depth       DCAL        RHOB        RHOC        DPOR         GR     
# ...
  1436.0000      7.8708      2.5256      0.0358      7.5379    158.2663
  1436.1000      7.8708      2.5199     -0.0489      7.8826    157.4178
  1436.2000      7.8708      2.5300      0.1039      7.2739    151.2552
  1436.3000      7.8683      2.5525      0.0846      5.9100    141.3697
  1436.4000      7.8683      2.5755      0.1326      4.5123    136.5045
  1436.5000      7.8478      2.5832      0.1023      4.0511    140.9738
  1436.6000      7.8478      2.5826      0.0475      4.0862    154.0495
  1436.7000      7.8478      2.5887      0.1489      3.7147    164.3735
  1436.8000      7.8569      2.5874      0.1746      3.7928    157.1135
  1436.9000      7.8569      2.5742      0.0662      4.5963    140.3682
  1437.0000      7.8615      2.5627      0.1097      5.2888    130.9976
  1437.1000      7.8615      2.5518      0.1450      5.9502    132.1235
  1437.2000      7.8615      2.5440      0.0589      6.4237    139.8999
  1437.3000      7.8761      2.5537      0.0745      5.8376    145.5292
  1437.4000      7.8761      2.5764      0.0920      4.4585    144.9638
  1437.5000      7.8746      2.5935      0.1086      3.4256    140.8236
  1437.6000      7.8746      2.5914      0.1043      3.5505    134.8841
  1437.7000      7.8746      2.5741      0.0782      4.5989    134.1284
  1437.8000      7.8638      2.5671      0.0649      5.0248    139.4757
  1437.9000      7.8638      2.5822      0.0600      4.1088    146.2589
  1438.0000      7.8741      2.5982     -0.0121      3.1418    157.2764
  1438.1000      7.8741      2.5880      0.0222      3.7579    169.2309
  1438.2000      7.8741      2.5513      0.0060      5.9817    167.5279
  1438.3000      7.8903      2.5224     -0.0774      7.7323    155.0940
  1438.4000      7.8903      2.5185      0.0177      7.9706    151.3255
  1438.5000      7.8955      2.5196      0.0110      7.9027    154.4713
  1438.6000      7.8955      2.5242     -0.0411      7.6249    152.2066
  1438.7000      7.8955      2.5510      0.0396      6.0017    151.4008
  1438.8000      7.9108      2.5978      0.0309      3.1631    159.0026
  1438.9000      7.9108      2.6316      0.1014      1.1148    167.3058
  1439.0000      7.9096      2.6267      0.1204      1.4150    167.1489
  1439.1000      7.9096      2.6236      0.0195      1.6014    153.3008
  1439.2000      7.9096      2.6641      0.1833     -0.8570    131.6946
  1439.3000      7.9055      2.6993      0.2005     -2.9856    120.4631
  1439.4000      7.9055      2.6612      0.1428     -0.6799    126.6719
  1439.5000      7.8515      2.5621      0.0623      5.3294    133.9944
  1439.6000      7.8515      2.4900     -0.0925      9.6943    136.1607
  1439.7000      7.8515      2.4994      0.0019      9.1253    141.3180
  1439.8000      7.8487      2.5345      0.1042      7.0014    144.5504
  1439.9000      7.8487      2.5323      0.0588      7.1346    137.6157
  1440.0000      7.8492      2.5135     -0.0151      8.2717    125.2420
  1440.1000      7.8492      2.5078      0.0451      8.6190    119.3521
  1440.2000      7.8492      2.5041      0.0392      8.8427    123.5189
  1440.3000      7.8631      2.4913      0.0804      9.6168    128.2115
  1440.4000      7.8631      2.4820     -0.0785     10.1789    126.0338
  1440.5000      7.8698      2.4949      0.0154      9.3984    121.6565
  1440.6000      7.8698      2.5187      0.1055      7.9551    122.1675
  1440.7000      7.8698      2.5244      0.0964      7.6147    131.6695
  1440.8000      7.8846      2.5057      0.0697      8.7480    141.9873
  1440.9000      7.8846      2.4915      0.0874      9.6076    139.6254
  1441.0000      7.8881      2.5036      0.0832      8.8718    131.3694
  1441.1000      7.8881      2.5267      0.1846      7.4747    131.7087
  1441.2000      7.8881      2.5467      0.1264      6.2594    148.6626
  1441.3000      7.8746      2.5732      0.1742      4.6542    169.7251
  1441.4000      7.8746      2.6110      0.1490      2.3614    174.2214
  1441.5000      7.8884      2.6491      0.3717      0.0552    165.7386
  1441.6000      7.8884      2.6729      0.2986     -1.3891    157.1264
  1441.7000      7.8884      2.6816      0.3010     -1.9181    152.7214
  1441.8000      7.8649      2.6753      0.3574     -1.5319    152.4568
  1441.9000      7.8649      2.6531      0.2691     -0.1850    151.5171
  1442.0000      7.8657      2.6253      0.2511      1.4975    150.5921
  1442.1000      7.8657      2.6068      0.1416      2.6152    157.9242
  1442.2000      7.8657      2.6086      0.1065      2.5084    168.3366
  1442.3000      7.8785      2.6151      0.2167      2.1158    175.0172
  1442.4000      7.8785      2.5950      0.1930      3.3360    181.6799
  1442.5000      7.8943      2.5525      0.1442      5.9079    183.4348
  1442.6000      7.8943      2.5328      0.0589      7.1006    175.6238
  1442.7000      7.8943      2.5684      0.0530      4.9482    166.3639
  1442.8000      7.9120      2.6242      0.2063      1.5653    161.4954
  1442.9000      7.9120      2.6397      0.1440      0.6216    160.5891
  1443.0000      7.9037      2.6206      0.0929      1.7792    162.0797
  1443.1000      7.9037      2.5960      0.2209      3.2741    158.7560
  1443.2000      7.9037      2.5478      0.1470      6.1938    149.1388
  1443.3000      7.9109      2.4677      0.0015     11.0510    143.9271
  1443.4000      7.9109      2.3856      0.0048     16.0237    153.4310
  1443.5000      7.9195      2.3248     -0.0961     19.7116    175.9281
  1443.6000      7.9195      2.2742      0.0265     22.7776    195.6337
  1443.7000      7.9195      2.1992      0.0762     27.3187    199.6553
  1443.8000      7.9247      2.1087      0.0331     32.8054    192.5972
  1443.9000      7.9247      2.0573      0.0129     35.9225    178.1344
  1444.0000      7.9210      2.0624      0.0913     35.6136    157.2031
  1444.1000      7.9210      2.0881      0.1483     34.0541    146.0668
  1444.2000      7.9210      2.1095      0.1669     32.7602    153.1615
  1444.3000      7.9251      2.1425      0.1955     30.7599    172.1738
  1444.4000      7.9251      2.1955      0.3134     27.5474    192.2896
  1444.5000      7.9326      2.2358      0.2684     25.1038    191.8417
  1444.6000      7.9326      2.2395      0.2168     24.8780    173.1154
  1444.7000      7.9326      2.2319      0.1383     25.3404    163.2332
  1444.8000      7.9533      2.2626      0.0049     23.4807    163.5470
  1444.9000      7.9533      2.3454      0.0995     18.4597    164.0597
  1445.0000      8.0421      2.4343      0.1806     13.0723    170.5298
  1445.1000      8.0421      2.4804      0.2037     10.2763    182.3627
  1445.2000      8.0421      2.4895      0.1424      9.7296    190.7246
  1445.3000      8.0365      2.5093      0.1300      8.5245    189.7278
  1445.4000      8.0365      2.5653      0.2661      5.1325    178.6212
  1445.5000      7.9630      2.6313      0.2124      1.1331    168.2722
  1445.6000      7.9630      2.6750      0.2093     -1.5139    167.1550
  1445.7000      7.9630      2.6773      0.2337     -1.6524    170.8824
  1445.8000      7.9507      2.6364      0.2301      0.8270    175.6650
  1445.9000      7.9507      2.5835      0.1667      4.0286    175.8582
  1446.0000      7.9546      2.5495      0.0893      6.0881    160.7438
  1446.1000      7.9546      2.5312      0.0989      7.2022    142.0012
  1446.2000      7.9546      2.5114      0.1131      8.3977    138.1761
  1446.3000      7.9610      2.4899      0.0109      9.7047    142.7260
  1446.4000      7.9610      2.4784      0.0473     10.3986    144.2973
  1446.5000      7.9353      2.4792      0.1301     10.3501    146.1066
  1446.6000      7.9353      2.4841      0.1012     10.0561    150.8987
  1446.7000      7.9353      2.4827      0.0859     10.1383    157.9820
  1446.8000      7.9413      2.4679      0.0904     11.0336    163.2152
  1446.9000      7.9413      2.4322      0.1163     13.2023    158.5710
  1447.0000      7.9273      2.3834      0.0047     16.1573    148.2872
  1447.1000      7.9273      2.3596      0.0635     17.5992    147.6362
