~Version Information
 VERS.                                  2.0 : CWLS LAS VERSION
 WRAP.                                   NO : WRAPING MODE
 SWARE .                 MController 2.5.0J : SOFTWARE VERSION
~Well Information
 WELL.                          Silva 1-43R : WELL
 COMP.                Petrogulf Corporation : COMPANY
 FLD.                       Purgatory River : FIELD
 LOC.                  NE/SE sec1 T33S R68W : LOCATION
 DATE.                    6/16/06 - 6/17/06 : DATE(S) LOGGED
 SRVC.      Blanco Geological Services, LLC : SERVICE COMPANY
 STAT.                             Colorado : STATE
 CNTY.                           Las Animas : COUNTY
 CTRY.                                  USA : COUNTRY
 API.                       05-071-08372-00 : API NUMBER
 STRT.FT                              12.00 : START DEPTH
 STOP.FT                            2210.00 : STOP DEPTH
 STEP.FT                               1.00 : DEPTH INCREMENT
 NULL.                                -9999 : NULL VALUE
~Curve information
 DEPTH.FT                                   :
 ROP.MIN/FT                                 :
 GAS.UNITS                                  :
~ASCII Log data
# ...
      1612.0         0.55         14.9 
      1613.0         0.50         14.7 
      1614.0         0.47         14.8 
      1615.0         0.50         14.7 
      1616.0         3.62         31.4 
      1617.0         0.50         89.3 
      1618.0         0.67        165.7 
      1619.0         0.58         99.4 
      1620.0         0.57         84.4 
      1621.0         0.60         69.5 
      1622.0         0.60         43.4 
      1623.0         0.53         27.2 
      1624.0         0.50         21.4 
      1625.0         0.52         18.0 
      1626.0         0.50         16.1 
      1627.0         0.53         15.7 
      1628.0         0.50         15.6 
      1629.0         0.50         16.2 
      1630.0         0.53         15.8 
      1631.0         0.53         16.0 
      1632.0         0.58         16.0 
      1633.0         0.57         16.1 
      1634.0         0.47         15.9 
      1635.0         0.53         15.8 
      1636.0         0.43         16.1 
      1637.0         0.43         16.4 
      1638.0         0.48         24.3 
      1639.0         0.43         25.3 
      1640.0         0.43         20.6 
      1641.0         0.40         17.5 
      1642.0         0.53         16.2 
      1643.0         0.47         15.6 
      1644.0         0.60         15.3 
      1645.0         0.88         14.9 
      1646.0         5.92        176.6 
      1647.0         0.58         94.5 
      1648.0         0.43         73.3 
      1649.0         0.60         69.4 
      1650.0         0.67         42.9 
      1651.0         0.57         25.8 
      1652.0         0.37         22.4 
      1653.0         0.45         19.8 
      1654.0         0.53         17.7 
      1655.0         0.57         15.4 
      1656.0         0.53         15.4 
      1657.0         0.43         15.0 
      1658.0         0.33         14.7 
      1659.0         0.33         14.6 
      1660.0         0.37         15.0 
      1661.0         0.42         15.3 
      1662.0         0.30         15.3 
      1663.0         0.30         15.0 
      1664.0         0.27         15.1 
      1665.0         0.73         14.8 
      1666.0         0.33         14.8 
      1667.0         0.33         14.7 
      1668.0         0.30         14.8 
      1669.0         0.30         14.6 
      1670.0         0.35         14.4 
      1671.0         0.47         14.9 
      1672.0         0.37         15.5 
      1673.0         0.50         16.4 
      1674.0         0.40         17.6 
      1675.0         0.40         17.0 
      1676.0         3.95        156.7 
      1677.0         0.72        135.2 
      1678.0         0.50         78.7 
      1679.0         0.37         83.1 
      1680.0         0.80         74.7 
      1681.0         0.63         43.6 
      1682.0         0.53         30.0 
      1683.0         0.38         25.8 
      1684.0         0.47         21.7 
      1685.0         0.40         18.9 
      1686.0         0.43         16.9 
      1687.0         0.40         17.0 
      1688.0         0.43         17.4 
      1689.0         0.33         17.4 
      1690.0         0.40         16.2 
      1691.0         0.27         15.6 
      1692.0         0.32         15.5 
      1693.0         0.37         15.7 
      1694.0         0.40         15.6 
      1695.0         0.87         16.0 
      1696.0         0.53         16.2 
      1697.0         0.43         16.1 
      1698.0         0.33         15.9 
      1699.0         0.35         15.8 
      1700.0         0.37         15.4 
      1701.0         0.40         15.2 
      1702.0         0.37         15.8 
      1703.0         0.43         15.7 
      1704.0         0.50         15.7 
      1705.0         0.57         16.3 
      1706.0         4.40        116.3 
      1707.0         0.73        241.8 
      1708.0         0.97         83.9 
      1709.0         0.80         83.0 
      1710.0         0.78         54.7 
      1711.0         0.43         38.1 
      1712.0         0.73         27.6 
      1713.0         0.40         22.8 
      1714.0         0.40         18.7 
      1715.0         0.67         15.7 
      1716.0         0.52         15.2 
      1717.0         0.60         14.4 
      1718.0         0.67         14.5 
      1719.0         0.47         14.3 
      1720.0         0.33         14.9 
      1721.0         0.53         14.6 
      1722.0         0.72         14.6 
      1723.0         0.60         14.6 
      1724.0         0.53         14.5 
      1725.0         0.70         14.4 
      1726.0         0.67         14.6 
      1727.0         0.40         14.6 
      1728.0         0.38         14.6 
      1729.0         0.33         15.2 
      1730.0         0.30         15.0 
      1731.0         0.33         15.3 
      1732.0         0.37         15.0 
      1733.0         0.37         14.9 
      1734.0         0.37         15.1 
      1735.0         0.53         15.1 
      1736.0         5.50        183.3 
      1737.0         0.67        176.6 
      1738.0         0.80         85.4 
      1739.0         0.62         87.9 
      1740.0         0.33         76.5 
      1741.0         0.43         56.6 
      1742.0         0.37         42.7 
      1743.0         0.40         33.7 
      1744.0         0.53         28.9 
      1745.0         0.60         23.9 
      1746.0         0.58         18.8 
      1747.0         0.63         16.5 
      1748.0         0.67         15.7 
      1749.0         0.43         16.0 
      1750.0         0.37         15.7 
      1751.0         0.43         15.9 
      1752.0         0.37         15.7 
      1753.0         0.38         15.4 
      1754.0         0.43         16.0 
      1755.0         0.40         16.2 
      1756.0         0.33         15.8 
      1757.0         0.37         16.1 
      1758.0         0.40         16.1 
      1759.0         0.47         15.9 
      1760.0         0.57         16.2 
      1761.0         0.38         16.1 
      1762.0         0.17         16.2 
      1763.0         0.30         15.7 
      1764.0         0.37         15.9 
      1765.0         0.47         15.7 
      1766.0         4.78        186.1 
      1767.0         0.68        135.6 
      1768.0         0.53        106.0 
      1769.0         0.73         83.6 
      1770.0         0.63         55.7 
      1771.0         0.57         36.7 
      1772.0         0.57         28.9 
      1773.0         0.58         22.5 
      1774.0         0.57         18.1 
      1775.0         0.60         16.5 
      1776.0         0.63         16.3 
      1777.0         0.60         15.8 
      1778.0         0.72         16.1 
      1779.0         0.70         15.4 
      1780.0         0.73         16.5 
      1781.0         0.70         16.3 
      1782.0         0.73         15.8 
      1783.0         0.88         15.6 
      1784.0         0.90         15.9 
      1785.0         0.90         16.1 
      1786.0         0.92         16.1 
      1787.0         0.90         16.2 
      1788.0         0.87         16.1 
      1789.0         0.83         16.5 
      1790.0         0.85         17.1 
      1791.0         0.63         17.4 
      1792.0         0.37         17.1 
      1793.0         0.33         17.1 
      1794.0         0.67         16.6 
      1795.0         0.97         16.6 
      1796.0         7.48        134.4 
      1797.0         0.43        163.0 
      1798.0         0.43        122.8 
      1799.0         0.53        111.3 
      1800.0         0.57        100.7 
      1801.0         0.73         61.0 
      1802.0         0.38         52.0 
      1803.0         0.30         47.8 
      1804.0         0.20         46.6 
      1805.0         0.33         49.9 
      1806.0         0.43         59.2 
      1807.0         0.43         53.0 
      1808.0         0.40         41.5 
      1809.0         0.37         38.0 
      1810.0         0.37         36.1 
      1811.0         0.45         31.7 
