~Version Information
VERS.                      2.0: CWLS Log ASCII Standard - VERSION 2.0
WRAP.                       NO: One line per depth step
~Well Information Block
STRT.FT                -7.5000: 
STOP.FT              1716.7500: 
STEP.FT                 0.2500: 
NULL.                -999.2500: 
COMP.          Pioneer Natural Resources: COMPANY
WELL.          Lookout Point 31-23 Tr: WELL
FLD.           Purgatorie River: FIELD
LOC.           541' FNL & 1786' FEL--------: LOCATION
PROV.                       CO: PROVINCE
CNTY.               Las Animas: COUNTRY
SRVC.                         : SERVICE COMPANY
DATE.          Fri Jan 28 08:30:47 2005: LOG DATE
UWI.         005 071 08260 : UNIQUE WELL ID
~Curve Information Block
DEPT.FT            0 000 00 00: Depth
CCL.                          : Casing Collar Locator
TT3.usec                      : CBL 3' Travel Time
AMP3.mV                       : CBL 3' Amplitude
GR.GAPI                       : Gamma Ray
~Parameter Information Block
~A  Depth       CCL         TT3         AMP3         GR     
# ...
   327.5000     -2.0000    751.6239      3.7956     71.7184
   327.7500     -2.0000    757.2556      3.8843     76.8152
   328.0000      0.0000    764.8577      4.0117     81.2474
   328.2500      0.0000    770.7137      4.1816     83.4210
   328.5000      0.0000    772.8608      4.3912     83.3593
   328.7500      0.0000    773.0217      4.5993     82.2383
   329.0000      0.0000    774.7086      4.7286     81.0669
   329.2500      0.0000    779.6053      4.7262     79.8359
   329.5000      0.0000    786.2532      4.6195     78.1956
   329.7500      0.0000    792.0374      4.4937     76.8417
   330.0000      0.0000    795.5848      4.4164     77.6211
   330.2500      0.0000    797.0798      4.3996     81.8644
   330.5000      0.0000    797.1183      4.4224     88.8501
   330.7500      0.0000    795.7357      4.4687     96.3052
   331.0000      0.0000    792.3093      4.5354    102.0589
   331.2500      0.0000    786.2569      4.6131    104.8077
   331.5000      0.0000    777.9906      4.6798    104.2618
   331.7500      0.0000    769.2975      4.7197    101.6375
   332.0000      0.0000    762.8223      4.7345     99.2657
   332.2500      0.0000    760.9996      4.7313     98.5887
   332.5000      0.0000    764.5747      4.7149     98.8378
   332.7500      0.0000    771.2470      4.7020     98.1949
   333.0000      0.0000    776.1691      4.7227     95.8818
   333.2500      0.0000    774.8972      4.7944     92.8578
   333.5000      0.0000    766.4788      4.9041     90.8614
   333.7500      0.0000    753.9114      5.0238     91.1426
   334.0000      0.0000    741.8022      5.1324     93.9813
   334.2500      0.0000    733.5738      5.2141     98.8230
   334.5000      0.0000    730.5464      5.2490    104.3581
   334.7500      0.0000    732.7747      5.2246    108.8138
   335.0000      0.0000    739.6247      5.1544    111.0524
   335.2500      0.0000    749.1716      5.0741    111.6466
   335.5000      0.0000    757.9724      5.0193    112.4283
   335.7500      0.0000    762.6989      5.0108    114.5743
   336.0000      0.0000    762.4108      5.0534    117.2671
   336.2500      0.0000    759.0454      5.1318    118.7338
   336.5000      0.0000    755.8439      5.2093    118.5334
   336.7500      0.0000    755.3615      5.2471    117.9949
   337.0000      0.0000    758.4905      5.2313    118.2855
   337.2500      0.0000    764.6877      5.1771    118.9276
   337.5000      0.0000    772.4612      5.1032    118.4712
   337.7500      0.0000    779.5143      5.0100    115.9214
   338.0000      0.0000    783.2964      4.8924    111.3154
   338.2500      0.0000    782.2643      4.7650    105.6557
   338.5000      0.0000    776.6876      4.6612    100.7570
   338.7500      0.0000    768.3737      4.6053     98.6194
   339.0000      0.0000    759.9255      4.5957    100.2564
   339.2500      0.0000    753.8984      4.6192    104.9456
   339.5000      0.0000    751.6855      4.6666    110.6986
   339.7500      0.0000    752.9186      4.7275    115.5004
   340.0000      0.0000    756.2865      4.7825    118.2301
   340.2500      0.0000    760.7503      4.8155    118.7059
   340.5000      0.0000    765.6775      4.8309    117.3154
   340.7500      0.0000    770.0804      4.8441    114.7732
   341.0000      0.0000    772.1549      4.8552    111.7927
   341.2500      0.0000    770.0208      4.8450    108.6680
   341.5000      0.0000    763.7335      4.8054    105.5878
   341.7500      0.0000    756.7220      4.7616    103.4934
   342.0000      0.0000    754.0999      4.7488    103.8404
   342.2500      0.0000    758.4913      4.7696    107.0582
   342.5000      0.0000    767.6464      4.7874    111.9361
   342.7500      0.0000    776.6147      4.7684    116.9684
   343.0000      0.0000    782.0637      4.7155    121.6615
   343.2500      0.0000    784.2274      4.6559    126.0789
   343.5000      0.0000    785.2047      4.6044    129.7487
   343.7500      0.0000    786.3948      4.5554    131.6388
   344.0000      0.0000    787.8076      4.5066    130.9972
   344.2500      0.0000    788.8339      4.4745    127.9238
   344.5000      0.0000    788.6741      4.4752    123.4054
   344.7500      0.0000    786.4398      4.4974    118.9352
   345.0000      0.0000    782.0587      4.5060    115.7022
   345.2500      0.0000    777.2944      4.4765    113.9041
   345.5000      0.0000    774.8923      4.4176    112.8369
   345.7500      0.0000    776.0211      4.3582    111.4876
   346.0000      0.0000    778.9796      4.3160    108.9926
   346.2500      0.0000    780.8831      4.2868    104.9083
   346.5000      0.0000    780.2307      4.2623     99.6162
   346.7500      0.0000    777.4493      4.2473     94.6597
   347.0000      0.0000    773.6284      4.2513     92.2295
   347.2500      0.0000    769.6827      4.2662     93.6366
   347.5000      0.0000    766.6346      4.2640     98.0445
   347.7500      0.0000    765.6188      4.2241    102.8087
   348.0000      0.0000    766.9657      4.1583    105.3204
   348.2500      0.0000    769.7513      4.1024    105.0777
   348.5000      0.0000    772.7656      4.0819    104.1994
   348.7500      0.0000    775.6273      4.0920    105.5307
   349.0000      0.0000    778.5491      4.1153    109.7532
   349.2500      0.0000    781.2273      4.1574    114.3250
   349.5000      0.0000    782.3900      4.2532    115.5359
   349.7500      0.0000    780.5214      4.4312    111.8192
   350.0000      0.0000    774.8560      4.6791    105.2035
   350.2500      0.0000    765.7263      4.9498     99.7315
   350.5000      0.0000    754.5203      5.1948     98.3647
   350.7500      0.0000    743.5779      5.3834    100.9813
   351.0000      0.0000    735.5820      5.4946    104.9943
   351.2500      0.0000    732.2815      5.5097    107.5608
   351.5000      0.0000    733.5491      5.4244    107.1122
   351.7500      0.0000    737.5370      5.2674    103.4064
   352.0000      0.0000    741.6418      5.0962     97.1737
   352.2500      0.0000    743.6398      4.9628     90.1473
   352.5000      0.0000    742.5749      4.8826     84.8087
   352.7500      0.0000    739.1124      4.8402     83.2056
   353.0000      0.0000    735.1404      4.8231     85.6487
   353.2500      0.0000    732.6229      4.8443     90.6102
   353.5000      0.0000    732.2606      4.9270     95.7959
   353.7500      0.0000    732.9370      5.0713     99.3582
   354.0000      0.0000    732.6186      5.2439    100.6574
   354.2500      0.0000    730.0905      5.4098    100.3779
   354.5000      0.0000    725.7698      5.5684     99.6937
   354.7500      0.0000    720.6939      5.7522     98.9768
   355.0000      0.0000    715.0583      5.9845     97.5481
   355.2500      0.0000    708.1501      6.2436     94.8782
   355.5000      0.0000    699.6561      6.4757     91.6890
   355.7500      0.0000    690.6255      6.6427     89.4097
   356.0000      0.0000    682.8890      6.7531     88.5097
   356.2500      0.0000    677.6957      6.8434     87.7779
   356.5000      0.0000    675.1567      6.9324     85.6086
   356.7500      0.0000    674.8082      7.0043     81.8121
   357.0000      0.0000    676.2090      7.0359     77.7879
   357.2500      0.0000    678.7825      7.0317     74.9413
   357.5000      0.0000    681.4589      7.0203     73.3088
   357.7500      0.0000    683.1608      7.0174     71.9369
   358.0000      0.0000    683.9139      7.0011     70.3138
   358.2500      0.0000    684.8710      6.9333     68.9909
   358.5000      0.0000    686.6159      6.8039     68.9450
   358.7500      0.0000    687.8505      6.6464     70.7524
   359.0000      0.0000    686.5434      6.5086     74.1479
   359.2500      0.0000    682.2318      6.4098     77.7559
   359.5000      0.0000    676.5360      6.3269     79.3860
   359.7500      0.0000    671.5303      6.2221     77.3173
   360.0000      0.0000    668.2141      6.0861     71.8536
   360.2500      0.0000    666.4631      5.9520     65.6543
   360.5000      0.0000    665.7538      5.8622     62.0123
   360.7500      0.0000    665.6895      5.8227     62.2862
