~Version Information
VERS.                      2.0: CWLS Log ASCII Standard - VERSION 2.0
WRAP.                       NO: One line per depth step
~Well Information Block
STRT.FT                -9.2500: 
STOP.FT              2685.7500: 
STEP.FT                 0.2500: 
NULL.                -999.2500: 
COMP.          Pioneer Natural Resources: COMPANY
WELL.          Beacon 11-18 Tr: WELL
FLD.           Purgatorie River: FIELD
LOC.           409' FNL & 203' FWL--: LOCATION
PROV.                       CO: PROVINCE
CNTY.               Las Animas: COUNTRY
SRVC.                         : SERVICE COMPANY
DATE.          Fri Jan 21 09:45:44 2005: LOG DATE
UWI.        005 071 08251  : UNIQUE WELL ID
~Curve Information Block
DEPT.FT            0 000 00 00: Depth
CCL.                          : Casing Collar Locator
TT3.usec                      : CBL 3' Travel Time
AMP3.mV                       : CBL 3' Amplitude
GR.GAPI                       : Gamma Ray
~Parameter Information Block
~A  Depth       CCL         TT3         AMP3         GR     
# ...
  2101.2500      0.0000    697.2425      2.4381     64.8944
  2101.5000      0.0000    704.4996      2.4234     63.7515
  2101.7500      0.0000    708.2255      2.4071     63.0229
  2102.0000      0.0000    707.7004      2.4164     62.0994
  2102.2500      0.0000    701.1171      2.4563     60.1967
  2102.5000      0.0000    687.0093      2.4805     57.3655
  2102.7500      0.0000    667.6472      2.4524     54.7534
  2103.0000      0.0000    650.9877      2.4019     53.7348
  2103.2500      0.0000    646.7173      2.3865     54.8780
  2103.5000      0.0000    657.6716      2.4062     57.7746
  2103.7500      0.0000    675.7236      2.3972     61.5537
  2104.0000      0.0000    687.5190      2.3200     65.3938
  2104.2500      0.0000    683.9614      2.2242     68.7243
  2104.5000      0.0000    665.3146      2.1950     71.1203
  2104.7500      0.0000    640.5558      2.2462     72.3790
  2105.0000      0.0000    622.2175      2.3022     73.2294
  2105.2500      0.0000    618.4738      2.2916     75.7949
  2105.5000      0.0000    628.2352      2.2264     82.4004
  2105.7500      0.0000    643.9566      2.1696     93.3638
  2106.0000      0.0000    658.4199      2.1496    106.1802
  2106.2500      0.0000    668.3763      2.1367    117.1575
  2106.5000      0.0000    673.8367      2.1020    124.1031
  2106.7500      0.0000    676.3120      2.0655    127.7276
  2107.0000      0.0000    677.9725      2.0689    130.4048
  2107.2500      0.0000    681.0067      2.1184    133.6649
  2107.5000      0.0000    686.6023      2.1805    137.2944
  2107.7500      0.0000    694.4407      2.2419    140.4473
  2108.0000      0.0000    703.0618      2.3445    142.4939
  2108.2500      0.0000    710.6859      2.5323    142.7975
  2108.5000      0.0000    716.0467      2.7743    140.8213
  2108.7500      0.0000    718.8408      2.9755    136.8288
  2109.0000      0.0000    719.2918      3.0752    131.8922
  2109.2500      0.0000    717.2968      3.1072    127.1322
  2109.5000      0.0000    712.3982      3.1440    123.2126
  2109.7500      0.0000    704.7521      3.1989    120.1722
  2110.0000      0.0000    695.8445      3.2088    117.3088
  2110.2500      0.0000    687.9810      3.1178    113.5628
  2110.5000      0.0000    683.2061      2.9616    108.3960
  2110.7500      0.0000    682.8154      2.8472    102.1196
  2111.0000      0.0000    687.4334      2.8411     95.4752
  2111.2500      0.0000    696.6061      2.8935     89.4957
  2111.5000      0.0000    707.8023      2.8930     85.6621
  2111.7500      0.0000    716.4124      2.7943     85.2491
  2112.0000      0.0000    718.0627      2.6651     88.2298
  2112.2500      0.0000    711.7105      2.6012     93.3888
  2112.5000      0.0000    700.2813      2.6255     99.4779
  2112.7500      0.0000    688.2461      2.6990    105.7534
  2113.0000      0.0000    678.9692      2.8068    111.6726
  2113.2500      0.0000    673.8514      2.9912    116.8039
  2113.5000      0.0000    672.5880      3.2852    120.9036
  2113.7500      0.0000    673.7283      3.6403    123.4916
  2114.0000      0.0000    675.5922      3.9473    123.7246
  2114.2500      0.0000    677.1315      4.1394    121.6120
  2114.5000      0.0000    678.0245      4.2635    119.0779
  2114.7500      0.0000    678.1362      4.4374    118.7121
  2115.0000      0.0000    677.0043      4.7353    121.2249
  2115.2500      0.0000    673.9385      5.1154    124.5685
  2115.5000      0.0000    669.0620      5.4571    125.6523
  2115.7500      0.0000    664.1935      5.6665    122.7280
  2116.0000      0.0000    661.2624      5.7543    116.3382
  2116.2500      0.0000    658.3240      5.8162    108.5037
  2116.5000      0.0000    648.1934      5.9344    101.3499
  2116.7500      0.0000    624.5511      6.0990     96.2856
  2117.0000      0.0000    591.7354      6.2308     93.6846
  2117.2500      0.0000    566.4921      6.2759     92.9122
  2117.5000      0.0000    565.7631      6.2580     93.1643
  2117.7500      0.0000    591.7604      6.2285     94.7374
  2118.0000      0.0000    631.2465      6.1814     98.9141
  2118.2500      0.0000    668.2137      6.0415    106.1295
  2118.5000      0.0000    693.4286      5.7519    114.8023
  2118.7500      0.0000    702.8660      5.3679    122.5016
  2119.0000      0.0000    693.3793      5.0475    127.8408
  2119.2500      0.0000    664.7405      4.9287    130.9693
  2119.5000      0.0000    625.6736      5.0099    132.8938
  2119.7500      0.0000    593.9893      5.1579    134.7481
  2120.0000      0.0000    586.2361      5.2389    137.0534
  2120.2500      0.0000    605.2807      5.2349    139.0352
  2120.5000      0.0000    639.2317      5.2308    138.9881
  2120.7500      0.0000    672.7653      5.2933    135.8532
  2121.0000      0.0000    697.7668      5.3787    130.3563
  2121.2500      0.0000    713.8770      5.3690    124.4319
  2121.5000      0.0000    723.3514      5.1944    119.8369
  2121.7500      0.0000    728.0747      4.9104    117.4503
  2122.0000      0.0000    729.5509      4.6486    117.2405
  2122.2500      0.0000    729.1718      4.5020    118.3962
  2122.5000      0.0000    728.2398      4.4588    119.8754
  2122.7500      0.0000    727.6143      4.4396    121.2744
  2123.0000      0.0000    726.6561      4.3851    122.8726
  2123.2500      0.0000    723.0886      4.3024    124.7097
  2123.5000      0.0000    715.2137      4.2428    126.0066
  2123.7500      0.0000    704.1694      4.2534    125.5721
  2124.0000      0.0000    693.2162      4.3393    122.6892
  2124.2500      0.0000    685.0176      4.4434    117.7987
  2124.5000      0.0000    680.1846      4.4555    112.2952
  2124.7500      0.0000    677.9477      4.2804    107.5319
  2125.0000      0.0000    677.3711      3.9298    104.0613
  2125.2500      0.0000    677.8197      3.5363    101.7434
  2125.5000      0.0000    678.7788      3.2495    100.3164
  2125.7500      0.0000    679.6365      3.1106     99.8497
  2126.0000      0.0000    679.6796      3.0284    100.7005
  2126.2500      0.0000    678.2509      2.8735    102.9193
  2126.5000      0.0000    674.8167      2.5958    105.7258
  2126.7500      0.0000    668.6580      2.2670    107.8279
  2127.0000      0.0000    658.0162      2.0192    108.3619
  2127.2500      0.0000    639.8528      1.9354    107.5163
  2127.5000      0.0000    612.7927      1.9803    106.2435
  2127.7500      0.0000    582.5737      2.0266    105.2645
  2128.0000      0.0000    562.6981      1.9526    104.3456
  2128.2500      0.0000    564.8762      1.7337    102.7102
  2128.5000      0.0000    587.6802      1.4638    100.1145
  2128.7500      0.0000    617.5157      1.2903     97.1518
  2129.0000      0.0000    640.9662      1.3064     94.4399
  2129.2500      0.0000    653.6255      1.4812     92.0003
  2129.5000      0.0000    658.2454      1.6868     89.7049
  2129.7500      0.0000    659.0604      1.8046     87.8930
  2130.0000      0.0000    659.4245      1.8169     87.1647
  2130.2500      0.0000    662.0253      1.7992     87.7697
  2130.5000      0.0000    668.3553      1.8286     89.3180
  2130.7500      0.0000    677.5484      1.9079     90.8002
  2131.0000      0.0000    686.5425      1.9802     91.0391
  2131.2500      0.0000    692.0475      2.0090     89.7163
  2131.5000      0.0000    693.0345      2.0285     87.8004
  2131.7500      0.0000    691.8083      2.1057     86.3732
  2132.0000      0.0000    692.2722      2.2545     85.4679
  2132.2500      0.0000    696.4496      2.3992     85.0370
  2132.5000      0.0000    702.6780      2.4390     86.4925
  2132.7500      0.0000    707.5374      2.3498     91.7947
  2133.0000      0.0000    709.4536      2.2225    101.0282
  2133.2500      0.0000    710.0904      2.1924    112.0855
  2133.5000      0.0000    712.5940      2.3247    122.8179
  2133.7500      0.0000    719.0798      2.5608    132.5182
  2134.0000      0.0000    729.2254      2.7627    141.3147
  2134.2500      0.0000    739.9331      2.8051    149.1299
  2134.5000      0.0000    746.3474      2.6495    155.6239
