~Version Information
VERS.                      2.0: CWLS Log ASCII Standard - VERSION 2.0
WRAP.                       NO: One line per depth step
~Well Information Block
STRT.FT               704.0000: 
STOP.FT              2530.0000: 
STEP.FT                 0.2500: 
NULL.                -999.2500: 
COMP.          Pioneer Natural Resources: COMPANY
WELL.          Aztec Federal 41-15: WELL
FLD.           Purgatorie River: FIELD
LOC.           706' FNL & 1253' FEL: LOCATION
CNTY.               Las Animas: COUNTY
SRVC.          Superior Well Services: SERVICE COMPANY
DATE.          Tue Mar 18 09-04-19 2008: LOG DATE
UWI.           05-071-08342-00: UNIQUE WELL ID
STAT.                       CO: STATE
~Curve Information Block
DEPT.FT            0 000 00 00: Depth
DIR.Ohm-m                     : IEL Induction Resistivity
SN.Ohm-m                      : IEL Short Normal
SP.mV                         : IEL Spontaneous Potential
GR.GAPI                       : Gamma Ray
~Parameter Information Block
~A  Depth       DIR          SN          SP          GR     
# ...
  1340.5000     46.7665     39.6214      0.4394     52.6888
  1340.7500     46.7495     39.6016      0.3047     52.6749
  1341.0000     46.5751     39.4440      0.0909     53.0999
  1341.2500     45.9547     39.2414     -0.0074     54.1188
  1341.5000     45.2413     38.7996     -0.0289     54.8238
  1341.7500     43.6715     38.4128      0.0322     55.6483
  1342.0000     42.3026     37.6075      0.1672     56.1193
  1342.2500     39.8484     36.8116      0.2436     57.2230
  1342.5000     38.0244     35.0470      0.3065     58.5089
  1342.7500     35.1715     33.4576      0.3242     61.4377
  1343.0000     33.2855     30.6112      0.3632     64.1465
  1343.2500     30.6075     28.6150      0.4286     69.9092
  1343.5000     28.9738     25.8500      0.6185     75.2873
  1343.7500     26.8039     24.2770      0.8060     85.5193
  1344.0000     25.5592     22.3326      1.1474     92.9213
  1344.2500     23.9948     21.2776      1.3882    102.7952
  1344.5000     23.1415     20.0311      1.7345    107.7407
  1344.7500     22.1133     19.4277      1.9510    112.6691
  1345.0000     21.5767     18.8254      2.2657    114.7711
  1345.2500     20.9716     18.5563      2.4749    116.8823
  1345.5000     20.6931     18.2171      2.7843    117.6886
  1345.7500     20.4512     18.0127      2.9798    117.6167
  1346.0000     20.3994     17.8590      3.2410    116.4223
  1346.2500     20.4729     18.0036      3.3822    112.7855
  1346.5000     20.6227     18.9015      3.5190    109.2754
  1346.7500     21.0213     20.1047      3.5460    102.6743
  1347.0000     21.4260     22.8136      3.4856     97.5893
  1347.2500     22.2806     24.9796      3.3912     89.6557
  1347.5000     23.0287     28.1060      3.2068     84.7348
  1347.7500     24.4212     29.8221      3.0756     78.5326
  1348.0000     25.5229     31.7332      2.8829     75.1535
  1348.2500     27.4121     32.6266      2.7574     70.8537
  1348.5000     28.8054     33.5241      2.5773     68.4313
  1348.7500     31.0210     33.8938      2.4752     65.7676
  1349.0000     32.5052     34.2171      2.3816     64.8381
  1349.2500     34.5307     34.3370      2.3713     64.5291
  1349.5000     35.5743     34.4463      2.4347     64.5588
  1349.7500     36.3486     34.4930      2.5232     64.0303
  1350.0000     36.1836     34.5125      2.7098     63.1275
  1350.2500     34.8388     34.4777      2.8511     61.4859
  1350.5000     33.3015     34.3842      3.0322     60.6695
  1350.7500     30.3706     34.3459      3.0967     60.1821
  1351.0000     28.2465     34.4185      3.0784     60.1692
  1351.2500     25.2090     34.5941      2.9961     60.0658
  1351.5000     23.4603     35.0876      2.8017     59.6965
  1351.7500     21.4074     35.5726      2.6427     58.5957
  1352.0000     20.4269     36.4802      2.3710     57.6462
  1352.2500     19.4587     37.1367      2.1631     56.3273
  1352.5000     19.0878     38.0824      1.7932     55.7105
  1352.7500     18.9009     38.6617      1.4986     55.3779
  1353.0000     19.0816     39.4587      0.9874     55.6547
  1353.2500     20.1457     39.9276      0.6168     56.8200
  1353.5000     21.7973     40.4343      0.0607     57.8474
  1353.7500     27.2078     40.5429     -0.2874     59.0330
  1354.0000     34.9087     40.2201     -0.7609     59.2357
  1354.2500     64.6233     39.6731     -1.0513     58.5036
  1354.5000    128.1098     38.4723     -1.4760     57.4967
  1354.7500   1500.7969     37.5126     -1.7687     55.7701
  1355.0000 100000.0000     35.9728     -2.2486     54.8365
  1355.2500    585.2158     34.9329     -2.6103     54.2457
  1355.5000    220.7386     33.3790     -3.2417     54.5219
  1355.7500    131.0291     32.3371     -3.7387     55.8556
  1356.0000    134.8102     30.7672     -4.6192     57.1609
  1356.2500    554.1919     29.7499     -5.2967     59.3123
  1356.5000 100000.0000     28.3658     -6.4388     60.6301
  1356.7500 100000.0000     27.5772     -7.2882     62.0277
  1357.0000 100000.0000     26.5857     -8.7336     62.3696
  1357.2500 100000.0000     26.0173     -9.8447     61.8632
  1357.5000 100000.0000     25.2539    -11.7875     60.9792
  1357.7500 100000.0000     24.7981    -13.2971     59.3830
  1358.0000 100000.0000     24.1991    -15.9442     58.5035
  1358.2500 100000.0000     23.8515    -18.0126     57.8666
  1358.5000 100000.0000     23.3806    -21.6881     57.9618
  1358.7500 100000.0000     23.0790    -24.6183     58.7595
  1359.0000 100000.0000     22.6080    -29.9696     59.4962
  1359.2500 100000.0000     22.2510    -34.3614     60.2921
  1359.5000 100000.0000     21.5580    -42.6152     60.3687
  1359.7500 100000.0000     20.9135    -49.5658     60.0349
  1360.0000 100000.0000     19.5050    -62.9301     59.9198
  1360.2500 100000.0000     18.1464    -74.3350     60.3345
  1360.5000 100000.0000     15.2952    -96.1164     60.8635
  1360.7500     20.4335     12.8939   -114.1793     61.3726
  1361.0000      6.7618      9.0353   -146.7932     61.1674
  1361.2500      5.4799      6.7351   -171.7882     59.8834
  1361.5000      8.8619      4.3001   -212.0766     58.6358
  1361.7500 100000.0000      3.4150   -238.8083     56.9684
  1362.0000 100000.0000      2.8379   -274.6629     56.3119
  1362.2500 100000.0000      2.7062   -293.6196     55.9467
  1362.5000 100000.0000      2.6864   -312.5385     55.9330
  1362.7500 100000.0000      2.8048   -318.8250     56.2598
  1363.0000 100000.0000      3.3896   -320.7751     56.8384
  1363.2500 100000.0000      4.2327   -318.9120     58.1284
  1363.5000 100000.0000      6.1418   -314.4268     58.9519
  1363.7500 100000.0000      7.3373   -311.6202     59.7753
  1364.0000 100000.0000      7.7664   -308.9104     60.2578
  1364.2500 100000.0000      6.9330   -308.2570     61.7702
  1364.5000 100000.0000      4.9583   -308.3401     63.7252
  1364.7500 100000.0000      3.8605   -308.2291     68.0713
  1365.0000 100000.0000      2.9738   -306.0134     71.4918
  1365.2500 100000.0000      2.7615   -302.5183     76.3113
  1365.5000 100000.0000      2.6822   -294.7942     78.6332
  1365.7500 100000.0000      2.6722   -289.2899     79.8471
  1366.0000 100000.0000      2.6514   -283.3453     78.9609
  1366.2500 100000.0000      2.6329   -282.2744     75.6395
  1366.5000 100000.0000      2.6106   -286.2676     72.7661
  1366.7500 100000.0000      2.6002   -292.7724     68.4660
  1367.0000 100000.0000      2.5889   -307.2803     65.8229
  1367.2500 100000.0000      2.5906   -318.7938     62.1319
  1367.5000 100000.0000      2.6174   -335.9288     59.8729
  1367.7500 100000.0000      2.6448   -345.7923     57.2447
  1368.0000      5.1954      2.6758   -356.4496     56.4650
  1368.2500      1.5266      2.6803   -359.6679     57.5942
  1368.5000      0.9325      2.6658   -355.4056     60.2239
  1368.7500      0.5328      2.6541   -343.9384     67.0436
  1369.0000      0.3952      2.6676   -310.5325     73.1418
  1369.2500      0.2808      2.7271   -277.8386     83.4334
  1369.5000      0.2455      2.9974   -218.9201     90.2599
  1369.7500      0.2423      3.4229   -178.3391     99.2661
  1370.0000      0.2767      4.7072   -124.0065    103.9269
  1370.2500      0.4130      6.0584    -95.0544    108.3147
  1370.5000      0.6092      8.5271    -63.2936    109.4082
  1370.7500      1.3781     10.1356    -48.6563    108.7462
  1371.0000      3.3199     12.0643    -33.5241    107.3393
  1371.2500 100000.0000     12.9545    -26.4902    104.8252
  1371.5000 100000.0000     13.7581    -18.7876    103.3306
  1371.7500 100000.0000     14.0192    -14.9338    101.9943
  1372.0000 100000.0000     14.1658    -10.4346    102.0753
  1372.2500 100000.0000     14.1740     -8.0755    103.8796
  1372.5000 100000.0000     14.0643     -5.3108    105.8457
  1372.7500 100000.0000     13.8733     -3.9224    108.7178
  1373.0000 100000.0000     13.4063     -2.3937    109.9042
  1373.2500 100000.0000     13.0591     -1.6332    110.0944
  1373.5000 100000.0000     12.7208     -0.6830    109.3766
  1373.7500 100000.0000     12.7135     -0.1034    107.9676
