~Version Information
VERS.                      2.0: CWLS Log ASCII Standard - VERSION 2.0
WRAP.                       NO: One line per depth step
~Well Information Block
STRT.FT                -7.5000: 
STOP.FT              2339.2500: 
STEP.FT                 0.2500: 
NULL.                -999.2500: 
COMP.          Pioneer Natural Resources: COMPANY
WELL.            Harrier 44-33: WELL
FLD.           Purgatorie River: FIELD
LOC.           456' FSL & 930' FEL--: LOCATION
PROV.                       CO: PROVINCE
CNTY.               Las Animas: COUNTRY
SRVC.          Patterson Wireline: SERVICE COMPANY
DATE.          Wed Jun 29 11:08:51 2005: LOG DATE
UWI.           05 071 08398 00: UNIQUE WELL ID
~Curve Information Block
DEPT.FT            0 000 00 00: Depth
CCL.                          : Casing Collar Locator
TT3.usec                      : CBL 3' Travel Time
AMP3.mV                       : CBL 3' Amplitude
GR.GAPI                       : Gamma Ray
~Parameter Information Block
~A  Depth       CCL         TT3         AMP3         GR     
    -7.5000   -999.2500   -999.2500   -999.2500     76.6081
    -7.2500   -999.2500   -999.2500   -999.2500     75.7862
    -7.0000   -999.2500   -999.2500   -999.2500     76.0004
    -6.7500   -999.2500   -999.2500   -999.2500     77.9073
    -6.5000   -999.2500   -999.2500   -999.2500     81.0140
    -6.2500   -999.2500   -999.2500   -999.2500     83.5263
    -6.0000   -999.2500   -999.2500   -999.2500     83.4196
    -5.7500   -999.2500   -999.2500   -999.2500     80.0614
    -5.5000   -999.2500   -999.2500   -999.2500     74.8393
    -5.2500   -999.2500   -999.2500   -999.2500     70.4058
    -5.0000   -999.2500   -999.2500   -999.2500     69.1410
    -4.7500   -999.2500   -999.2500   -999.2500     71.5975
    -4.5000   -999.2500   -999.2500   -999.2500     76.0102
    -4.2500   -999.2500   -999.2500   -999.2500     79.5255
    -4.0000   -999.2500   -999.2500   -999.2500     80.0953
    -3.7500   -999.2500   -999.2500   -999.2500     77.4224
    -3.5000   -999.2500   -999.2500   -999.2500     72.6811
    -3.2500   -999.2500   -999.2500   -999.2500     67.7469
    -3.0000   -999.2500   -999.2500   -999.2500     64.4120
    -2.7500   -999.2500   -999.2500   -999.2500     63.6819
    -2.5000   -999.2500   1170.0000      1.7060     65.4237
    -2.2500   -999.2500   1170.0000      1.6887     68.6407
    -2.0000   -999.2500   1170.0000      1.6756     72.1592
    -1.7500   -999.2500   1170.0000      1.6742     75.0459
    -1.5000   -999.2500   1170.0000      1.6884     76.5325
    -1.2500   -999.2500   1170.0000      1.7146     76.0008
    -1.0000   -999.2500   1170.0000      1.7420     73.3725
    -0.7500   -999.2500   1170.0000      1.7569     69.4442
    -0.5000   -999.2500   1170.0000      1.7513     65.6228
    -0.2500   -999.2500   1170.0000      1.7310     63.0461
     0.0000   -999.2500   1170.0000      1.7127     61.6483
     0.2500   -999.2500   1170.0000      1.7199     56.8776
     0.5000   -999.2500   1170.0000      1.7330     51.6311
     0.7500   -999.2500   1170.0000      1.7396     45.4366
     1.0000   -999.2500   1170.0000      1.7397     39.9488
     1.2500   -999.2500   1170.0000      1.7380     36.3074
     1.5000   -999.2500   1170.0000      1.7365     34.8447
     1.7500   -999.2500   1170.0000      1.7330     35.4632
     2.0000   -999.2500   1170.0000      1.7260     37.7527
     2.2500   -999.2500   1170.0000      1.7182     40.8569
     2.5000   -999.2500   1170.0000      1.7129     43.8714
     2.7500      0.0000   1170.0000      1.7078     46.5403
     3.0000      0.0000   1170.0000      1.6976     49.1965
     3.2500      0.0000   1170.0000      1.6823     51.9537
     3.5000      0.0000   1170.0000      1.6708     54.2936
     3.7500      0.0000   1170.0000      1.6720     55.5405
     4.0000      0.0000   1170.0000      1.6857     55.4517
     4.2500      0.0000   1170.0000      1.7043     54.1730
     4.5000      0.0000   1170.0000      1.7203     51.9341
     4.7500      0.0000   1170.0000      1.7295     49.1416
     5.0000      0.0000   1170.0000      1.7311     46.6459
     5.2500      0.0000   1170.0000      1.7287     45.5121
     5.5000      0.0000   1170.0000      1.7285     46.2274
     5.7500      0.0000   1170.0000      1.7316     48.0317
     6.0000      0.0000   1170.0000      1.7315     49.2713
     6.2500      0.0000   1170.0000      1.7212     48.7557
     6.5000      0.0000   1170.0000      1.7022     46.7399
     6.7500      0.0000   1170.0000      1.6827     44.5472
     7.0000      0.0000   1170.0000      1.6704     43.4567
     7.2500      0.0000   1170.0000      1.6695     44.0642
     7.5000      0.0000   1170.0000      1.6818     46.3425
     7.7500      0.0000   1170.0000      1.7056     49.7997
     8.0000      0.0000   1170.0000      1.7329     53.5305
     8.2500      0.0000   1170.0000      1.7524     56.5217
     8.5000      0.0000   1170.0000      1.7579     58.2015
     8.7500      0.0000   1170.0000      1.7530     58.5964
     9.0000      0.0000   1169.9418      1.7481     57.8995
     9.2500      0.0000   1169.5597      1.7560     56.1903
     9.5000      0.0000   1167.6155      1.8132     53.7419
     9.7500      0.0000   1159.9073      2.0523     51.1492
    10.0000      0.0000   1136.0903      2.8187     48.7958
    10.2500      0.0000   1078.7279      4.7185     46.5094
    10.5000      0.0000    971.0144      8.3783     44.1347
    10.7500      0.0000    813.3018     13.8816     42.2286
    11.0000      0.0000    633.2940     20.3505     41.8282
    11.2500      0.0000    473.6986     26.2562     43.5547
    11.5000      0.0000    366.1156     30.2838     47.0498
    11.7500      0.0000    318.2318     31.9018     51.2285
    12.0000      0.0000    322.9873     31.2433     55.0680
    12.2500      0.0000    371.6065     28.7464     58.2619
    12.5000      0.0000    454.7710     25.0049     61.1925
    12.7500      0.0000    557.7678     20.7449     64.2930
    13.0000      0.0000    662.5302     16.6887     67.4153
    13.2500      0.0000    755.9407     13.3270     69.6796
    13.5000      0.0000    833.1354     10.7995     69.8912
    13.7500      0.0000    893.0592      8.9700     67.4644
    14.0000      0.0000    934.1580      7.6118     63.2822
    14.2500      0.0000    954.6180      6.5493     59.3886
    14.5000      0.0000    954.0604      5.6941     57.3838
    14.7500      0.0000    935.2575      5.0175     57.0887
    15.0000      0.0000    905.4993      4.5255     56.9618
    15.2500      0.0000    874.4296      4.2409     55.7291
    15.5000      0.0000    848.7488      4.1693     53.4940
    15.7500      0.0000    830.1318      4.2627     51.4414
    16.0000      0.0000    818.3077      4.4273     50.8456
    16.2500      0.0000    813.7246      4.5754     52.3605
    16.5000      0.0000    816.2262      4.6664     55.8028
    16.7500      0.0000    822.7552      4.7020     60.1683
    17.0000      0.0000    827.2980      4.6991     64.0063
    17.2500      0.0000    823.1298      4.6715     66.2182
    17.5000      0.0000    806.1362      4.6281     66.6469
    17.7500      0.0000    777.2563      4.5760     65.9028
    18.0000      0.0000    741.4107      4.5241     64.8499
    18.2500      0.0000    702.6536      4.4838     64.3640
    18.5000      0.0000    659.9790      4.4671     65.2231
    18.7500      0.0000    609.0811      4.4815     67.7843
    19.0000      0.0000    549.1435      4.5253     71.7207
    19.2500      0.0000    487.2209      4.5840     76.2692
    19.5000      0.0000    435.0494      4.6340     80.7600
    19.7500      0.0000    402.4402      4.6530     84.8142
    20.0000      0.0000    395.2042      4.6303     88.0503
    20.2500      0.0000    417.7107      4.5737     89.8743
    20.5000      0.0000    472.5486      4.5079     89.7840
    20.7500      0.0000    554.3664      4.4644     87.6807
    21.0000      0.0000    646.0143      4.4647     83.8519
    21.2500      0.0000    725.6107      4.5032     78.9963
    21.5000      0.0000    779.5504      4.5474     74.2496
    21.7500      0.0000    808.1127      4.5589     70.7916
    22.0000      0.0000    819.9377      4.5230     69.4031
    22.2500      0.0000    823.7193      4.4596     70.3170
    22.5000      0.0000    824.5276      4.4069     73.0082
    22.7500      0.0000    824.4404      4.3926     75.9958
    23.0000      0.0000    824.1657      4.4165     77.3269
    23.2500      0.0000    823.9984      4.4530     75.7582
    23.5000      0.0000    824.1683      4.4696     71.7248
    23.7500      0.0000    824.9420      4.4480     67.1837
    24.0000      0.0000    826.6480      4.3949     64.3710
    24.2500      0.0000    829.5289      4.3364     64.5198
    24.5000      0.0000    833.5293      4.3020     67.4396
    24.7500      0.0000    838.3024      4.3071     71.7671
    25.0000      0.0000    843.4116      4.3432     75.3736
    25.2500      0.0000    848.3672      4.3826     76.1119
    25.5000      0.0000    852.5165      4.3988     73.0326
    25.7500      0.0000    855.1527      4.3872     67.1616
