~Version Information
VERS.                      2.0: CWLS Log ASCII Standard - VERSION 2.0
WRAP.                       NO: One line per depth step
~Well Information Block
STRT.FT               -11.0000: 
STOP.FT              2634.5000: 
STEP.FT                 0.2500: 
NULL.                -999.2500: 
COMP.          Evergreen Operating Corporation: COMPANY
WELL.          Sand PebbleS 13-33: WELL
FLD.           Purgatorie River: FIELD
LOC.           1883' FSL & 63' FWL--: LOCATION
PROV.                 Colorado: PROVINCE
CNTY.               Las Animas: COUNTRY
SRVC.          Patterson Wireline: SERVICE COMPANY
DATE.          Fri Mar 18 09:37:20 2005: LOG DATE
UWI.          005 071 08224 : UNIQUE WELL ID
~Curve Information Block
DEPT.FT            0 000 00 00: Depth
CCL.                          : Casing Collar Locator
TT3.usec                      : CBL 3' Travel Time
AMP3.mV                       : CBL 3' Amplitude
GR.GAPI                       : Gamma Ray
~Parameter Information Block
~A  Depth       CCL         TT3         AMP3         GR     
# ...
   156.5000      0.0000    495.1019      1.2572     64.2883
   156.7500      0.0000    494.4714      1.2546     64.7196
   157.0000      0.0000    500.9583      1.2969     64.9808
   157.2500      0.0000    515.2337      1.3859     64.8773
   157.5000      0.0000    538.0351      1.5405     64.7094
   157.7500      0.0000    567.2346      1.7737     65.3227
   158.0000      0.0000    596.3911      2.0653     67.7937
   158.2500      0.0000    617.2249      2.3586     72.6751
   158.5000      0.0000    623.6841      2.5906     79.2157
   158.7500      0.0000    614.7468      2.7288     85.5157
   159.0000      0.0000    595.2459      2.7836     89.8215
   159.2500      0.0000    573.5425      2.7907     91.7236
   159.5000      0.0000    556.4517      2.7840     91.9991
   159.7500      0.0000    545.6923      2.7807     91.5184
   160.0000      0.0000    538.7593      2.7859     90.6856
   160.2500      0.0000    532.1881      2.7980     89.9460
   160.5000      0.0000    524.0446      2.8062     90.3222
   160.7500      0.0000    514.4725      2.7848     92.8308
   161.0000      0.0000    504.8405      2.7013     97.3058
   161.2500      0.0000    496.5923      2.5397    102.3053
   161.5000      0.0000    490.7731      2.3187    106.3520
   161.7500      0.0000    487.8683      2.0854    108.8488
   162.0000      0.0000    487.2627      1.8932    109.7739
   162.2500      0.0000    487.1925      1.7779    109.1194
   162.5000      0.0000    486.4640      1.7494    106.9635
   162.7500      0.0000    487.1881      1.7932    103.7443
   163.0000      0.0000    495.5628      1.8741    100.0570
   163.2500      0.0000    517.8268      1.9427     96.3694
   163.5000      0.0000    552.7134      1.9539     93.2215
   163.7500      0.0000    587.9130      1.8968     91.4183
   164.0000      0.0000    607.4022      1.8019     91.5028
   164.2500      0.0000    604.6623      1.7075     92.9562
   164.5000      0.0000    588.2993      1.6237     94.3543
   164.7500      2.0000    574.7619      1.5383     94.6240
   165.0000      2.0000    576.0004      1.4516     93.9776
   165.2500      0.0000    591.7732      1.3928     93.4715
   165.5000      0.0000    611.0001      1.4048     93.9729
   165.7500      0.0000    621.3094      1.5164     95.6205
   166.0000      0.0000    619.1251      1.7198     97.5990
   166.2500      0.0000    610.6428      1.9699     98.1456
   166.5000      0.0000    603.4416      2.2068     95.5993
   166.7500      0.0000    598.6677      2.3843     90.1009
   167.0000      0.0000    591.5533      2.4805     84.0219
   167.2500      0.0000    577.8138      2.4955     80.5472
   167.5000      0.0000    558.1016      2.4516     81.8602
   167.7500      0.0000    536.8705      2.3890     88.0500
   168.0000      0.0000    518.6482      2.3476     96.8338
   168.2500      0.0000    505.7190      2.3451    104.4569
   168.5000      0.0000    498.0781      2.3718    107.8613
   168.7500      0.0000    494.4312      2.4044    106.6977
   169.0000      0.0000    493.2059      2.4238    103.2822
   169.2500      0.0000    493.1516      2.4254    100.3095
   169.5000      0.0000    493.4696      2.4146     98.3902
   169.7500      0.0000    493.7217      2.3968     95.7744
   170.0000      0.0000    493.7177      2.3699     90.5941
   170.2500      0.0000    493.4468      2.3270     83.2466
   170.5000      0.0000    493.0183      2.2639     76.2116
   170.7500      0.0000    492.5886      2.1831     71.5955
   171.0000      0.0000    492.2802      2.0923     69.5489
   171.2500      0.0000    492.1421      2.0023     69.1608
   171.5000      0.0000    492.1644      1.9292     69.8058
   171.7500      0.0000    492.3011      1.8935     70.9407
   172.0000      0.0000    492.4708      1.9126     71.4097
   172.2500      0.0000    492.5392      1.9894     70.0096
   172.5000      0.0000    492.2842      2.1057     66.7173
   172.7500      0.0000    491.3335      2.2274     62.7768
   173.0000      0.0000    489.1958      2.3210     59.3533
   173.2500      0.0000    485.6710      2.3711     56.4927
   173.5000      0.0000    481.5581      2.3848     53.8277
   173.7500      0.0000    478.7450      2.3816     51.8645
   174.0000      0.0000    478.9561      2.3817     51.7111
   174.2500      0.0000    482.1836      2.4013     53.5254
   174.5000      0.0000    486.6626      2.4514     55.9329
   174.7500      0.0000    490.4282      2.5338     57.1836
   175.0000      0.0000    492.6430      2.6370     56.6753
   175.2500      0.0000    493.5901      2.7357     55.2885
   175.5000      0.0000    493.9200      2.8036     54.3853
   175.7500      0.0000    494.0935      2.8376     54.7493
   176.0000      0.0000    494.2957      2.8681     56.4597
   176.2500      0.0000    494.5844      2.9401     59.2739
   176.5000      0.0000    494.9951      3.0810     62.8566
   176.7500      0.0000    495.5154      3.2853     66.9594
   177.0000      0.0000    496.0356      3.5196     71.4360
   177.2500      0.0000    496.3988      3.7371     75.8694
   177.5000      0.0000    496.5116      3.8961     79.3209
   177.7500      0.0000    496.3989      3.9787     80.7572
   178.0000      0.0000    496.1605      4.0009     79.8541
   178.2500      0.0000    495.9004      4.0029     77.3990
   178.5000      0.0000    495.6957      4.0260     74.8603
   178.7500      0.0000    495.6029      4.0925     73.5075
   179.0000      0.0000    495.6622      4.2013     73.8652
   179.2500      0.0000    495.8700      4.3380     75.8183
   179.5000      0.0000    496.1498      4.4849     79.0969
   179.7500      0.0000    496.3842      4.6227     83.7727
   180.0000      0.0000    496.5066      4.7279     90.2545
   180.2500      0.0000    496.5458      4.7823     98.4344
   180.5000      0.0000    496.5708      4.7890    106.7041
   180.7500      0.0000    496.6216      4.7749    112.3322
   181.0000      0.0000    496.7061      4.7715    113.3470
   181.2500      0.0000    496.8265      4.7929    110.1591
   181.5000      0.0000    496.9791      4.8307    105.3239
   181.7500      0.0000    497.1555      4.8697    101.7470
   182.0000      0.0000    497.3645      4.9027    100.8028
   182.2500      0.0000    497.7829      4.9336    101.7406
   182.5000      0.0000    499.0903      4.9662    102.8612
   182.7500      0.0000    502.8675      4.9910    103.3437
   183.0000      0.0000    511.3744      4.9857    103.6849
   183.2500      0.0000    525.8925      4.9340    104.4205
   183.5000      0.0000    544.7885      4.8416    105.1360
   183.7500      0.0000    564.2256      4.7313    105.0903
   184.0000      0.0000    581.9215      4.6242    104.3469
   184.2500      0.0000    599.4063      4.5305    103.9657
   184.5000      0.0000    619.5670      4.4510    105.4183
   184.7500      0.0000    642.3111      4.3829    109.9584
   185.0000      0.0000    663.2809      4.3259    117.9552
   185.2500      0.0000    677.4413      4.2833    128.1044
   185.5000      0.0000    684.5038      4.2555    137.4091
   185.7500      0.0000    689.7181      4.2323    142.6343
   186.0000      0.0000    698.0466      4.2002    142.2074
   186.2500      0.0000    708.8363      4.1574    137.0313
   186.5000      0.0000    717.4673      4.1186    129.7184
   186.7500      0.0000    720.7058      4.1071    122.7813
   187.0000      0.0000    719.0625      4.1413    117.1493
   187.2500      0.0000    715.1471      4.2254    112.3914
   187.5000      0.0000    711.2531      4.3475    108.1325
   187.7500      0.0000    708.4263      4.4829    104.5058
   188.0000      0.0000    707.1739      4.6005    101.2342
   188.2500      0.0000    708.4208      4.6716     97.2975
   188.5000      0.0000    713.5007      4.6795     92.0037
   188.7500      0.0000    723.1074      4.6266     85.8293
   189.0000      0.0000    736.4137      4.5325     79.9811
   189.2500      0.0000    751.1042      4.4286     75.5981
   189.5000      0.0000    764.3501      4.3491     73.3810
   189.7500      0.0000    774.1400      4.3157     73.2280
