~Version Information
VERS.                      2.0: CWLS Log ASCII Standard - VERSION 2.0
WRAP.                       NO: One line per depth step
~Well Information Block
STRT.FT               840.0000: 
STOP.FT              2268.0000: 
STEP.FT                 0.2500: 
NULL.                -999.2500: 
COMP.          Pioneer Natural Resources: COMPANY
WELL.              Tonto 42-23: WELL
FLD.           Purgatoire River: FIELD
LOC.           2217' FNL & 423' FEL: LOCATION
PROV.                 Colorado: PROVINCE
CNTY.               Las Animas: COUNTRY
SRVC.                Patterson: SERVICE COMPANY
DATE.          Sun Apr 17 01:24:47 2005: LOG DATE
UWI.           05 071 08335 00: UNIQUE WELL ID
~Curve Information Block
DEPT.FT            0 000 00 00: Depth
SN.Ohm-m                      : IEL Short Normal
SP.mV                         : IEL Spontaneous Potential
DIR.Ohm-m                     : IEL Induction Resistivity
GR.GAPI                       : Gamma Ray
~Parameter Information Block
~A  Depth        SN          SP         DIR          GR     
# ...
   940.5000   2000.0000   2000.0000     35.7173     79.8892
   940.7500   2000.0000   2000.0000     35.7858     77.8935
   941.0000   2000.0000   2000.0000     35.1828     74.0155
   941.2500   2000.0000   2000.0000     33.8382     72.0454
   941.5000   2000.0000   2000.0000     32.1170     72.4596
   941.7500   2000.0000   2000.0000     30.5546     76.0010
   942.0000   2000.0000   2000.0000     29.5300     86.1540
   942.2500   2000.0000   2000.0000     29.1530     94.9373
   942.5000   2000.0000   2000.0000     29.2931    108.0078
   942.7500   2000.0000   2000.0000     29.6308    115.0749
   943.0000   2000.0000   2000.0000     29.7564    121.8967
   943.2500   2000.0000   2000.0000     29.3837    123.8733
   943.5000   2000.0000   2000.0000     28.5462    123.4555
   943.7500   2000.0000   2000.0000     27.5483    121.3958
   944.0000   2000.0000   2000.0000     26.7151    116.7969
   944.2500   2000.0000   2000.0000     26.2147    113.4461
   944.5000   2000.0000   2000.0000     26.0503    108.7240
   944.7500   2000.0000   2000.0000     26.1429    105.7891
   945.0000   2000.0000   2000.0000     26.4210    101.3689
   945.2500   2000.0000   2000.0000     26.8721     98.2747
   945.5000   2000.0000   2000.0000     27.5309     93.5018
   945.7500   2000.0000   2000.0000     28.4222     90.4596
   946.0000   2000.0000   2000.0000     29.5028     86.7265
   946.2500   2000.0000   2000.0000     30.6563     85.1818
   946.5000   2000.0000   2000.0000     31.7547     84.6020
   946.7500   2000.0000   2000.0000     32.7372     85.1567
   947.0000   2000.0000   2000.0000     33.6307     86.4104
   947.2500   2000.0000   2000.0000     34.4975     86.9065
   947.5000   2000.0000   2000.0000     35.3742     86.5595
   947.7500   2000.0000   2000.0000     36.2471     85.5553
   948.0000   2000.0000   2000.0000     37.0706     82.9622
   948.2500   2000.0000   2000.0000     37.8076     80.5424
   948.5000   2000.0000   2000.0000     38.4572     76.0470
   948.7500   2000.0000   2000.0000     39.0493     72.6916
   949.0000   2000.0000   2000.0000     39.6077     67.7254
   949.2500   2000.0000   2000.0000     40.1283     65.0099
   949.5000   2000.0000   2000.0000     40.6032     62.9470
   949.7500   2000.0000   2000.0000     41.0677     63.2253
   950.0000   2000.0000   2000.0000     41.6037     65.2454
   950.2500   2000.0000   2000.0000     42.2926     66.5087
   950.5000   2000.0000   2000.0000     43.1511     66.7336
   950.7500   2000.0000   2000.0000     44.0997     65.7445
   951.0000   2000.0000   2000.0000     44.9823     63.5904
   951.2500   2000.0000   2000.0000     45.6406     62.2483
   951.5000   2000.0000   2000.0000     46.0040     60.6267
   951.7500   2000.0000   2000.0000     46.1437     59.8051
   952.0000   2000.0000   2000.0000     46.2313     59.1768
   952.2500   2000.0000   2000.0000     46.4365     59.2862
   952.5000   2000.0000   2000.0000     46.8277     59.9507
   952.7500   2000.0000   2000.0000     47.3207     60.3295
   953.0000   2000.0000   2000.0000     47.6941     60.4667
   953.2500   2000.0000   2000.0000     47.6906     60.4970
   953.5000   2000.0000   2000.0000     47.1774     61.1706
   953.7500   2000.0000   2000.0000     46.2606     62.2905
   954.0000   2000.0000   2000.0000     45.2350     64.7158
   954.2500   2000.0000   2000.0000     44.4089     66.2667
   954.5000   2000.0000   2000.0000     43.9463     67.3757
   954.7500   2000.0000   2000.0000     43.8132     67.0380
   955.0000   2000.0000   2000.0000     43.8191     65.3936
   955.2500   2000.0000   2000.0000     43.7187     64.0346
   955.5000   2000.0000   2000.0000     43.3261     62.2183
   955.7500   2000.0000   2000.0000     42.5816     61.3718
   956.0000   2000.0000   2000.0000     41.5413     60.8440
   956.2500   2000.0000   2000.0000     40.3205     60.8867
   956.5000   2000.0000   2000.0000     39.0429     61.0321
   956.7500   2000.0000   2000.0000     37.8171     60.9632
   957.0000   2000.0000   2000.0000     36.7300     60.6988
   957.2500   2000.0000   2000.0000     35.8526     60.5952
   957.5000   2000.0000   2000.0000     35.2373     60.7025
   957.7500   2000.0000   2000.0000     34.8972     60.9562
   958.0000   2000.0000   2000.0000     34.7664     61.6338
   958.2500   2000.0000   2000.0000     34.6704     62.2747
   958.5000   2000.0000   2000.0000     34.3443     63.3163
   958.7500   2000.0000   2000.0000     33.5262     63.8426
   959.0000   2000.0000   2000.0000     32.0876     63.9592
   959.2500   2000.0000   2000.0000     30.1083     63.4102
   959.5000   2000.0000   2000.0000     27.8265     61.7766
   959.7500   2000.0000   2000.0000     25.5088     60.6935
   960.0000   2000.0000   2000.0000     23.3482     60.8955
   960.2500   2000.0000   2000.0000     21.4384     63.4627
   960.5000   2000.0000   2000.0000     19.7998     72.0764
   960.7500   2000.0000   2000.0000     18.4159     80.5467
   961.0000   2000.0000   2000.0000     17.2575     94.9472
   961.2500   2000.0000   2000.0000     16.2937    104.0946
   961.5000   2000.0000   2000.0000     15.4956    115.5199
   961.7500   2000.0000   2000.0000     14.8395    121.4401
   962.0000   2000.0000   2000.0000     14.3072    128.0133
   962.2500   2000.0000   2000.0000     13.8840    130.8992
   962.5000   2000.0000   2000.0000     13.5540    133.0600
   962.7500   2000.0000   2000.0000     13.2977    133.3520
   963.0000   2000.0000   2000.0000     13.0956    132.7843
   963.2500   2000.0000   2000.0000     12.9354    131.8870
   963.5000   2000.0000   2000.0000     12.8159    129.3670
   963.7500   2000.0000   2000.0000     12.7420    126.5460
   964.0000   2000.0000   2000.0000     12.7163    120.2766
   964.2500   2000.0000   2000.0000     12.7382    114.9028
   964.5000   2000.0000   2000.0000     12.8091    106.2194
   964.7500   2000.0000   2000.0000     12.9344    101.1123
   965.0000   2000.0000   2000.0000     13.1146     96.0375
   965.2500   2000.0000   2000.0000     13.3306     94.5314
   965.5000   2000.0000   2000.0000     13.5377     94.1531
   965.7500   2000.0000   2000.0000     13.6759     94.5160
   966.0000   2000.0000   2000.0000     13.6931     95.5834
   966.2500   2000.0000   2000.0000     13.5644     96.7642
   966.5000   2000.0000   2000.0000     13.2970     99.6030
   966.7500   2000.0000   2000.0000     12.9201    102.3809
   967.0000   2000.0000   2000.0000     12.4717    107.8428
   967.2500   2000.0000   2000.0000     11.9897    111.9119
   967.5000   2000.0000   2000.0000     11.5072    117.3252
   967.7500   2000.0000   2000.0000     11.0472    119.9258
   968.0000   2000.0000   2000.0000     10.6203    122.6767
   968.2500   2000.0000   2000.0000     10.2252    124.5048
   968.5000   2000.0000   2000.0000      9.8555    128.1156
   968.7500   2000.0000   2000.0000      9.5070    130.9034
   969.0000   2000.0000   2000.0000      9.1818    134.6359
   969.2500   2000.0000   2000.0000      8.8865    136.4818
   969.5000   2000.0000   2000.0000      8.6282    138.5496
   969.7500   2000.0000   2000.0000      8.4109    139.7076
   970.0000   2000.0000   2000.0000      8.2336    141.0434
   970.2500   2000.0000   2000.0000      8.0919    141.5375
   970.5000   2000.0000   2000.0000      7.9795    141.9620
   970.7500   2000.0000   2000.0000      7.8906    142.3436
   971.0000   2000.0000   2000.0000      7.8206    142.9987
   971.2500   2000.0000   2000.0000      7.7658    143.0218
   971.5000   2000.0000   2000.0000      7.7239    141.5394
   971.7500   2000.0000   2000.0000      7.6948    139.2609
   972.0000   2000.0000   2000.0000      7.6815    134.0801
   972.2500   2000.0000   2000.0000      7.6906    130.0997
   972.5000   2000.0000   2000.0000      7.7317    125.4440
   972.7500   2000.0000   2000.0000      7.8165    124.5519
   973.0000   2000.0000   2000.0000      7.9558    127.5511
   973.2500   2000.0000   2000.0000      8.1573    131.8500
   973.5000   2000.0000   2000.0000      8.4267    139.1608
   973.7500   2000.0000   2000.0000      8.7712    143.0422
