~Version Information
VERS.                      2.0: CWLS Log ASCII Standard - VERSION 2.0
WRAP.                       NO: One line per depth step
~Well Information Block
STRT.FT                30.0000: 
STOP.FT              2789.0000: 
STEP.FT                 0.1000: 
NULL.                -999.2500: 
COMP.          Pioneer Natural Resources: COMPANY
WELL.          Rabbit Bush Federal 44-19: WELL
FLD.           Purgatorie River: FIELD
LOC.           826' FSL & 1127' FEL: LOCATION
CNTY.               Las Animas: COUNTY
SRVC.                Patterson: SERVICE COMPANY
DATE.          Mon Aug 28 10:56:57 2006: LOG DATE
UWI.           05-071-08149-00: UNIQUE WELL ID
STAT.                 Colorado: STATE
~Curve Information Block
DEPT.FT            0 000 00 00: Depth
DCAL.in                       : CDL Caliper
RHOB.g/cc                     : CDL Bulk Density
RHOC.g/cc                     : CDL Density Correction
DPOR.pu                       : CDL Density Porosity
GR.GAPI                       : Gamma Ray
NPOR.pu                       : Neutron Porosity
~Parameter Information Block
~A  Depth       DCAL        RHOB        RHOC        DPOR         GR         NPOR    
# ...
  2209.2000      7.9371      2.6464      0.1509      0.2190    146.7957     23.2379
  2209.3000      7.9265      2.6525      0.1378     -0.1537    146.1612     23.1429
  2209.4000      7.9265      2.6602      0.1349     -0.6178    141.3340     23.0499
  2209.5000      7.9298      2.6704      0.1366     -1.2384    136.2183     22.9776
  2209.6000      7.9298      2.6744      0.0901     -1.4782    132.6481     22.9625
  2209.7000      7.9298      2.6709      0.1159     -1.2696    129.6929     22.9619
  2209.8000      7.9358      2.6666      0.1029     -1.0059    128.2967     23.0153
  2209.9000      7.9358      2.6630      0.1146     -0.7887    129.1411     23.1549
  2210.0000      7.9342      2.6510      0.0869     -0.0635    131.2490     23.2804
  2210.1000      7.9342      2.6282      0.0735      1.3242    134.3076     23.3372
  2210.2000      7.9342      2.6108      0.0776      2.3770    136.1384     23.3783
  2210.3000      7.9273      2.6140      0.0885      2.1816    135.4561     23.3810
  2210.4000      7.9273      2.6292      0.1214      1.2605    132.5708     23.2477
  2210.5000      7.9253      2.6435      0.0900      0.3959    127.6587     22.9559
  2210.6000      7.9253      2.6623      0.1024     -0.7455    122.7240     22.7014
  2210.7000      7.9253      2.6842      0.1289     -2.0707    118.4170     22.5370
  2210.8000      7.9289      2.6909      0.1608     -2.4808    114.6217     22.3180
  2210.9000      7.9289      2.6793      0.1262     -1.7777    113.5890     22.1721
  2211.0000      7.9307      2.6677      0.1056     -1.0720    115.7562     22.3759
  2211.1000      7.9307      2.6638      0.1547     -0.8389    116.1674     22.9090
  2211.2000      7.9307      2.6627      0.1069     -0.7695    111.8170     23.4258
  2211.3000      7.9309      2.6705      0.1078     -1.2394    106.5965     23.6021
  2211.4000      7.9309      2.6878      0.1118     -2.2936    105.0508     23.3008
  2211.5000      7.9297      2.6968      0.1242     -2.8357    107.4492     22.7157
  2211.6000      7.9297      2.6878      0.1106     -2.2894    111.3737     22.3955
  2211.7000      7.9297      2.6697      0.0597     -1.1945    115.4713     22.4878
  2211.8000      7.9239      2.6508      0.0926     -0.0507    118.1953     22.5377
  2211.9000      7.9239      2.6388      0.0717      0.6782    117.7119     22.3889
  2212.0000      7.9191      2.6384      0.1047      0.7003    114.9123     22.3456
  2212.1000      7.9191      2.6406      0.1257      0.5697    113.0035     22.4243
  2212.2000      7.9191      2.6455      0.0776      0.2755    113.2912     22.3136
  2212.3000      7.9237      2.6632      0.1558     -0.7998    114.0110     21.8600
  2212.4000      7.9237      2.6845      0.1560     -2.0889    113.3138     21.1631
  2212.5000      7.9356      2.6925      0.1472     -2.5734    110.0381     20.5686
  2212.6000      7.9356      2.6815      0.1544     -1.9092    106.0006     20.3189
  2212.7000      7.9356      2.6514      0.1596     -0.0846    103.3109     20.4596
  2212.8000      7.9356      2.6143      0.1261      2.1612    101.3630     20.8796
  2212.9000      7.9356      2.5984      0.1252      3.1277     99.9245     21.2339
  2213.0000      7.9192      2.6095      0.1410      2.4547     98.8666     21.2106
  2213.1000      7.9192      2.6224      0.1418      1.6739     97.5689     20.7535
  2213.2000      7.9192      2.6292      0.1208      1.2593     96.6428     20.1260
  2213.3000      7.9021      2.6467      0.1630      0.1979     96.7467     19.5649
  2213.4000      7.9021      2.6715      0.2247     -1.3004     96.9228     19.2010
  2213.5000      7.8892      2.6807      0.2083     -1.8596     97.6359     18.9350
  2213.6000      7.8892      2.6704      0.1653     -1.2371     99.0160     18.5051
  2213.7000      7.8892      2.6582      0.2052     -0.4985     98.0811     18.0610
  2213.8000      7.8793      2.6510      0.1680     -0.0632     94.4534     17.9045
  2213.9000      7.8793      2.6368      0.1699      0.7973     91.3425     18.0696
  2214.0000      7.8871      2.6102      0.0883      2.4113     88.6747     18.3531
  2214.1000      7.8871      2.5853      0.0590      3.9206     84.1925     18.5292
  2214.2000      7.8871      2.5781      0.0602      4.3559     79.3371     18.5344
  2214.3000      7.9033      2.5908      0.0795      3.5905     76.5644     18.4349
  2214.4000      7.9033      2.6010      0.1620      2.9695     75.0941     18.3507
  2214.5000      7.9136      2.5860      0.0743      3.8795     73.3875     18.4401
  2214.6000      7.9136      2.5615      0.0502      5.3645     71.1571     18.4740
  2214.7000      7.9136      2.5536      0.0370      5.8448     68.3610     18.0524
  2214.8000      7.9214      2.5610      0.0922      5.3910     66.7026     17.4059
  2214.9000      7.9214      2.5613      0.1041      5.3773     68.0787     16.9866
  2215.0000      7.9326      2.5436      0.0929      6.4492     71.4708     16.8148
  2215.1000      7.9326      2.5193      0.0715      7.9221     75.2444     16.7139
  2215.2000      7.9326      2.5044      0.0495      8.8212     77.3584     16.6563
  2215.3000      7.9381      2.5103      0.0724      8.4671     76.3036     16.6676
  2215.4000      7.9381      2.5322      0.0705      7.1406     75.0768     16.8196
  2215.5000      7.9309      2.5503      0.1190      6.0397     76.8588     17.0491
  2215.6000      7.9309      2.5590      0.0702      5.5164     80.7549     17.2773
  2215.7000      7.9309      2.5715      0.0938      4.7580     86.0792     17.8324
  2215.8000      7.9185      2.5871      0.1091      3.8143     93.5330     18.8355
  2215.9000      7.9185      2.5944      0.0995      3.3711    101.9357     19.7265
  2216.0000      7.9165      2.5988      0.0878      3.1019    109.1034     20.1410
  2216.1000      7.9165      2.6094      0.0729      2.4583    116.0003     20.4501
  2216.2000      7.9165      2.6138      0.1471      2.1942    125.1029     20.8977
  2216.3000      7.9281      2.5977      0.0886      3.1687    133.9966     21.2689
  2216.4000      7.9281      2.5784      0.0650      4.3412    138.0011     21.7081
  2216.5000      7.9338      2.5823      0.0826      4.1010    139.5420     22.4841
  2216.6000      7.9338      2.6035      0.1221      2.8153    143.0555     23.2406
  2216.7000      7.9338      2.6169      0.0827      2.0069    147.1758     23.6703
  2216.8000      7.9269      2.6161      0.0724      2.0569    148.6405     24.1551
  2216.9000      7.9269      2.6084      0.1183      2.5231    147.1898     24.9691
  2217.0000      7.9159      2.5975      0.0678      3.1793    145.3580     25.6784
  2217.1000      7.9159      2.5808      0.1123      4.1921    143.5471     25.7774
  2217.2000      7.9159      2.5488      0.1044      6.1340    142.2677     25.3264
  2217.3000      7.9057      2.5123      0.0669      8.3475    144.1887     24.7609
  2217.4000      7.9057      2.5061      0.0311      8.7193    147.2867     24.3861
  2217.5000      7.8948      2.5496      0.1251      6.0838    147.0374     24.1853
  2217.6000      7.8948      2.6208      0.1969      1.7681    142.1291     24.1068
  2217.7000      7.8948      2.6755      0.2522     -1.5450    135.8601     24.2588
  2217.8000      7.8859      2.6921      0.2207     -2.5543    131.7864     24.5727
  2217.9000      7.8859      2.6860      0.2200     -2.1805    127.4425     24.7325
  2218.0000      7.8866      2.6703      0.2343     -1.2309    121.2966     24.4358
  2218.1000      7.8866      2.6502      0.1638     -0.0094    114.6218     23.7381
  2218.2000      7.8866      2.6421      0.1015      0.4797    108.3626     22.9754
  2218.3000      7.8959      2.6509      0.1788     -0.0542    103.0305     22.3756
  2218.4000      7.8959      2.6663      0.1562     -0.9878     97.9721     22.0100
  2218.5000      7.9097      2.6891      0.1482     -2.3678     93.9029     21.7169
  2218.6000      7.9097      2.7126      0.1891     -3.7958     92.3036     21.3235
  2218.7000      7.9097      2.7126      0.2223     -3.7938     92.1792     21.0483
