~Version Information
VERS.                      2.0: CWLS Log ASCII Standard - VERSION 2.0
WRAP.                       NO: One line per depth step
~Well Information Block
STRT.FT               860.0000: 
STOP.FT              1907.0000: 
STEP.FT                 0.1000: 
NULL.                -999.2500: 
COMP.          Pioneer Natural Resources: COMPANY
WELL.          Victory 12-14 Tr: WELL
FLD.           Purgatoire River: FIELD
LOC.           2522' FNL & 276' FWL: LOCATION
PROV.                 Colorado: PROVINCE
CNTY.               Las Animas: COUNTRY
SRVC.                Patterson: SERVICE COMPANY
DATE.          Mon Jul 18 06:52:40 2005: LOG DATE
UWI.           05 071 08433 00: UNIQUE WELL ID
~Curve Information Block
DEPT.FT            0 000 00 00: Depth
DCAL.in                       : CDL Caliper
RHOB.g/cc                     : CDL Bulk Density
RHOC.g/cc                     : CDL Density Correction
DPOR.pu                       : CDL Density Porosity
GR.GAPI                       : Gamma Ray
NPOR.pu                       : Neutron Porosity
~Parameter Information Block
~A  Depth       DCAL        RHOB        RHOC        DPOR         GR         NPOR    
# ...
  1416.8000      8.0358      2.6164      0.0070      2.0348     90.4274     21.0398
  1416.9000      8.0358      2.6510      0.1412     -0.0593     82.3715     21.0877
  1417.0000      8.0877      2.6549      0.1243     -0.2984     73.3509     21.5668
  1417.1000      8.0877      2.6150      0.1003      2.1216     68.4933     21.8853
  1417.2000      8.0877      2.5613      0.0635      5.3731     66.4002     21.5611
  1417.3000      8.0621      2.5251      0.0536      7.5713     63.9056     20.7263
  1417.4000      8.0621      2.5148      0.0311      8.1939     60.4189     19.9275
  1417.5000      8.0229      2.5190      0.0345      7.9370     55.2134     19.6455
  1417.6000      8.0229      2.5231      0.0482      7.6930     52.5675     19.7044
  1417.7000      8.0229      2.5299     -0.0020      7.2792     55.2609     19.4643
  1417.8000      8.0078      2.5474      0.0537      6.2177     57.7928     18.9081
  1417.9000      8.0078      2.5734      0.0450      4.6433     58.6862     18.5273
  1418.0000      8.0216      2.6027      0.1396      2.8678     60.8127     18.3555
  1418.1000      8.0216      2.6219      0.1694      1.7023     61.4650     18.1597
  1418.2000      8.0216      2.6195      0.1579      1.8489     59.8861     17.9340
  1418.3000      8.0167      2.6037      0.1146      2.8087     60.7840     17.9573
  1418.4000      8.0167      2.5869      0.1158      3.8248     64.7277     18.2258
  1418.5000      7.9833      2.5708      0.1080      4.8006     68.9031     18.5006
  1418.6000      7.9833      2.5546      0.0777      5.7806     71.3033     18.7803
  1418.7000      7.9833      2.5475      0.0363      6.2115     69.9553     18.9552
  1418.8000      7.9746      2.5584      0.0541      5.5487     66.8517     18.7833
  1418.9000      7.9746      2.5709      0.1073      4.7969     66.4346     18.2683
  1419.0000      8.0007      2.5592      0.0921      5.5015     68.2226     17.7715
  1419.1000      8.0007      2.5291      0.0744      7.3291     69.8426     17.5641
  1419.2000      8.0007      2.4992      0.0881      9.1393     71.8201     17.5075
  1419.3000      8.0058      2.4743      0.1246     10.6510     74.0537     17.5504
  1419.4000      8.0058      2.4628      0.0692     11.3469     74.2389     18.0212
  1419.5000      7.9981      2.4743      0.1272     10.6459     73.8220     19.0337
  1419.6000      7.9981      2.4911      0.1761      9.6332     76.8822     20.0583
  1419.7000      7.9981      2.4921      0.1600      9.5714     83.7773     21.0431
  1419.8000      8.0075      2.4829      0.1589     10.1300     91.8294     22.3220
  1419.9000      8.0075      2.4784      0.1491     10.3984     96.9924     23.6493
  1420.0000      8.0233      2.4948      0.1598      9.4077     96.4854     24.7359
  1420.1000      8.0233      2.5354      0.1904      6.9441     94.7366     25.3920
  1420.2000      8.0233      2.5765      0.2535      4.4570    100.2528     25.5974
  1420.3000      8.0396      2.5922      0.1968      3.5058    113.9524     25.6728
  1420.4000      8.0396      2.5875      0.1240      3.7893    126.4121     25.8674
  1420.5000      8.0699      2.5872      0.0861      3.8075    129.3220     25.8916
  1420.6000      8.0699      2.5979      0.1723      3.1578    125.1515     25.4246
  1420.7000      8.0699      2.6073      0.0992      2.5892    121.7537     24.9669
  1420.8000      8.0805      2.6172      0.0929      1.9883    123.9154     25.0691
  1420.9000      8.0805      2.6252      0.1157      1.5030    128.7947     25.4934
  1421.0000      8.0392      2.6131      0.1294      2.2373    130.0723     25.7109
  1421.1000      8.0392      2.5838      0.0415      4.0149    126.0123     25.4664
  1421.2000      8.0392      2.5621      0.0623      5.3303    121.3737     24.9238
  1421.3000      8.0045      2.5545      0.0677      5.7878    120.5996     24.5249
  1421.4000      8.0045      2.5451      0.0832      6.3549    121.0233     24.6036
  1421.5000      8.0316      2.5292      0.0452      7.3233    118.9302     24.8908
  1421.6000      8.0316      2.5223      0.0479      7.7417    118.3088     25.0427
  1421.7000      8.0316      2.5355      0.0539      6.9422    124.5900     25.2905
  1421.8000      8.0365      2.5696      0.0885      4.8729    135.2635     25.8817
  1421.9000      8.0365      2.6261      0.0903      1.4500    142.1814     26.8257
  1422.0000      8.0502      2.7081      0.1332     -3.5185    143.4720     27.7587
  1422.1000      8.0502      2.8088      0.1971     -9.6267    145.0371     28.0754
  1422.2000      8.0502      2.9005      0.2403    -15.1838    147.5865     27.7214
  1422.3000      8.0165      2.9525      0.2440    -18.3358    147.9481     27.0814
  1422.4000      8.0165      2.9606      0.2388    -18.8232    148.9561     26.4747
  1422.5000      8.0075      2.9438      0.1771    -17.8050    152.6742     26.0796
  1422.6000      8.0075      2.9179      0.1416    -16.2385    152.8254     26.1171
  1422.7000      8.0075      2.8854      0.0787    -14.2682    144.8214     26.5630
  1422.8000      8.0094      2.8469      0.0273    -11.9341    134.2475     26.7968
  1422.9000      8.0094      2.7986      0.0692     -9.0081    127.8134     26.5649
  1423.0000      8.0047      2.7350      0.0591     -5.1508    126.0153     26.4140
  1423.1000      8.0047      2.6787      0.0582     -1.7416    126.1285     26.6206
  1423.2000      8.0047      2.6595      0.1053     -0.5776    124.2141     26.9229
  1423.3000      8.0310      2.6651      0.0935     -0.9160    122.1357     27.1844
  1423.4000      8.0310      2.6583      0.1213     -0.5031    127.8831     27.3975
  1423.5000      8.0641      2.6336      0.0345      0.9936    141.7011     27.4032
  1423.6000      8.0641      2.6180      0.1015      1.9423    156.6282     27.3125
  1423.7000      8.0641      2.6196      0.0929      1.8414    166.6931     27.3743
  1423.8000      8.0744      2.6190      0.1192      1.8813    169.6483     27.3307
  1423.9000      8.0744      2.5944      0.1267      3.3675    168.7059     26.9478
  1424.0000      8.1058      2.5545      0.0665      5.7882    167.2630     26.5243
  1424.1000      8.1058      2.5300      0.0858      7.2749    163.5802     26.5491
  1424.2000      8.1058      2.5287      0.0661      7.3492    156.8503     27.2514
  1424.3000      8.1246      2.5385      0.0403      6.7548    153.2037     28.1653
  1424.4000      8.1246      2.5429      0.0726      6.4881    155.1238     28.3470
  1424.5000      8.1252      2.5265      0.0718      7.4822    157.8076     27.6348
  1424.6000      8.1252      2.5016      0.0212      8.9923    159.8029     26.9417
  1424.7000      8.1252      2.4988      0.0314      9.1667    163.1942     26.9915
  1424.8000      8.1232      2.5264      0.0818      7.4929    165.1067     27.3049
  1424.9000      8.1232      2.5638      0.0815      5.2259    162.4828     27.1526
  1425.0000      8.1058      2.5897      0.1005      3.6536    159.2915     26.9277
  1425.1000      8.1058      2.6036      0.1073      2.8134    157.2662     27.3352
  1425.2000      8.1058      2.6121      0.1634      2.2975    151.7613     27.8953
  1425.3000      8.0705      2.6227      0.1185      1.6563    145.0823     27.9118
  1425.4000      8.0705      2.6424      0.1146      0.4627    140.8027     27.6996
  1425.5000      8.0560      2.6601      0.1151     -0.6140    134.8178     27.5247
  1425.6000      8.0560      2.6598      0.1143     -0.5969    128.1784     27.2759
  1425.7000      8.0560      2.6429      0.1441      0.4304    127.8261     26.8950
  1425.8000      8.0646      2.6169      0.1205      2.0066    132.9299     26.3960
  1425.9000      8.0646      2.5920      0.0792      3.5128    135.6173     25.9583
  1426.0000      8.0592      2.5839      0.0349      4.0062    132.8627     26.0365
  1426.1000      8.0592      2.5997      0.0530      3.0471    128.3069     26.7481
  1426.2000      8.0592      2.6282      0.0914      1.3235    126.4842     27.4410
  1426.3000      8.0626      2.6511      0.0865     -0.0641    127.0695     27.6642
