~Version Information
VERS.                      2.0: CWLS Log ASCII Standard - VERSION 2.0
WRAP.                       NO: One line per depth step
~Well Information Block
STRT.FT                -9.7500: 
STOP.FT              2566.5000: 
STEP.FT                 0.2500: 
NULL.                -999.2500: 
COMP.          Petrogulf Corporation: COMPANY
WELL.             Valejo 8-12V: WELL
FLD.           Purgatorie River: FIELD
LOC.           1510' FNL & 1460' FWL: LOCATION
CNTY.               Las Animas: COUNTY
SRVC.                         : SERVICE COMPANY
DATE.          Tue Nov 18 14:36:15 2003: LOG DATE
UWI.                          : UNIQUE WELL ID
STAT.                 Colorado: STATE
~Curve Information Block
DEPT.FT            0 000 00 00: Depth
CCL.                          : Casing Collar Locator
TT3.usec                      : CBL 3' Travel Time
AMP3.mV                       : CBL 3' Amplitude
GR.GAPI                       : Gamma Ray
~Parameter Information Block
~A  Depth       CCL         TT3         AMP3         GR     
# ...
  1866.2500      0.0000    828.3869      3.5425    132.7713
  1866.5000      0.0000    822.7405      3.5641    130.2460
  1866.7500      0.0000    818.3485      3.5854    127.9659
  1867.0000      0.0000    816.1793      3.5727    125.5976
  1867.2500      0.0000    815.8555      3.5534    123.5686
  1867.5000      0.0000    816.9930      3.5691    123.1674
  1867.7500      0.0000    819.8682      3.6208    125.4719
  1868.0000      0.0000    824.1818      3.6858    130.2334
  1868.2500      0.0000    828.0893      3.7582    135.8456
  1868.5000      0.0000    829.0823      3.8378    140.4334
  1868.7500      0.0000    825.6235      3.9072    142.8980
  1869.0000      0.0000    818.0539      3.9593    143.0624
  1869.2500      0.0000    808.2834      4.0316    141.3271
  1869.5000      0.0000    798.4063      4.1683    138.5284
  1869.7500      0.0000    789.5103      4.3483    135.9256
  1870.0000      0.0000    782.0838      4.4872    134.6379
  1870.2500      0.0000    777.0242      4.5265    134.6551
  1870.5000      0.0000    775.2704      4.4957    134.8998
  1870.7500      0.0000    776.6277      4.4664    134.6203
  1871.0000      0.0000    779.6350      4.4652    134.1410
  1871.2500      0.0000    782.4923      4.4705    134.0288
  1871.5000      0.0000    784.0066      4.4823    134.2603
  1871.7500      0.0000    784.1196      4.5393    134.5534
  1872.0000      0.0000    783.6480      4.6532    135.0354
  1872.2500      0.0000    783.2448      4.7719    136.1389
  1872.5000      0.0000    782.8073      4.8368    137.5734
  1872.7500      0.0000    782.1037      4.8489    137.6231
  1873.0000      0.0000    781.2864      4.8466    134.1575
  1873.2500      0.0000    780.0952      4.8430    126.7639
  1873.5000      0.0000    776.9974      4.8291    117.5051
  1873.7500      0.0000    770.1918      4.8230    109.2533
  1874.0000      0.0000    759.9209      4.8645    103.6106
  1874.2500      0.0000    749.3536      4.9588    100.6916
  1874.5000      0.0000    742.4241      5.0652    100.1003
  1874.7500      0.0000    740.6521      5.1443    101.1383
  1875.0000      0.0000    742.4105      5.1919    102.4404
  1875.2500      0.0000    745.1672      5.2207    102.6440
  1875.5000      0.0000    747.8326      5.2335    101.7365
  1875.7500      0.0000    751.0144      5.2199    101.0284
  1876.0000      0.0000    755.7540      5.1658    101.4254
  1876.2500      0.0000    762.5256      5.0638    102.1805
  1876.5000      0.0000    771.0483      4.9269    101.8598
  1876.7500      0.0000    780.1425      4.7922    100.4989
  1877.0000      0.0000    787.5099      4.6926    100.0338
  1877.2500      0.0000    790.6014      4.6173    102.2129
  1877.5000      0.0000    788.7895      4.5180    106.5130
  1877.7500      0.0000    784.7184      4.3656    110.4271
  1878.0000      0.0000    782.4324      4.1841    111.6222
  1878.2500      0.0000    783.2064      4.0092    109.8567
  1878.5000      0.0000    783.7958      3.8358    107.2365
  1878.7500      0.0000    780.5007      3.6364    106.8184
  1879.0000      0.0000    774.9318      3.4159    110.6604
  1879.2500      0.0000    773.5628      3.2163    118.7575
  1879.5000      0.0000    780.7703      3.0777    129.3250
  1879.7500      0.0000    794.1334      3.0162    139.6163
  1880.0000      0.0000    807.4210      3.0240    146.7807
  1880.2500      0.0000    816.4421      3.0727    149.1019
  1880.5000      0.0000    820.6782      3.1350    146.9947
  1880.7500      0.0000    820.7171      3.2108    142.3896
  1881.0000      0.0000    816.6371      3.3197    137.0830
  1881.2500      0.0000    809.3656      3.4732    132.1039
  1881.5000      0.0000    801.8586      3.6675    128.2249
  1881.7500      0.0000    797.6393      3.8904    126.0647
  1882.0000      0.0000    798.3424      4.1195    125.4760
  1882.2500      0.0000    802.6877      4.3295    125.3728
  1882.5000      0.0000    807.3134      4.5170    124.6149
  1882.7500      0.0000    809.0558      4.7032    123.2225
  1883.0000      0.0000    807.4644      4.8987    122.7803
  1883.2500      0.0000    805.2145      5.0612    125.4776
  1883.5000      0.0000    805.5675      5.0934    132.3587
  1883.7500      0.0000    809.5654      4.9043    142.2506
  1884.0000      0.0000    815.7595      4.4964    152.2999
  1884.2500      0.0000    821.6746      3.9940    159.6192
  1884.5000      0.0000    824.9548      3.5696    162.6655
  1884.7500      0.0000    824.0647      3.3358    161.5440
  1885.0000      0.0000    819.1049      3.2956    157.5063
  1885.2500      0.0000    812.1037      3.3681    152.1040
  1885.5000      0.0000    806.1005      3.4461    146.4716
  1885.7500      0.0000    803.6201      3.4495    141.4361
  1886.0000      0.0000    805.6482      3.3616    138.1241
  1886.2500      0.0000    811.4073      3.2420    137.6355
  1886.5000      0.0000    818.7233      3.2013    139.8417
  1886.7500      0.0000    824.9389      3.3216    143.1792
  1887.0000      0.0000    827.8912      3.5690    146.0144
  1887.2500      0.0000    826.3278      3.8050    147.9124
  1887.5000      0.0000    819.8666      3.9154    149.4783
  1887.7500      0.0000    809.3249      3.9138    151.1870
  1888.0000      0.0000    797.1516      3.9028    152.5274
  1888.2500      0.0000    786.8217      3.9584    152.4145
  1888.5000      0.0000    780.9870      4.0760    150.3879
  1888.7500      0.0000    779.7054      4.1931    147.1754
  1889.0000      2.0000    780.4226      4.2302    144.0356
  1889.2500      2.0000    780.0945      4.1298    141.7472
  1889.5000      0.0000    777.5096      3.9059    140.2701
  1889.7500      0.0000    773.0412      3.6601    139.0955
  1890.0000      0.0000    766.4747      3.5182    137.6714
  1890.2500      0.0000    756.9739      3.5292    135.6058
  1890.5000      0.0000    745.5886      3.6331    132.7034
  1890.7500      0.0000    735.6191      3.7322    128.9919
  1891.0000      0.0000    729.5355      3.7894    124.9266
  1891.2500      0.0000    726.9447      3.8445    121.6045
  1891.5000      0.0000    725.9186      3.9374    120.4137
  1891.7500      0.0000    724.9911      4.0431    121.9836
  1892.0000      0.0000    723.6301      4.1025    125.5754
  1892.2500      0.0000    722.3061      4.1019    129.7747
  1892.5000      0.0000    722.9623      4.0932    133.6206
  1892.7500      0.0000    728.7898      4.1314    136.7629
  1893.0000      0.0000    742.4415      4.2030    138.8633
  1893.2500      0.0000    763.5381      4.2276    139.5391
  1893.5000      0.0000    787.7415      4.1270    138.9681
  1893.7500      0.0000    809.0392      3.8963    137.9469
  1894.0000      0.0000    823.5567      3.6166    137.0454
  1894.2500      0.0000    831.2571      3.4044    136.0965
  1894.5000      0.0000    834.4800      3.3493    134.7867
  1894.7500      0.0000    835.6272      3.4842    133.5556
  1895.0000      0.0000    836.0923      3.7750    133.5639
  1895.2500      0.0000    836.4059      4.1210    135.5680
  1895.5000      0.0000    836.7103      4.3933    138.9130
  1895.7500      0.0000    837.0476      4.5025    141.9586
  1896.0000      0.0000    837.4251      4.4260    143.7146
  1896.2500      0.0000    837.7883      4.1923    144.8553
  1896.5000      0.0000    838.0317      3.8792    146.9089
  1896.7500      0.0000    838.0392      3.6035    150.5155
  1897.0000      0.0000    837.6751      3.4440    154.5902
  1897.2500      0.0000    836.6847      3.3667    157.0720
  1897.5000      0.0000    834.5193      3.2715    156.3625
  1897.7500      0.0000    830.2233      3.1098    151.9628
  1898.0000      0.0000    822.6904      2.9209    143.8837
  1898.2500      0.0000    811.4712      2.7761    132.1337
  1898.5000      0.0000    797.6862      2.7325    117.3368
  1898.7500      0.0000    783.9945      2.8244    101.4732
  1899.0000      0.0000    773.0996      3.0568     87.1615
  1899.2500      0.0000    765.8405      3.3923     76.0487
  1899.5000      0.0000    760.8997      3.7551     68.1761
