~Version Information
VERS.                      2.0: CWLS Log ASCII Standard - VERSION 2.0
WRAP.                       NO: One line per depth step
~Well Information Block
STRT.FT                -3.2500: 
STOP.FT              1637.5000: 
STEP.FT                 0.2500: 
NULL.                -999.2500: 
COMP.          Pioneer Natural Resources: COMPANY
WELL.            Mad Dog 42-31: WELL
FLD.           Purgatorie River: FIELD
LOC.           2064' FNL & 479' FEL--: LOCATION
PROV.                       CO: PROVINCE
CNTY.               Las Animas: COUNTRY
SRVC.                         : SERVICE COMPANY
DATE.          Fri Oct 15 16:13:39 2004: LOG DATE
UWI.          005 071 08195   : UNIQUE WELL ID
~Curve Information Block
DEPT.FT            0 000 00 00: Depth
HVOLTA.V                      : Head Voltage Apparent
GR.GAPI                       : Gamma Ray
CCL.                          : Casing Collar Locator
TT3.usec                      : CBL 3' Travel Time
AMP3.mV                       : CBL 3' Amplitude
~Parameter Information Block
~A  Depth      HVOLTA        GR         CCL         TT3         AMP3    
# ...
   220.7500     97.1864    107.3463      0.0000    699.7333     10.4201
   221.0000     97.2032    105.7345      0.0000    722.7999     10.6221
   221.2500     97.3130    101.9394      0.0000    744.0273     10.8172
   221.5000     97.3883     96.5467      0.0000    757.8162     10.9489
   221.7500     97.3608     90.1786      0.0000    764.0754     10.9959
   222.0000     97.3573     83.7949      0.0000    765.8286     10.9697
   222.2500     97.2175     79.1957      0.0000    765.9886     10.8969
   222.5000     97.2175     78.4587      0.0000    765.9667     10.8032
   222.7500     97.2820     82.3718      0.0000    766.0145     10.7060
   223.0000     97.3023     89.5328      0.0000    765.9916     10.6147
   223.2500     97.2963     96.9887      0.0000    765.8126     10.5296
   223.5000     97.1208    101.7622      0.0000    765.5336     10.4450
   223.7500     97.0980    102.4248      0.0000    765.2560     10.3567
   224.0000     97.1458     99.8703      0.0000    765.0093     10.2685
   224.2500     97.2246     96.5541      0.0000    764.7670     10.1897
   224.5000     97.4361     94.7930      0.0000    764.5272     10.1292
   224.7500     97.0730     95.5872      0.0000    764.2957     10.0948
   225.0000     97.2927     98.4354      0.0000    763.9569     10.0880
   225.2500     97.2988    101.5777      0.0000    763.1762     10.0993
   225.5000     97.2999    102.6563      0.0000    761.5234     10.1169
   225.7500     97.2581    100.0452      0.0000    758.9026     10.1372
   226.0000     97.3227     94.0295      0.0000    755.9489     10.1442
   226.2500     97.1697     86.6475      0.0000    753.9241     10.0669
   226.5000     97.2856     80.3019      0.0000    754.3532      9.7946
   226.7500     97.2139     76.3248      0.0000    759.2504      9.2863
   227.0000     97.1590     74.5640      0.0000    771.4672      8.6708
   227.2500     97.3202     74.2366      0.0000    793.2252      8.1854
   227.5000     97.1732     75.1905      0.0000    822.8656      7.9864
   227.7500     97.2856     78.1763      0.0000    853.2720      8.0387
   228.0000     97.1625     83.7580     -2.0000    874.6234      8.1963
   228.2500     97.2139     91.0149     -2.0000    879.6003      8.3601
   228.5000     97.2724     97.4413      0.0000    866.4374      8.5661
   228.7500     97.1494    100.3614      0.0000    838.2236      8.9465
   229.0000     97.0777     98.9268      0.0000    801.3492      9.5780
   229.2500     97.2032     94.9523      0.0000    764.9197     10.3373
   229.5000     97.1818     91.6064      0.0000    738.8368     10.9555
   229.7500     97.3537     91.1033      0.0000    729.8934     11.2803
   230.0000     97.3191     93.5222      0.0000    740.2882     11.4232
   230.2500     97.1829     97.4534      0.0000    768.8925     11.5806
   230.5000     97.2342    101.4202      0.0000    810.2202     11.7942
   230.7500     97.3034    104.8405      0.0000    853.3033     11.9603
   231.0000     97.2068    107.9717      0.0000    886.5895     11.9909
   231.2500     97.1590    111.0603      0.0000    904.6561     11.8916
   231.5000     97.2688    113.7266      0.0000    908.6987     11.7248
   231.7500     97.1326    115.2352      0.0000    902.4104     11.5561
   232.0000     97.2677    115.0752      0.0000    889.6862     11.4281
   232.2500     97.6924    113.1947      0.0000    875.0672     11.3506
   232.5000     97.4548    110.0409      0.0000    863.6147     11.3067
   232.7500     97.1400    106.5221      0.0000    859.2509     11.2702
   233.0000     97.2378    103.7366      0.0000    863.1523     11.2188
   233.2500     97.2449    102.5837      0.0000    873.1671     11.1309
   233.5000     97.1804    103.4866      0.0000    884.4919     10.9798
   233.7500     97.1518    106.0713      0.0000    891.8960     10.7420
   234.0000     97.0837    108.8884      0.0000    892.3959     10.4107
   234.2500     97.2988    109.9396      0.0000    886.1614     10.0052
   234.5000     97.2210    108.0890      0.0000    875.8000      9.5730
   234.7500     97.2581    103.9984      0.0000    865.8251      9.1835
   235.0000     97.3309     99.4967      0.0000    861.0970      8.9017
   235.2500     97.3130     96.1394      0.0000    862.7617      8.7570
   235.5000     97.3095     94.4454      0.0000    865.9378      8.7425
   235.7500     97.4158     94.0934      0.0000    863.3647      8.8462
   236.0000     97.2032     94.5348      0.0000    851.1890      9.0645
   236.2500     97.1051     95.3970      0.0000    831.0098      9.3772
   236.5000     97.1458     96.2512      0.0000    807.9816      9.7281
   236.7500     97.0670     96.0062      0.0000    787.5345     10.0469
   237.0000     97.2164     93.0337      0.0000    772.4808     10.2840
   237.2500     97.3466     86.3203      0.0000    762.1018     10.4258
   237.5000     97.3059     76.4166      0.0000    753.8651     10.4935
   237.7500     97.2892     65.1547      0.0000    746.2060     10.5375
   238.0000     97.4397     54.6021      0.0000    739.8997     10.6152
   238.2500     97.2210     46.1715      0.0000    737.0316     10.7537
   238.5000     97.1996     40.3115      0.0000    738.6683     10.9285
   238.7500     97.2892     36.8032      0.0000    743.4933     11.0833
   239.0000     97.0980     35.2728      0.0000    748.5931     11.1721
   239.2500     97.2139     35.4197      0.0000    751.2945     11.1831
   239.5000     97.4097     36.9250      0.0000    750.3531     11.1290
   239.7500     97.1590     39.3890      0.0000    746.2493     11.0232
   240.0000     97.4229     42.4240      0.0000    740.9915     10.8710
   240.2500     97.2628     45.8006      0.0000    737.0451     10.6799
   240.5000     97.3380     49.5866      0.0000    735.6147     10.4708
   240.7500     97.2892     54.0533      0.0000    736.2300     10.2715
   241.0000     97.1732     59.2766      0.0000    738.2346     10.0973
   241.2500     97.0705     64.8552      0.0000    741.7499      9.9381
   241.5000     97.2760     70.0759      0.0000    746.7610      9.7701
   241.7500     97.2760     74.1872      0.0000    752.3228      9.5837
   242.0000     97.1016     76.6608      0.0000    757.3652      9.3972
   242.2500     97.3680     77.7037      0.0000    761.6992      9.2370
   242.5000     97.2485     78.5706      0.0000    765.6934      9.1063
   242.7500     97.2485     80.7477      0.0000    769.3409      8.9731
   243.0000     97.3405     84.7054      0.0000    772.2972      8.7952
   243.2500     97.1936     89.7968      0.0000    774.9877      8.5610
   243.5000     97.1757     94.9340      0.0000    778.9385      8.3132
   243.7500     97.2653     98.7062      0.0000    784.9808      8.1229
   244.0000     97.1422     99.4522      0.0000    791.1065      8.0347
   244.2500     97.2282     96.3776      0.0000    793.3183      8.0371
   244.5000     97.1697     90.5515      0.0000    789.4450      8.0792
   244.7500     97.1590     84.4030      0.0000    781.4615      8.1063
   245.0000     97.1864     80.4558      0.0000    773.4564      8.0883
   245.2500     97.1386     80.3354      0.0000    768.0855      8.0368
   245.5000     97.1793     84.1243      0.0000    765.4693      7.9979
   245.7500     97.3309     90.3821      0.0000    764.4885      8.0152
   246.0000     97.0980     97.1878      0.0000    764.1611      8.0962
   246.2500     97.3369    103.2328      0.0000    764.0176      8.2177
   246.5000     97.2856    107.9194      0.0000    763.8986      8.3554
   246.7500     97.2068    110.8010      0.0000    763.7449      8.4977
   247.0000     97.1697    111.3489      0.0000    763.5319      8.6348
   247.2500     97.3298    109.3409      0.0000    763.3002      8.7476
   247.5000     97.2688    105.3893      0.0000    763.1467      8.8167
   247.7500     97.1960    100.9202      0.0000    763.1641      8.8439
   248.0000     97.1721     97.5730      0.0000    763.3804      8.8617
   248.2500     97.0598     96.6472      0.0000    763.7592      8.9110
   248.5000     97.2032     98.7339      0.0000    764.2554      9.0066
