~Version Information
VERS.                      2.0: CWLS Log ASCII Standard - VERSION 2.0
WRAP.                       NO: One line per depth step
~Well Information Block
STRT.FT               -10.3000: 
STOP.FT              1936.7000: 
STEP.FT                 0.1000: 
NULL.                -999.2500: 
COMP.          Petrogulf Corporation: COMPANY
WELL.              Graff 9-31R: WELL
FLD.           Purgatorie River: FIELD
LOC.           707' FNL & 1713' FEL------: LOCATION
CNTY.               Las Animas: COUNTY
SRVC.                         : SERVICE COMPANY
DATE.          Wed Nov 17 13:41:51 2004: LOG DATE
UWI.                          : UNIQUE WELL ID
STAT.                       CO: STATE
~Curve Information Block
DEPT.FT            0 000 00 00: Depth
GR.GAPI                       : Gamma Ray
CCL.                          : Casing Collar Locator
TT3.usec                      : CBL 3' Travel Time
AMP3.mV                       : CBL 3' Amplitude
~Parameter Information Block
~A  Depth        GR         CCL         TT3         AMP3    
# ...
  1410.1000    137.3333      0.0000    748.7882     14.3372
  1410.2000    137.3333      0.0000    748.7882     14.3372
  1410.3000    137.8075      0.0000    747.2485     13.5420
  1410.4000    137.8075      0.0000    747.2485     13.5420
  1410.5000    135.8733      0.0000    739.1207     12.7569
  1410.6000    135.8733      0.0000    739.1207     12.7569
  1410.7000    135.8733      0.0000    739.1207     12.7569
  1410.8000    131.4913      0.0000    730.8271     12.0530
  1410.9000    131.4913      0.0000    730.8271     12.0530
  1411.0000    126.3736      0.0000    728.2322     11.5133
  1411.1000    126.3736      0.0000    728.2322     11.5133
  1411.2000    126.3736      0.0000    728.2322     11.5133
  1411.3000    122.6998      0.0000    732.5185     11.2074
  1411.4000    122.6998      0.0000    732.5185     11.2074
  1411.5000    122.2457      0.0000    740.2223     11.1527
  1411.6000    122.2457      0.0000    740.2223     11.1527
  1411.7000    122.2457      0.0000    740.2223     11.1527
  1411.8000    126.0762      0.0000    747.0991     11.3004
  1411.9000    126.0762      0.0000    747.0991     11.3004
  1412.0000    134.0868      0.0000    751.2325     11.5670
  1412.1000    134.0868      0.0000    751.2325     11.5670
  1412.2000    134.0868      0.0000    751.2325     11.5670
  1412.3000    144.5056      0.0000    753.0542     11.8857
  1412.4000    144.5056      0.0000    753.0542     11.8857
  1412.5000    154.1096      0.0000    753.8763     12.2340
  1412.6000    154.1096      0.0000    753.8763     12.2340
  1412.7000    154.1096      0.0000    753.8763     12.2340
  1412.8000    159.7324      0.0000    754.9045     12.6120
  1412.9000    159.7324      0.0000    754.9045     12.6120
  1413.0000    160.4811      0.0000    756.8961     13.0001
  1413.1000    160.4811      0.0000    756.8961     13.0001
  1413.2000    160.4811      0.0000    756.8961     13.0001
  1413.3000    158.3177      0.0000    759.8465     13.3410
  1413.4000    158.3177      0.0000    759.8465     13.3410
  1413.5000    155.8401      0.0000    762.7265     13.5611
  1413.6000    155.8401      0.0000    762.7265     13.5611
  1413.7000    155.8401      0.0000    762.7265     13.5611
  1413.8000    154.1016      0.0000    763.9590     13.6061
  1413.9000    154.1016      0.0000    763.9590     13.6061
  1414.0000    153.1855      0.0000    762.5877     13.4580
  1414.1000    153.1855      0.0000    762.5877     13.4580
  1414.2000    153.1855      0.0000    762.5877     13.4580
  1414.3000    153.5449      0.0000    758.7946     13.1363
  1414.4000    153.5449      0.0000    758.7946     13.1363
  1414.5000    155.3686      0.0000    752.9646     12.6984
  1414.6000    155.3686      0.0000    752.9646     12.6984
  1414.7000    155.3686      0.0000    752.9646     12.6984
  1414.8000    157.3955      0.0000    744.7194     12.2315
  1414.9000    157.3955      0.0000    744.7194     12.2315
  1415.0000    157.6774      0.0000    734.0352     11.8136
  1415.1000    157.6774      0.0000    734.0352     11.8136
  1415.2000    157.6774      0.0000    734.0352     11.8136
  1415.3000    155.3392      0.0000    723.7565     11.4667
  1415.4000    155.3392      0.0000    723.7565     11.4667
  1415.5000    150.9256      0.0000    719.6193     11.1549
  1415.6000    150.9256      0.0000    719.6193     11.1549
  1415.7000    150.9256      0.0000    719.6193     11.1549
  1415.8000    145.3956      0.0000    725.4393     10.8371
  1415.9000    145.3956      0.0000    725.4393     10.8371
  1416.0000    139.4349      0.0000    738.2177     10.5157
  1416.1000    139.4349      0.0000    738.2177     10.5157
  1416.2000    139.4349      0.0000    738.2177     10.5157
  1416.3000    133.7457      0.0000    750.4410     10.2345
  1416.4000    133.7457      0.0000    750.4410     10.2345
  1416.5000    129.5749      0.0000    757.9661     10.0378
  1416.6000    129.5749      0.0000    757.9661     10.0378
  1416.7000    129.5749      0.0000    757.9661     10.0378
  1416.8000    128.4650      0.0000    763.3050      9.9419
  1416.9000    128.4650      0.0000    763.3050      9.9419
  1417.0000    130.9953      0.0000    770.2605      9.9315
  1417.1000    130.9953      0.0000    770.2605      9.9315
  1417.2000    130.9953      0.0000    770.2605      9.9315
  1417.3000    135.6603      0.0000    777.8433      9.9653
  1417.4000    135.6603      0.0000    777.8433      9.9653
  1417.5000    139.5679      0.0000    781.3611      9.9849
  1417.6000    139.5679      0.0000    781.3611      9.9849
  1417.7000    139.5679      0.0000    781.3611      9.9849
  1417.8000    140.8084      0.0000    778.3770      9.9383
  1417.9000    140.8084      0.0000    778.3770      9.9383
  1418.0000    140.0772      0.0000    772.1843      9.8116
  1418.1000    140.0772      0.0000    772.1843      9.8116
  1418.2000    140.0772      0.0000    772.1843      9.8116
  1418.3000    139.8207      0.0000    769.2451      9.6399
  1418.4000    139.8207      0.0000    769.2451      9.6399
  1418.5000    141.8452      0.0000    773.2971      9.4850
  1418.6000    141.8452      0.0000    773.2971      9.4850
  1418.7000    141.8452      0.0000    773.2971      9.4850
  1418.8000    145.7748      0.0000    782.3308      9.3903
  1418.9000    145.7748      0.0000    782.3308      9.3903
  1419.0000    149.6373      0.0000    791.2886      9.3487
  1419.1000    149.6373      0.0000    791.2886      9.3487
  1419.2000    149.6373      0.0000    791.2886      9.3487
  1419.3000    151.6039      0.0000    796.4780      9.3102
  1419.4000    151.6039      0.0000    796.4780      9.3102
  1419.5000    150.9699      0.0000    796.8796      9.2190
  1419.6000    150.9699      0.0000    796.8796      9.2190
  1419.7000    150.9699      0.0000    796.8796      9.2190
  1419.8000    147.7793      0.0000    792.9008      9.0469
  1419.9000    147.7793      0.0000    792.9008      9.0469
  1420.0000    142.3651      0.0000    785.8707      8.8020
  1420.1000    142.3651      0.0000    785.8707      8.8020
  1420.2000    142.3651      0.0000    785.8707      8.8020
  1420.3000    135.7695      0.0000    778.5265      8.5181
  1420.4000    135.7695      0.0000    778.5265      8.5181
  1420.5000    130.0414      0.0000    773.8485      8.2362
  1420.6000    130.0414      0.0000    773.8485      8.2362
  1420.7000    130.0414      0.0000    773.8485      8.2362
  1420.8000    127.2111      0.0000    771.8369      7.9934
  1420.9000    127.2111      0.0000    771.8369      7.9934
  1421.0000    127.6812      0.0000    768.1965      7.8217
  1421.1000    127.6812      0.0000    768.1965      7.8217
  1421.2000    127.6812      0.0000    768.1965      7.8217
  1421.3000    129.7664      0.0000    757.8647      7.7476
  1421.4000    129.7664      0.0000    757.8647      7.7476
  1421.5000    130.9958      0.0000    739.9645      7.7815
  1421.6000    130.9958      0.0000    739.9645      7.7815
  1421.7000    130.9958      0.0000    739.9645      7.7815
  1421.8000    130.1044      0.0000    718.7572      7.9063
  1421.9000    130.1044      0.0000    718.7572      7.9063
  1422.0000    127.8755      0.0000    700.5775      8.0844
  1422.1000    127.8755      0.0000    700.5775      8.0844
  1422.2000    127.8755      0.0000    700.5775      8.0844
  1422.3000    126.0891      0.0000    690.7920      8.2807
  1422.4000    126.0891      0.0000    690.7920      8.2807
  1422.5000    125.8369      0.0000    692.0327      8.4755
  1422.6000    125.8369      0.0000    692.0327      8.4755
  1422.7000    125.8369      0.0000    692.0327      8.4755
  1422.8000    126.8741      0.0000    702.2964      8.6564
  1422.9000    126.8741      0.0000    702.2964      8.6564
  1423.0000    128.2409      0.0000    714.6471      8.8088
  1423.1000    128.2409      0.0000    714.6471      8.8088
  1423.2000    128.2409      0.0000    714.6471      8.8088
  1423.3000    129.2578      0.0000    721.4734      8.9226
  1423.4000    129.2578      0.0000    721.4734      8.9226
