~Version Information               
VERS.     2.0     :     CWLS LAS VERSION
WRAP.                         NO     :     WRAPING MODE
~Well Information   
API.                      :            
WELL.               Egan 9-11V     :     WELL
COMP.                    N/A     :     COMPANY
FLD.                    N/A     :     FIELD
LOC.                    N/A     :     LOCATION
CNTY.                    N/A     :     COUNTY
STATE.              N/A     :     STATE
CTRY.                    N/A     :     COUNTRY
DATE.                N/A     :     DATE (LOGGED)
UWI.                    N/A     :     UNIQUE WELL ID
SRVC.                N/A     :     SERVICE COMPANY
STAT.                           :
STRT.FT              612.00     :     START DEPTH
STOP.FT             2500.00     :     STOP DEPTH
STEP.FT                1.00     :     DEPTH INCREMENT
NULL.             -9999           :     NULL VALUE
~Curve information               
 DEPTH.FT                                   :
 ROP.MIN/FT                                 :
 GAS.UNITS                                  :     
C1.PPM          :     
C2.PPM          :
~ASCII Log data               
# ...
761.00        0.13     3          7.1          -49995
762.00        0.13     3          8.1          -49995
763.00        0.13     3          7.4          -49995
764.00        0.16     7          7.3          -49995
765.00        0.13     3          7.0          -49995
766.00        0.06     7          7.3          -49995
767.00        0.10     0          7.3          -49995
768.00        0.10     0          7.1          -49995
769.00        0.13     3          7.3          -49995
770.00        0.10     0          7.0          -49995
771.00        0.13     3          7.7          -49995
772.00        0.26     7          7.5          -49995
773.00        0.26     7          5.9          -49995
774.00        0.28     3          6.5          -49995
775.00        0.20     0          6.5          -49995
776.00        0.23     3          6.4          -49995
777.00        0.16     7          6.7          -49995
778.00        0.20     0          6.8          -49995
779.00        0.20     0          6.6          -49995
780.00        0.10     0          6.8          -49995
781.00        0.13     3          6.4          -49995
782.00        0.13     3          5.9          -49995
783.00        0.13     3          6.0          -49995
784.00        0.13     3          6.0          -49995
785.00        0.13     3          5.9          -49995
786.00        0.13     3          6.1          -49995
787.00        0.20     0          5.7          -49995
788.00        0.20     0          6.3          -49995
789.00        0.20     0          6.2          -49995
790.00        0.20     0          6.7          -49995
791.00        0.20     0          7.2          -49995
792.00        0.16     7          7.7          -49995
793.00        0.25     0          8.2          -49995
794.00        0.13     3          8.4          -49995
795.00        0.16     7          8.9          -49995
796.00        0.16     7          8.9          -49995
797.00        0.16     7          8.5          -49995
798.00        0.23     3          8.5          -49995
799.00        0.16     7          9.0          -49995
800.00        0.20     0          8.4          -49995
801.00        0.16     7          8.2          -49995
802.00        0.30     0          8.1          -49995
803.00        0.23     3          6.1          -49995
804.00        0.36     7          5.7          -49995
805.00        0.28     3          4.9          -49995
806.00        0.23     3          5.3          -49995
807.00        0.20     0          4.4          -49995
808.00        0.16     7          4.3          -49995
809.00        0.20     0          4.3          -49995
810.00        0.20     0          4.1          -49995
811.00        0.16     7          4.3          -49995
812.00        0.16     7          4.4          -49995
813.00        0.16     7          4.8          -49995
814.00        0.16     7          4.6          -49995
815.00        0.16     7          4.9          -49995
816.00        0.16     7          5.0          -49995
817.00        0.16     7          4.7          -49995
818.00        0.16     7          4.8          -49995
819.00        0.16     7          4.9          -49995
820.00        0.16     7          4.9          -49995
821.00        0.20     0          5.2          -49995
822.00        0.23     3          5.1          -49995
823.00        0.16     7          5.2          -49995
824.00        0.18     3          4.9          -49995
825.00        0.20     0          4.7          -49995
826.00        0.10     0          5.0          -49995
827.00        0.13     3          4.8          -49995
828.00        0.10     0          4.5          -49995
829.00        0.23     3          4.7          -49995
830.00        0.20     0          4.6          -49995
831.00        0.26     7          4.7          -49995
832.00        0.26     7          4.9          -49995
833.00        0.36     7          5.1          -49995
834.00        0.13     3          5.5          -49995
835.00        0.13     3          6.5          -49995
836.00        0.18     3          7.4          -49995
837.00        0.26     7          8.4          -49995
838.00        0.30     0          9.5          -49995
839.00        0.20     0          8.5          -49995
840.00        0.20     0          8.5          -49995
841.00        0.20     0          8.1          -49995
842.00        0.16     7          8.1          -49995
843.00        0.23     3          7.6          -49995
844.00        0.20     0          7.2          -49995
845.00        0.16     7          6.9          -49995
846.00        0.13     3          5.8          -49995
847.00        0.20     0          5.3          -49995
848.00        0.16     7          5.1          -49995
849.00        0.23     3          4.8          -49995
850.00        0.23     3          4.9          -49995
851.00        0.20     0          4.6          -49995
852.00        0.16     7          4.6          -49995
853.00        0.18     3          4.4          -49995
854.00        0.23     3          4.5          -49995
855.00        0.23     3          4.5          -49995
856.00        0.16     7          4.3          -49995
857.00        0.23     3          4.5          -49995
858.00        0.23     3          4.2          -49995
859.00        0.20     0          4.6          -49995
860.00        0.20     0          4.4          -49995
861.00        0.16     7          5.1          -49995
862.00        0.30     0          4.8          -49995
863.00        0.13     3          4.5          -49995
864.00        0.15     0          4.4          -49995
865.00        0.16     7          4.6          -49995
866.00        0.13     3          5.1          -49995
867.00        0.13     3          4.9          -49995
868.00        0.16     7          5.6          -49995
869.00        0.16     7          5.3          -49995
870.00        0.16     7          5.8          -49995
871.00        0.13     3          6.3          -49995
872.00        0.13     3          7.2          -49995
873.00        0.16     7          7.5          -49995
874.00        0.13     3          8.0          -49995
875.00        0.16     7          7.6          -49995
876.00        0.20     0          7.1          -49995
877.00        0.16     7          6.1          -49995
878.00        0.16     7          5.1          -49995
879.00        0.16     7          4.9          -49995
880.00        0.23     3          5.2          -49995
881.00        0.13     3          5.0          -49995
882.00        0.16     7          5.2          -49995
883.00        0.16     7          5.2          -49995
884.00        0.13     3          4.9          -49995
885.00        0.18     3          5.0          -49995
886.00        0.16     7          5.0          -49995
887.00        0.13     3          4.9          -49995
888.00        0.16     7          5.0          -49995
889.00        0.20     0          5.0          -49995
890.00        0.16     7          4.8          -49995
891.00        0.10     0          4.8          -49995
892.00        0.26     7          4.8          -49995
893.00        0.36     7          5.1          -49995
894.00        0.23     3          5.2          -49995
895.00        0.23     3          4.5          -49995
896.00        0.16     7          5.1          -49995
897.00        0.15     0          5.0          -49995
898.00        0.13     3          5.4          -49995
899.00        0.10     0          5.1          -49995
900.00        0.06     7          5.1          -49995
901.00        0.13     3          5.4          -49995
902.00        0.10     0          5.8          -49995
903.00        0.10     0          5.8          -49995
904.00        0.13     3          6.4          -49995
905.00        0.20     0          6.2          -49995
906.00        0.16     7          6.0          -49995
907.00        0.16     7          6.9          -49995
908.00        0.16     7          7.3          -49995
909.00        0.13     3          7.2          -49995
