~Version Information
VERS.                      2.0: CWLS Log ASCII Standard - VERSION 2.0
WRAP.                       NO: One line per depth step
~Well Information Block
STRT.FT               250.0000: 
STOP.FT              2600.7500: 
STEP.FT                 0.2500: 
NULL.                -999.2500: 
COMP.          Pioneer Natural Resources: COMPANY
WELL.              Quack 22-24: WELL
FLD.           Purgatoire River: FIELD
LOC.           2492' FNL & 2459' FWL--: LOCATION
PROV.                 Colorado: PROVINCE
CNTY.               Las Animas: COUNTRY
SRVC.                Patterson: SERVICE COMPANY
DATE.          Sun Jun 12 09:02:01 2005: LOG DATE
UWI.            05 071 0840200: UNIQUE WELL ID
~Curve Information Block
DEPT.FT            0 000 00 00: Depth
SN.Ohm-m                      : IEL Short Normal
SP.mV                         : IEL Spontaneous Potential
DIR.Ohm-m                     : IEL Induction Resistivity
GR.GAPI                       : Gamma Ray
~Parameter Information Block
~A  Depth        SN          SP         DIR          GR     
# ...
  2260.0000     85.1788   -347.0246     25.8823     80.6938
  2260.2500     87.5387   -338.2876     23.0931     79.4741
  2260.5000     89.4992   -329.4536     20.4174     78.9569
  2260.7500     91.1181   -320.4964     18.6170     79.4941
  2261.0000     92.4259   -311.4272     18.2116     80.4523
  2261.2500     93.4374   -302.3005     20.0567     80.3366
  2261.5000     94.1744   -293.2145     27.3545     78.3758
  2261.7500     94.6805   -284.3053     68.5613     76.2484
  2262.0000     95.0190   -275.7348 100000.0000     73.2604
  2262.2500     95.2484   -267.6738 100000.0000     72.1164
  2262.5000     95.3876   -260.2842 100000.0000     71.9676
  2262.7500     95.3928   -253.7023 100000.0000     72.5989
  2263.0000     95.1655   -248.0268 100000.0000     73.7772
  2263.2500     94.5903   -243.3146 100000.0000     74.3484
  2263.5000     93.5881   -239.5830 100000.0000     74.8403
  2263.7500     92.1561   -236.8215 100000.0000     75.0865
  2264.0000     90.3719   -235.0089 100000.0000     75.3312
  2264.2500     88.3503   -234.1345 100000.0000     75.2118
  2264.5000     86.1831   -234.2199 100000.0000     74.5815
  2264.7500     83.9048   -235.3353 100000.0000     74.2890
  2265.0000     81.4946   -237.6049 100000.0000     75.1639
  2265.2500     78.8901   -241.1971     14.7815     76.9489
  2265.5000     75.9929   -246.2942      5.9493     80.6764
  2265.7500     72.6682   -253.0435      3.6336     82.8603
  2266.0000     68.7504   -261.5007      2.6836     84.4462
  2266.2500     64.0696   -271.5797      2.2536     84.5816
  2266.5000     58.5045   -283.0293      2.0872     84.8619
  2266.7500     52.0537   -295.4589      2.0640     85.6543
  2267.0000     44.8920   -308.4191      2.0609     87.4743
  2267.2500     37.3663   -321.5225      1.9016     88.9007
  2267.5000     29.9270   -334.5683      1.4940     92.2107
  2267.7500     23.0307   -347.6192      0.9966     96.1626
  2268.0000     17.0460   -360.9978      0.5986    105.5799
  2268.2500     12.1812   -375.1698      0.3351    113.6363
  2268.5000      8.4516   -390.5496      0.1734    125.7453
  2268.7500      5.7153   -407.2778      0.0844    131.8466
  2269.0000      3.7619   -425.0489      0.0418    135.0994
  2269.2500      2.3999   -443.0410      0.0230    132.4638
  2269.5000      1.4894   -459.9682      0.0145    121.9624
  2269.7500      0.9248   -474.2312      0.0105    112.1910
  2270.0000      0.6109   -484.1185      0.0086     97.0090
  2270.2500      0.4595   -488.0135      0.0079     88.4474
  2270.5000      0.4012   -484.5805      0.0078     80.3366
  2270.7500      0.3966   -472.9274      0.0084     78.9741
  2271.0000      0.4428   -452.7470      0.0101     83.4160
  2271.2500      0.5793   -424.4254      0.0136     90.0829
  2271.5000      0.8837   -389.0865      0.0209    103.1006
  2271.7500      1.4457   -348.5310      0.0366    111.8532
  2272.0000      2.3148   -305.0500      0.0705    122.2710
  2272.2500      3.4492   -261.1282      0.1396    126.5769
  2272.5000      4.7108   -219.1009      0.2617    129.0095
  2272.7500      5.9231   -180.8459      0.4475    128.3404
  2273.0000      6.9552   -147.5862      0.6970    124.8849
  2273.2500      7.7687   -119.8394      0.9769    121.6295
  2273.5000      8.3990    -97.5032      1.2103    116.3820
  2273.7500      8.9025    -80.0288      1.3446    113.0776
  2274.0000      9.3147    -66.6244      1.4120    109.1700
  2274.2500      9.6446    -56.4318      1.4852    107.8531
  2274.5000      9.8897    -48.6559      1.6311    108.4749
  2274.7500     10.0475    -42.6351      1.9186    110.3444
  2275.0000     10.1183    -37.8635      2.4622    113.8990
  2275.2500     10.1066    -33.9821      3.5293    115.9973
  2275.5000     10.0258    -30.7522      5.9393    118.3385
  2275.7500      9.8967    -28.0241     13.8273    119.5431
  2276.0000      9.7397    -25.7071   1830.0266    121.1466
  2276.2500      9.5651    -23.7375 100000.0000    122.1064
  2276.5000      9.3723    -22.0628 100000.0000    123.0585
  2276.7500      9.1566    -20.6276 100000.0000    122.9152
  2277.0000      8.9185    -19.3714 100000.0000    120.6278
  2277.2500      8.6693    -18.2308 100000.0000    117.6781
  2277.5000      8.4306    -17.1480 100000.0000    112.7852
  2277.7500      8.2281    -16.0795 100000.0000    110.9828
  2278.0000      8.0801    -15.0035 100000.0000    112.8931
  2278.2500      7.9883    -13.9224 100000.0000    117.1296
  2278.5000      7.9355    -12.8611     94.5641    124.9257
  2278.7500      7.8921    -11.8609     20.8146    128.9642
  2279.0000      7.8272    -10.9725     12.1058    131.7995
  2279.2500      7.7170    -10.2478      9.0384    132.2017
  2279.5000      7.5538     -9.7321      7.6719    132.3331
  2279.7500      7.3506     -9.4588      7.0543    132.3819
  2280.0000      7.1427     -9.4455      6.8386    131.5663
  2280.2500      6.9814     -9.6924      6.8621    129.9413
  2280.5000      6.9190    -10.1838      7.0331    125.8822
  2280.7500      6.9884    -10.8909      7.2925    122.5535
  2281.0000      7.1860    -11.7770      7.5998    117.8903
  2281.2500      7.4721    -12.7997      7.9263    115.6778
  2281.5000      7.7899    -13.9133      8.2506    113.9111
  2281.7500      8.0905    -15.0679      8.5557    113.3815
  2282.0000      8.3449    -16.2065      8.8276    113.2157
  2282.2500      8.5386    -17.2641      9.0557    113.8755
  2282.5000      8.6606    -18.1701      9.2335    116.7820
  2282.7500      8.6998    -18.8569      9.3598    119.9236
  2283.0000      8.6502    -19.2740      9.4390    125.0962
  2283.2500      8.5171    -19.4046      9.4807    127.6680
  2283.5000      8.3226    -19.2781      9.4979    128.6933
  2283.7500      8.1073    -18.9745      9.5041    127.5461
  2284.0000      7.9280    -18.6140      9.5127    124.7100
  2284.2500      7.8453    -18.3358      9.5351    123.0277
  2284.5000      7.9046    -18.2683      9.5798    120.9264
  2284.7500      8.1155    -18.5015      9.6503    119.1529
  2285.0000      8.4440    -19.0686      9.7460    115.2167
  2285.2500      8.8268    -19.9412      9.8625    112.0789
  2285.5000      9.1985    -21.0410      9.9927    107.9823
  2285.7500      9.5115    -22.2599     10.1254    106.4167
  2286.0000      9.7379    -23.4853     10.2457    106.6304
  2286.2500      9.8616    -24.6204     10.3360    108.5906
  2286.5000      9.8733    -25.5982     10.3782    113.5315
  2286.7500      9.7736    -26.3855     10.3561    117.1569
  2287.0000      9.5773    -26.9807     10.2582    121.0807
  2287.2500      9.3167    -27.4065     10.0838    121.9696
  2287.5000      9.0349    -27.7017      9.8487    121.0576
  2287.7500      8.7701    -27.9121      9.5835    120.0491
  2288.0000      8.5435    -28.0839      9.3234    120.3401
  2288.2500      8.3590    -28.2577      9.0954    122.4737
  2288.5000      8.2108    -28.4652      8.9118    127.5511
  2288.7500      8.0887    -28.7262      8.7710    130.7544
  2289.0000      7.9791    -29.0490      8.6635    133.5392
  2289.2500      7.8699    -29.4315      8.5768    133.9486
  2289.5000      7.7580    -29.8654      8.4998    133.1979
  2289.7500      7.6537    -30.3401      8.4260    132.3991
  2290.0000      7.5726    -30.8479      8.3550    131.5823
  2290.2500      7.5243    -31.3873      8.2917    131.5332
  2290.5000      7.5082    -31.9639      8.2421    132.3051
  2290.7500      7.5162    -32.5892      8.2097    133.3095
  2291.0000      7.5361    -33.2762      8.1935    134.9533
  2291.2500      7.5540    -34.0340      8.1898    135.4962
  2291.5000      7.5594    -34.8625      8.1953    134.4322
  2291.7500      7.5506    -35.7496      8.2098    132.2958
  2292.0000      7.5329    -36.6702      8.2351    127.8269
  2292.2500      7.5091    -37.5894      8.2723    125.1152
  2292.5000      7.4747    -38.4680      8.3195    123.3770
  2292.7500      7.4252    -39.2704      8.3709    124.1257
  2293.0000      7.3683    -39.9717      8.4204    126.6786
  2293.2500      7.3280    -40.5636      8.4654    127.8029
