~Version Information
VERS.                      2.0: CWLS Log ASCII Standard - VERSION 2.0
WRAP.                       NO: One line per depth step
~Well Information Block
STRT.FT                -9.7500: 
STOP.FT              2612.5000: 
STEP.FT                 0.2500: 
NULL.                -999.2500: 
COMP.                         : COMPANY
WELL.                         : WELL
FLD.                          : FIELD
LOC.                          : LOCATION
CNTY.                         : COUNTY
SRVC.                         : SERVICE COMPANY
DATE.          Mon Nov 17 14:56:03 2003: LOG DATE
UWI.                          : UNIQUE WELL ID
STAT.                         : STATE
~Curve Information Block
DEPT.FT            0 000 00 00: Depth
CCL.                          : Casing Collar Locator
TT3.usec                      : CBL 3' Travel Time
AMP3.mV                       : CBL 3' Amplitude
GR.GAPI                       : Gamma Ray
~Parameter Information Block
~A  Depth       CCL         TT3         AMP3         GR     
# ...
   861.2500      0.0000    309.2735     41.0888     94.1066
   861.5000      0.0000    309.4208     41.9523     88.6041
   861.7500      0.0000    309.2529     43.1039     85.3590
   862.0000      0.0000    309.0172     43.9676     83.8841
   862.2500      2.0000    308.5532     44.6553     83.9888
   862.5000      0.0000    307.3236     45.7197     85.6301
   862.7500      0.0000    304.4522     47.9113     88.1844
   863.0000      0.0000    299.1138     51.8225     90.7438
   863.2500      0.0000    291.3192     57.3391     92.8075
   863.5000      0.0000    282.3669     63.3907     94.0961
   863.7500      0.0000    274.2312     68.5200     93.9716
   864.0000      0.0000    268.3290     71.8468     91.6780
   864.2500      0.0000    264.8725     73.4543     87.2245
   864.5000      0.0000    263.2192     73.9806     81.7566
   864.7500      0.0000    262.5685     74.0379     76.9948
   865.0000      0.0000    262.3623     73.9585     74.2133
   865.2500      0.0000    262.3228     73.8456     73.5188
   865.5000      0.0000    262.3410     73.7128     74.1914
   865.7500      0.0000    262.3769     73.5740     75.7392
   866.0000      0.0000    262.4131     73.4526     78.1072
   866.2500      0.0000    262.4456     73.3514     80.8674
   866.5000      0.0000    262.4783     73.2471     83.1434
   866.7500      0.0000    262.5131     73.1182     84.6455
   867.0000      0.0000    262.5430     72.9757     85.8965
   867.2500      0.0000    262.5587     72.8579     87.0950
   867.5000      0.0000    262.5577     72.7959     87.5704
   867.7500      0.0000    262.5461     72.7910     86.7002
   868.0000      0.0000    262.5342     72.8146     84.5500
   868.2500      0.0000    262.5338     72.8139     81.2493
   868.5000      0.0000    262.5515     72.7445     76.5537
   868.7500      0.0000    262.5776     72.6299     70.5869
   869.0000      0.0000    262.5908     72.5595     64.4430
   869.2500      0.0000    262.5801     72.5914     59.4874
   869.5000      0.0000    262.5561     72.6870     56.4448
   869.7500      0.0000    262.5354     72.7707     55.4156
   870.0000      0.0000    262.5249     72.8153     56.2246
   870.2500      0.0000    262.5225     72.8384     58.3152
   870.5000      0.0000    262.5241     72.8579     60.6496
   870.7500      0.0000    262.5259     72.8851     62.1388
   871.0000      0.0000    262.5245     72.9306     62.1944
   871.2500      0.0000    262.5190     72.9896     60.9380
   871.5000      0.0000    262.5112     73.0423     59.0380
   871.7500      0.0000    262.5067     73.0703     57.1979
   872.0000      0.0000    262.5122     73.0617     55.6654
   872.2500      0.0000    262.5284     73.0173     54.4230
   872.5000      0.0000    262.5479     72.9646     53.8555
   872.7500      0.0000    262.5636     72.9441     54.7909
   873.0000      0.0000    262.5769     72.9664     57.5278
   873.2500      0.0000    262.5907     73.0017     60.9075
   873.5000      0.0000    262.6020     73.0136     62.7840
   873.7500      0.0000    262.6052     72.9914     61.8199
   874.0000      0.0000    262.5980     72.9513     58.8630
   874.2500      0.0000    262.5820     72.9192     56.3495
   874.5000      0.0000    262.5635     72.9061     56.3726
   874.7500      0.0000    262.5522     72.8987     59.3924
   875.0000      0.0000    262.5550     72.8785     64.4819
   875.2500      0.0000    262.5698     72.8418     70.3672
   875.5000      0.0000    262.5874     72.7990     76.1624
   875.7500      0.0000    262.5980     72.7644     81.4435
   876.0000      0.0000    262.5982     72.7446     85.9660
   876.2500      0.0000    262.5923     72.7317     89.3570
   876.5000      0.0000    262.5842     72.7201     90.9884
   876.7500      0.0000    262.5718     72.7254     90.2698
   877.0000      0.0000    262.5529     72.7653     87.2894
   877.2500      0.0000    262.5348     72.8218     83.1723
   877.5000      0.0000    262.5300     72.8457     79.6796
   877.7500      0.0000    262.5458     72.8010     78.2563
   878.0000      0.0000    262.5764     72.6974     79.2278
   878.2500      0.0000    262.6058     72.5877     81.7595
   878.5000      0.0000    262.6192     72.5311     84.5375
   878.7500      0.0000    262.6136     72.5499     86.4058
   879.0000      0.0000    262.5977     72.6168     86.5578
   879.2500      0.0000    262.5840     72.6844     84.7140
   879.5000      0.0000    262.5817     72.7174     81.5550
   879.7500      0.0000    262.5922     72.7051     78.7435
   880.0000      0.0000    262.6081     72.6644     77.9182
   880.2500      0.0000    262.6187     72.6297     79.4072
   880.5000      0.0000    262.6205     72.6274     82.1458
   880.7500      0.0000    262.6194     72.6654     84.8239
   881.0000      0.0000    262.6240     72.7409     86.7384
   881.2500      0.0000    262.6437     72.8331     87.6523
   881.5000      0.0000    262.6922     72.8926     87.6899
   881.7500      0.0000    262.8205     72.8449     87.7538
   882.0000      0.0000    263.2099     72.5650     89.3480
   882.2500      0.0000    264.2967     71.7983     93.1301
   882.5000      0.0000    266.7659     70.1595     97.8497
   882.7500      0.0000    271.1560     67.4096    101.4428
   883.0000      0.0000    277.2186     63.8329    103.1763
   883.2500      0.0000    283.8248     60.1381    104.1728
   883.5000      0.0000    289.8532     56.7975    105.8915
   883.7500      0.0000    295.0414     53.7167    108.5512
   884.0000      0.0000    299.6471     50.7571    111.0929
   884.2500      0.0000    303.5994     48.2316    112.2641
   884.5000      0.0000    306.4790     46.5815    111.3785
   884.7500      0.0000    308.1223     45.8261    108.3225
   885.0000      0.0000    308.7953     45.5817    103.6423
   885.2500     -2.0000    308.8186     45.4531     98.7522
   885.5000     -2.0000    308.1664     45.3315     95.1841
   885.7500      0.0000    306.3678     45.5129     93.2856
   886.0000      0.0000    302.7808     46.6209     92.3793
   886.2500      0.0000    297.1375     49.2058     92.1796
   886.5000      0.0000    289.9156     53.2529     92.9278
   886.7500      0.0000    282.1630     58.1219     94.0781
   887.0000      0.0000    275.0356     62.9304     94.1810
   887.2500      0.0000    269.4295     66.9417     92.4389
   887.5000      0.0000    265.7322     69.7698     89.4693
   887.7500      0.0000    263.7354     71.4437     86.2655
   888.0000      0.0000    262.8610     72.2887     83.1416
   888.2500      0.0000    262.5388     72.6879     79.9205
   888.5000      0.0000    262.4191     72.9073     76.6074
   888.7500      0.0000    262.3604     73.0553     73.5715
   889.0000      0.0000    262.3268     73.1434     71.2023
   889.2500      0.0000    262.3133     73.1683     69.5909
   889.5000      0.0000    262.3105     73.1560     68.7565
   889.7500      0.0000    262.3069     73.1453     69.1764
   890.0000      0.0000    262.2930     73.1661     71.6886
   890.2500      0.0000    262.2669     73.2251     76.5309
   890.5000      0.0000    262.2375     73.2990     82.5720
   890.7500      0.0000    262.2166     73.3545     87.8532
   891.0000      0.0000    262.2064     73.3872     91.0925
   891.2500      0.0000    262.1956     73.4313     92.6739
   891.5000      0.0000    262.1718     73.5210     94.0266
   891.7500      0.0000    262.1363     73.6463     96.0743
   892.0000      0.0000    262.1034     73.7571     98.4287
   892.2500      0.0000    262.0882     73.8084     99.9095
   892.5000      0.0000    262.0936     73.7981     99.7107
   892.7500      0.0000    262.1084     73.7675     98.3497
   893.0000      0.0000    262.1153     73.7688     97.5886
   893.2500      0.0000    262.1058     73.8204     98.9914
   893.5000      0.0000    262.0884     73.8899    102.3193
   893.7500      0.0000    262.0818     73.9251    105.6316
   894.0000      0.0000    262.0965     73.9043    107.1524
   894.2500      0.0000    262.1258     73.8532    106.7715
   894.5000      0.0000    262.1529     73.8226    105.7549
