~Version Information
VERS.                      2.0: CWLS Log ASCII Standard - VERSION 2.0
WRAP.                       NO: One line per depth step
~Well Information Block
STRT.FT               850.0000: 
STOP.FT              1609.7000: 
STEP.FT                 0.1000: 
NULL.                -999.2500: 
COMP.          Petrogulf Corporation: COMPANY
WELL.          Great Plains 22-21R: WELL
FLD.           Purgatorie River: FIELD
LOC.           73' FNL & 1992' FWL: LOCATION
PROV.                 Colorado: PROVINCE
CNTY.               Las Animas: COUNTRY
SRVC.                Patterson: SERVICE COMPANY
DATE.          Wed Sep 14 12:10:29 2005: LOG DATE
UWI.                          : UNIQUE WELL ID
~Curve Information Block
DEPT.FT            0 000 00 00: Depth
NPOR.pu                       : Neutron Porosity
GR.GAPI                       : Gamma Ray
CCL.                          : Casing Collar Locator
~Parameter Information Block
~A  Depth       NPOR         GR         CCL     
# ...
  1534.7000     20.1391     54.0994      0.0000
  1534.8000     19.9151     52.1800      0.0000
  1534.9000     19.9151     52.1800      0.0000
  1535.0000     19.7308     50.8483      0.0000
  1535.1000     19.7308     50.8483      0.0000
  1535.2000     19.7308     50.8483      0.0000
  1535.3000     19.6114     51.2558      0.0000
  1535.4000     19.6114     51.2558      0.0000
  1535.5000     19.5949     52.9080      0.0000
  1535.6000     19.5949     52.9080      0.0000
  1535.7000     19.5949     52.9080      0.0000
  1535.8000     19.6708     54.2106      0.0000
  1535.9000     19.6708     54.2106      0.0000
  1536.0000     19.7638     54.0523      0.0000
  1536.1000     19.7638     54.0523      0.0000
  1536.2000     19.7638     54.0523      0.0000
  1536.3000     19.8137     52.8117      0.0000
  1536.4000     19.8137     52.8117      0.0000
  1536.5000     19.8461     51.7820      0.0000
  1536.6000     19.8461     51.7820      0.0000
  1536.7000     19.8461     51.7820      0.0000
  1536.8000     19.9276     51.7228      0.0000
  1536.9000     19.9276     51.7228      0.0000
  1537.0000     20.0630     52.1580      0.0000
  1537.1000     20.0630     52.1580      0.0000
  1537.2000     20.0630     52.1580      0.0000
  1537.3000     20.1736     52.1314      0.0000
  1537.4000     20.1736     52.1314      0.0000
  1537.5000     20.1878     51.3400      0.0000
  1537.6000     20.1878     51.3400      0.0000
  1537.7000     20.1878     51.3400      0.0000
  1537.8000     20.1335     50.2336      0.0000
  1537.9000     20.1335     50.2336      0.0000
  1538.0000     20.1187     49.2682      0.0000
  1538.1000     20.1187     49.2682      0.0000
  1538.2000     20.1187     49.2682      0.0000
  1538.3000     20.2255     48.5523      0.0000
  1538.4000     20.2255     48.5523      0.0000
  1538.5000     20.4396     48.1431      0.0000
  1538.6000     20.4396     48.1431      0.0000
  1538.7000     20.4396     48.1431      0.0000
  1538.8000     20.6696     48.1733      0.0000
  1538.9000     20.6696     48.1733      0.0000
  1539.0000     20.8130     48.5770      0.0000
  1539.1000     20.8130     48.5770      0.0000
  1539.2000     20.8130     48.5770      0.0000
  1539.3000     20.8105     49.0587      0.0000
  1539.4000     20.8105     49.0587      0.0000
  1539.5000     20.6676     49.4275      0.0000
  1539.6000     20.6676     49.4275      0.0000
  1539.7000     20.6676     49.4275      0.0000
  1539.8000     20.4417     49.5989      0.0000
  1539.9000     20.4417     49.5989      0.0000
  1540.0000     20.2041     49.1884      0.0000
  1540.1000     20.2041     49.1884      0.0000
  1540.2000     20.2041     49.1884      0.0000
  1540.3000     20.0023     47.6406      0.0000
  1540.4000     20.0023     47.6406      0.0000
  1540.5000     19.8517     45.1266      0.0000
  1540.6000     19.8517     45.1266      0.0000
  1540.7000     19.8517     45.1266      0.0000
  1540.8000     19.7524     42.9168      0.0000
  1540.9000     19.7524     42.9168      0.0000
  1541.0000     19.6974     42.3603      0.0000
  1541.1000     19.6974     42.3603      0.0000
  1541.2000     19.6974     42.3603      0.0000
  1541.3000     19.6665     43.5373      0.0000
  1541.4000     19.6665     43.5373      0.0000
  1541.5000     19.6371     45.1638      0.0000
  1541.6000     19.6371     45.1638      0.0000
  1541.7000     19.6371     45.1638      0.0000
  1541.8000     19.6229     45.8938      0.0000
  1541.9000     19.6229     45.8938      0.0000
  1542.0000     19.6935     45.6284      0.0000
  1542.1000     19.6935     45.6284      0.0000
  1542.2000     19.6935     45.6284      0.0000
  1542.3000     19.9366     45.4522      0.0000
  1542.4000     19.9366     45.4522      0.0000
  1542.5000     20.3868     46.3793      0.0000
  1542.6000     20.3868     46.3793      0.0000
  1542.7000     20.3868     46.3793      0.0000
  1542.8000     20.9698     48.4976      0.0000
  1542.9000     20.9698     48.4976      0.0000
  1543.0000     21.5089     51.3177      0.0000
  1543.1000     21.5089     51.3177      0.0000
  1543.2000     21.5089     51.3177      0.0000
  1543.3000     21.8212     54.4461      0.0000
  1543.4000     21.8212     54.4461      0.0000
  1543.5000     21.8368     57.6991      0.0000
  1543.6000     21.8368     57.6991      0.0000
  1543.7000     21.8368     57.6991      0.0000
  1543.8000     21.6284     60.8311      0.0000
  1543.9000     21.6284     60.8311      0.0000
  1544.0000     21.3456     63.3276      0.0000
  1544.1000     21.3456     63.3276      0.0000
  1544.2000     21.3456     63.3276      0.0000
  1544.3000     21.1323     64.4931      0.0000
  1544.4000     21.1323     64.4931      0.0000
  1544.5000     21.0589     63.9015      0.0000
  1544.6000     21.0589     63.9015      0.0000
  1544.7000     21.0589     63.9015      0.0000
  1544.8000     21.0933     61.8478      0.0000
  1544.9000     21.0933     61.8478      0.0000
  1545.0000     21.1514     59.2457      0.0000
  1545.1000     21.1514     59.2457      0.0000
  1545.2000     21.1514     59.2457      0.0000
  1545.3000     21.1966     57.0730      0.0000
  1545.4000     21.1966     57.0730      0.0000
  1545.5000     21.2721     55.9312      0.0000
  1545.6000     21.2721     55.9312      0.0000
  1545.7000     21.2721     55.9312      0.0000
  1545.8000     21.4417     56.0371      0.0000
  1545.9000     21.4417     56.0371      0.0000
  1546.0000     21.7191     57.4382      0.0000
  1546.1000     21.7191     57.4382      0.0000
  1546.2000     21.7191     57.4382      0.0000
  1546.3000     22.0484     60.0768      0.0000
  1546.4000     22.0484     60.0768      0.0000
  1546.5000     22.3367     63.6406      0.0000
  1546.6000     22.3367     63.6406      0.0000
  1546.7000     22.3367     63.6406      0.0000
  1546.8000     22.5187     67.4975      0.0000
  1546.9000     22.5187     67.4975      0.0000
  1547.0000     22.6090     70.8506      0.0000
  1547.1000     22.6090     70.8506      0.0000
  1547.2000     22.6090     70.8506      0.0000
  1547.3000     22.6750     72.9742      0.0000
  1547.4000     22.6750     72.9742      0.0000
  1547.5000     22.7502     73.4100      0.0000
  1547.6000     22.7502     73.4100      0.0000
  1547.7000     22.7502     73.4100      0.0000
  1547.8000     22.7975     72.1289      0.0000
  1547.9000     22.7975     72.1289      0.0000
  1548.0000     22.7782     69.7928      0.0000
  1548.1000     22.7782     69.7928      0.0000
  1548.2000     22.7782     69.7928      0.0000
  1548.3000     22.7363     67.9927      0.0000
  1548.4000     22.7363     67.9927      0.0000
  1548.5000     22.7816     69.0065      0.0000
  1548.6000     22.7816     69.0065      0.0000
  1548.7000     22.7816     69.0065      0.0000
  1548.8000     22.9946     74.7890      0.0000
  1548.9000     22.9946     74.7890      0.0000
  1549.0000     23.3617     85.6626      0.0000
  1549.1000     23.3617     85.6626      0.0000
  1549.2000     23.3617     85.6626      0.0000
  1549.3000     23.7916     99.6835      0.0000
  1549.4000     23.7916     99.6835      0.0000
  1549.5000     24.1791    113.2906      0.0000
  1549.6000     24.1791    113.2906      0.0000
  1549.7000     24.1791    113.2906      0.0000
  1549.8000     24.4585    123.0354      0.0000
  1549.9000     24.4585    123.0354      0.0000
  1550.0000     24.6188    127.3890      0.0000
  1550.1000     24.6188    127.3890      0.0000
  1550.2000     24.6188    127.3890      0.0000
  1550.3000     24.6890    127.3081      0.0000
  1550.4000     24.6890    127.3081      0.0000
  1550.5000     24.7077    125.1080      0.0000
  1550.6000     24.7077    125.1080      0.0000
  1550.7000     24.7077    125.1080      0.0000
  1550.8000     24.6852    122.7566      0.0000
  1550.9000     24.6852    122.7566      0.0000
  1551.0000     24.5897    121.0669      0.0000
  1551.1000     24.5897    121.0669      0.0000
  1551.2000     24.5897    121.0669      0.0000
  1551.3000     24.3876    119.9900      0.0000
