~Version Information
VERS.                      2.0: CWLS Log ASCII Standard - VERSION 2.0
WRAP.                       NO: One line per depth step
~Well Information Block
STRT.FT               238.0000: 
STOP.FT              1377.0000: 
STEP.FT                 0.1000: 
NULL.                -999.2500: 
COMP.          Pioneer Natural Resources: COMPANY
WELL.             Raptor 44-26: WELL
FLD.           Purgatoire River: FIELD
LOC.           180' FSL & 812' FEL: LOCATION
PROV.                 Colorado: PROVINCE
CNTY.               Las Animas: COUNTRY
SRVC.                Patterson: SERVICE COMPANY
DATE.          Tue Mar 22 15:28:33 2005: LOG DATE
UWI.           05 071 08187 00: UNIQUE WELL ID
~Curve Information Block
DEPT.FT            0 000 00 00: Depth
DCAL.in                       : CDL Caliper
RHOB.g/cc                     : CDL Bulk Density
RHOC.g/cc                     : CDL Density Correction
DPOR.pu                       : CDL Density Porosity
GR.GAPI                       : Gamma Ray
NPOR.pu                       : Neutron Porosity
~Parameter Information Block
~A  Depth       DCAL        RHOB        RHOC        DPOR         GR         NPOR    
# ...
   766.0000      7.8248      2.6017      0.0538      2.9262    138.5731     29.2562
   766.1000      7.8248      2.6138      0.0950      2.1929    139.4471     29.4445
   766.2000      7.8248      2.6324      0.1109      1.0643    138.3692     29.6538
   766.3000      7.8110      2.6384      0.1003      0.7036    134.1936     29.7127
   766.4000      7.8110      2.6349      0.0800      0.9153    132.1153     29.5844
   766.5000      7.8038      2.6215      0.1019      1.7265    131.1583     29.3760
   766.6000      7.8038      2.5929      0.1053      3.4614    128.2605     29.3547
   766.7000      7.8038      2.5572      0.0477      5.6267    128.7701     29.4714
   766.8000      7.8085      2.5328      0.0214      7.1009    134.4658     29.3535
   766.9000      7.8085      2.5339      0.0282      7.0342    135.4805     28.8684
   767.0000      7.7983      2.5550      0.0545      5.7558    128.6362     28.4481
   767.1000      7.7983      2.5740      0.0654      4.6031    122.6542     28.3146
   767.2000      7.7983      2.5840      0.0663      4.0001    117.4198     28.2489
   767.3000      7.8145      2.6014      0.0878      2.9476    109.0655     28.2961
   767.4000      7.8145      2.6361      0.1370      0.8408    103.0576     28.5392
   767.5000      7.8354      2.6643      0.2021     -0.8640    104.1795     28.6958
   767.6000      7.8354      2.6638      0.1224     -0.8347    108.7158     28.5572
   767.7000      7.8354      2.6504      0.1338     -0.0269    112.2599     28.1628
   767.8000      7.7637      2.6346      0.1484      0.9335    115.2095     27.8744
   767.9000      7.7637      2.6095      0.0504      2.4518    118.0638     28.0834
   768.0000      7.7617      2.5855      0.0350      3.9093    117.8222     28.5388
   768.1000      7.7617      2.5776      0.0372      4.3866    114.6642     28.7360
   768.2000      7.7617      2.5837      0.0243      4.0186    114.5769     28.6128
   768.3000      7.7752      2.5891      0.0717      3.6904    118.8537     28.2628
   768.4000      7.7752      2.5822      0.0725      4.1084    123.3846     27.8356
   768.5000      7.7894      2.5605      0.0489      5.4223    125.6061     27.6439
   768.6000      7.7894      2.5312      0.0421      7.1984    124.8987     27.8239
   768.7000      7.7894      2.5142      0.0122      8.2332    124.3102     28.2943
   768.8000      7.8212      2.5240     -0.0285      7.6356    127.2200     28.8150
   768.9000      7.8212      2.5454      0.0808      6.3366    130.9854     29.1029
   769.0000      7.8133      2.5522      0.0337      5.9279    134.9144     28.9881
   769.1000      7.8133      2.5471      0.0230      6.2373    141.3674     28.6864
   769.2000      7.8133      2.5463      0.0090      6.2865    148.0933     28.6113
   769.3000      7.8038      2.5515      0.0333      5.9695    152.7096     28.6782
   769.4000      7.8038      2.5517      0.0222      5.9605    157.6629     28.5268
   769.5000      7.8145      2.5319      0.0829      7.1586    163.5585     28.0630
   769.6000      7.8145      2.4931      0.0228      9.5094    163.3661     27.5440
   769.7000      7.8145      2.4607     -0.0145     11.4743    154.4818     27.0071
   769.8000      7.8437      2.4511      0.0076     12.0552    146.0863     26.2723
   769.9000      7.8437      2.4544      0.0540     11.8554    145.3163     25.7143
   770.0000      7.8485      2.4585      0.0572     11.6067    148.8468     25.6615
   770.1000      7.8485      2.4473      0.1285     12.2834    151.8309     25.7522
   770.2000      7.8485      2.4058      0.0957     14.7977    152.5715     25.7798
   770.3000      7.8754      2.3574      0.0712     17.7351    150.1074     26.0626
   770.4000      7.8754      2.3359      0.0693     19.0370    148.0537     26.7143
   770.5000      7.8714      2.3434      0.0578     18.5800    149.8701     27.4715
   770.6000      7.8714      2.3595      0.1289     17.6050    153.1226     28.0562
   770.7000      7.8714      2.3760      0.0493     16.6050    156.6159     28.2966
   770.8000      7.8760      2.4136      0.1481     14.3273    159.5101     28.3475
   770.9000      7.8760      2.4783      0.2518     10.4041    157.6551     28.4703
   771.0000      7.9010      2.5442      0.2731      6.4146    148.2384     28.7166
   771.1000      7.9010      2.5801      0.2619      4.2378    134.6819     28.9833
   771.2000      7.9010      2.5782      0.0487      4.3496    124.8693     29.1324
   771.3000      7.9293      2.5586      0.0543      5.5376    123.2014     29.1769
   771.4000      7.9293      2.5462     -0.0191      6.2932    125.9067     29.2487
   771.5000      7.9005      2.5549      0.0416      5.7622    126.1039     29.2215
   771.6000      7.9005      2.5678      0.0681      4.9832    121.0841     28.8730
   771.7000      7.9005      2.5630      0.0330      5.2737    112.3856     28.5273
   771.8000      7.8378      2.5505      0.0613      6.0296    102.8891     28.4820
   771.9000      7.8378      2.5465      0.0449      6.2725     97.2931     28.4164
   772.0000      7.8104      2.5493      0.0556      6.1013     97.8306     28.1575
   772.1000      7.8104      2.5498      0.0384      6.0714    100.2298     27.8747
   772.2000      7.8104      2.5596     -0.0192      5.4802    100.6857     27.5815
   772.3000      7.7981      2.5940      0.0372      3.3933     99.8537     27.2954
   772.4000      7.7981      2.6206      0.1206      1.7801     98.6889     27.0764
   772.5000      7.8032      2.6013      0.0415      2.9489     98.9173     26.9259
   772.6000      7.8032      2.5560      0.0077      5.6956    103.8065     26.6879
   772.7000      7.8032      2.5208     -0.0300      7.8308    111.0449     26.3230
   772.8000      7.8091      2.5000      0.0161      9.0927    116.5424     26.2958
   772.9000      7.8091      2.4885      0.0232      9.7849    122.4788     26.7681
   773.0000      7.8103      2.4943     -0.0197      9.4351    132.4311     27.2420
   773.1000      7.8103      2.5173     -0.0138      8.0422    144.0853     27.4325
   773.2000      7.8103      2.5359      0.0579      6.9165    151.9715     27.5854
   773.3000      7.8247      2.5328      0.0297      7.1013    156.4843     27.9627
   773.4000      7.8247      2.5179      0.0223      8.0047    158.9266     28.3445
   773.5000      7.8614      2.5066      0.0413      8.6929    155.8943     28.5390
   773.6000      7.8614      2.5083     -0.0061      8.5898    151.7711     28.7214
   773.7000      7.8614      2.5287      0.0525      7.3488    153.9231     29.0058
   773.8000      7.8858      2.5511      0.0654      5.9944    157.8683     29.3081
   773.9000      7.8858      2.5483      0.0872      6.1614    158.0013     29.3581
   774.0000      7.8935      2.5207      0.0279      7.8374    159.2549     29.1159
   774.1000      7.8935      2.5037     -0.0028      8.8655    163.8843     28.8796
   774.2000      7.8935      2.5247      0.0275      7.5924    163.6016     28.7794
   774.3000      7.8871      2.5610      0.1087      5.3945    155.8265     28.8269
   774.4000      7.8871      2.5765      0.0565      4.4536    149.7192     28.9310
   774.5000      7.8726      2.5708      0.0844      4.8027    150.6289     28.9418
   774.6000      7.8726      2.5480      0.0942      6.1802    153.7325     29.0015
   774.7000      7.8726      2.5070      0.0631      8.6657    153.9241     29.3912
   774.8000      7.8705      2.4718      0.0116     10.7986    150.8710     29.9728
   774.9000      7.8705      2.4702      0.0299     10.8975    146.5587     30.1806
   775.0000      7.8597      2.4894      0.1008      9.7345    143.1555     29.9397
   775.1000      7.8597      2.4974      0.0877      9.2471    140.9675     29.7746
   775.2000      7.8597      2.4888      0.0554      9.7689    138.3683     29.8167
   775.3000      7.8706      2.4852     -0.0102      9.9895    135.1027     29.8846
   775.4000      7.8706      2.4977      0.0202      9.2287    133.0858     30.0464
   775.5000      7.8881      2.5136     -0.0115      8.2652    131.8848     30.2234
