~Version Information
VERS.                      2.0: CWLS Log ASCII Standard - VERSION 2.0
WRAP.                       NO: One line per depth step
~Well Information Block
STRT.FT                -2.0000: 
STOP.FT              1016.0000: 
STEP.FT                 0.2500: 
NULL.                -999.2500: 
COMP.          Evergreen Operating Corp.: COMPANY
WELL.              Sunset 24-3: WELL
FLD.           Purgatorie River: FIELD
LOC.           467' FSL & 2262' FWL--: LOCATION
PROV.                       CO: PROVINCE
CNTY.               Las Animas: COUNTRY
SRVC.                         : SERVICE COMPANY
DATE.          Mon Sep 27 13:40:22 2004: LOG DATE
UWI.           005 071 08158  : UNIQUE WELL ID
~Curve Information Block
DEPT.FT            0 000 00 00: Depth
GR.GAPI                       : Gamma Ray
CCL.                          : Casing Collar Locator
TT3.usec                      : CBL 3' Travel Time
AMP3.mV                       : CBL 3' Amplitude
~Parameter Information Block
~A  Depth        GR         CCL         TT3         AMP3    
# ...
   969.5000     92.9460      0.0000    753.8163      4.9018
   969.7500     92.8300      0.0000    758.0141      4.9327
   970.0000     94.5229      0.0000    763.8413      4.9125
   970.2500     98.3333      0.0000    769.6137      4.8601
   970.5000    103.5161      0.0000    773.5839      4.7909
   970.7500    108.6112      0.0000    774.7946      4.7093
   971.0000    112.3643      0.0000    773.0322      4.6156
   971.2500    114.2755      0.0000    768.5453      4.5197
   971.5000    114.6397      0.0000    762.3448      4.4453
   971.7500    114.1716      0.0000    756.2358      4.4093
   972.0000    113.2566      0.0000    751.9020      4.3895
   972.2500    111.6858      0.0000    750.1409      4.3222
   972.5000    109.4232      0.0000    751.0569      4.1542
   972.7500    107.1205      0.0000    754.4699      3.9056
   973.0000    105.4458      0.0000    759.8779      3.6598
   973.2500    104.3539      0.0000    766.4332      3.4779
   973.5000    103.1931      0.0000    773.2857      3.3467
   973.7500    101.1282      0.0000    779.7621      3.2300
   974.0000     97.8288      0.0000    785.1566      3.1333
   974.2500     94.6241      0.0000    788.6440      3.0867
   974.5000     94.6134      0.0000    789.6445      3.0951
   974.7500    100.3740      0.0000    788.4039      3.1339
   975.0000    111.4038     -2.0000    786.2570      3.1745
   975.2500    124.3946      0.0000    784.9341      3.2119
   975.5000    135.8527      0.0000    785.1198      3.2880
   975.7500    143.9842      0.0000    785.7506      3.4758
   976.0000    148.5383      0.0000    785.0038      3.7975
   976.2500    149.7380      0.0000    781.9984      4.1645
   976.5000    147.5305      0.0000    777.6414      4.4427
   976.7500    141.7191      0.0000    774.0061      4.5759
   977.0000    132.8957      0.0000    772.8011      4.6143
   977.2500    123.1448      0.0000    774.4107      4.6384
   977.5000    115.4544      0.0000    778.6342      4.6856
   977.7500    112.0843      0.0000    785.7462      4.7419
   978.0000    113.4526      0.0000    795.6759      4.7765
   978.2500    118.3102      0.0000    806.2660      4.7758
   978.5000    124.2456      0.0000    814.0909      4.7501
   978.7500    127.9315      0.0000    817.7233      4.7181
   979.0000    126.1884      0.0000    818.7496      4.6935
   979.2500    118.2391      0.0000    818.6506      4.6840
   979.5000    106.9639      0.0000    816.3098      4.6974
   979.7500     97.0994      0.0000    809.8903      4.7379
   980.0000     92.2048      0.0000    799.7173      4.7923
   980.2500     93.4244      0.0000    787.9517      4.8251
   980.5000     99.7292      0.0000    776.5500      4.8039
   980.7500    108.0301      0.0000    766.6369      4.7308
   981.0000    113.9710      0.0000    758.9743      4.6427
   981.2500    114.3277      0.0000    753.9349      4.5758
   981.5000    109.0451      0.0000    751.2370      4.5361
   981.7500    100.7980      0.0000    750.1992      4.5029
   982.0000     92.9929      0.0000    750.3199      4.4586
   982.2500     88.1530      0.0000    751.5656      4.4105
   982.5000     87.3872      0.0000    754.2536      4.3818
   982.7500     90.5976      0.0000    758.5810      4.3855
   983.0000     96.7505      0.0000    764.0391      4.4164
   983.2500    103.9760      0.0000    769.3397      4.4641
   983.5000    109.9432      0.0000    773.2332      4.5206
   983.7500    112.7541      0.0000    775.3699      4.5733
   984.0000    111.8420      0.0000    776.1697      4.6039
   984.2500    108.2710      0.0000    776.0668      4.6015
   984.5000    104.2953      0.0000    775.0729      4.5694
   984.7500    102.2739      0.0000    772.8207      4.5170
   985.0000    103.5087      0.0000    769.0671      4.4501
   985.2500    107.8547      0.0000    764.4763      4.3733
   985.5000    114.2123      0.0000    760.7704      4.3001
   985.7500    121.0388      0.0000    759.8006      4.2560
   986.0000    126.5387      0.0000    762.4247      4.2659
   986.2500    129.1704      0.0000    768.0642      4.3377
   986.5000    128.6461      0.0000    775.0046      4.4519
   986.7500    126.3332      0.0000    781.2756      4.5713
   987.0000    124.1479      0.0000    785.6776      4.6651
   987.2500    122.7433      0.0000    788.1609      4.7273
   987.5000    121.1187      0.0000    789.3109      4.7752
   987.7500    118.4329      0.0000    789.5897      4.8267
   988.0000    115.6407      0.0000    788.9240      4.8780
   988.2500    114.6054      0.0000    786.7369      4.9057
   988.5000    115.9145      0.0000    782.3992      4.8958
   988.7500    118.0779      0.0000    775.9610      4.8667
   989.0000    118.8274      0.0000    768.5623      4.8544
   989.2500    117.2071      0.0000    761.9374      4.8766
   989.5000    114.5492      0.0000    757.4299      4.9195
   989.7500    113.2393      0.0000    755.5869      4.9594
   990.0000    114.5070      0.0000    756.5536      4.9878
   990.2500    117.4143      0.0000    760.3729      5.0104
   990.5000    119.6316      0.0000    766.5769      5.0339
   990.7500    119.1498      0.0000    773.7081      5.0613
   991.0000    115.7856      0.0000    779.7102      5.0943
   991.2500    111.0974      0.0000    783.0656      5.1302
   991.5000    106.6486      0.0000    783.6602      5.1613
   991.7500    102.7126      0.0000    782.6820      5.1823
   992.0000     98.8217      0.0000    781.5395      5.1985
   992.2500     94.9429      0.0000    780.5148      5.2226
   992.5000     91.7648      0.0000    778.5015      5.2645
   992.7500     90.2203      0.0000    774.3810      5.3251
   993.0000     90.7354      0.0000    768.5233      5.3963
   993.2500     92.4643      0.0000    762.5856      5.4617
   993.5000     93.5483      0.0000    758.0110      5.4993
   993.7500     92.8140      0.0000    755.1064      5.4893
   994.0000     91.0389      0.0000    753.4138      5.4204
   994.2500     90.0923      0.0000    752.4594      5.2949
   994.5000     91.2233      0.0000    752.0074      5.1359
   994.7500     94.4810      0.0000    751.9421      4.9845
   995.0000     99.1468      0.0000    752.2165      4.8783
   995.2500    104.1071      0.0000    752.9938      4.8298
   995.5000    108.1580      0.0000    754.7023      4.8226
   995.7500    110.6284      0.0000    757.7610      4.8245
   996.0000    111.9328      0.0000    762.1316      4.8047
   996.2500    113.3030      0.0000    767.2159      4.7484
   996.5000    115.7716      0.0000    772.1821      4.6664
   996.7500    119.3620      0.0000    776.2609      4.5906
   997.0000    123.2572      0.0000    778.9543      4.5532
   997.2500    126.5919      0.0000    780.3951      4.5622
   997.5000    129.0985      0.0000    781.3378      4.5991
   997.7500    131.2595      0.0000    782.3666      4.6454
   998.0000    133.8234      0.0000    783.4222      4.7028
   998.2500    136.7672      0.0000    784.8158      4.7812
   998.5000    138.8051      0.0000    788.5383      4.8754
   998.7500    138.4179      0.0000    797.0688      4.9659
   999.0000    135.3947      0.0000    809.5623      5.0353
   999.2500    130.9997      0.0000    820.1482      5.0823
   999.5000    126.5917      0.0000    822.3472      5.1239
   999.7500    122.3399      0.0000    815.4301      5.1851
  1000.0000    117.6349      0.0000    804.7105      5.2742
  1000.2500    112.8292      0.0000    795.8013      5.3653
  1000.5000    110.0257      0.0000    790.4155      5.4118
  1000.7500    111.5256      0.0000    787.5527      5.3816
  1001.0000    117.5070      0.0000    786.6872      5.2843
  1001.2500    125.4263      0.0000    789.0255      5.1684
  1001.5000    131.7018      0.0000    796.2537      5.0903
  1001.7500    134.1348      0.0000    808.4538      5.0759
  1002.0000    133.1242      0.0000    822.9748      5.1071
  1002.2500    130.7324      0.0000    835.3419      5.1448
  1002.5000    128.5155      0.0000    841.3528      5.1542
  1002.7500    126.2513      0.0000    837.6118      5.0891
