~Version Information
VERS.                      2.0: CWLS Log ASCII Standard - VERSION 2.0
WRAP.                       NO: One line per depth step
~Well Information Block
STRT.FT                -6.7500: 
STOP.FT               983.2500: 
STEP.FT                 0.2500: 
NULL.                -999.2500: 
COMP.          Pioneer Natural Resources: COMPANY
WELL.          Run-Away-Train 43-26: WELL
FLD.           Purgatorie River: FIELD
LOC.           1693' FSL & 1195' FWL------------: LOCATION
PROV.                       CO: PROVINCE
CNTY.               Las Animas: COUNTRY
SRVC.          Patterson Wireline: SERVICE COMPANY
DATE.          Thu Apr 14 12:30:00 2005: LOG DATE
UWI.           05 071 08188 00: UNIQUE WELL ID
~Curve Information Block
DEPT.FT            0 000 00 00: Depth
CCL.                          : Casing Collar Locator
TT3.usec                      : CBL 3' Travel Time
AMP3.mV                       : CBL 3' Amplitude
GR.GAPI                       : Gamma Ray
~Parameter Information Block
~A  Depth       CCL         TT3         AMP3         GR     
# ...
   462.2500      0.0000    385.4189      9.0941     75.6195
   462.5000      0.0000    384.8954      8.9186     79.4670
   462.7500      0.0000    384.6218      8.7599     83.1018
   463.0000      0.0000    384.7179      8.5991     84.5980
   463.2500      0.0000    385.1539      8.4245     83.4159
   463.5000      0.0000    385.7758      8.2299     80.9007
   463.7500      0.0000    386.3757      8.0293     78.9853
   464.0000      0.0000    386.7910      7.8632     78.4057
   464.2500      0.0000    386.9608      7.7679     78.3572
   464.5000      0.0000    386.9186      7.7353     77.7024
   464.7500      0.0000    386.7581      7.7187     76.1861
   465.0000      0.0000    386.6001      7.6767     74.6302
   465.2500      0.0000    386.5483      7.6040     74.2998
   465.5000      0.0000    386.6366      7.5312     75.9630
   465.7500      0.0000    386.8039      7.5102     79.2825
   466.0000      0.0000    386.9293      7.5863     83.0791
   466.2500      0.0000    386.9070      7.7540     86.2472
   466.5000      0.0000    386.7002      7.9396     88.4833
   466.7500      0.0000    386.3575      8.0585     90.2303
   467.0000      0.0000    386.0347      8.0938     91.9550
   467.2500      0.0000    386.2767      8.0974     93.5063
   467.5000      0.0000    388.7768      8.1108     94.3216
   467.7500      0.0000    397.4947      8.1141     94.3055
   468.0000      0.0000    418.7412      8.0631     94.1319
   468.2500      0.0000    457.9245      7.9546     94.3521
   468.5000      0.0000    513.5563      7.8348     94.5057
   468.7500      0.0000    574.7705      7.7494     93.4766
   469.0000      0.0000    627.6666      7.7000     90.3417
   469.2500      0.0000    665.2015      7.6537     84.5829
   469.5000      0.0000    690.0014      7.5830     76.1721
   469.7500      0.0000    708.6446      7.4908     66.1979
   470.0000      0.0000    725.4228      7.3989     57.0489
   470.2500      0.0000    740.9186      7.3170     51.1613
   470.5000      0.0000    753.8695      7.2253     49.2582
   470.7500      0.0000    763.1832      7.0911     49.9028
   471.0000      0.0000    768.8560      6.9015     50.9003
   471.2500      0.0000    771.9138      6.6756     51.1627
   471.5000      0.0000    773.9446      6.4533     51.1775
   471.7500      0.0000    776.7527      6.2831     51.7982
   472.0000      0.0000    781.9098      6.2113     53.0254
   472.2500      0.0000    789.8555      6.2561     54.2041
   472.5000      0.0000    799.1052      6.3856     55.0613
   472.7500      0.0000    806.8118      6.5336     56.0635
   473.0000      0.0000    811.0022      6.6445     57.7274
   473.2500      0.0000    812.6772      6.7000     59.9953
   473.5000      0.0000    815.2946      6.7131     62.4744
   473.7500      0.0000    821.4648      6.7111     64.9703
   474.0000      0.0000    830.0665      6.7191     67.3442
   474.2500      0.0000    836.6191      6.7452     68.8858
   474.5000      0.0000    836.3914      6.7779     68.3986
   474.7500      0.0000    827.6363      6.7956     65.3477
   475.0000      0.0000    812.8005      6.7820     60.7197
   475.2500      0.0000    796.7820      6.7358     56.3761
   475.5000      0.0000    783.5672      6.6769     53.6386
   475.7500      0.0000    774.3051      6.6398     52.6940
   476.0000      0.0000    768.1072      6.6497     53.0653
   476.2500      0.0000    763.9120      6.6992     54.2394
   476.5000      0.0000    761.9006      6.7493     55.9066
   476.7500      0.0000    763.8381      6.7572     57.8828
   477.0000      0.0000    771.7587      6.6982     59.8478
   477.2500      0.0000    785.8857      6.5709     61.1271
   477.5000      0.0000    804.0554      6.3998     60.8896
   477.7500      0.0000    822.9918      6.2298     58.8850
   478.0000      0.0000    839.4475      6.0958     56.1643
   478.2500      0.0000    850.3651      5.9896     54.7697
   478.5000      0.0000    853.3571      5.8777     56.1860
   478.7500      0.0000    848.0263      5.7452     59.9895
   479.0000      0.0000    836.9175      5.6087     64.1783
   479.2500      0.0000    824.5227      5.4890     66.7241
   479.5000      0.0000    814.5811      5.3886     66.7220
   479.7500      0.0000    808.0408      5.2905     64.4604
   480.0000      0.0000    803.3802      5.1713     60.9827
   480.2500      0.0000    798.4982      5.0214     57.5698
   480.5000      0.0000    792.3741      4.8609     55.1284
   480.7500      0.0000    785.5540      4.7387     53.7559
   481.0000      0.0000    779.6945      4.7096     52.9626
   481.2500      0.0000    776.8315      4.7986     52.3866
   481.5000      0.0000    778.5305      4.9766     52.1474
   481.7500      0.0000    784.8383      5.1714     52.4291
   482.0000      0.0000    794.1324      5.3146     53.0165
   482.2500      0.0000    804.5256      5.3844     53.4451
   482.5000      0.0000    815.1635      5.4061     53.3927
   482.7500      0.0000    825.5382      5.4139     52.8486
   483.0000      0.0000    834.1525      5.4141     52.0857
   483.2500      0.0000    839.1837      5.3792     51.3061
   483.5000      0.0000    840.8754      5.2769     50.0783
   483.7500      0.0000    842.1008      5.1113     47.5088
   484.0000      0.0000    845.3764      4.9377     43.4421
   484.2500      0.0000    850.2315      4.8285     39.2515
   484.5000      0.0000    854.9330      4.8171     37.0148
   484.7500      0.0000    859.6998      4.8817     37.8790
   485.0000      2.0000    866.6967      4.9847     41.3434
   485.2500      2.0000    877.5697      5.1278     45.9485
   485.5000      0.0000    891.7859      5.3689     50.3713
   485.7500      0.0000    906.0576      5.7859     53.8133
   486.0000      0.0000    914.6725      6.3949     55.7375
   486.2500      0.0000    912.2327      7.0615     55.7430
   486.5000      0.0000    898.2556      7.5067     53.8064
   486.7500      0.0000    878.8846      7.4833     50.4772
   487.0000      0.0000    862.6185      6.9925     46.6952
   487.2500      0.0000    853.6008      6.2935     43.4032
   487.5000      0.0000    849.2283      5.6894     41.3683
   487.7500      0.0000    843.9843      5.3328     41.1999
   488.0000      0.0000    834.8216      5.2151     43.2051
   488.2500      0.0000    823.1240      5.2651     47.1845
   488.5000      0.0000    812.7519      5.4231     52.6386
   488.7500      0.0000    806.5862      5.6519     59.0288
   489.0000      0.0000    803.9694      5.9217     65.6515
   489.2500      0.0000    800.6425      6.2008     71.7527
   489.5000      0.0000    792.2032      6.4546     77.1887
   489.7500      0.0000    779.2338      6.6475     82.4355
   490.0000      0.0000    768.9219      6.7507     87.5367
   490.2500      0.0000    769.7606      6.7570     91.5512
   490.5000      0.0000    783.8575      6.6871     93.4303
   490.7500      0.0000    805.1432      6.5781     93.0761
   491.0000      0.0000    824.3940      6.4714     91.3066
   491.2500      0.0000    834.4514      6.4102     89.1375
   491.5000      0.0000    831.9167      6.4319     87.4395
   491.7500      0.0000    817.3951      6.5508     87.0939
   492.0000      0.0000    795.5745      6.7451     88.8412
   492.2500      0.0000    773.6716      6.9625     92.5721
   492.5000      0.0000    758.0608      7.1392     97.0109
   492.7500      0.0000    751.4932      7.2153    100.4609
   493.0000      0.0000    753.0435      7.1364    102.0222
   493.2500      0.0000    760.5565      6.8553    102.1071
   493.5000      0.0000    773.0356      6.3685    101.7849
   493.7500      0.0000    790.3203      5.7616    101.5267
   494.0000      0.0000    810.4776      5.1912    100.4969
   494.2500      0.0000    828.5047      4.7907     97.1508
   494.5000      0.0000    838.6736      4.5923     90.7738
   494.7500      0.0000    838.4376      4.5373     82.5898
   495.0000      0.0000    830.1823      4.5427     75.2210
   495.2500      0.0000    819.8479      4.5543     70.7799
   495.5000      0.0000    813.6602      4.5627     69.4486
