~Version Information
VERS.                      2.0: CWLS Log ASCII Standard - VERSION 2.0
WRAP.                       NO: One line per depth step
~Well Information Block
STRT.FT               259.0000: 
STOP.FT              2382.0000: 
STEP.FT                 0.2500: 
NULL.                -999.2500: 
COMP.          Pioneer Natural Resources: COMPANY
WELL.          Foothills 12-36: WELL
FLD.           Purgatoire River: FIELD
LOC.           2450' FNL & 201' FWL: LOCATION
PROV.                 Colorado: PROVINCE
CNTY.               Las Animas: COUNTRY
SRVC.                Patterson: SERVICE COMPANY
DATE.          Thu Apr 21 03:00:58 2005: LOG DATE
UWI.           05 071 08339 00: UNIQUE WELL ID
~Curve Information Block
DEPT.FT            0 000 00 00: Depth
SN.Ohm-m                      : IEL Short Normal
SP.mV                         : IEL Spontaneous Potential
DIR.Ohm-m                     : IEL Induction Resistivity
GR.GAPI                       : Gamma Ray
~Parameter Information Block
~A  Depth        SN          SP         DIR          GR     
# ...
   828.5000      5.5778   -343.0598      0.0494     99.5325
   828.7500      4.6657   -312.9707      0.0429    107.1930
   829.0000      5.0859   -282.1113      0.0373    115.9827
   829.2500      6.4704   -254.8510      0.0337    119.5029
   829.5000      8.5076   -233.7990      0.0336    121.1804
   829.7500     10.5627   -219.5747      0.0396    120.1109
   830.0000     12.1014   -211.2908      0.0573    115.7715
   830.2500     13.0180   -207.2368      0.1013    111.5385
   830.5000     13.4907   -205.5835      0.2043    104.4948
   830.7500     13.7613   -204.9108      0.4268    100.3332
   831.0000     14.0628   -204.4032      0.9343     96.3795
   831.2500     14.5661   -203.7468      2.5323     95.5074
   831.5000     15.3063   -202.8952     18.7072     95.6240
   831.7500     16.1507   -201.8763 100000.0000     95.3694
   832.0000     16.8907   -200.7544 100000.0000     93.0755
   832.2500     17.4163   -199.6774 100000.0000     90.5916
   832.5000     17.7658   -198.8553 100000.0000     87.4869
   832.7500     18.0353   -198.4275 100000.0000     87.0649
   833.0000     18.2704   -198.3587 100000.0000     89.8997
   833.2500     18.4353   -198.4776 100000.0000     93.8367
   833.5000     18.5150   -198.6031 100000.0000    101.1133
   833.7500     18.5583   -198.6283 100000.0000    105.5489
   834.0000     18.6161   -198.5182 100000.0000    109.6959
   834.2500     18.7377   -198.2678 100000.0000    110.2024
   834.5000     18.9172   -197.8819 100000.0000    107.4175
   834.7500     18.9098   -197.3901 100000.0000    103.5819
   835.0000     18.3013   -196.8640 100000.0000     96.3181
   835.2500     17.0767   -196.3983 100000.0000     91.5602
   835.5000     15.9220   -196.0611 100000.0000     86.2071
   835.7500     15.5151   -195.8615 100000.0000     84.4022
   836.0000     15.7850   -195.7652 100000.0000     84.3182
   836.2500     16.2281   -195.7332 100000.0000     85.3969
   836.5000     16.5513   -195.7371 100000.0000     87.1747
   836.7500     16.8173   -195.7475 100000.0000     87.7335
   837.0000     17.2509   -195.7245 100000.0000     87.2790
   837.2500     17.9390   -195.6251 100000.0000     86.5302
   837.5000     18.5956   -195.4198     51.0156     86.0835
   837.7500     18.7019   -195.1026     20.3704     86.8876
   838.0000     18.0350   -194.6971     14.1999     89.9375
   838.2500     16.8945   -194.2565     11.7925     92.8367
   838.5000     15.7063   -193.8514     10.6078     97.7005
   838.7500     14.6499   -193.5404      9.9351    101.0694
   839.0000     13.7281   -193.3410      9.5093    106.6444
   839.2500     12.9417   -193.2227      9.2209    111.1152
   839.5000     12.2823   -193.1241      9.0238    118.9796
   839.7500     11.7189   -192.9734      8.8957    124.2184
   840.0000     11.2488   -192.7099      8.8175    130.0827
   840.2500     10.8844   -192.3100      8.7647    132.0253
   840.5000     10.6314   -191.8143      8.7106    132.4588
   840.7500     10.4802   -191.3213      8.6366    131.7047
   841.0000     10.3819   -190.9335      8.5397    129.5066
   841.2500     10.3019   -190.6934      8.4307    127.5138
   841.5000     10.2521   -190.5688      8.3254    124.6735
   841.7500     10.2145   -190.5031      8.2373    123.4842
   842.0000     10.1613   -190.4789      8.1743    122.7182
   842.2500     10.1444   -190.5277      8.1382    122.3558
   842.5000     10.2035   -190.6815      8.1263    121.5624
   842.7500     10.2727   -190.9279      8.1340    121.0620
   843.0000     10.2945   -191.2156      8.1573    120.5966
   843.2500     10.2829   -191.4930      8.1957    120.2103
   843.5000     10.2645   -191.7309      8.2519    118.9249
   843.7500     10.2652   -191.9243      8.3301    117.6655
   844.0000     10.2764   -192.0876      8.4345    115.9655
   844.2500     10.2502   -192.2509      8.5658    115.3961
   844.5000     10.1944   -192.4442      8.7199    115.6871
   844.7500     10.1824   -192.6756      8.8882    116.5364
   845.0000     10.2093   -192.9244      9.0612    117.9550
   845.2500     10.1691   -193.1562      9.2336    118.2392
   845.5000     10.0635   -193.3430      9.4050    117.0413
   845.7500     10.0669   -193.4721      9.5760    115.6401
   846.0000     10.3032   -193.5484      9.7448    114.0758
   846.2500     10.7023   -193.5939      9.9083    113.7712
   846.5000     11.1269   -193.6427     10.0664    114.0124
   846.7500     11.5081   -193.7292     10.2228    114.3065
   847.0000     11.8094   -193.8712     10.3802    114.8301
   847.2500     11.9435   -194.0547     10.5364    115.2639
   847.5000     11.8376   -194.2286     10.6847    115.9310
   847.7500     11.5980   -194.3249     10.8175    116.3055
   848.0000     11.4516   -194.3042     10.9264    116.7025
   848.2500     11.4990   -194.1837     10.9999    116.7712
   848.5000     11.6740   -194.0163     11.0222    116.3092
   848.7500     11.9103   -193.8481     10.9774    115.5680
   849.0000     12.1692   -193.6998     10.8593    114.0260
   849.2500     12.3290   -193.5783     10.6803    112.8497
   849.5000     12.2497   -193.4921     10.4693    110.8113
   849.7500     11.9496   -193.4548     10.2596    109.2501
   850.0000     11.6083   -193.4811     10.0741    107.2076
   850.2500     11.4099   -193.5802      9.9208    106.7246
   850.5000     11.4157   -193.7494      9.7990    108.2515
   850.7500     11.5452   -193.9752      9.7089    110.8811
   851.0000     11.6679   -194.2390      9.6560    116.7032
   851.2500     11.7318   -194.5201      9.6454    121.1506
   851.5000     11.7917   -194.7950      9.6742    127.0253
   851.7500     11.9259   -195.0468      9.7283    129.5327
   852.0000     12.1439   -195.2830      9.7860    130.6189
   852.2500     12.3403   -195.5394      9.8256    129.8242
   852.5000     12.3622   -195.8632      9.8311    127.0416
   852.7500     12.1760   -196.2877      9.7953    124.2410
   853.0000     11.8934   -196.8144      9.7231    118.2952
   853.2500     11.6598   -197.4052      9.6315    113.0262
   853.5000     11.5742   -197.9849      9.5429    103.7766
   853.7500     11.5896   -198.4549      9.4744     97.6982
   854.0000     11.4843   -198.7181      9.4308     90.9177
   854.2500     11.1014   -198.7122      9.4079     89.0115
   854.5000     10.6208   -198.4381      9.4005     90.8325
   854.7500     10.4058   -197.9700      9.4054     94.9751
   855.0000     10.5872   -197.4303      9.4187    104.3259
   855.2500     11.0429   -196.9450      9.4294    111.4487
   855.5000     11.6170   -196.6046      9.4197    120.9788
   855.7500     12.1288   -196.4462      9.3712    125.3057
   856.0000     12.3959   -196.4523      9.2745    127.7312
   856.2500     12.3307   -196.5564      9.1330    126.8042
   856.5000     11.9911   -196.6603      8.9629    122.8350
   856.7500     11.5845   -196.6710      8.7890    119.5093
   857.0000     11.3214   -196.5459      8.6385    115.4580
   857.2500     11.2374   -196.3152      8.5342    114.2597
   857.5000     11.2524   -196.0591      8.4891    114.8745
   857.7500     11.3413   -195.8602      8.5054    116.1107
   858.0000     11.5251   -195.7686      8.5777    117.4120
   858.2500     11.8007   -195.7927      8.6963    117.2811
   858.5000     12.1071   -195.9060      8.8493    115.4504
   858.7500     12.3151   -196.0544      9.0216    113.3329
   859.0000     12.3302   -196.1668      9.1984    109.3759
   859.2500     12.2040   -196.1819      9.3700    106.7039
   859.5000     12.0802   -196.0860      9.5377    103.4244
   859.7500     12.0156   -195.9236      9.7120    101.8578
   860.0000     11.9673   -195.7633      9.9060    100.1497
   860.2500     11.9670   -195.6501     10.1294     99.2692
   860.5000     12.1044   -195.5900     10.3860     98.3748
   860.7500     12.3728   -195.5691     10.6773     98.1364
   861.0000     12.6702   -195.5784     11.0055     98.0892
   861.2500     12.9046   -195.6206     11.3759     97.9139
   861.5000     13.0727   -195.7053     11.7955     96.9204
   861.7500     13.2790   -195.8390     12.2691     95.7569
