~Version Information
VERS.                      2.0: CWLS Log ASCII Standard - VERSION 2.0
WRAP.                       NO: One line per depth step
~Well Information Block
STRT.FT                -4.2500: 
STOP.FT              2018.7500: 
STEP.FT                 0.2500: 
NULL.                -999.2500: 
COMP.          Petrogulf Corporation: COMPANY
WELL.             State 16-21R: WELL
FLD.           Purgatoire River: FIELD
LOC.           203' FNL & 1560' FWL----: LOCATION
PROV.                 Colorado: PROVINCE
CNTY.               Las Animas: COUNTRY
SRVC.                         : SERVICE COMPANY
DATE.          Thu Sep 29 11:32:19 2005: LOG DATE
API.           05-071-08313 : API Number
~Curve Information Block
DEPT.FT            0 000 00 00: Depth
GR.GAPI                       : Gamma Ray
CCL.                          : Casing Collar Locator
AMP3.mV                       : CBL 3' Amplitude
AMP5.mV                       : CBL 5' Amplitude
~Parameter Information Block
~A  Depth        GR         CCL         AMP3        AMP5    
# ...
  1570.2500     65.7449      0.0000      1.9669      0.1820
  1570.5000     67.2684      0.0000      1.8490      0.1838
  1570.7500     69.8066      0.0000      1.7687      0.1794
  1571.0000     72.2028      0.0000      1.7223      0.1711
  1571.2500     73.5574      0.0000      1.6894      0.1644
  1571.5000     74.2085      0.0000      1.6579      0.1601
  1571.7500     75.3317      0.0000      1.6408      0.1564
  1572.0000     77.6036      0.0000      1.6614      0.1542
  1572.2500     80.6462      0.0000      1.7293      0.1570
  1572.5000     83.9379      0.0000      1.8420      0.1670
  1572.7500     87.8933      0.0000      2.0000      0.1815
  1573.0000     93.6798      0.0000      2.2060      0.1939
  1573.2500    102.0594      0.0000      2.4501      0.2008
  1573.5000    112.4617      0.0000      2.7035      0.2060
  1573.7500    122.8896      0.0000      2.9318      0.2141
  1574.0000    130.7933      0.0000      3.1124      0.2233
  1574.2500    134.5284      0.0000      3.2343      0.2270
  1574.5000    134.3338      0.0000      3.2844      0.2222
  1574.7500    132.0032      0.0000      3.2471      0.2114
  1575.0000    129.6591      0.0000      3.1245      0.1982
  1575.2500    128.9910      0.0000      2.9489      0.1834
  1575.5000    131.5002      0.0000      2.7657      0.1685
  1575.7500    138.4407      0.0000      2.6057      0.1578
  1576.0000    149.4290      0.0000      2.4759      0.1561
  1576.2500    161.4707      0.0000      2.3727      0.1632
  1576.5000    170.6572      0.0000      2.2916      0.1737
  1576.7500    175.1174      0.0000      2.2288      0.1826
  1577.0000    175.7797      0.0000      2.1852      0.1891
  1577.2500    174.5184      0.0000      2.1724      0.1953
  1577.5000    172.3392      0.0000      2.2081      0.2037
  1577.7500    169.2160      0.0000      2.2980      0.2157
  1578.0000    164.7882      0.0000      2.4282      0.2303
  1578.2500    158.7977      0.0000      2.5798      0.2458
  1578.5000    151.4512      0.0000      2.7483      0.2625
  1578.7500    144.0303      0.0000      2.9402      0.2826
  1579.0000    138.6851      0.0000      3.1525      0.3075
  1579.2500    136.7140      0.0000      3.3645      0.3383
  1579.5000    137.2402      0.0000      3.5540      0.3759
  1579.7500    138.2282      0.0000      3.7146      0.4189
  1580.0000    138.4663      0.0000      3.8533      0.4609
  1580.2500    138.0751      0.0000      3.9727      0.4944
  1580.5000    137.6650      0.0000      4.0649      0.5142
  1580.7500    137.7620      0.0000      4.1251      0.5188
  1581.0000    138.8376      0.0000      4.1609      0.5105
  1581.2500    141.2192      0.0000      4.1815      0.4952
  1581.5000    144.6774      0.0000      4.1842      0.4803
  1581.7500    148.2682      0.0000      4.1601      0.4709
  1582.0000    150.9448      0.0000      4.1082      0.4653
  1582.2500    152.4827      0.0000      4.0356      0.4564
  1582.5000    153.5545      0.0000      3.9495      0.4383
  1582.7500    154.8137      0.0000      3.8559      0.4118
  1583.0000    156.3624      0.0000      3.7595      0.3807
  1583.2500    158.2452      0.0000      3.6633      0.3477
  1583.5000    160.6432      0.0000      3.5666      0.3154
  1583.7500    163.0456      0.0000      3.4653      0.2891
  1584.0000    163.8874      0.0000      3.3530      0.2720
  1584.2500    161.7823      0.0000      3.2282      0.2602
  1584.5000    157.1127      0.0000      3.1031      0.2464
  1584.7500    152.1490      0.0000      2.9967      0.2270
  1585.0000    149.4004      0.0000      2.9163      0.2049
  1585.2500    149.6584      0.0000      2.8520      0.1851
  1585.5000    151.5651      0.0000      2.7896      0.1703
  1585.7500    153.0983      0.0000      2.7251      0.1606
  1586.0000    153.5069      0.0000      2.6611      0.1547
  1586.2500    153.9709      0.0000      2.5973      0.1508
  1586.5000    156.4471      0.0000      2.5272      0.1481
  1586.7500    161.6963      0.0000      2.4421      0.1477
  1587.0000    168.4258      0.0000      2.3344      0.1528
  1587.2500    174.3577      0.0000      2.1998      0.1633
  1587.5000    177.8452      0.0000      2.0405      0.1720
  1587.7500    178.4286      0.0000      1.8634      0.1693
  1588.0000    176.2352      0.0000      1.6754      0.1535
  1588.2500    171.0782      0.0000      1.4823      0.1324
  1588.5000    162.4617      0.0000      1.2964      0.1155
  1588.7500    150.9953      0.0000      1.1387      0.1079
  1589.0000    139.4518      0.0000      1.0279      0.1101
  1589.2500    131.3932      0.0000      0.9662      0.1197
  1589.5000    128.4537      0.0000      0.9411      0.1314
  1589.7500    129.2494      0.0000      0.9405      0.1395
  1590.0000    130.7478      0.0000      0.9602      0.1410
  1590.2500    130.6363      0.0000      0.9972      0.1372
  1590.5000    128.9778      0.0000      1.0453      0.1311
  1590.7500    127.7654      0.0000      1.0996      0.1260
  1591.0000    128.4508      0.0000      1.1644      0.1239
  1591.2500    129.9160      0.0000      1.2509      0.1242
  1591.5000    129.2137      0.0000      1.3668      0.1237
  1591.7500    124.2261      0.0000      1.5049      0.1199
  1592.0000    115.5268      0.0000      1.6438      0.1143
  1592.2500    106.1023      0.0000      1.7602      0.1134
  1592.5000     99.5755      0.0000      1.8410      0.1238
  1592.7500     98.0740      0.0000      1.8850      0.1477
  1593.0000    100.9082      0.0000      1.9031      0.1785
  1593.2500    105.0870      0.0000      1.9165      0.2026
  1593.5000    107.4259      0.0000      1.9465      0.2090
  1593.7500    106.5169      0.0000      1.9974      0.2001
  1594.0000    103.2118      0.0000      2.0479      0.1893
  1594.2500     99.8997      0.0000      2.0658      0.1876
  1594.5000     99.2658      0.0000      2.0303      0.1952
  1594.7500    102.8318      0.0000      1.9404      0.2034
  1595.0000    110.0811      0.0000      1.8083      0.2042
  1595.2500    119.0252      0.0000      1.6535      0.1948
  1595.5000    127.6953      0.0000      1.4993      0.1773
  1595.7500    135.0398      0.0000      1.3649      0.1554
  1596.0000    140.6522      0.0000      1.2548      0.1318
  1596.2500    144.2547      0.0000      1.1599      0.1087
  1596.5000    145.8328      0.0000      1.0652      0.0877
  1596.7500    145.9844      0.0000      0.9618      0.0701
  1597.0000    145.5898      0.0000      0.8574      0.0569
  1597.2500    145.1317      0.0000      0.7747      0.0482
  1597.5000    144.7347      0.0000      0.7338      0.0444
  1597.7500    144.6702      0.0000      0.7371      0.0466
  1598.0000    145.1232      0.0000      0.7727      0.0556
  1598.2500    145.4086      0.0000      0.8250      0.0705
  1598.5000    144.0867      0.0000      0.8801      0.0891
  1598.7500    140.1582      0.0000      0.9291      0.1083
  1599.0000    133.6932      0.0000      0.9740      0.1252
  1599.2500    125.0992      0.0000      1.0286      0.1369
  1599.5000    114.5222      0.0000      1.1114      0.1435
  1599.7500    102.5738      0.0000      1.2345      0.1484
  1600.0000     91.0751      0.0000      1.3932      0.1546
  1600.2500     82.0963      0.0000      1.5629      0.1607
  1600.5000     76.2315      0.0000      1.7130      0.1647
  1600.7500     72.4378      0.0000      1.8245      0.1660
  1601.0000     69.5652      0.0000      1.8930      0.1621
  1601.2500     67.4553      0.0000      1.9220      0.1494
  1601.5000     66.5355      0.0000      1.9231      0.1286
  1601.7500     66.9356      0.0000      1.9249      0.1072
  1602.0000     68.3160      0.0000      1.9597      0.0936
  1602.2500     70.4028      0.0000      2.0243      0.0890
  1602.5000     73.4228      0.0000      2.0599      0.0853
  1602.7500     77.7157      0.0000      1.9996      0.0740
  1603.0000     82.8240      0.0000      1.8359      0.0558
  1603.2500     87.3156      0.0000      1.6255      0.0401
  1603.5000     89.7903      0.0000      1.4342      0.0339
