~Version Information
VERS.                      2.0: CWLS Log ASCII Standard - VERSION 2.0
WRAP.                       NO: One line per depth step
~Well Information Block
STRT.FT               -11.5000: 
STOP.FT              2395.2500: 
STEP.FT                 0.2500: 
NULL.                -999.2500: 
COMP.          Petrogulf Corporation: COMPANY
WELL.            Montoya 7-21V: WELL
FLD.           Purgatorie River: FIELD
LOC.           738' FSL & 2070' FWL--: LOCATION
CNTY.               Las Animas: COUNTY
SRVC.                         : SERVICE COMPANY
DATE.          Mon Aug 30 15:10:00 2004: LOG DATE
UWI.                          : UNIQUE WELL ID
STAT.                       CO: STATE
~Curve Information Block
DEPT.FT            0 000 00 00: Depth
CCL.                          : Casing Collar Locator
TT3.usec                      : CBL 3' Travel Time
AMP3.mV                       : CBL 3' Amplitude
GR.GAPI                       : Gamma Ray
~Parameter Information Block
~A  Depth       CCL         TT3         AMP3         GR     
# ...
   290.0000      0.0000    267.8189     29.5282     69.5173
   290.2500      0.0000    267.5182     30.2626     73.1722
   290.5000      0.0000    267.2427     31.0387     75.4149
   290.7500      0.0000    267.0018     31.7647     74.5431
   291.0000      0.0000    266.7963     32.3497     70.5405
   291.2500      0.0000    266.6308     32.7804     64.5551
   291.5000      0.0000    266.4944     33.1841     58.2552
   291.7500      0.0000    266.3534     33.7569     53.3256
   292.0000      0.0000    266.1867     34.5894     50.8543
   292.2500      0.0000    266.0167     35.5854     50.9161
   292.5000      0.0000    265.8845     36.5598     52.9079
   292.7500      0.0000    265.7998     37.3678     56.1586
   293.0000      0.0000    265.7368     37.9165     59.8966
   293.2500      0.0000    265.6811     38.1282     62.9289
   293.5000      0.0000    265.6562     37.9734     64.2115
   293.7500      0.0000    265.6916     37.5405     64.0126
   294.0000      0.0000    265.7763     37.0165     64.0068
   294.2500      0.0000    265.8655     36.5717     65.8596
   294.5000      0.0000    265.9289     36.2747     69.9104
   294.7500      0.0000    265.9722     36.1047     75.3742
   295.0000      0.0000    266.0139     36.0025     81.6968
   295.2500      0.0000    266.0640     35.8981     89.3487
   295.5000      0.0000    266.1259     35.7444     99.0460
   295.7500      0.0000    266.1974     35.5570    110.3591
   296.0000      0.0000    266.2612     35.3973    121.4587
   296.2500      0.0000    266.2911     35.2959    130.1528
   296.5000      0.0000    266.2768     35.2168    134.8758
   296.7500      0.0000    266.2343     35.1058    134.8573
   297.0000      0.0000    266.1919     34.9458    129.9910
   297.2500      0.0000    266.1685     34.7539    121.0528
   297.5000      0.0000    266.1645     34.5517    109.8645
   297.7500      0.0000    266.1675     34.3675     98.6673
   298.0000      0.0000    266.1614     34.2532     89.1601
   298.2500      0.0000    266.1366     34.2505     82.1286
   298.5000      0.0000    266.0989     34.3305     77.6181
   298.7500      0.0000    266.0661     34.4066     75.2117
   299.0000      0.0000    266.0487     34.4273     74.4375
   299.2500      0.0000    266.0379     34.4180     74.9958
   299.5000      0.0000    266.0199     34.4132     76.4691
   299.7500      0.0000    265.9994     34.3921     78.1941
   300.0000      0.0000    265.9931     34.3289     79.8204
   300.2500      0.0000    265.9968     34.2812     81.5933
   300.5000      0.0000    265.9766     34.3667     83.7298
   300.7500      0.0000    265.9042     34.6403     85.9155
   301.0000      0.0000    265.7917     35.0335     87.6754
   301.2500      0.0000    265.6775     35.4283     88.8669
   301.5000      0.0000    265.5893     35.7540     89.6703
   301.7500      0.0000    265.5320     36.0025     90.5370
   302.0000      0.0000    265.4982     36.2006     92.3243
   302.2500      0.0000    265.4717     36.3959     95.9174
   302.5000      0.0000    265.4324     36.6171    101.1722
   302.7500      0.0000    265.3799     36.8083    106.4148
   303.0000      0.0000    265.3488     36.8443    109.3192
   303.2500      0.0000    265.3797     36.6529    108.3864
   303.5000      0.0000    265.4742     36.2984    103.9182
   303.7500      0.0000    265.5926     35.9074     97.9509
   304.0000      0.0000    265.6978     35.5302     93.0572
   304.2500      0.0000    265.7905     35.1235     90.8330
   304.5000      0.0000    265.8914     34.6699     91.2540
   304.7500      0.0000    266.0009     34.2642     93.0225
   305.0000      0.0000    266.0886     34.0443     94.3306
   305.2500      0.0000    266.1287     34.0473     93.9777
   305.5000      0.0000    266.1306     34.1677     92.3750
   305.7500      0.0000    266.1418     34.2655     91.0197
   306.0000      0.0000    266.2371     34.2871     90.5996
   306.2500      0.0000    266.7045     34.2427     90.2302
   306.5000      0.0000    268.4540     34.0754     88.9753
   306.7500      0.0000    273.4162     33.5978     87.4504
   307.0000      0.0000    283.8960     32.6148     87.3229
   307.2500      0.0000    300.0500     31.1499     89.5680
   307.5000      0.0000    317.3352     29.5285     93.6215
   307.7500      0.0000    328.2473     28.1579     98.1219
   308.0000      0.0000    328.6460     27.1955    102.0840
   308.2500      0.0000    321.6874     26.5016    105.0732
   308.5000      0.0000    314.2730     25.9029    106.4090
   308.7500      0.0000    310.6846     25.3917    105.2729
   309.0000      2.0000    310.5483     25.0698    102.2913
   309.2500      2.0000    311.2733     25.0237     99.9339
   309.5000      0.0000    310.7462     25.2845    100.1327
   309.7500      0.0000    308.1982     25.8653    102.1346
   310.0000      0.0000    303.9498     26.7998    103.5971
   310.2500      0.0000    298.8399     28.1111    103.1220
   310.5000      0.0000    293.5116     29.7254    101.0003
   310.7500      0.0000    288.0645     31.4648     98.2243
   311.0000      0.0000    282.3803     33.1679     95.4271
   311.2500      0.0000    276.7378     34.7444     92.4854
   311.5000      0.0000    271.8847     36.0973     89.0201
   311.7500      0.0000    268.4680     37.1185     85.3242
   312.0000      0.0000    266.5330     37.7968     82.4174
   312.2500      0.0000    265.6296     38.2255     81.0161
   312.5000      0.0000    265.2538     38.4760     80.6307
   312.7500      0.0000    265.1082     38.5373     79.9713
   313.0000      0.0000    265.0825     38.3987     78.5526
   313.2500      0.0000    265.1281     38.1483     77.8311
   313.5000      0.0000    265.1918     37.9609     79.9654
   313.7500      0.0000    265.2115     37.9923     85.0503
   314.0000      0.0000    265.1545     38.2666     90.2992
   314.2500      0.0000    265.0369     38.6555     92.5817
   314.5000      0.0000    264.9105     38.9710     91.4794
   314.7500      0.0000    264.8273     39.0927     89.3744
   315.0000      0.0000    264.8130     39.0139     88.7801
   315.2500      0.0000    264.8636     38.7864     90.2191
   315.5000      0.0000    264.9591     38.4527     92.5886
   315.7500      0.0000    265.0748     38.0485     94.7319
   316.0000      0.0000    265.1860     37.6464     96.2230
   316.2500      0.0000    265.2697     37.3700     96.9193
   316.5000      0.0000    265.3090     37.3439     96.2456
   316.7500      0.0000    265.2989     37.6098     93.4019
   317.0000      0.0000    265.2492     38.0767     88.3821
   317.2500      0.0000    265.1783     38.5628     82.4419
   317.5000      0.0000    265.1004     38.9075     77.4070
   317.7500      0.0000    265.0194     39.0470     74.6986
   318.0000      0.0000    264.9386     38.9830     74.8876
   318.2500      0.0000    264.8762     38.7116     77.7392
   318.5000      0.0000    264.8634     38.2164     82.4637
   318.7500      0.0000    264.9218     37.5391     87.7854
   319.0000      0.0000    265.0385     36.8327     92.0389
   319.2500      0.0000    265.1638     36.3220     93.9491
   319.5000      0.0000    265.2390     36.1881     93.6552
   319.7500      0.0000    265.2383     36.4608     92.5521
   320.0000      0.0000    265.1887     36.9997     91.8936
   320.2500      0.0000    265.1424     37.5891     91.8281
   320.5000      0.0000    265.1268     38.0780     91.7035
   320.7500      0.0000    265.1270     38.4552     90.7346
   321.0000      0.0000    265.1111     38.8130     88.3667
   321.2500      0.0000    265.0597     39.2652     84.8067
   321.5000      0.0000    264.9687     39.8898     81.4592
   321.7500      0.0000    264.8370     40.7003     80.0198
   322.0000      0.0000    264.6664     41.6244     80.6107
   322.2500      0.0000    264.4742     42.5068     81.4108
   322.5000      0.0000    264.2958     43.1638     80.6424
   322.7500      0.0000    264.1677     43.4715     78.4148
   323.0000      0.0000    264.1068     43.4181     76.3939
   323.2500      0.0000    264.1111     43.0775     76.1781
