~Version Information
VERS.                      2.0: CWLS Log ASCII Standard - VERSION 2.0
WRAP.                       NO: One line per depth step
~Well Information Block
STRT.FT               510.5000: 
STOP.FT              2075.5000: 
STEP.FT                 0.1000: 
NULL.                -999.2500: 
COMP.          Petrogulf Corporation: COMPANY
WELL.          Robinson 15-11V: WELL
FLD.           Purgatorie River: FIELD
LOC.           226' FNL & 592' FWL: LOCATION
CNTY.               Las Animas: COUNTY
SRVC.                         : SERVICE COMPANY
DATE.          Wed Aug 04 06:17:53 2004: LOG DATE
UWI.           05 071 08027 00: UNIQUE WELL ID
STAT.                 Colorado: STATE
~Curve Information Block
DEPT.FT            0 000 00 00: Depth
DCAL.in                       : CDL Caliper
RHOB.g/cc                     : CDL Bulk Density
RHOC.g/cc                     : CDL Density Correction
DPOR.pu                       : CDL Density Porosity
GR.GAPI                       : Gamma Ray
NPOR.pu                       : Neutron Porosity
~Parameter Information Block
~A  Depth       DCAL        RHOB        RHOC        DPOR         GR         NPOR    
# ...
  1345.7000      7.9255      2.5183      0.0408      7.9788    134.4447     25.9645
  1345.8000      7.9264      2.4923      0.0002      9.5554    137.9245     25.4830
  1345.9000      7.9264      2.4844     -0.0153     10.0341    137.0082     25.1516
  1346.0000      7.9265      2.5023      0.0163      8.9523    132.1185     25.1585
  1346.1000      7.9265      2.5247      0.0370      7.5932    125.5924     25.7231
  1346.2000      7.9265      2.5304      0.0739      7.2502    116.8827     26.4110
  1346.3000      7.9261      2.5145      0.0755      8.2092    113.8266     26.6913
  1346.4000      7.9261      2.4902      0.0445      9.6847    124.1891     26.7348
  1346.5000      7.9259      2.4835      0.0040     10.0909    137.1358     26.8880
  1346.6000      7.9259      2.5062      0.0545      8.7156    141.6669     27.0548
  1346.7000      7.9259      2.5402      0.0864      6.6529    141.6454     27.0780
  1346.8000      7.9278      2.5648      0.1257      5.1636    140.6962     27.0830
  1346.9000      7.9278      2.5792      0.0933      4.2936    137.7493     27.1842
  1347.0000      7.9280      2.5925      0.0933      3.4853    134.1272     27.3583
  1347.1000      7.9280      2.6002      0.1506      3.0171    133.4668     27.5395
  1347.2000      7.9280      2.5916      0.1079      3.5374    134.6247     27.6263
  1347.3000      7.9271      2.5704      0.0987      4.8241    134.1780     27.5906
  1347.4000      7.9271      2.5424      0.1047      6.5225    133.6403     27.4197
  1347.5000      7.9267      2.5152      0.0308      8.1705    135.8962     27.1682
  1347.6000      7.9267      2.4999      0.0960      9.0955    139.5122     27.0442
  1347.7000      7.9267      2.4903      0.0667      9.6793    141.9592     27.1470
  1347.8000      7.9274      2.4777      0.0412     10.4413    140.8886     27.4559
  1347.9000      7.9274      2.4706      0.0788     10.8738    136.6589     27.6761
  1348.0000      7.9299      2.4864      0.0758      9.9154    134.3200     27.4593
  1348.1000      7.9299      2.5362      0.1578      6.8972    136.6968     26.9989
  1348.2000      7.9299      2.6110      0.2144      2.3614    142.0403     26.8153
  1348.3000      7.9304      2.6826      0.3178     -1.9768    146.4733     27.0746
  1348.4000      7.9304      2.7140      0.3691     -3.8798    148.3485     27.4149
  1348.5000      7.9528      2.6893      0.3266     -2.3791    149.2695     27.5867
  1348.6000      7.9528      2.6331      0.2236      1.0235    148.0496     27.6494
  1348.7000      7.9528      2.5843      0.1129      3.9818    147.4296     27.4867
  1348.8000      8.0241      2.5553      0.1194      5.7405    150.7309     26.8793
  1348.9000      8.0241      2.5334      0.0996      7.0661    156.9795     26.0803
  1349.0000      7.9841      2.5163      0.0707      8.1046    166.4613     25.5209
  1349.1000      7.9841      2.5157      0.0387      8.1422    174.6949     25.0372
  1349.2000      7.9841      2.5276      0.0670      7.4165    179.8392     24.3781
  1349.3000      7.9716      2.5232      0.0660      7.6822    184.9662     23.9068
  1349.4000      7.9716      2.4834      0.0326     10.0963    186.1630     23.8019
  1349.5000      7.9688      2.4239      0.0219     13.7053    178.1843     23.5512
  1349.6000      7.9688      2.3743     -0.0135     16.7109    163.2501     22.7554
  1349.7000      7.9688      2.3435      0.0365     18.5751    149.7564     21.6325
  1349.8000      8.0103      2.3160      0.0104     20.2428    143.4789     20.5752
  1349.9000      8.0103      2.2893      0.0228     21.8611    144.0697     19.7220
  1350.0000      8.1191      2.2708      0.0777     22.9820    147.3798     18.9667
  1350.1000      8.1191      2.2425      0.0714     24.6944    149.1034     18.2572
  1350.2000      8.1191      2.1831      0.0829     28.2940    152.6004     17.7387
  1350.3000      8.1672      2.1029      0.0508     33.1588    158.9977     17.4033
  1350.4000      8.1672      2.0183      0.0896     38.2818    161.6338     17.1033
  1350.5000      8.0597      1.9176      0.0517     44.3882    160.1805     16.8966
  1350.6000      8.0597      1.7921      0.0143     51.9935    159.7878     16.9265
  1350.7000      8.0597      1.6779     -0.0320     58.9159    162.6506     17.2131
  1350.8000      8.0544      1.6145      0.0610     62.7587    166.1177     17.8456
  1350.9000      8.0544      1.5920      0.1300     64.1186    166.5322     19.0040
  1351.0000      8.0593      1.5991      0.1189     63.6923    163.1013     20.5862
  1351.1000      8.0593      1.6573      0.0866     60.1664    155.7270     22.1524
  1351.2000      8.0593      1.7631      0.2199     53.7491    146.4767     23.2016
  1351.3000      8.0694      1.8796      0.2683     46.6909    137.7700     23.7109
  1351.4000      8.0694      1.9931      0.3034     39.8137    128.9966     24.3315
  1351.5000      8.1100      2.1086      0.3155     32.8111    119.9019     25.3743
  1351.6000      8.1100      2.2157      0.3706     26.3241    112.7245     26.3046
  1351.7000      8.1100      2.3093      0.2800     20.6470    109.0622     26.7636
  1351.8000      8.1109      2.4035      0.2371     14.9408    105.6794     26.9266
  1351.9000      8.1109      2.4814      0.2633     10.2169    100.9211     27.0644
  1352.0000      8.0883      2.5034      0.1302      8.8834     97.6747     27.3507
  1352.1000      8.0883      2.4774      0.0242     10.4626     98.0926     27.5677
  1352.2000      8.0883      2.4438      0.0236     12.4978    101.3181     27.3152
  1352.3000      7.9833      2.4186      0.0217     14.0267    105.6063     26.7261
  1352.4000      7.9833      2.3939      0.0169     15.5207    110.8242     26.4737
  1352.5000      7.9720      2.3586      0.0409     17.6578    118.1009     26.7753
  1352.6000      7.9720      2.3124     -0.0127     20.4581    124.3109     27.1313
  1352.7000      7.9720      2.2681      0.0183     23.1458    124.8444     27.0967
  1352.8000      7.9757      2.2296      0.0678     25.4802    126.2542     26.7100
  1352.9000      7.9757      2.1973      0.0630     27.4367    136.4504     26.4066
  1353.0000      7.9690      2.1912      0.1072     27.8080    151.9755     26.5730
  1353.1000      7.9690      2.2258      0.1907     25.7087    166.8085     26.9671
  1353.2000      7.9690      2.3015      0.1954     21.1204    173.6124     27.1804
  1353.3000      7.9401      2.4289      0.2856     13.3970    169.3009     27.3867
  1353.4000      7.9401      2.5920      0.4551      3.5149    164.6518     27.7358
  1353.5000      7.9479      2.7294      0.5931     -4.8114    163.5378     27.9637
  1353.6000      7.9479      2.8028      0.5668     -9.2598    160.0785     27.8747
  1353.7000      7.9479      2.8222      0.5456    -10.4371    158.0623     27.6055
  1353.8000      7.9479      2.7986      0.4648     -9.0078    161.8057     27.4823
  1353.9000      7.9479      2.7354      0.3232     -5.1770    166.6684     27.4892
  1354.0000      7.9330      2.6587      0.1741     -0.5277    170.8213     27.2209
  1354.1000      7.9330      2.6024      0.0966      2.8841    171.4115     26.7565
  1354.2000      7.9330      2.5694      0.1057      4.8850    163.2859     26.4748
  1354.3000      7.9280      2.5466      0.0711      6.2669    151.4276     26.2099
  1354.4000      7.9280      2.5422      0.0028      6.5361    143.5793     25.6500
  1354.5000      7.9274      2.5649      0.1143      5.1579    138.9013     25.1019
  1354.6000      7.9274      2.5874      0.1556      3.7937    133.7073     24.9881
  1354.7000      7.9274      2.5801      0.1221      4.2370    126.9446     25.1302
  1354.8000      7.9265      2.5486      0.1268      6.1470    119.9390     25.1385
  1354.9000      7.9265      2.5118      0.1381      8.3728    116.9113     24.9934
  1355.0000      7.9337      2.4791      0.0993     10.3596    118.5956     24.9310
  1355.1000      7.9337      2.4526      0.0843     11.9621    123.2282     25.1107
  1355.2000      7.9337      2.4347      0.0554     13.0492    130.7507     25.4386
