~Version Information
VERS.                      2.0: CWLS Log ASCII Standard - VERSION 2.0
WRAP.                       NO: One line per depth step
~Well Information Block
STRT.FT               475.0000: 
STOP.FT              2336.7000: 
STEP.FT                 0.1000: 
NULL.                -999.2500: 
COMP.          Pioneer Natural Resources: COMPANY
WELL.              Bobsy 34-11: WELL
FLD.           Purgatoire River: FIELD
LOC.           1937' FEL & 451' FSL----: LOCATION
PROV.                 Colorado: PROVINCE
CNTY.               Las Animas: COUNTRY
SRVC.                Patterson: SERVICE COMPANY
DATE.          Fri Apr 08 11:07:54 2005: LOG DATE
UWI.           05 071 08330 00: UNIQUE WELL ID
~Curve Information Block
DEPT.FT            0 000 00 00: Depth
DCAL.in                       : CDL Caliper
RHOB.g/cc                     : CDL Bulk Density
RHOC.g/cc                     : CDL Density Correction
DPOR.pu                       : CDL Density Porosity
NPOR.pu                       : Neutron Porosity
GR.GAPI                       : Gamma Ray
~Parameter Information Block
~A  Depth       DCAL        RHOB        RHOC        DPOR        NPOR         GR     
# ...
   599.8000      7.9993      2.4999      0.0359      9.0981     28.1863    117.5363
   599.9000      7.9993      2.5215      0.0312      7.7878     28.5878    117.7635
   600.0000      8.0005      2.5501      0.0846      6.0520     28.4959    120.6291
   600.1000      8.0005      2.5665      0.0834      5.0620     28.0413    124.0443
   600.2000      8.0005      2.5648      0.0803      5.1660     27.5911    128.5077
   600.3000      8.0004      2.5596      0.0614      5.4785     27.3549    133.8057
   600.4000      8.0004      2.5622      0.0601      5.3228     27.2963    135.0019
   600.5000      7.9990      2.5667      0.0529      5.0499     27.1849    128.9518
   600.6000      7.9990      2.5632      0.1012      5.2577     26.9411    120.1645
   600.7000      7.9990      2.5520      0.0692      5.9375     26.7565    116.0259
   600.8000      7.9965      2.5395      0.0738      6.6978     26.6438    118.9734
   600.9000      7.9965      2.5299      0.0203      7.2816     26.4401    124.2800
   601.0000      7.9943      2.5290     -0.0071      7.3338     26.0024    126.1527
   601.1000      7.9943      2.5377      0.0262      6.8040     25.6218    124.3944
   601.2000      7.9943      2.5438      0.0632      6.4333     25.5761    122.3007
   601.3000      7.9941      2.5349      0.0607      6.9772     25.3450    120.6362
   601.4000      7.9941      2.5179      0.0077      8.0081     24.6030    118.2758
   601.5000      7.9968      2.5128     -0.0055      8.3144     23.8626    117.1709
   601.6000      7.9968      2.5218      0.0123      7.7700     23.6198    119.6989
   601.7000      7.9968      2.5264      0.0410      7.4888     23.6908    122.6079
   601.8000      8.0012      2.5196      0.0252      7.9028     23.6357    123.5379
   601.9000      8.0012      2.5171     -0.0014      8.0556     23.5689    123.5405
   602.0000      8.0032      2.5295      0.0503      7.3001     23.5831    122.8483
   602.1000      8.0032      2.5439      0.0369      6.4304     23.4954    121.5525
   602.2000      8.0032      2.5438      0.0628      6.4343     23.3933    121.0545
   602.3000      8.0020      2.5366      0.0178      6.8703     23.4018    122.2831
   602.4000      8.0020      2.5432      0.0519      6.4702     23.4400    121.3907
   602.5000      8.0019      2.5643      0.0316      5.1947     23.6115    115.4719
   602.6000      8.0019      2.5789      0.0673      4.3099     23.9640    110.4542
   602.7000      8.0019      2.5660      0.0644      5.0939     24.1875    110.7304
   602.8000      8.0026      2.5261      0.0266      7.5118     23.9534    112.4249
   602.9000      8.0026      2.4857     -0.0377      9.9576     23.5904    113.3904
   603.0000      8.0031      2.4769     -0.0116     10.4903     23.7068    115.1030
   603.1000      8.0031      2.5061     -0.0092      8.7183     24.0840    116.5305
   603.2000      8.0031      2.5465      0.0466      6.2723     24.0785    113.8089
   603.3000      8.0030      2.5654      0.0479      5.1288     23.6758    107.5245
   603.4000      8.0030      2.5643      0.0070      5.1942     23.4503    105.2208
   603.5000      8.0014      2.5669      0.0099      5.0341     23.6968    109.7545
   603.6000      8.0014      2.5712      0.0861      4.7772     24.2203    113.1134
   603.7000      8.0014      2.5607      0.0269      5.4113     24.7191    110.8206
   603.8000      8.0003      2.5436      0.0294      6.4489     24.8361    109.0446
   603.9000      8.0003      2.5343      0.0281      7.0095     24.5316    109.9989
   604.0000      8.0012      2.5408     -0.0047      6.6168     24.3570    106.9930
   604.1000      8.0012      2.5619      0.0398      5.3403     24.7550     99.3302
   604.2000      8.0012      2.5778      0.0392      4.3777     25.2608     94.7233
   604.3000      8.0012      2.5730      0.0328      4.6642     25.2511     96.3589
   604.4000      8.0012      2.5563     -0.0247      5.6765     24.9104     96.6191
   604.5000      7.9995      2.5397      0.0117      6.6866     24.6828     89.3884
   604.6000      7.9995      2.5229      0.0183      7.7021     24.7537     82.4857
   604.7000      7.9995      2.5064     -0.0056      8.7007     25.0663     83.4494
   604.8000      7.9981      2.4956     -0.0224      9.3560     25.3132     86.8799
   604.9000      7.9981      2.4945     -0.0407      9.4250     25.3704     87.8519
   605.0000      7.9978      2.5031     -0.0265      8.9022     25.3201     89.0571
   605.1000      7.9978      2.5164     -0.0100      8.0998     25.1350     93.3073
   605.2000      7.9978      2.5288      0.0271      7.3452     24.7962     98.3553
   605.3000      7.9993      2.5432     -0.0173      6.4755     24.4716    100.3128
   605.4000      7.9993      2.5619      0.0255      5.3384     24.3688     99.1586
   605.5000      8.0018      2.5757      0.0455      4.5023     24.2572     96.0582
   605.6000      8.0018      2.5735      0.0647      4.6375     23.9394     91.7301
   605.7000      8.0018      2.5511      0.0391      5.9932     23.8116     90.7912
   605.8000      8.0026      2.5163     -0.0006      8.1055     24.1278     95.2159
   605.9000      8.0026      2.4846      0.0066     10.0220     24.5086     98.3013
   606.0000      8.0023      2.4707     -0.0374     10.8669     24.5441     95.5840
   606.1000      8.0023      2.4835     -0.0159     10.0932     24.2764     89.8421
   606.2000      8.0023      2.5153      0.0047      8.1654     23.8565     84.9686
   606.3000      8.0022      2.5476      0.0159      6.2072     23.3819     82.6597
   606.4000      8.0022      2.5656      0.0576      5.1172     22.9503     83.1394
   606.5000      8.0008      2.5644      0.0446      5.1885     22.5668     85.7635
   606.6000      8.0008      2.5574     -0.0185      5.6115     22.3122     88.9584
   606.7000      8.0008      2.5545      0.0587      5.7865     22.2725     92.6908
   606.8000      7.9983      2.5436      0.0289      6.4455     22.3177     96.2372
   606.9000      7.9983      2.5212      0.0131      7.8041     22.2202     95.7039
   607.0000      7.9979      2.5000      0.0191      9.0879     22.0441     91.0973
   607.1000      7.9979      2.4847     -0.0098     10.0165     21.9601     86.8266
   607.2000      7.9979      2.4704     -0.0001     10.8827     22.0668     85.2535
   607.3000      7.9994      2.4665     -0.0416     11.1215     22.4613     86.1657
   607.4000      7.9994      2.4895      0.0135      9.7274     22.9323     85.4369
   607.5000      8.0009      2.5243      0.0557      7.6184     23.0281     80.3410
   607.6000      8.0009      2.5408      0.0362      6.6211     22.7393     75.9755
   607.7000      8.0009      2.5370      0.0195      6.8482     22.3753     74.9641
   607.8000      8.0019      2.5295      0.0250      7.3053     22.1406     75.3974
   607.9000      8.0019      2.5317      0.0152      7.1708     22.0626     76.8467
   608.0000      8.0023      2.5454      0.0339      6.3422     22.1409     77.8665
   608.1000      8.0023      2.5602      0.0415      5.4443     22.4560     76.9264
   608.2000      8.0023      2.5714      0.0248      4.7618     22.9695     76.6384
   608.3000      8.0031      2.5794      0.0483      4.2810     23.6320     78.4890
   608.4000      8.0031      2.5796      0.0700      4.2653     24.3972     79.1596
   608.5000      8.0038      2.5683      0.0228      4.9516     25.1135     76.0196
   608.6000      8.0038      2.5462      0.0341      6.2912     25.5987     72.4826
   608.7000      8.0038      2.5201      0.0051      7.8744     25.7532     75.5270
   608.8000      8.0020      2.4994     -0.0105      9.1268     25.7371     84.7535
   608.9000      8.0020      2.4784      0.0337     10.3991     25.7555     94.1840
   609.0000      7.9998      2.4468     -0.0253     12.3170     25.8057    100.0881
   609.1000      7.9998      2.4163     -0.0267     14.1606     25.6953    100.9129
   609.2000      7.9998      2.4014      0.0002     15.0679     25.1651     98.5992
   609.3000      7.9993      2.3945      0.0043     15.4872     24.2581     96.5228
