~Version Information
VERS.                      2.0: CWLS Log ASCII Standard - VERSION 2.0
WRAP.                       NO: One line per depth step
~Well Information Block
STRT.FT               418.4000: 
STOP.FT              1170.0000: 
STEP.FT                 0.1000: 
NULL.                -999.2500: 
COMP.          Evergreen Operating Corporation: COMPANY
WELL.             Bernice 21-3: WELL
FLD.           Purgatoire River: FIELD
LOC.           201' FNL & 2575' FWL: LOCATION
PROV.                 Colorado: PROVINCE
CNTY.               Las Animas: COUNTRY
SRVC.                Patterson: SERVICE COMPANY
DATE.          Mon Jan 26 14:55:16 2004: LOG DATE
UWI.             05 071 07912 : UNIQUE WELL ID
~Curve Information Block
DEPT.FT            0 000 00 00: Depth
DCAL.in                       : CDL Caliper
RHOB.g/cc                     : CDL Bulk Density
RHOC.g/cc                     : CDL Density Correction
DPOR.pu                       : CDL Density Porosity
NPOR.pu                       : Neutron Porosity
GR.GAPI                       : Gamma Ray
~Parameter Information Block
~A  Depth       DCAL        RHOB        RHOC        DPOR        NPOR         GR     
# ...
   668.0000      8.2220      2.5860      0.0094      3.8767     26.9724    101.6473
   668.1000      8.2220      2.5583     -0.0142      5.5558     26.8366    105.1196
   668.2000      8.2220      2.5424     -0.0444      6.5191     27.1447    105.6770
   668.3000      8.2222      2.5534     -0.0504      5.8524     27.4615    101.2943
   668.4000      8.2222      2.5759      0.0199      4.4896     27.6487     96.2655
   668.5000      8.2243      2.5900     -0.0179      3.6376     27.9599     93.4572
   668.6000      8.2243      2.5970     -0.0115      3.2130     28.3737     92.7444
   668.7000      8.2243      2.5990      0.0161      3.0889     28.7011     96.1469
   668.8000      8.2235      2.5901     -0.0079      3.6311     28.8116    102.3998
   668.9000      8.2235      2.5749     -0.0373      4.5495     28.6846    107.6707
   669.0000      8.2209      2.5655     -0.0215      5.1206     28.4108    112.5092
   669.1000      8.2209      2.5621      0.0024      5.3287     28.2769    115.6228
   669.2000      8.2209      2.5594     -0.0406      5.4895     28.5376    113.8493
   669.3000      8.2246      2.5580     -0.0213      5.5757     28.9287    109.1851
   669.4000      8.2246      2.5561     -0.0216      5.6924     29.1015    106.8952
   669.5000      8.2301      2.5527     -0.0201      5.8950     28.8659    107.1577
   669.6000      8.2301      2.5511     -0.0563      5.9931     28.1452    105.3024
   669.7000      8.2301      2.5518     -0.0182      5.9507     27.5396    100.2015
   669.8000      8.2421      2.5560     -0.0478      5.6959     27.5073     96.0587
   669.9000      8.2421      2.5681     -0.0013      4.9634     27.6637     97.1276
   670.0000      8.2160      2.5840      0.0075      4.0020     27.5326    101.1881
   670.1000      8.2160      2.5970      0.0070      3.2126     27.0755    103.0855
   670.2000      8.2160      2.5976      0.0206      3.1738     26.5130    103.2153
   670.3000      8.2092      2.5738     -0.0021      4.6178     26.1301    102.7927
   670.4000      8.2092      2.5345     -0.0238      6.9973     25.9686    102.2791
   670.5000      8.2078      2.5112     -0.0689      8.4103     25.7440    104.0366
   670.6000      8.2078      2.5222     -0.0449      7.7472     25.4900    106.9912
   670.7000      8.2078      2.5520     -0.0249      5.9418     25.4222    107.3730
   670.8000      8.2061      2.5730      0.0401      4.6672     25.6607    105.8349
   670.9000      8.2061      2.5728     -0.0125      4.6771     26.1105    105.5219
   671.0000      8.2042      2.5601     -0.0126      5.4486     26.1962    105.9772
   671.1000      8.2042      2.5456     -0.0127      6.3284     25.8348    105.4598
   671.2000      8.2042      2.5362     -0.0338      6.8981     25.5876    103.6883
   671.3000      8.2027      2.5388     -0.0237      6.7424     25.5048    102.5787
   671.4000      8.2027      2.5500      0.0013      6.0606     25.4603    105.0095
   671.5000      8.2040      2.5609     -0.0053      5.3979     25.6124    107.8882
   671.6000      8.2040      2.5672      0.0156      5.0153     25.8272    107.1084
   671.7000      8.2040      2.5690     -0.0075      4.9101     25.8670    103.4365
   671.8000      8.1985      2.5702     -0.0041      4.8376     25.8602     99.6559
   671.9000      8.1985      2.5658      0.0290      5.1010     25.9842     98.6275
   672.0000      8.1622      2.5509     -0.0137      6.0052     26.1141    100.5207
   672.1000      8.1622      2.5354      0.0115      6.9449     25.9571    103.0233
   672.2000      8.1622      2.5252     -0.0066      7.5613     25.4546    105.1423
   672.3000      8.1968      2.5159     -0.0215      8.1286     25.0001    108.6052
   672.4000      8.1968      2.5048     -0.0435      8.8023     25.0738    111.7676
   672.5000      8.2015      2.4928     -0.0458      9.5266     25.4564    110.7342
   672.6000      8.2015      2.4784     -0.0434     10.3990     25.6482    107.9551
   672.7000      8.2015      2.4672     -0.0531     11.0786     25.5849    104.6881
   672.8000      8.2016      2.4705     -0.0668     10.8767     25.4647     97.8239
   672.9000      8.2016      2.4784      0.0151     10.3973     25.5188     88.6998
   673.0000      8.2030      2.4799     -0.0417     10.3074     25.7836     82.1593
   673.1000      8.2030      2.4875     -0.0325      9.8501     26.1733     79.5819
   673.2000      8.2030      2.5051     -0.0142      8.7806     26.4163     80.5294
   673.3000      8.2033      2.5237     -0.0158      7.6533     26.1696     84.4659
   673.4000      8.2033      2.5433     -0.0038      6.4676     25.8718     90.7903
   673.5000      8.2089      2.5620      0.0520      5.3328     26.1198     98.3311
   673.6000      8.2089      2.5710      0.0258      4.7857     26.4698    103.3546
   673.7000      8.2089      2.5692      0.0276      4.8982     26.3945    103.8748
   673.8000      8.2029      2.5577      0.0077      5.5936     26.2965    102.0600
   673.9000      8.2029      2.5364     -0.0125      6.8869     26.5293     99.0905
   674.0000      8.1991      2.5112     -0.0461      8.4093     26.7061     93.8159
   674.1000      8.1991      2.4930     -0.0453      9.5125     26.3689     88.4681
   674.2000      8.1991      2.4866     -0.0364      9.9043     25.8068     87.3804
   674.3000      8.1947      2.4898     -0.0422      9.7075     25.6620     87.7724
   674.4000      8.1947      2.5060     -0.0653      8.7274     25.9852     84.6477
   674.5000      8.2011      2.5345     -0.0073      7.0027     26.2779     81.1985
   674.6000      8.2011      2.5612     -0.0180      5.3798     26.1358     82.8138
   674.7000      8.2011      2.5780      0.0262      4.3659     25.5299     88.5391
   674.8000      8.2009      2.5843      0.0413      3.9791     24.7623     93.2707
   674.9000      8.2009      2.5817      0.0094      4.1407     24.3554     95.8121
   675.0000      8.2018      2.5696      0.0285      4.8727     24.7870     98.3075
   675.1000      8.2018      2.5547     -0.0286      5.7739     25.8969     99.9415
   675.2000      8.2018      2.5536     -0.0298      5.8444     27.1254     98.9290
   675.3000      8.1998      2.5636      0.0186      5.2363     28.2975     95.5944
   675.4000      8.1998      2.5683     -0.0062      4.9495     28.5387     89.7055
   675.5000      8.1986      2.5693      0.0102      4.8917     27.4064     82.6279
   675.6000      8.1986      2.5754     -0.0028      4.5218     26.3780     80.2840
   675.7000      8.1986      2.5779      0.0312      4.3689     25.8885     85.8418
   675.8000      8.1929      2.5591      0.0043      5.5104     25.6609     93.4934
   675.9000      8.1929      2.5259     -0.0423      7.5219     26.4715     96.1600
   676.0000      8.1988      2.5060     -0.0301      8.7244     28.0657     94.5370
   676.1000      8.1988      2.5103     -0.0249      8.4678     28.5667     93.1295
   676.2000      8.1988      2.5251     -0.0118      7.5714     27.3619     92.8203
   676.3000      8.2006      2.5347      0.0121      6.9867     25.8955     91.8868
   676.4000      8.2006      2.5390     -0.0290      6.7289     25.2470     91.4367
   676.5000      8.1957      2.5478     -0.0109      6.1946     25.0677     93.6836
   676.6000      8.1957      2.5579      0.0314      5.5789     24.8395     95.6329
   676.7000      8.1957      2.5583      0.0007      5.5559     24.8662     95.8012
   676.8000      8.1889      2.5504     -0.0186      6.0360     25.5570     96.4912
   676.9000      8.1889      2.5393     -0.0347      6.7103     26.5147     96.3025
   677.0000      8.1773      2.5255     -0.0385      7.5435     26.6133     95.0095
   677.1000      8.1773      2.5095     -0.0452      8.5174     25.7358     96.7415
   677.2000      8.1773      2.4972     -0.0742      9.2605     25.3942    101.4357
   677.3000      8.1551      2.5026     -0.0572      8.9350     26.1310    105.0416
   677.4000      8.1551      2.5259      0.0035      7.5221     27.0404    108.0132
   677.5000      8.1485      2.5481     -0.0107      6.1749     27.6334    109.8530
