~Version Information
VERS.                      2.0: CWLS Log ASCII Standard - VERSION 2.0
WRAP.                       NO: One line per depth step
~Well Information Block
STRT.FT               768.0000: 
STOP.FT              2635.5000: 
STEP.FT                 0.1000: 
NULL.                -999.2500: 
COMP.          Pioneer Natural Resources: COMPANY
WELL.               Zink 44-10: WELL
FLD.           Purgatoire River: FIELD
LOC.           548' FSL & 473' FEL: LOCATION
PROV.                 Colorado: PROVINCE
CNTY.               Las Animas: COUNTRY
SRVC.                Patterson: SERVICE COMPANY
DATE.          Tue May 31 07:05:25 2005: LOG DATE
UWI.           05 071 08380 00: UNIQUE WELL ID
~Curve Information Block
DEPT.FT            0 000 00 00: Depth
DCAL.in                       : CDL Caliper
RHOB.g/cc                     : CDL Bulk Density
RHOC.g/cc                     : CDL Density Correction
DPOR.pu                       : CDL Density Porosity
GR.GAPI                       : Gamma Ray
NPOR.pu                       : Neutron Porosity
~Parameter Information Block
~A  Depth       DCAL        RHOB        RHOC        DPOR         GR         NPOR    
# ...
  2620.8000      7.8254      2.6418      0.0629      0.4981   -999.2500     39.2963
  2620.9000      7.8254      2.6498      0.0493      0.0094   -999.2500     47.4721
  2621.0000      7.8230      2.6401      0.1083      0.5971   -999.2500     50.3972
  2621.1000      7.8230      2.6141      0.0998      2.1755   -999.2500     50.9682
  2621.2000      7.8230      2.5927      0.0400      3.4757   -999.2500     51.0287
  2621.3000      7.8299      2.5924      0.1123      3.4929   -999.2500     51.0321
  2621.4000      7.8299      2.5971      0.1347      3.2072   -999.2500   -999.2500
  2621.5000      7.8051      2.5963      0.0523      3.2573   -999.2500   -999.2500
  2621.6000      7.8051      2.6004      0.0519      3.0075   -999.2500   -999.2500
  2621.7000      7.8051      2.6126      0.0701      2.2665   -999.2500   -999.2500
  2621.8000      7.7860      2.6350      0.0671      0.9100   -999.2500   -999.2500
  2621.9000      7.7860      2.6705      0.0804     -1.2436   -999.2500   -999.2500
  2622.0000      7.8189      2.7032      0.1648     -3.2271   -999.2500   -999.2500
  2622.1000      7.8189      2.7067      0.2147     -3.4389   -999.2500   -999.2500
  2622.2000      7.8189      2.6806      0.1375     -1.8527   -999.2500   -999.2500
  2622.3000      7.8203      2.6500      0.0869     -0.0002   -999.2500   -999.2500
  2622.4000      7.8203      2.6267      0.0897      1.4137   -999.2500   -999.2500
  2622.5000      7.7437      2.6052      0.0447      2.7164   -999.2500   -999.2500
  2622.6000      7.7437      2.5853      0.0377      3.9186   -999.2500   -999.2500
  2622.7000      7.7437      2.5740      0.0088      4.6031   -999.2500   -999.2500
  2622.8000      7.7581      2.5788     -0.0007      4.3153   -999.2500   -999.2500
  2622.9000      7.7581      2.5981     -0.0173      3.1460   -999.2500   -999.2500
  2623.0000      7.8290      2.6164      0.0648      2.0382   -999.2500   -999.2500
  2623.1000      7.8290      2.6230      0.0371      1.6358   -999.2500   -999.2500
  2623.2000      7.8290      2.6267      0.1007      1.4113   -999.2500   -999.2500
  2623.3000      7.8431      2.6318      0.0512      1.1019   -999.2500   -999.2500
  2623.4000      7.8431      2.6243      0.1412      1.5595   -999.2500   -999.2500
  2623.5000      7.8390      2.5923      0.0941      3.4972   -999.2500   -999.2500
  2623.6000      7.8390      2.5583      0.0461      5.5570   -999.2500   -999.2500
  2623.7000      7.8390      2.5562      0.0735      5.6856   -999.2500   -999.2500
  2623.8000      7.8147      2.5881      0.0396      3.7497   -999.2500   -999.2500
  2623.9000      7.8147      2.6256      0.0828      1.4781   -999.2500   -999.2500
  2624.0000      7.7918      2.6451      0.0518      0.2977   -999.2500   -999.2500
  2624.1000      7.7918      2.6506      0.1197     -0.0340   -999.2500   -999.2500
  2624.2000      7.7918      2.6486      0.0911      0.0862   -999.2500   -999.2500
  2624.3000      7.7708      2.6370      0.1443      0.7877   -999.2500   -999.2500
  2624.4000      7.7708      2.6142      0.1531      2.1676   -999.2500   -999.2500
  2624.5000      7.7420      2.5890      0.0671      3.6994   -999.2500   -999.2500
  2624.6000      7.7420      2.5815      0.0548      4.1545   -999.2500   -999.2500
  2624.7000      7.7420      2.5931      0.1072      3.4506   -999.2500   -999.2500
  2624.8000      7.6994      2.6075      0.0996      2.5746   -999.2500   -999.2500
  2624.9000      7.6994      2.6190      0.0682      1.8801   -999.2500   -999.2500
  2625.0000      7.7799      2.6254      0.0644      1.4903   -999.2500   -999.2500
  2625.1000      7.7799      2.6263      0.0879      1.4374   -999.2500   -999.2500
  2625.2000      7.7799      2.6322      0.0992      1.0806   -999.2500   -999.2500
  2625.3000      7.8284      2.6558      0.1013     -0.3524   -999.2500   -999.2500
  2625.4000      7.8284      2.6865      0.2008     -2.2105   -999.2500   -999.2500
  2625.5000      7.8370      2.6927      0.1678     -2.5864   -999.2500   -999.2500
  2625.6000      7.8370      2.6715      0.0903     -1.3001   -999.2500   -999.2500
  2625.7000      7.8370      2.6482      0.1181      0.1118   -999.2500   -999.2500
  2625.8000      7.7970      2.6223      0.1098      1.6770   -999.2500   -999.2500
  2625.9000      7.7970      2.5882      0.0504      3.7467   -999.2500   -999.2500
  2626.0000      7.7713      2.5661      0.0713      5.0838   -999.2500   -999.2500
  2626.1000      7.7713      2.5703      0.0788      4.8294   -999.2500   -999.2500
  2626.2000      7.7713      2.5910      0.0772      3.5773   -999.2500   -999.2500
  2626.3000      7.7709      2.6018      0.0817      2.9220   -999.2500   -999.2500
  2626.4000      7.7709      2.5844      0.1345      3.9763   -999.2500   -999.2500
  2626.5000      7.7747      2.5543      0.0718      5.7995   -999.2500   -999.2500
  2626.6000      7.7747      2.5365      0.1113      6.8810   -999.2500   -999.2500
  2626.7000      7.7747      2.5269      0.0930      7.4609   -999.2500   -999.2500
  2626.8000      7.7580      2.5215      0.0624      7.7899   -999.2500   -999.2500
  2626.9000      7.7580      2.5344      0.0656      7.0041   -999.2500   -999.2500
  2627.0000      7.8090      2.5641      0.0836      5.2080   -999.2500   -999.2500
  2627.1000      7.8090      2.5852      0.1051      3.9275   -999.2500   -999.2500
  2627.2000      7.8090      2.5838      0.0681      4.0105   -999.2500   -999.2500
  2627.3000      7.7987      2.5825      0.0374      4.0880   -999.2500   -999.2500
  2627.4000      7.7987      2.6079      0.1298      2.5487   -999.2500   -999.2500
  2627.5000      7.7876      2.6551      0.1197     -0.3081   -999.2500   -999.2500
  2627.6000      7.7876      2.7009      0.1376     -3.0878   -999.2500   -999.2500
  2627.7000      7.7876      2.7181      0.1459     -4.1281   -999.2500   -999.2500
  2627.8000      7.7478      2.6939      0.1144     -2.6607   -999.2500   -999.2500
  2627.9000      7.7478      2.6557      0.0557     -0.3473   -999.2500   -999.2500
  2628.0000      7.7365      2.6404      0.0317      0.5793   -999.2500   -999.2500
  2628.1000      7.7365      2.6549      0.0474     -0.2985   -999.2500   -999.2500
  2628.2000      7.7365      2.6785      0.1174     -1.7256   -999.2500   -999.2500
  2628.3000      7.7888      2.6851      0.1426     -2.1261   -999.2500   -999.2500
  2628.4000      7.7888      2.6679      0.1191     -1.0824   -999.2500   -999.2500
  2628.5000      7.8178      2.6422      0.0702      0.4703   -999.2500   -999.2500
  2628.6000      7.8178      2.6265      0.0484      1.4256   -999.2500   -999.2500
  2628.7000      7.8178      2.6171      0.1167      1.9922   -999.2500   -999.2500
  2628.8000      7.8188      2.6022      0.0667      2.8979   -999.2500   -999.2500
  2628.9000      7.8188      2.5950      0.0289      3.3303   -999.2500   -999.2500
  2629.0000      7.8050      2.6065      0.0815      2.6381   -999.2500   -999.2500
  2629.1000      7.8050      2.6192      0.0836      1.8687   -999.2500   -999.2500
  2629.2000      7.8050      2.6173      0.0643      1.9844   -999.2500   -999.2500
  2629.3000      7.8074      2.6043      0.0638      2.7696   -999.2500   -999.2500
  2629.4000      7.8074      2.5885      0.0734      3.7301   -999.2500   -999.2500
  2629.5000      7.8022      2.5707      0.0334      4.8070   -999.2500   -999.2500
  2629.6000      7.8022      2.5527      0.0274      5.8944   -999.2500   -999.2500
  2629.7000      7.8022      2.5335      0.0582      7.0604   -999.2500   -999.2500
  2629.8000      7.8034      2.5152      0.0032      8.1691   -999.2500   -999.2500
  2629.9000      7.8034      2.5109      0.0679      8.4309   -999.2500   -999.2500
  2630.0000      7.8186      2.5240      0.0737      7.6339   -999.2500   -999.2500
  2630.1000      7.8186      2.5475      0.0670      6.2100   -999.2500   -999.2500
  2630.2000      7.8186      2.5702      0.1307      4.8337   -999.2500   -999.2500
  2630.3000      7.7246      2.5816      0.1186      4.1429   -999.2500   -999.2500
