~Version Information
VERS.                      2.0: CWLS Log ASCII Standard - VERSION 2.0
WRAP.                       NO: One line per depth step
~Well Information Block
STRT.FT                 0.0000: 
STOP.FT              2234.2500: 
STEP.FT                 0.2500: 
NULL.                -999.2500: 
COMP.          Pioner Natural Resources: COMPANY
WELL.          Casablanca 11-28 Tr: WELL
FLD.           Purgatoire River: FIELD
LOC.           422' FNL & 215' FWL--: LOCATION
PROV.                 Colorado: PROVINCE
CNTY.               Las Animas: COUNTRY
SRVC.                         : SERVICE COMPANY
DATE.          Fri Mar 11 13:02:46 2005: LOG DATE
UWI.           005 071 08314  : UNIQUE WELL ID
~Curve Information Block
DEPT.FT            0 000 00 00: Depth
CCL.                          : Casing Collar Locator
TT3.usec                      : CBL 3' Travel Time
AMP3.mV                       : CBL 3' Amplitude
AMP5.mV                       : CBL 5' Amplitude
GR.GAPI                       : Gamma Ray
~Parameter Information Block
~A  Depth       CCL         TT3         AMP3        AMP5         GR     
# ...
  1904.0000      0.0000    672.6945      4.3396     -0.9187    165.9407
  1904.2500      0.0000    681.3547      4.3646     -1.0927    166.7480
  1904.5000      0.0000    695.0894      4.4080     -1.3539    162.6818
  1904.7500      0.0000    710.6981      4.4431     -0.9187    155.0501
  1905.0000      0.0000    724.4084      4.4496     -1.0927    146.8127
  1905.2500      0.0000    733.5814      4.4256     -1.1798    140.8661
  1905.5000      0.0000    737.5659      4.3872     -2.2244    139.0928
  1905.7500      0.0000    737.1405      4.3569     -1.6150    141.9235
  1906.0000      0.0000    733.3725      4.3503     -0.7446    147.9571
  1906.2500      0.0000    727.2706      4.3712     -1.7891    154.2952
  1906.5000      0.0000    720.1939      4.4095     -1.2668    157.9956
  1906.7500      0.0000    714.1140      4.4414     -1.7021    157.5972
  1907.0000      0.0000    711.3929      4.4396     -1.7021    153.3129
  1907.2500      0.0000    713.9279      4.3980     -0.9187    146.0789
  1907.5000      0.0000    721.8002      4.3428     -1.0057    136.9516
  1907.7500      0.0000    732.4904      4.3122     -1.1798    127.3220
  1908.0000      0.0000    741.5698      4.3221     -0.5705    118.8560
  1908.2500      0.0000    744.7966      4.3527     -1.5280    112.6861
  1908.5000      0.0000    740.5425      4.3649     -1.0927    108.8177
  1908.7500      0.0000    730.4786      4.3312     -1.5280    106.3895
  1909.0000      0.0000    717.7541      4.2658     -1.5280    104.3272
  1909.2500      0.0000    704.8810      4.2286     -1.4409    101.9204
  1909.5000      0.0000    693.3670      4.2893     -1.1798     99.0736
  1909.7500      0.0000    684.0721      4.4733     -1.7891     95.9508
  1910.0000      0.0000    677.0869      4.7424     -1.5280     92.2766
  1910.2500      0.0000    672.0781      5.0265     -1.8762     87.3912
  1910.5000      0.0000    669.1835      5.2657     -1.7021     81.3107
  1910.7500      0.0000    668.9298      5.4151     -1.7891     75.4620
  1911.0000      0.0000    671.0545      5.4304     -2.0503     71.9982
  1911.2500      0.0000    673.9500      5.2850     -1.7021     72.4458
  1911.5000      0.0000    675.5243      5.0093     -2.0503     77.1572
  1911.7500      0.0000    674.7119      4.6883     -1.8762     85.8673
  1912.0000      0.0000    672.5760      4.4077     -1.0927     98.1766
  1912.2500      0.0000    672.0596      4.2068     -0.9187    113.0042
  1912.5000      0.0000    675.8793      4.0782     -0.4834    127.7236
  1912.7500      0.0000    684.0316      3.9975     -0.5705    138.5365
  1913.0000      0.0000    693.6450      3.9477     -0.9187    142.3827
  1913.2500      0.0000    701.4705      3.9265     -0.1352    138.8992
  1913.5000      0.0000    706.1646      3.9390     -1.0927    130.9298
  1913.7500      0.0000    708.2994      3.9848     -0.7446    123.1991
  1914.0000      0.0000    709.0295      4.0497     -1.1798    119.6957
  1914.2500      0.0000    709.1766      4.1090     -1.1798    121.3492
  1914.5000      0.0000    709.1071      4.1393     -0.9187    125.9960
  1914.7500      0.0000    708.9061      4.1313     -1.0927    130.6688
  1915.0000      0.0000    708.3802      4.0954     -1.2668    133.6890
  1915.2500      0.0000    706.9110      4.0584     -0.8316    134.7437
  1915.5000      0.0000    703.2246      4.0514     -1.3539    133.7776
  1915.7500      0.0000    695.6550      4.0937     -0.4834    130.3342
  1916.0000      0.0000    683.4654      4.1827     -1.1798    124.1216
  1916.2500      0.0000    668.6661      4.3000     -1.1798    116.2881
  1916.5000      0.0000    656.2231      4.4269     -1.0057    109.5537
  1916.7500      0.0000    651.4794      4.5486     -1.0927    106.3346
  1917.0000      0.0000    656.5787      4.6479     -0.9187    106.8239
  1917.2500      0.0000    668.8687      4.7045     -1.3539    109.1161
  1917.5000      0.0000    682.5781      4.7071     -1.2668    110.8774
  1917.7500      0.0000    692.4185      4.6646     -0.7446    110.8355
  1918.0000      0.0000    696.1830      4.6044     -0.6575    109.2458
  1918.2500      0.0000    694.4924      4.5576     -1.1798    107.3136
  1918.5000      0.0000    688.9484      4.5403     -1.3539    106.1748
  1918.7500      0.0000    681.3061      4.5459     -1.1798    106.2601
  1919.0000      0.0000    674.1270      4.5564     -2.0503    107.3104
  1919.2500      0.0000    670.3481      4.5614     -1.5280    108.8112
  1919.5000      0.0000    670.4014      4.5663     -1.6150    110.5712
  1919.7500      0.0000    670.2189      4.5820     -1.7021    112.8867
  1920.0000      0.0000    663.8842      4.6094     -1.7891    115.7123
  1920.2500      0.0000    649.4852      4.6373     -1.8762    117.6331
  1920.5000      0.0000    632.5784      4.6531     -1.6150    116.3897
  1920.7500      0.0000    622.8176      4.6518      8.3083    111.0069
  1921.0000      0.0000    625.4316      4.6346     -1.0927    103.1342
  1921.2500      0.0000    636.1763      4.6020     -1.6150     95.8690
  1921.5000      0.0000    645.2436      4.5498     -1.8762     91.3673
  1921.7500      0.0000    645.3243      4.4698     -1.5280     89.7078
  1922.0000      0.0000    636.6238      4.3571     -1.2668     89.5963
  1922.2500      0.0000    626.8257      4.2213     -1.0057     89.6787
  1922.5000      0.0000    626.0918      4.0923     -0.6575     89.3620
  1922.7500      0.0000    638.9481      4.0067     -1.7891     88.9674
  1923.0000      0.0000    660.1687      3.9802     -1.1798     89.6011
  1923.2500      0.0000    679.5299      3.9948     -1.3539     92.6047
  1923.5000      0.0000    690.0371      4.0194     -1.2668     98.3603
  1923.7500      0.0000    691.4789      4.0387     -1.8762    105.4406
  1924.0000      0.0000    688.4349      4.0582     -0.7446    111.3861
  1924.2500      0.0000    686.0315      4.0883     -1.3539    114.4624
  1924.5000      0.0000    685.9649      4.1297     -1.3539    114.6259
  1924.7500      0.0000    685.2294      4.1712     -0.9187    113.1839
  1925.0000      0.0000    679.0319      4.1995     -1.2668    111.7628
  1925.2500      0.0000    665.5119      4.2087     -1.2668    111.1757
  1925.5000      0.0000    647.6887      4.2022     -1.0057    110.8574
  1925.7500      0.0000    631.1249      4.1857     -1.0057    109.5100
  1926.0000      0.0000    620.1304      4.1591      0.3000    106.3935
  1926.2500      0.0000    616.3066      4.1186     -0.6575    101.8770
  1926.5000      0.0000    619.8262      4.0671     -0.8316     96.8805
  1926.7500      0.0000    630.5882      4.0224     -1.0057     92.1305
  1927.0000      0.0000    647.3919      4.0107     -1.9632     87.9572
  1927.2500      0.0000    666.7641      4.0499     -1.0927     84.4504
  1927.5000      0.0000    684.0198      4.1380     -1.3539     81.6391
  1927.7500      0.0000    695.9855      4.2549     -1.0057     79.5688
  1928.0000      0.0000    702.4244      4.3745     -1.5280     78.3550
  1928.2500      0.0000    705.0303      4.4743     -0.7446     78.2820
  1928.5000      0.0000    705.6368      4.5403     -1.2668     79.7614
  1928.7500      0.0000    705.2817      4.5663     -0.8316     83.0309
  1929.0000      0.0000    704.1573      4.5511     -1.3539     87.8964
  1929.2500      0.0000    701.9374      4.4999     -1.1798     93.7356
  1929.5000      0.0000    698.4154      4.4279     -1.3539     99.6483
  1929.7500      0.0000    694.3278      4.3578     -1.2668    104.8382
  1930.0000      0.0000    691.4846      4.3073     -1.0927    109.0626
  1930.2500      0.0000    691.5388      4.2802     -1.0927    112.5016
  1930.5000      0.0000    694.4457      4.2730     -1.7021    115.0999
  1930.7500      0.0000    698.4166      4.2887     -0.7446    116.3491
  1931.0000      0.0000    701.3452      4.3423     -1.1798    115.7474
  1931.2500      0.0000    701.9073      4.4502     -1.3539    113.1571
  1931.5000      0.0000    699.6602      4.6064     -1.0927    108.7734
  1931.7500      0.0000    695.1907      4.7601     -1.4409    103.1686
