~Version Information
VERS.                      2.0: CWLS Log ASCII Standard - VERSION 2.0
WRAP.                       NO: One line per depth step
~Well Information Block
STRT.FT               492.8000: 
STOP.FT              1992.0000: 
STEP.FT                 0.1000: 
NULL.                -999.2500: 
COMP.          Petrogulf Corporation: COMPANY
WELL.               Furu 6-23R: WELL
FLD.           Purgatoire River: FIELD
LOC.           2211' FSL & 1780' FWL--: LOCATION
CNTY.               Las Animas: COUNTY
SRVC.                Patterson: SERVICE COMPANY
DATE.          Thu Jun 22 14:21:35 2006: LOG DATE
UWI.           05 071 08266 00: UNIQUE WELL ID
STAT.                 Colorado: STATE
~Curve Information Block
DEPT.FT            0 000 00 00: Depth
DCAL.in                       : CDL Caliper
RHOB.g/cc                     : CDL Bulk Density
RHOC.g/cc                     : CDL Density Correction
DPOR.pu                       : CDL Density Porosity
NPOR.pu                       : Neutron Porosity
GR.GAPI                       : Gamma Ray
~Parameter Information Block
~A  Depth       DCAL        RHOB        RHOC        DPOR        NPOR         GR     
# ...
  1376.0000      8.1171      2.6046      0.0332      2.7485     27.6191    116.2048
  1376.1000      8.1171      2.5926      0.0129      3.4778     27.4692    114.3220
  1376.2000      8.1171      2.5962      0.0130      3.2581     27.4582    113.4627
  1376.3000      8.1151      2.6150      0.0515      2.1238     27.3284    110.5785
  1376.4000      8.1151      2.6337      0.0519      0.9864     27.3752    106.3602
  1376.5000      8.1099      2.6363      0.0909      0.8331     27.7988    105.3164
  1376.6000      8.1099      2.6148      0.0867      2.1325     28.2856    106.4979
  1376.7000      8.1099      2.5769      0.0396      4.4299     28.6056    107.4057
  1376.8000      8.1039      2.5450      0.0341      6.3637     28.6003    112.4183
  1376.9000      8.1039      2.5355      0.0059      6.9408     28.1197    123.3003
  1377.0000      8.0975      2.5491      0.0197      6.1149     27.3859    135.3364
  1377.1000      8.0975      2.5770      0.0279      4.4266     27.1246    141.1161
  1377.2000      8.0975      2.6018      0.0848      2.9218     27.5648    138.2125
  1377.3000      8.0903      2.6098      0.0374      2.4336     28.0097    133.1196
  1377.4000      8.0903      2.6114      0.0437      2.3401     27.9993    131.5042
  1377.5000      8.0864      2.6224      0.0695      1.6748     27.7933    134.3053
  1377.6000      8.0864      2.6385      0.0858      0.6980     27.5702    138.7196
  1377.7000      8.0864      2.6425      0.0971      0.4559     27.3169    138.3210
  1377.8000      8.0853      2.6373      0.0200      0.7679     27.3123    131.2138
  1377.9000      8.0853      2.6474      0.0367      0.1551     27.5730    123.1503
  1378.0000      8.0872      2.6759      0.0718     -1.5676     27.7184    120.4013
  1378.1000      8.0872      2.7049      0.0614     -3.3287     27.6620    122.4547
  1378.2000      8.0872      2.7216      0.0690     -4.3379     27.6040    123.6513
  1378.3000      8.0906      2.7189      0.0635     -4.1779     27.3695    121.7035
  1378.4000      8.0906      2.6975      0.0618     -2.8777     26.8377    120.0621
  1378.5000      8.0910      2.6667      0.0637     -1.0134     26.4165    119.9481
  1378.6000      8.0910      2.6419     -0.0147      0.4909     26.3160    118.6725
  1378.7000      8.0910      2.6355      0.0156      0.8764     26.4037    118.9345
  1378.8000      8.0891      2.6500     -0.0115      0.0007     26.2182    124.6133
  1378.9000      8.0891      2.6794      0.0322     -1.7809     25.3647    129.5437
  1379.0000      8.0859      2.6966      0.0800     -2.8267     24.3820    126.1398
  1379.1000      8.0859      2.6785      0.0617     -1.7263     23.7451    117.5039
  1379.2000      8.0859      2.6511      0.0068     -0.0641     23.0905    111.5778
  1379.3000      8.0835      2.6504      0.0168     -0.0259     22.6637    109.3723
  1379.4000      8.0835      2.6648      0.0746     -0.8990     23.0193    106.8878
  1379.5000      8.0841      2.6696      0.0100     -1.1896     23.4176    101.5442
  1379.6000      8.0841      2.6682      0.0382     -1.1031     22.8555     94.4485
  1379.7000      8.0841      2.6665      0.0277     -1.0011     21.5316     87.2082
  1379.8000      8.0884      2.6511      0.0847     -0.0684     20.1452     79.7619
  1379.9000      8.0884      2.6081      0.0388      2.5400     19.4211     73.5619
  1380.0000      8.0931      2.5601     -0.0192      5.4499     19.6933     70.7019
  1380.1000      8.0931      2.5354      0.0105      6.9483     20.1878     70.0758
  1380.2000      8.0931      2.5264      0.0125      7.4891     20.2040     69.1004
  1380.3000      8.0933      2.5259     -0.0287      7.5188     20.2989     67.1852
  1380.4000      8.0933      2.5369      0.0014      6.8554     21.0599     67.1682
  1380.5000      8.0926      2.5506      0.0312      6.0269     22.0826     72.2234
  1380.6000      8.0926      2.5497      0.0829      6.0808     23.0544     80.3814
  1380.7000      8.0926      2.5202      0.0325      7.8666     24.4585     85.4977
  1380.8000      8.0959      2.4712      0.0095     10.8370     26.2879     83.8199
  1380.9000      8.0959      2.4274     -0.0173     13.4912     27.8253     79.3501
  1381.0000      8.0994      2.3943      0.0020     15.4967     28.9957     79.5798
  1381.1000      8.0994      2.3521      0.0356     18.0531     30.4740     86.9604
  1381.2000      8.0994      2.2859      0.0295     22.0672     32.1584     95.8662
  1381.3000      8.1025      2.2061     -0.0058     26.9029     33.1462    100.4855
  1381.4000      8.1025      2.1365     -0.0223     31.1237     33.4737    101.4715
  1381.5000      8.1059      2.0970      0.0005     33.5176     34.0260    101.9330
  1381.6000      8.1059      2.0941      0.0567     33.6885     34.7867    101.9500
  1381.7000      8.1059      2.1104      0.1039     32.7056     34.9582    102.1311
  1381.8000      8.1057      2.1209      0.1191     32.0659     34.5560    104.6637
  1381.9000      8.1057      2.1220      0.1126     31.9984     34.2240    109.2728
  1382.0000      8.1018      2.1235      0.1213     31.9100     34.0158    112.7220
  1382.1000      8.1018      2.1271      0.1594     31.6914     33.5021    112.2265
  1382.2000      8.1018      2.1316      0.0939     31.4171     32.7865    110.0750
  1382.3000      8.0999      2.1492      0.0841     30.3510     32.3687    111.8643
  1382.4000      8.0999      2.1843      0.1227     28.2268     32.4713    119.2593
  1382.5000      8.0997      2.2136      0.1988     26.4459     32.8705    127.3088
  1382.6000      8.0997      2.2176      0.1530     26.2050     32.9628    130.4825
  1382.7000      8.0997      2.2085      0.1104     26.7577     32.7467    127.9134
  1382.8000      8.0985      2.2060      0.1389     26.9065     32.8989    123.0457
  1382.9000      8.0985      2.2154      0.0890     26.3383     33.2669    119.6922
  1383.0000      8.0958      2.2362      0.0656     25.0767     33.0529    118.6231
  1383.1000      8.0958      2.2607      0.0769     23.5968     32.4771    119.2434
  1383.2000      8.0958      2.2794      0.0266     22.4580     32.2743    121.1331
  1383.3000      8.0879      2.2959      0.0283     21.4592     32.1307    122.7874
  1383.4000      8.0879      2.3144      0.0915     20.3379     31.8644    123.5314
  1383.5000      8.0689      2.3367      0.0651     18.9854     31.9420    124.0301
  1383.6000      8.0689      2.3690      0.0448     17.0324     32.1647    122.4910
  1383.7000      8.0689      2.4058      0.1055     14.7985     32.1189    119.2019
  1383.8000      8.0481      2.4300      0.1355     13.3363     31.8713    123.9250
  1383.9000      8.0481      2.4443      0.1302     12.4653     31.4148    137.4755
  1384.0000      8.0389      2.4713      0.1704     10.8304     30.6963    145.8154
  1384.1000      8.0389      2.5131      0.2018      8.2997     30.0306    144.9734
  1384.2000      8.0389      2.5481      0.1466      6.1755     29.5316    143.8196
  1384.3000      8.0362      2.5630      0.1345      5.2738     28.5389    145.4505
  1384.4000      8.0362      2.5630      0.1102      5.2717     26.9251    145.0297
  1384.5000      8.0342      2.5620      0.0791      5.3363     25.4774    141.6495
  1384.6000      8.0342      2.5693      0.0690      4.8883     24.4381    136.9326
  1384.7000      8.0342      2.5866      0.0545      3.8427     23.6941    134.8409
  1384.8000      8.0334      2.6059      0.1207      2.6742     23.5335    132.6766
  1384.9000      8.0334      2.6121      0.1088      2.2983     23.7502    123.9153
  1385.0000      8.0349      2.6042      0.0541      2.7746     23.7306    113.3121
  1385.1000      8.0349      2.5986      0.0388      3.1139     23.3750    105.3510
  1385.2000      8.0349      2.5993      0.0328      3.0717     22.8337     99.4494
  1385.3000      8.0367      2.5921      0.0301      3.5063     22.4759     97.2195
  1385.4000      8.0367      2.5720      0.0349      4.7255     22.7430     98.6434
  1385.5000      8.0361      2.5582     -0.0161      5.5627     23.1433    102.8289
