~Version Information
VERS.                      2.0: CWLS Log ASCII Standard - VERSION 2.0
WRAP.                       NO: One line per depth step
~Well Information Block
STRT.FT                10.0000: 
STOP.FT              1066.5000: 
STEP.FT                 0.2500: 
NULL.                -999.2500: 
COMP.          Pioneer Natural Resources: COMPANY
WELL.            Redland 23-24: WELL
FLD.           Purgatoire River: FIELD
LOC.           2356' FSL & 1880' FWL----: LOCATION
PROV.                 Colorado: PROVINCE
CNTY.               Las Animas: COUNTRY
SRVC.                         : SERVICE COMPANY
DATE.          Thu Mar 24 10:01:02 2005: LOG DATE
UWI.           05 071 08221   : UNIQUE WELL ID
~Curve Information Block
DEPT.FT            0 000 00 00: Depth
CCL.                          : Casing Collar Locator
TT3.usec                      : CBL 3' Travel Time
AMP3.mV                       : CBL 3' Amplitude
AMP5.mV                       : CBL 5' Amplitude
GR.GAPI                       : Gamma Ray
~Parameter Information Block
~A  Depth       CCL         TT3         AMP3        AMP5         GR     
# ...
   430.0000      0.0000    773.7961      3.9109      1.5187    113.3135
   430.2500      0.0000    772.6660      3.7436      1.4316    112.6759
   430.5000      0.0000    780.6883      3.6029      1.3446    110.1634
   430.7500      0.0000    789.3530      3.4824      1.5187    105.6288
   431.0000      0.0000    794.0063      3.3765      1.3446    100.3428
   431.2500      0.0000    795.0217      3.2937      1.5187     96.6224
   431.5000      0.0000    795.8741      3.2511      1.3446     95.7298
   431.7500      0.0000    800.9388      3.2634      1.6057     96.8196
   432.0000      0.0000    813.1700      3.3347      1.4316     98.3758
   432.2500      0.0000    831.9620      3.4523      1.8668    100.0942
   432.5000      0.0000    853.0454      3.5887      1.4316    102.6831
   432.7500      0.0000    871.1326      3.7181      1.7798    106.0989
   433.0000      0.0000    883.1934      3.8374      1.6927    108.8246
   433.2500      0.0000    889.5406      3.9695      2.2150    109.3051
   433.5000      0.0000    892.4102      4.1392      2.1280    107.7610
   433.7500      0.0000    893.7830      4.3419      1.3446    106.2368
   434.0000      0.0000    893.8924      4.5356      1.7798    106.8959
   434.2500      0.0000    890.5095      4.6667      1.7798    110.3044
   434.5000      0.0000    879.6330      4.7060      1.1705    115.1252
   434.7500      0.0000    858.2452      4.6634      1.6057    119.2094
   435.0000      0.0000    827.5204      4.5730      2.3021    121.1487
   435.2500      0.0000    792.7112      4.4714      1.8668    121.2342
   435.5000      0.0000    759.3231      4.3889      2.3891    120.9808
   435.7500      0.0000    730.1747      4.3535      2.7373    121.4866
   436.0000      0.0000    706.2583      4.3899      1.9539    122.2899
   436.2500      0.0000    689.0605      4.5069      2.7373    122.0704
   436.5000      0.0000    681.7543      4.6916      3.2596    120.3572
   436.7500      0.0000    688.7775      4.9240      3.4337    118.1151
   437.0000      0.0000    713.3747      5.1955      2.7373    116.3759
   437.2500      0.0000    753.5521      5.5094      3.3466    114.6483
   437.5000      0.0000    800.1696      5.8718      2.9984    111.2682
   437.7500      0.0000    840.6464      6.2832      3.7819    105.3402
   438.0000      0.0000    865.3893      6.7260      3.1725     97.9242
   438.2500      0.0000    869.9447      7.1543      3.7819     91.2620
   438.5000      0.0000    852.5300      7.5056      4.2171     87.0834
   438.7500      0.0000    814.2628      7.7355      4.0430     85.6540
   439.0000      0.0000    765.1813      7.8385      4.1301     86.1759
   439.2500      0.0000    726.4574      7.8293      3.6078     87.7809
   439.5000      0.0000    718.8237      7.7165      3.5207     90.0463
   439.7500      0.0000    745.5968      7.5057      3.6948     92.8180
   440.0000      0.0000    789.8864      7.2176      2.9984     95.8812
   440.2500      0.0000    829.4938      6.8860      3.2596     98.9044
   440.5000      0.0000    852.5624      6.5456      3.5207    101.4251
   440.7500      0.0000    860.5715      6.2276      3.5207    102.7102
   441.0000      0.0000    861.4136      5.9606      3.3466    101.9279
   441.2500      0.0000    861.4067      5.7643      2.4762     98.8692
   441.5000      0.0000    861.0850      5.6420      2.7373     94.4015
   441.7500      0.0000    855.7800      5.5804      2.5632     89.9500
   442.0000      0.0000    840.4155      5.5492      2.2150     86.5684
   442.2500      0.0000    815.9193      5.4965      1.2575     84.5593
   442.5000      0.0000    791.7856      5.3634      1.9539     83.8114
   442.7500      0.0000    780.4575      5.1306      2.0409     84.1999
   443.0000      0.0000    787.4151      4.8555      2.0409     85.3849
   443.2500      0.0000    806.9898      4.6417      2.3021     86.1966
   443.5000      0.0000    828.2273      4.5599      2.8244     84.7345
   443.7500      0.0000    843.7153      4.5965      2.5632     79.9339
   444.0000      0.0000    852.3403      4.6823      2.7373     73.3282
   444.2500      0.0000    856.1412      4.7639      3.1725     68.5205
   444.5000      0.0000    856.9464      4.8417      2.9984     68.2659
   444.7500      0.0000    855.1505      4.9479      3.6078     72.2449
   445.0000      0.0000    849.4056      5.1050      2.7373     77.8959
   445.2500      0.0000    836.5645      5.3134      3.7819     83.0800
   445.5000      0.0000    812.3256      5.5714      4.0430     87.6410
   445.7500      0.0000    774.5422      5.8929      4.4782     92.6036
   446.0000      0.0000    727.7461      6.2912      4.6523     98.3229
   446.2500      0.0000    682.4985      6.7414      2.7373    103.8524
   446.5000      0.0000    648.5884      7.1607      4.1301    108.0723
   446.7500      0.0000    630.6960      7.4334      2.9984    110.8443
   447.0000      0.0000    630.5403      7.4707      3.6948    112.9381
   447.2500      0.0000    648.4116      7.2680      3.6078    115.2983
   447.5000      0.0000    681.1642      6.9088      2.7373    118.3108
   447.7500      0.0000    723.0022      6.5107      4.3041    121.2247
   448.0000      0.0000    768.8995      6.1576      3.9560    122.2467
   448.2500      0.0000    814.2072      5.8704      3.3466    119.6502
   448.5000      0.0000    852.7938      5.6234      3.1725    113.1986
   448.7500      0.0000    879.5232      5.3796      2.7373    104.7027
   449.0000      0.0000    893.4854      5.1173      3.0855     97.1907
   449.2500      0.0000    896.3112      4.8431      2.7373     93.2027
   449.5000      0.0000    887.1912      4.5924      3.0855     93.3673
   449.7500      0.0000    860.4305      4.4138      2.4762     96.2863
   450.0000      0.0000    809.0899      4.3345      2.4762     99.7385
   450.2500      0.0000    733.3597      4.3350      2.1280    101.9913
   450.5000      0.0000    645.7889      4.3660      2.4762    102.0633
   450.7500      0.0000    565.6125      4.3941      2.3891     99.5075
   451.0000      0.0000    506.5291      4.4249      1.9539     94.8715
   451.2500      0.0000    470.5164      4.4798      3.2596     90.1037
   451.5000      0.0000    451.7115      4.5587      2.6503     87.4278
   451.7500      0.0000    443.1428      4.6300      2.9114     87.6315
   452.0000      0.0000    440.0551      4.6582      3.6948     89.8564
   452.2500      0.0000    440.0989      4.6376      4.0430     92.7565
   452.5000      0.0000    442.5815      4.5899      4.2171     95.3265
   452.7500      0.0000    447.5132      4.5304      5.9580     96.8629
   453.0000      0.0000    454.5234      4.4573      5.4358     96.8394
   453.2500      0.0000    462.2985      4.3825      6.5674     95.1686
   453.5000      0.0000    469.0762      4.3492      6.7415     92.3201
   453.7500      0.0000    473.7358      4.3998      7.3508     88.9400
   454.0000      0.0000    476.2800      4.5306      7.1767     85.6359
   454.2500      0.0000    477.3727      4.6885      8.0472     83.3419
   454.5000      0.0000    477.7161      4.8149      7.2637     83.3104
   454.7500      0.0000    477.8844      4.8920      8.2213     86.0165
   455.0000      0.0000    478.4787      4.9466      8.3083     90.1308
   455.2500      0.0000    480.1548      5.0066      7.6990     93.1679
   455.5000      0.0000    483.3484      5.0637      7.8731     93.5831
   455.7500      0.0000    487.9637      5.0901      8.1342     92.2843
   456.0000      0.0000    493.4373      5.0870      9.0917     91.9027
   456.2500      0.0000    499.1237      5.1020      9.4399     94.5113
   456.5000      0.0000    504.5655      5.1948     10.2233     99.9534
   456.7500      0.0000    509.5534      5.3829     10.0492    106.0986
   457.0000      0.0000    514.3611      5.6086     10.3974    110.5790
   457.2500      0.0000    519.8112      5.7499      6.6544    112.5763
   457.5000      0.0000    526.5106      5.6880      8.5694    113.2166
   457.7500      0.0000    533.8053      5.3956      8.4824    114.2909
