~Version Information
VERS.                      2.0: CWLS Log ASCII Standard - VERSION 2.0
WRAP.                       NO: One line per depth step
~Well Information Block
STRT.FT               758.7500: 
STOP.FT              2420.7500: 
STEP.FT                 0.2500: 
NULL.                -999.2500: 
COMP.          Petrogulf Corporation: COMPANY
WELL.            Montoya 7-21V: WELL
FLD.           Purgatorie River: FIELD
LOC.           738' FSL & 2070' FWL: LOCATION
CNTY.               Las Animas: COUNTY
SRVC.                         : SERVICE COMPANY
DATE.          Fri Aug 20 07:13:07 2004: LOG DATE
UWI.           05 071 08018 00: UNIQUE WELL ID
STAT.                 Colorado: STATE
~Curve Information Block
DEPT.FT            0 000 00 00: Depth
SP.mV                         : DIL Spontaneous Potential
RILD.Ohm-m                    : DIL Deep Resistivity
RILM.Ohm-m                    : DIL Medium Resistivity
RLL3.Ohm-m                    : DIL Shallow Resistivity
GR.GAPI                       : Gamma Ray
~Parameter Information Block
~A  Depth        SP         RILD        RILM        RLL3         GR     
# ...
  2074.7500      7.2425     21.4839     21.1235     25.2283     81.0098
  2075.0000      7.1835     21.7272     21.2544     24.7379     80.6557
  2075.2500      7.1524     21.9259     21.4111     24.4973     79.5406
  2075.5000      7.1583     22.0779     21.6053     24.4891     77.0287
  2075.7500      7.2091     22.1844     21.8422     24.7194     75.3034
  2076.0000      7.3099     22.2502     22.1182     25.2567     73.1682
  2076.2500      7.4622     22.2812     22.4205     26.2346     72.1659
  2076.5000      7.6624     22.2798     22.7268     27.8131     71.4480
  2076.7500      7.9026     22.2412     23.0072     30.0981     71.3825
  2077.0000      8.1716     22.1543     23.2277     33.0205     71.0451
  2077.2500      8.4564     22.0086     23.3554     36.2230     70.1347
  2077.5000      8.7454     21.8021     23.3648     39.0505     67.8506
  2077.7500      9.0286     21.5461     23.2425     40.7366     66.3916
  2078.0000      9.2990     21.2608     22.9900     40.7386     65.5354
  2078.2500      9.5511     20.9655     22.6225     39.0151     66.1347
  2078.5000      9.7807     20.6702     22.1648     36.0360     68.4472
  2078.7500      9.9836     20.3725     21.6455     32.5200     70.6094
  2079.0000     10.1560     20.0625     21.0925     29.1054     74.7183
  2079.2500     10.2949     19.7308     20.5300     26.1658     78.1906
  2079.5000     10.3999     19.3741     19.9771     23.8175     84.1409
  2079.7500     10.4732     18.9982     19.4483     22.0199     87.7926
  2080.0000     10.5201     18.6168     18.9547     20.6680     91.4555
  2080.2500     10.5481     18.2494     18.5052     19.6447     92.7355
  2080.5000     10.5655     17.9177     18.1074     18.8540     94.4007
  2080.7500     10.5794     17.6423     17.7675     18.2469     96.1146
  2081.0000     10.5943     17.4387     17.4909     17.8290     99.4473
  2081.2500     10.6112     17.3147     17.2815     17.6362    101.4475
  2081.5000     10.6273     17.2717     17.1419     17.6936    103.0124
  2081.7500     10.6371     17.3060     17.0728     17.9862    102.9214
  2082.0000     10.6342     17.4134     17.0736     18.4639    101.3778
  2082.2500     10.6121     17.5905     17.1425     19.0714     99.6289
  2082.5000     10.5662     17.8354     17.2765     19.7737     96.2153
  2082.7500     10.4935     18.1462     17.4722     20.5588     93.7189
  2083.0000     10.3938     18.5198     17.7250     21.4213     90.4540
  2083.2500     10.2698     18.9521     18.0292     22.3467     88.8605
  2083.5000     10.1269     19.4382     18.3781     23.3042     86.9214
  2083.7500      9.9729     19.9733     18.7635     24.2492     85.4816
  2084.0000      9.8168     20.5530     19.1758     25.1294     82.9232
  2084.2500      9.6666     21.1720     19.6050     25.8961     81.2402
  2084.5000      9.5274     21.8232     20.0413     26.5177     79.1523
  2084.7500      9.4003     22.4952     20.4760     26.9879     77.9705
  2085.0000      9.2815     23.1716     20.9028     27.3190     76.1474
  2085.2500      9.1632     23.8306     21.3177     27.5294     74.8396
  2085.5000      9.0353     24.4454     21.7197     27.6403     72.8896
  2085.7500      8.8870     24.9893     22.1103     27.6892     71.6502
  2086.0000      8.7089     25.4406     22.4925     27.7433     69.9572
  2086.2500      8.4946     25.7886     22.8696     27.8934     69.1439
  2086.5000      8.2417     26.0350     23.2436     28.2226     68.8219
  2086.7500      7.9524     26.1869     23.6126     28.7670     69.1990
  2087.0000      7.6339     26.2474     23.9695     29.4925     70.1959
  2087.2500      7.2988     26.2070     24.2992     30.3047     70.8334
  2087.5000      6.9658     26.0403     24.5772     31.0845     71.2057
  2087.7500      6.6596     25.7093     24.7686     31.7287     70.7516
  2088.0000      6.4107     25.1709     24.8286     32.1763     68.9614
  2088.2500      6.2547     24.3889     24.7056     32.4424     67.4456
  2088.5000      6.2291     23.3526     24.3478     32.6801     65.7142
  2088.7500      6.3703     22.0934     23.7149     33.2438     65.2991
  2089.0000      6.7080     20.6882     22.7923     34.6397     65.7039
  2089.2500      7.2592     19.2402     21.6030     37.2449     66.1488
  2089.5000      8.0234     17.8497     20.2108     40.8571     65.7311
  2089.7500      8.9787     16.5891     18.7091     44.4008     64.2552
  2090.0000     10.0818     15.4960     17.2006     46.1854     61.1612
  2090.2500     11.2717     14.5787     15.7756     44.7542     59.9401
  2090.5000     12.4775     13.8264     14.4993     39.8020     61.5577
  2090.7500     13.6279     13.2194     13.4079     32.4455     65.2337
  2091.0000     14.6621     12.7348     12.5142     24.6101     73.5633
  2091.2500     15.5372     12.3503     11.8141     18.0289     80.0251
  2091.5000     16.2333     12.0464     11.2941     13.5784     89.8085
  2091.7500     16.7523     11.8082     10.9369     11.2637     96.0993
  2092.0000     17.1140     11.6264     10.7243     10.6126    105.1535
  2092.2500     17.3488     11.4988     10.6392     11.0753    110.6499
  2092.5000     17.4902     11.4296     10.6668     12.2166    116.5994
  2092.7500     17.5684     11.4280     10.7949     13.7302    118.1358
  2093.0000     17.6061     11.5060     11.0136     15.3962    116.7961
  2093.2500     17.6168     11.6757     11.3153     17.0601    114.4011
  2093.5000     17.6049     11.9464     11.6940     18.6339    109.9742
  2093.7500     17.5667     12.3217     12.1441     20.0903    106.5185
  2094.0000     17.4931     12.7978     12.6595     21.4251    100.1458
  2094.2500     17.3710     13.3622     13.2321     22.6106     95.3351
  2094.5000     17.1865     13.9942     13.8503     23.5818     88.4867
  2094.7500     16.9268     14.6663     14.4984     24.2696     84.7520
  2095.0000     16.5825     15.3464     15.1559     24.6455     80.7175
  2095.2500     16.1500     15.9995     15.7980     24.7369     78.9954
  2095.5000     15.6330     16.5904     16.3983     24.6048     77.4070
  2095.7500     15.0431     17.0872     16.9315     24.3143     76.6557
  2096.0000     14.3989     17.4682     17.3776     23.9268     75.8064
  2096.2500     13.7239     17.7282     17.7252     23.5054     75.7646
  2096.5000     13.0416     17.8807     17.9724     23.1099     77.4543
  2096.7500     12.3710     17.9531     18.1266     22.7726     80.1339
  2097.0000     11.7215     17.9777     18.2017     22.4790     86.1871
  2097.2500     11.0910     17.9829     18.2158     22.1823     90.7316
  2097.5000     10.4658     17.9888     18.1875     21.8538     96.3217
  2097.7500      9.8239     18.0065     18.1341     21.5302     98.4096
  2098.0000      9.1418     18.0400     18.0704     21.3136     99.0246
  2098.2500      8.4012     18.0890     18.0080     21.3151     98.2597
  2098.5000      7.5957     18.1530     17.9556     21.5799     96.0968
  2098.7500      6.7357     18.2342     17.9196     22.0455     94.1924
  2099.0000      5.8480     18.3391     17.9057     22.5609     91.2619
  2099.2500      4.9727     18.4771     17.9196     22.9509     89.9373
  2099.5000      4.1554     18.6567     17.9680     23.0870     89.8261
  2099.7500      3.4387     18.8805     18.0596     22.9331     90.8287
  2100.0000      2.8549     19.1427     18.2040     22.5561     92.4894
  2100.2500      2.4216     19.4292     18.4123     22.1110     92.9247
  2100.5000      2.1414     19.7224     18.6950     21.8125     92.5962
  2100.7500      2.0043     20.0090     19.0625     21.8938     92.3130
  2101.0000      1.9922     20.2864     19.5229     22.5520     92.3473
  2101.2500      2.0832     20.5667     20.0830     23.8886     92.3039
  2101.5000      2.2555     20.8749     20.7470     25.8665     90.7594
  2101.7500      2.4893     21.2447     21.5169     28.3119     88.0807
  2102.0000      2.7684     21.7132     22.3928     30.9825     81.5451
  2102.2500      3.0802     22.3159     23.3723     33.6902     76.1657
  2102.5000      3.4153     23.0823     24.4496     36.4191     68.1599
