~Version Information
VERS.                      2.0: CWLS Log ASCII Standard - VERSION 2.0
WRAP.                       NO: One line per depth step
~Well Information Block
STRT.FT               780.0000: 
STOP.FT              3152.2000: 
STEP.FT                 0.1000: 
NULL.                -999.2500: 
COMP.          Pioneer Natural Resources: COMPANY
WELL.            Paradise 13-8: WELL
FLD.           Purgatoire River: FIELD
LOC.           1896' FSL & 1120' FWL: LOCATION
PROV.                 Colorado: PROVINCE
CNTY.               Las Animas: COUNTRY
SRVC.                Patterson: SERVICE COMPANY
DATE.          Sat Jan 22 20:51:32 2005: LOG DATE
UWI.           05 071 07946 00: UNIQUE WELL ID
~Curve Information Block
DEPT.FT            0 000 00 00: Depth
DCAL.in                       : CDL Caliper
RHOB.g/cc                     : CDL Bulk Density
RHOC.g/cc                     : CDL Density Correction
DPOR.pu                       : CDL Density Porosity
NPOR.pu                       : Neutron Porosity
GR.GAPI                       : Gamma Ray
~Parameter Information Block
~A  Depth       DCAL        RHOB        RHOC        DPOR        NPOR         GR     
   780.0000      8.0079      2.3584     -0.3030     17.6739     40.7585     46.3172
   780.1000      8.0079      2.3397     -0.3108     18.8070     40.7094     50.1704
   780.2000      8.0079      2.3451     -0.3369     18.4779     40.4003     49.0763
   780.3000      8.0086      2.3878     -0.2772     15.8905     40.3757     44.6754
   780.4000      8.0086      2.4297     -0.1346     13.3533     40.5407     42.3669
   780.5000      8.0098      2.4320     -0.2696     13.2121     40.5435     41.6700
   780.6000      8.0098      2.4149     -0.2643     14.2464     40.4832     40.0691
   780.7000      8.0098      2.4021     -0.2300     15.0222     40.7796     38.9136
   780.8000      8.0119      2.3917     -0.2764     15.6563     41.7296     39.8908
   780.9000      8.0119      2.3852     -0.2494     16.0500     42.7383     42.6126
   781.0000      8.0138      2.3843     -0.2625     16.1048     43.0085     45.3299
   781.1000      8.0138      2.3887     -0.2567     15.8392     42.5706     45.2499
   781.2000      8.0138      2.3966     -0.1978     15.3554     41.9604     43.5620
   781.3000      8.0144      2.4017     -0.2088     15.0501     41.5720     43.9023
   781.4000      8.0144      2.4031     -0.2283     14.9640     41.7181     45.7832
   781.5000      8.0118      2.4074     -0.2023     14.7060     42.3861     48.0453
   781.6000      8.0118      2.4116     -0.1702     14.4495     42.8567     49.8504
   781.7000      8.0118      2.4006     -0.1842     15.1143     42.6511     49.0286
   781.8000      8.0095      2.3765     -0.2333     16.5747     42.1399     46.9242
   781.9000      8.0095      2.3683     -0.2530     17.0740     41.8593     46.3020
   782.0000      8.0093      2.3898     -0.2222     15.7669     41.9211     46.8072
   782.1000      8.0093      2.4177     -0.1937     14.0761     42.2011     46.4927
   782.2000      8.0093      2.4303     -0.1931     13.3173     42.2591     44.6374
   782.3000      8.0092      2.4354     -0.1969     13.0049     41.8113     42.8405
   782.4000      8.0092      2.4414     -0.1596     12.6420     41.3406     42.4954
   782.5000      8.0087      2.4388     -0.1778     12.8025     41.3099     43.4390
   782.6000      8.0087      2.4315     -0.2330     13.2414     41.5616     44.8871
   782.7000      8.0087      2.4327     -0.1661     13.1688     41.8377     45.7128
   782.8000      8.0080      2.4345     -0.1606     13.0614     41.9600     46.0606
   782.9000      8.0080      2.4226     -0.1911     13.7808     41.7213     47.1867
   783.0000      8.0078      2.3967     -0.2207     15.3511     41.0823     46.2309
   783.1000      8.0078      2.3728     -0.2433     16.7990     40.2697     41.7263
   783.2000      8.0078      2.3687     -0.2484     17.0477     39.8098     38.7320
   783.3000      8.0082      2.3808     -0.2141     16.3176     39.9901     40.9043
   783.4000      8.0082      2.3898     -0.2181     15.7707     40.3737     45.1537
   783.5000      8.0082      2.3882     -0.2267     15.8665     40.6325     46.9165
   783.6000      8.0082      2.3849     -0.2161     16.0650     40.7354     47.6003
   783.7000      8.0082      2.3879     -0.2044     15.8858     40.5356     49.7382
   783.8000      8.0082      2.3966     -0.2032     15.3561     40.2339     50.3257
   783.9000      8.0082      2.4118     -0.2113     14.4375     39.9819     47.7091
   784.0000      8.0092      2.4335     -0.1483     13.1232     39.5739     46.0114
   784.1000      8.0092      2.4515     -0.1752     12.0324     39.3348     45.8539
   784.2000      8.0092      2.4553     -0.1844     11.8024     39.4246     45.1237
   784.3000      8.0087      2.4451     -0.2038     12.4199     39.4031     46.5004
   784.4000      8.0087      2.4375     -0.2549     12.8773     39.3338     51.1033
   784.5000      8.0063      2.4458     -0.1951     12.3773     39.6602     54.0574
   784.6000      8.0063      2.4576     -0.2576     11.6634     40.2409     52.6460
   784.7000      8.0063      2.4548     -0.2133     11.8330     40.4398     49.6905
   784.8000      8.0057      2.4329     -0.2577     13.1561     40.0619     47.6812
   784.9000      8.0057      2.4056     -0.2737     14.8134     39.5060     46.4218
   785.0000      8.0083      2.3871     -0.2649     15.9358     39.0397     45.0535
   785.1000      8.0083      2.3803     -0.2880     16.3464     38.8409     44.9433
   785.2000      8.0083      2.3905     -0.3018     15.7271     39.1671     45.8287
   785.3000      8.0107      2.4235     -0.2815     13.7289     39.7673     44.5424
   785.4000      8.0107      2.4649     -0.2202     11.2189     39.9410     41.3557
   785.5000      8.0108      2.4976     -0.2218      9.2378     39.5636     39.6171
   785.6000      8.0108      2.5261     -0.2299      7.5073     39.1277     40.7323
   785.7000      8.0108      2.5495     -0.1900      6.0891     39.0315     42.6542
   785.8000      8.0107      2.5493     -0.1692      6.1031     39.2919     41.7784
   785.9000      8.0107      2.5173     -0.2103      8.0400     39.6559     39.1952
   786.0000      8.0118      2.4676     -0.2432     11.0560     39.9119     39.5706
   786.1000      8.0118      2.4280     -0.2902     13.4565     40.0894     43.5011
   786.2000      8.0118      2.4099     -0.2895     14.5522     40.2403     47.7761
   786.3000      8.0141      2.3934     -0.2554     15.5528     40.2925     49.1403
   786.4000      8.0141      2.3598     -0.2820     17.5896     40.1900     46.4607
   786.5000      8.0171      2.3239     -0.4055     19.7612     40.0503     42.2969
   786.6000      8.0171      2.3138     -0.3440     20.3753     40.0054     38.9883
   786.7000      8.0171      2.3246     -0.3039     19.7232     39.9547     36.8908
   786.8000      8.0237      2.3345     -0.3268     19.1187     40.0094     36.6605
   786.9000      8.0237      2.3438     -0.3772     18.5572     40.3467     38.9085
   787.0000      8.0283      2.3614     -0.3117     17.4895     40.5968     42.2475
   787.1000      8.0283      2.3932     -0.3386     15.5657     40.5195     45.4013
   787.2000      8.0283      2.4388     -0.2485     12.8002     40.6628     47.8934
   787.3000      8.0220      2.4755     -0.1913     10.5736     41.4612     47.5499
   787.4000      8.0220      2.4880     -0.2358      9.8196     42.3798     44.9637
   787.5000      8.0155      2.4914     -0.1904      9.6138     42.5612     42.5858
   787.6000      8.0155      2.5022     -0.2721      8.9597     41.9544     40.4065
   787.7000      8.0155      2.5084     -0.1795      8.5830     41.3589     39.1679
   787.8000      8.0136      2.4868     -0.2264      9.8934     41.3778     39.5000
   787.9000      8.0136      2.4540     -0.2632     11.8778     41.8034     40.6764
   788.0000      8.0138      2.4470     -0.2803     12.3018     41.9340     43.2883
   788.1000      8.0138      2.4676     -0.1940     11.0542     41.5375     47.0925
   788.2000      8.0138      2.4910     -0.1823      9.6342     40.8705     51.3828
   788.3000      8.0144      2.5044     -0.1755      8.8258     40.2792     58.5363
   788.4000      8.0144      2.5032     -0.1831      8.9000     40.1138     68.5325
   788.5000      8.0123      2.4830     -0.2352     10.1212     40.3115     77.1664
   788.6000      8.0123      2.4498     -0.2359     12.1362     40.3953     81.9945
   788.7000      8.0123      2.4204     -0.2660     13.9152     40.0912     81.7981
   788.8000      8.0101      2.4100     -0.2879     14.5473     39.7769     77.3061
   788.9000      8.0101      2.4093     -0.2547     14.5909     39.9188     71.4258
   789.0000      8.0111      2.3975     -0.2825     15.3030     40.3123     65.9835
   789.1000      8.0111      2.3781     -0.2875     16.4792     40.5020     61.6083
   789.2000      8.0111      2.3731     -0.3313     16.7813     40.4820     58.7252
   789.3000      8.0133      2.3975     -0.3156     15.3001     40.3969     56.9219
   789.4000      8.0133      2.4417     -0.2460     12.6259     40.0787     54.6098
   789.5000      8.0147      2.4766     -0.1907     10.5102     39.7457     52.4686
