~Version Information
VERS.                      2.0: CWLS Log ASCII Standard - VERSION 2.0
WRAP.                       NO: One line per depth step
~Well Information Block
STRT.FT               -16.0000: 
STOP.FT              2454.2500: 
STEP.FT                 0.2500: 
NULL.                -999.2500: 
COMP.                         : COMPANY
WELL.                         : WELL
FLD.                          : FIELD
LOC.                          : LOCATION
CNTY.                         : COUNTY
SRVC.                         : SERVICE COMPANY
DATE.          Tue Aug 31 08:09:44 2004: LOG DATE
UWI.                          : UNIQUE WELL ID
STAT.                         : STATE
~Curve Information Block
DEPT.FT            0 000 00 00: Depth
GR.GAPI                       : Gamma Ray
CCL.                          : Casing Collar Locator
TT3.usec                      : CBL 3' Travel Time
AMP3.mV                       : CBL 3' Amplitude
~Parameter Information Block
~A  Depth        GR         CCL         TT3         AMP3    
# ...
   620.5000     26.3184      0.0000    334.4341     39.8560
   620.7500     26.0123      0.0000    332.1588     38.9489
   621.0000     27.0056      0.0000    327.6173     38.9509
   621.2500     29.2550      5.0000    324.3932     39.2347
   621.5000     32.4935      0.0000    323.1443     39.3916
   621.7500     36.2194      0.0000    323.1637     39.3046
   622.0000     39.8576      0.0000    324.6289     38.7741
   622.2500     43.2005      0.0000    328.3898     37.7989
   622.5000     46.7043      0.0000    333.3068     37.4609
   622.7500     51.0389      0.0000    334.7885     39.4128
   623.0000     56.1360      0.0000    329.9275     43.4406
   623.2500     60.9701      0.0000    322.1959     47.8052
   623.5000     64.5131      0.0000    316.5631     52.0083
   623.7500     66.6042      0.0000    314.0565     55.9829
   624.0000     67.6090      0.0000    313.2632     58.7472
   624.2500     67.6028      0.0000    313.0573     59.9122
   624.5000     66.4325      0.0000    313.0169     60.1595
   624.7500     64.4752      0.0000    313.0381     60.1253
   625.0000     62.6994      0.0000    313.1171     60.0283
   625.2500     61.7069      0.0000    313.2500     59.9365
   625.5000     61.1498      0.0000    313.3829     59.8867
   625.7500     60.4358      0.0000    313.4620     59.8672
   626.0000     59.6673      0.0000    313.4857     59.8228
   626.2500     59.4786      0.0000    313.4695     59.7310
   626.5000     60.1279      0.0000    313.4189     59.6966
   626.7500     61.1232      0.0000    313.3594     59.8690
   627.0000     61.8062      0.0000    313.3310     60.1998
   627.2500     62.0037      0.0000    313.3107     60.4405
   627.5000     61.8874      0.0000    313.2577     60.4520
   627.7500     61.4740      0.0000    313.2273     60.3205
   628.0000     60.6847      0.0000    313.2850     60.1677
   628.2500     59.7309      0.0000    313.3829     60.0399
   628.5000     58.9832      0.0000    313.4270     59.9502
   628.7500     58.5181      0.0000    313.3754     59.8886
   629.0000     58.1958      0.0000    313.2490     59.8221
   629.2500     58.1968      0.0000    313.1169     59.7855
   629.5000     59.1037      0.0000    313.0371     59.9451
   629.7500     61.2367      0.0000    313.0087     60.4355
   630.0000     64.0615      0.0000    313.0087     61.0717
   630.2500     66.4160      0.0000    313.0371     61.4011
   630.5000     67.2787      0.0000    313.1169     61.2052
   630.7500     66.2934      0.0000    313.2491     60.7583
   631.0000     63.8337      0.0000    313.3763     60.4376
   631.2500     60.8165      0.0000    313.4336     60.3364
   631.5000     58.3020      0.0000    313.4123     60.3479
   631.7500     56.9744      0.0000    313.3660     60.3946
   632.0000     56.9814      0.0000    313.3669     60.4880
   632.2500     58.2453      0.0000    313.4199     60.6606
   632.5000     60.7169      0.0000    313.4696     60.9135
   632.7500     64.1783      0.0000    313.4857     61.1847
   633.0000     67.8234      0.0000    313.4620     61.3181
   633.2500     70.2135      0.0000    313.3829     61.1745
   633.5000     70.0179      0.0000    313.2501     60.8261
   633.7500     67.1374      0.0000    313.1180     60.5128
   634.0000     63.0823      0.0000    313.0447     60.4034
   634.2500     60.0647      0.0000    313.0447     60.5036
   634.5000     59.6088      0.0000    313.1180     60.7317
   634.7500     61.8309      0.0000    313.2491     60.9797
   635.0000     65.6353      0.0000    313.3753     61.1542
   635.2500     69.3249      0.0000    313.4260     61.2329
   635.5000     71.2784      0.0000    313.3763     61.2460
   635.7500     70.6086      0.0000    313.2567     61.2153
   636.0000     67.6292      0.0000    313.1540     61.1689
   636.2500     63.7562      0.0000    313.1541     61.1671
   636.5000     60.5792      0.0000    313.2578     61.2471
   636.7500     58.6878      0.0000    313.3849     61.3808
   637.0000     57.5825      0.0000    313.4696     61.5227
   637.2500     56.8555      0.0000    313.5206     61.6633
   637.5000     56.9488      0.0000    313.5714     61.8140
   637.7500     58.4587      0.0000    313.5969     61.9642
   638.0000     61.1255      0.0000    313.5237     62.0870
   638.2500     63.8465      0.0000    313.3670     62.1759
   638.5000     65.4657      0.0000    313.2633     62.2478
   638.7500     65.4950      0.0000    313.2927     62.3101
   639.0000     64.3204      0.0000    313.3849     62.3578
   639.2500     62.7788      0.0000    313.4348     62.4146
   639.5000     61.4673      0.0000    313.4124     62.5210
   639.7500     60.5800      0.0000    313.3660     62.6616
   640.0000     60.3291      0.0000    313.3669     62.7686
   640.2500     61.0455      0.0000    313.4199     62.8009
   640.5000     62.6732      0.0000    313.4697     62.7741
   640.7500     64.4584      0.0000    313.4867     62.7301
   641.0000     65.3184      0.0000    313.4697     62.7009
   641.2500     64.4206      0.0000    313.4199     62.7016
   641.5000     61.5804      0.0000    313.3670     62.7400
   641.7500     57.5161      0.0000    313.3670     62.8057
   642.0000     53.7411      0.0000    313.4200     62.8738
   642.2500     51.7361      0.0000    313.4707     62.9401
   642.5000     51.8392      0.0000    313.4943     63.0213
   642.7500     52.8983      0.0000    313.5057     63.1018
   643.0000     53.2039      0.0000    313.5293     63.1320
   643.2500     51.9874      0.0000    313.5800     63.1146
   643.5000     50.0376      0.0000    313.6330     63.1099
   643.7500     48.7632      0.0000    313.6330     63.1439
   644.0000     48.7875      0.0000    313.5801     63.1961
   644.2500     49.6768      0.0000    313.5303     63.2573
   644.5000     50.7703      0.0000    313.5133     63.3294
   644.7500     51.7622      0.0000    313.5303     63.3932
   645.0000     52.6216      0.0000    313.5801     63.4303
   645.2500     53.5250      0.0000    313.6330     63.4466
   645.5000     54.8043      0.0000    313.6330     63.4525
   645.7500     56.4214      0.0000    313.5801     63.4552
   646.0000     57.6363      0.0000    313.5303     63.4504
   646.2500     57.7755      0.0000    313.5133     63.4235
   646.5000     57.2479      0.0000    313.5303     63.3892
   646.7500     57.2125      0.0000    313.5801     63.3949
   647.0000     58.2395      0.0000    313.6330     63.4631
   647.2500     59.8191      0.0000    313.6330     63.5569
   647.5000     61.1668      0.0000    313.5801     63.6227
   647.7500     61.8778      0.0000    313.5303     63.6486
   648.0000     61.7302      0.0000    313.5133     63.6473
   648.2500     60.5222      0.0000    313.5303     63.6174
   648.5000     58.4323      0.0000    313.5801     63.5603
   648.7500     56.2601      0.0000    313.6330     63.4987
   649.0000     55.0481      0.0000    313.6329     63.4534
   649.2500     55.4072      0.0000    313.5790     63.4381
   649.5000     57.1328      0.0000    313.5227     63.4706
   649.7500     59.5439      0.0000    313.4773     63.5388
   650.0000     62.3043      0.0000    313.4210     63.5913
   650.2500     65.6760      0.0000    313.3670     63.5995
   650.5000     69.7604      0.0000    313.3661     63.5722
   650.7500     73.8445      0.0000    313.4134     63.5087
   651.0000     76.8683      0.0000    313.4413     63.4102
   651.2500     78.3580      0.0000    313.4134     63.3195
   651.5000     78.5150      0.0000    313.3661     63.2821
   651.7500     77.5982      0.0000    313.3670     63.2776
   652.0000     75.7873      0.0000    313.4210     63.2586
   652.2500     73.6116      0.0000    313.4773     63.2426
   652.5000     71.9356      0.0000    313.5227     63.2839
   652.7500     71.3332      0.0000    313.5790     63.3808
   653.0000     71.6410      0.0000    313.6329     63.4653
   653.2500     72.1009      0.0000    313.6330     63.4688
   653.5000     71.8692      0.0000    313.5801     63.3914
   653.7500     70.5597      0.0000    313.5303     63.2950
