~Version Information
VERS.                      2.0: CWLS Log ASCII Standard - VERSION 2.0
WRAP.                       NO: One line per depth step
~Well Information Block
STRT.FT                 6.5000: 
STOP.FT              1054.0000: 
STEP.FT                 0.2500: 
NULL.                -999.2500: 
COMP.          Pioneer Natural Resources: COMPANY
WELL.            Galileo 21-11: WELL
FLD.           Purgatoire River: FIELD
LOC.           407' FNL & 2394' FWL: LOCATION
PROV.                 Colorado: PROVINCE
CNTY.               Las Animas: COUNTRY
SRVC.                Patterson: SERVICE COMPANY
DATE.          Sat Apr 16 10:31:00 2005: LOG DATE
UWI.           05 071 08353 00: UNIQUE WELL ID
~Curve Information Block
DEPT.FT            0 000 00 00: Depth
GR.GAPI                       : Gamma Ray
CCL.                          : Casing Collar Locator
TT3.usec                      : CBL 3' Travel Time
AMP3.mV                       : CBL 3' Amplitude
~Parameter Information Block
~A  Depth        GR         CCL         TT3         AMP3    
     6.5000   -999.2500   -999.2500   -999.2500   -999.2500
     6.7500   -999.2500   -999.2500   -999.2500   -999.2500
     7.0000   -999.2500   -999.2500   -999.2500   -999.2500
     7.2500   -999.2500   -999.2500   -999.2500   -999.2500
     7.5000   -999.2500   -999.2500   -999.2500   -999.2500
     7.7500   -999.2500   -999.2500   1350.0000      1.0285
     8.0000   -999.2500   -999.2500   1350.0000      1.3323
     8.2500   -999.2500   -999.2500   1350.0000      1.7771
     8.5000   -999.2500   -999.2500   1350.0000      2.3119
     8.7500   -999.2500   -999.2500   1350.0000      2.8530
     9.0000   -999.2500   -999.2500   1350.0000      3.3398
     9.2500   -999.2500   -999.2500   1350.0000      3.7596
     9.5000   -999.2500   -999.2500   1350.0000      4.1261
     9.7500   -999.2500   -999.2500   1350.0000      4.4511
    10.0000   -999.2500   -999.2500   1350.0000      4.7408
    10.2500   -999.2500   -999.2500   1350.0000      5.0072
    10.5000   -999.2500   -999.2500   1350.0000      5.2709
    10.7500   -999.2500   -999.2500   1350.0000      5.5498
    11.0000   -999.2500   -999.2500   1349.9397      5.8462
    11.2500   -999.2500   -999.2500   1349.5465      6.1502
    11.5000   -999.2500   -999.2500   1347.5594      6.4547
    11.7500   -999.2500   -999.2500   1339.7153      6.7626
    12.0000   -999.2500   -999.2500   1315.6450      7.0787
    12.2500   -999.2500   -999.2500   1258.2290      7.3983
    12.5000   -999.2500   -999.2500   1151.8188      7.7073
    12.7500   -999.2500   -999.2500    998.5956      7.9966
    13.0000   -999.2500      0.0000    826.8666      8.2723
    13.2500   -999.2500      0.0000    676.0062      8.5485
    13.5000   -999.2500      0.0000    570.0692      8.8277
    13.7500   -999.2500      0.0000    507.9046      9.0886
    14.0000   -999.2500      0.0000    475.1326      9.2971
    14.2500   -999.2500      0.0000    458.6581      9.4326
    14.5000   -999.2500      0.0000    451.0150      9.5053
    14.7500   -999.2500      0.0000    448.7036      9.5455
    15.0000   -999.2500      0.0000    451.0287      9.5777
    15.2500   -999.2500      0.0000    459.9343      9.6052
    15.5000   -999.2500      0.0000    479.1827      9.6182
    15.7500   -999.2500      0.0000    512.6857      9.6145
    16.0000   -999.2500      0.0000    563.6478      9.6112
    16.2500   -999.2500      0.0000    634.5433      9.6323
    16.5000   -999.2500      0.0000    725.1780      9.6870
    16.7500   -999.2500      0.0000    829.3324      9.7631
    17.0000   -999.2500      0.0000    935.9999      9.8453
    17.2500   -999.2500      0.0000   1035.7252      9.9358
    17.5000   -999.2500      0.0000   1123.5872     10.0552
    17.7500   -999.2500      0.0000   1195.9843     10.2208
    18.0000   -999.2500      0.0000   1248.0750     10.4273
    18.2500   -999.2500      0.0000   1274.0006     10.6457
    18.5000   -999.2500      0.0000   1268.4211     10.8432
    18.7500     90.1612      0.0000   1232.3755     11.0041
    19.0000     94.4216      0.0000   1181.7699     11.1333
    19.2500     95.6004      0.0000   1144.6804     11.2436
    19.5000     93.2523      0.0000   1141.7610     11.3444
    19.7500     88.3838      0.0000   1167.7976     11.4408
    20.0000     82.8681      0.0000   1196.0513     11.5374
    20.2500     78.8681      0.0000   1200.9467     11.6331
    20.5000     77.8447      0.0000   1175.2383     11.7152
    20.7500     79.2793      0.0000   1126.0374     11.7646
    21.0000     80.5974      0.0000   1058.9543     11.7690
    21.2500     79.1981      0.0000    973.0609     11.7303
    21.5000     74.8740      0.0000    871.3880     11.6569
    21.7500     70.0803      0.0000    767.5794     11.5544
    22.0000     67.9827      0.0000    678.2479     11.4291
    22.2500     70.4486      0.0000    613.2581     11.2992
    22.5000     77.2564      0.0000    574.9127     11.1982
    22.7500     86.2836      0.0000    562.1193     11.1636
    23.0000     94.5336      0.0000    573.4183     11.2187
    23.2500     99.8758      0.0000    608.2137     11.3675
    23.5000    102.1076      0.0000    666.9989     11.6054
    23.7500    102.0510      0.0000    750.1689     11.9325
    24.0000     99.9679      0.0000    855.3886     12.3552
    24.2500     95.6101      0.0000    974.6107     12.8747
    24.5000     89.6069      0.0000   1093.5903     13.4759
    24.7500     83.7787      0.0000   1196.0443     14.1330
    25.0000     79.7256      0.0000   1270.6156     14.8327
    25.2500     77.6857      0.0000   1315.6044     15.5826
    25.5000     76.9454      0.0000   1337.7126     16.3874
    25.7500     76.8106      0.0000   1346.4376     17.2143
    26.0000     76.8827      0.0000   1349.1740     17.9896
    26.2500     76.8384      0.0000   1349.8512     18.6331
    26.5000     76.3744      0.0000   1349.9802     19.0966
    26.7500     75.4044      0.0000   1350.0000     19.3738
    27.0000     74.1830      0.0000   1350.0000     19.4770
    27.2500     73.2226      0.0000   1350.0000     19.4058
    27.5000     73.0257      0.0000   1349.9875     19.1453
    27.7500     73.7143      0.0000   1349.9060     18.6961
    28.0000     74.8079      0.0000   1349.4989     18.0919
    28.2500     75.4679      0.0000   1347.8752     17.3775
    28.5000     75.1551      0.0000   1342.8867     16.5812
    28.7500     74.1717      0.0000   1330.8617     15.7251
    29.0000     73.6282      0.0000   1307.9714     14.8629
    29.2500     74.9228      0.0000   1273.1760     14.0881
    29.5000     79.0664      0.0000   1230.2655     13.4924
    29.7500     86.0244      0.0000   1186.7660     13.1107
    30.0000     94.3529      0.0000   1149.7219     12.9030
    30.2500    101.7120      0.0000   1119.5330     12.7873
    30.5000    106.2063      0.0000   1086.3947     12.6928
    30.7500    107.4396      0.0000   1037.4447     12.5909
    31.0000    106.3330      0.0000    971.5980     12.4849
    31.2500    104.1995      0.0000    903.7894     12.3823
    31.5000    102.0925      0.0000    851.6411     12.2820
    31.7500    100.5962      0.0000    821.4713     12.1832
    32.0000     99.6414      0.0000    808.2027     12.0963
    32.2500     98.5416      0.0000    803.7143     12.0379
    32.5000     96.7260      0.0000    802.5374     12.0174
    32.7500     94.5158      0.0000    802.4332     12.0311
    33.0000     92.8140      0.0000    803.3972     12.0688
    33.2500     92.0282      0.0000    807.5656     12.1184
    33.5000     91.6697      0.0000    820.4244     12.1671
    33.7500     90.9798      0.0000    851.3109     12.2047
    34.0000     89.5686      0.0000    909.5903     12.2259
    34.2500     87.2729      0.0000    996.1776     12.2263
    34.5000     83.7663      0.0000   1097.3485     12.2004
    34.7500     78.9160      0.0000   1188.8353     12.1515
    35.0000     73.5397      0.0000   1246.9690     12.0987
    35.2500     69.2085      0.0000   1256.5096     12.0636
    35.5000     66.9629      0.0000   1213.3173     12.0490
    35.7500     66.4154      0.0000   1127.7495     12.0358
    36.0000     66.2047      0.0000   1026.7311     12.0032
    36.2500     65.1923      0.0000    946.1942     11.9517
    36.5000     63.1752      0.0000    915.7390     11.9073
    36.7500     60.6062      0.0000    946.6091     11.8976
    37.0000     57.8503      0.0000   1028.1658     11.9216
    37.2500     54.9174      0.0000   1132.3983     11.9462
    37.5000     51.9291      0.0000   1226.9783     11.9372
    37.7500     49.4479      0.0000   1291.0565     11.8905
    38.0000     48.0443      0.0000   1321.2444     11.8211
    38.2500     47.7390      0.0000   1325.2360     11.7158
    38.5000     48.1093      0.0000   1313.9843     11.5047
    38.7500     48.6961      0.0000   1299.4867     11.0879
    39.0000     49.0761      0.0000   1293.0363     10.4115
    39.2500     48.9105      0.0000   1299.7621      9.5364
    39.5000     48.3602      0.0000   1315.4719      8.6274
    39.7500     48.3403      0.0000   1331.5184      7.8497
