~Version Information
VERS.                      2.0: CWLS Log ASCII Standard - VERSION 2.0
WRAP.                       NO: One line per depth step
~Well Information Block
STRT.FT               350.0000: 
STOP.FT              2531.5000: 
STEP.FT                 0.1000: 
NULL.                -999.2500: 
COMP.          Pioneer Natural Resources: COMPANY
WELL.          Cock-a-doodle-doo: WELL
FLD.           Purgatoire River: FIELD
LOC.           163' FSL & 54' FEL: LOCATION
PROV.                 Colorado: PROVINCE
CNTY.               Las Animas: COUNTRY
SRVC.                Patterson: SERVICE COMPANY
DATE.          Fri Jul 01 09:34:59 2005: LOG DATE
UWI.           05 071 08429 00: UNIQUE WELL ID
~Curve Information Block
DEPT.FT            0 000 00 00: Depth
DCAL.in                       : CDL Caliper
RHOB.g/cc                     : CDL Bulk Density
RHOC.g/cc                     : CDL Density Correction
DPOR.pu                       : CDL Density Porosity
GR.GAPI                       : Gamma Ray
NPOR.pu                       : Neutron Porosity
~Parameter Information Block
~A  Depth       DCAL        RHOB        RHOC        DPOR         GR         NPOR    
# ...
  1358.0000      8.0142      2.5272      0.0328      7.4441     47.9777     18.1476
  1358.1000      8.0142      2.5388      0.0297      6.7392     52.0591     17.8221
  1358.2000      8.0142      2.5617      0.0837      5.3539     54.9350     17.1632
  1358.3000      8.0016      2.5741     -0.0139      4.6009     56.9533     16.4827
  1358.4000      8.0016      2.5818      0.0402      4.1341     56.5292     16.2562
  1358.5000      7.9949      2.5806      0.0457      4.2055     55.1940     16.5776
  1358.6000      7.9949      2.5608     -0.0082      5.4090     55.3955     16.9270
  1358.7000      7.9949      2.5437     -0.0105      6.4409     55.3744     17.0453
  1358.8000      8.0210      2.5579      0.0016      5.5790     53.3821     17.1850
  1358.9000      8.0210      2.5880      0.0582      3.7574     51.4908     17.4593
  1359.0000      8.0280      2.5968      0.0720      3.2250     50.3796     17.7264
  1359.1000      8.0280      2.5863      0.0218      3.8619     48.2018     18.0293
  1359.2000      8.0280      2.5837      0.0635      4.0175     46.6028     18.5999
  1359.3000      8.0287      2.5970      0.0670      3.2096     49.6651     19.1481
  1359.4000      8.0287      2.6156      0.0531      2.0860     56.0409     19.2209
  1359.5000      8.0241      2.6192      0.1055      1.8675     61.3661     19.1598
  1359.6000      8.0241      2.6007      0.0440      2.9887     65.1286     19.3515
  1359.7000      8.0241      2.5843      0.0638      3.9807     69.4035     19.5899
  1359.8000      8.0272      2.5902      0.0429      3.6247     72.0112     19.8491
  1359.9000      8.0272      2.6127      0.0623      2.2623     70.7189     20.3991
  1360.0000      8.0411      2.6380      0.0329      0.7299     70.3475     20.9722
  1360.1000      8.0411      2.6529      0.0478     -0.1752     74.6834     21.3209
  1360.2000      8.0411      2.6526      0.0370     -0.1566     79.2537     21.5866
  1360.3000      8.0852      2.6518      0.0331     -0.1064     80.5883     21.7736
  1360.4000      8.0852      2.6620      0.1033     -0.7270     82.1424     21.8285
  1360.5000      8.0502      2.6789      0.0712     -1.7486     85.6903     21.6944
  1360.6000      8.0502      2.6966      0.1384     -2.8219     89.4432     21.5751
  1360.7000      8.0502      2.7029      0.1540     -3.2051     93.5992     21.8576
  1360.8000      8.0186      2.6901      0.0901     -2.4295     98.5125     22.2742
  1360.9000      8.0186      2.6715      0.0772     -1.3049    103.8937     22.2939
  1361.0000      7.9860      2.6598      0.0573     -0.5920    109.0624     22.0667
  1361.1000      7.9860      2.6554      0.0717     -0.3269    113.0495     22.0988
  1361.2000      7.9860      2.6563      0.1039     -0.3800    116.3683     22.5173
  1361.3000      7.9763      2.6595      0.0705     -0.5730    117.2487     22.7951
  1361.4000      7.9763      2.6624      0.0890     -0.7507    113.6323     22.5972
  1361.5000      7.9871      2.6625      0.1223     -0.7576    110.1064     22.2283
  1361.6000      7.9871      2.6622      0.0822     -0.7374    112.4777     21.9926
  1361.7000      7.9871      2.6626      0.0866     -0.7640    118.7425     22.0086
  1361.8000      8.0071      2.6579      0.0933     -0.4768    123.2416     22.3398
  1361.9000      8.0071      2.6426      0.0874      0.4513    124.1015     22.9284
  1362.0000      7.9945      2.6127      0.1064      2.2630    124.9331     23.5528
  1362.1000      7.9945      2.5822     -0.0062      4.1093    128.2122     23.9025
  1362.2000      7.9945      2.5709      0.0408      4.7958    132.2664     23.9620
  1362.3000      8.0085      2.5734      0.0171      4.6448    132.9321     24.0384
  1362.4000      8.0085      2.5821      0.0163      4.1178    126.1328     24.2844
  1362.5000      8.0237      2.5976      0.0530      3.1741    117.0731     24.6237
  1362.6000      8.0237      2.6112      0.1179      2.3524    115.8931     25.0626
  1362.7000      8.0237      2.6155      0.0464      2.0882    122.4592     25.6239
  1362.8000      7.9947      2.6190      0.0813      1.8764    127.5145     25.9012
  1362.9000      7.9947      2.6266      0.0759      1.4162    127.0986     25.6908
  1363.0000      7.9856      2.6300      0.0671      1.2107    127.2435     25.7692
  1363.1000      7.9856      2.6249      0.0794      1.5203    130.7607     26.3322
  1363.2000      7.9856      2.6211      0.0657      1.7506    130.5933     26.5830
  1363.3000      7.9937      2.6246      0.0433      1.5419    122.0853     26.4869
  1363.4000      7.9937      2.6333      0.0868      1.0126    112.3494     26.5501
  1363.5000      7.9999      2.6520      0.0470     -0.1203    109.2410     26.8993
  1363.6000      7.9999      2.6796      0.0921     -1.7938    112.2084     27.4729
  1363.7000      7.9999      2.6966      0.1325     -2.8254    115.6892     27.9951
  1363.8000      8.0133      2.6928      0.0982     -2.5963    116.2969     28.1050
  1363.9000      8.0133      2.6781      0.1181     -1.7051    112.8520     27.7404
  1364.0000      8.0406      2.6533      0.0890     -0.2012    107.8736     27.1803
  1364.1000      8.0406      2.6071      0.0930      2.6000    108.2514     26.6817
  1364.2000      8.0406      2.5481      0.0089      6.1761    114.7163     26.4657
  1364.3000      8.0461      2.5100     -0.0009      8.4878    121.9250     26.6929
  1364.4000      8.0461      2.5108      0.0686      8.4351    126.6765     27.1071
  1364.5000      8.0452      2.5369      0.0103      6.8571    128.5717     27.3192
  1364.6000      8.0452      2.5632      0.0189      5.2590    129.7998     27.3019
  1364.7000      8.0452      2.5798      0.0414      4.2532    133.3491     27.2100
  1364.8000      8.0351      2.5911      0.0861      3.5724    139.3944     26.9798
  1364.9000      8.0351      2.5997      0.0949      3.0493    141.8540     26.6563
  1365.0000      8.0417      2.6047      0.1368      2.7473    135.5554     26.4794
  1365.1000      8.0417      2.6010      0.0864      2.9687    124.5169     26.5432
  1365.2000      8.0417      2.5848      0.1440      3.9531    115.3944     26.5865
  1365.3000      8.0175      2.5663      0.0154      5.0713    110.5997     26.4155
  1365.4000      8.0175      2.5659      0.0340      5.0960    108.8080     26.1152
  1365.5000      7.9972      2.5796      0.1004      4.2651    105.3775     25.8398
  1365.6000      7.9972      2.5879      0.1062      3.7637    100.5932     25.8355
  1365.7000      7.9972      2.5882      0.1060      3.7449     99.0262     26.2899
  1365.8000      8.0408      2.5902      0.0612      3.6249     97.5331     27.1563
  1365.9000      8.0408      2.5966      0.0490      3.2365     91.8646     28.0452
  1366.0000      8.0535      2.5906      0.0756      3.6011     84.9671     28.5095
  1366.1000      8.0535      2.5511      0.0550      5.9926     80.6738     28.4347
  1366.2000      8.0535      2.4920     -0.0031      9.5739     80.6177     27.9847
  1366.3000      8.0338      2.4590      0.0050     11.5728     81.6643     27.6028
  1366.4000      8.0338      2.4747      0.0436     10.6221     78.6117     27.7975
  1366.5000      8.0215      2.5227      0.0309      7.7151     75.4017     28.3264
  1366.6000      8.0215      2.5750      0.1226      4.5480     77.3966     28.4677
  1366.7000      8.0215      2.6076      0.1356      2.5716     81.4893     28.1752
  1366.8000      7.9731      2.6192      0.1476      1.8659     82.4158     27.7652
  1366.9000      7.9731      2.6301      0.1593      1.2032     80.5431     27.4680
  1367.0000      7.9771      2.6490      0.1938      0.0586     81.2101     27.7468
  1367.1000      7.9771      2.6668      0.1764     -1.0198     85.7127     28.5421
  1367.2000      7.9771      2.6861      0.1240     -2.1896     90.0531     28.9790
  1367.3000      7.9892      2.7128      0.1699     -3.8064     92.8444     28.6141
  1367.4000      7.9892      2.7205      0.1968     -4.2744     96.2959     27.9604
  1367.5000      7.9986      2.6921      0.0995     -2.5510    100.3207     27.5415
