~Version Information
 VERS.                2.0:  CWLS LOG ASCII STANDARD -VERSION 2.0
 WRAP.                 NO:  ONE LINE PER DEPTH STEP
~WELL INFORMATION BLOCK
#MNEM.UNIT       DATA		            DESCRIPTION OF MNEMONIC
#---------    -------------            ------------------------
 STRT.FT  0.500                          :START DEPTH
 STOP.FT  1812.700                       :STOP DEPTH
 STEP.FT  0.100                          :STEP    UP_HOLE  
 NULL.    -999.25                        :NULL VALUE
 COMP.              EL PASO PRODUCTIONS  :COMPANY
 WELL.                     COREHOLE #38  :WELL
 FLD .                 PURGATOIRE RIVER  :FIELD
 LOC .      15   35S   65W               :LOCATION
 CNTY.                           COLFAX  :COUNTY
 STAT.                     NM            :STATE
 CTRY.                                   :
 SRVC.     O'DRISCOLL                    :SERVICE COMPANY
 DATE.   04/28/05                        :LOG DATE
 API .                                   :API NUMBER
 LIC .                                   :LICENSE NUMBER
~Curve Information Block
#MNEM.UNIT      API CODE     Curve Description
#---------    -------------  ------------------------
 DEPT     .FT        00 001 00 00          :  1  DEPTH   
 GAMMA    .API-GR    00 310 00 00          :  2                GAMMA
 TEMP     .DEG F     00 660 00 00          :  3                 TEMP
 RES(16N) .OHM-M     00 040 00 00          :  4             RES(16N)
 RES(64N) .OHM-M     00 060 00 00          :  5             RES(64N)
 RES      .OHM       00 000 00 00          :  6                  RES
 LATERAL  .OHM-M     00 070 00 00          :  7              LATERAL
 NEUTRON  .API-N     00 000 00 00          :  8              NEUTRON
 POR(NEU) .PERCENT   00 330 00 00          :  9             POR(NEU)
 SANGB    .DEG       00 631 00 00          : 10                SANGB
 DEL_TEMP .DEG F     00 000 00 00          : 11             DEL_TEMP
 SANG     .DEG       00 620 00 00          : 12                 SANG
 SP       .MV        00 010 00 00          : 13                   SP
 TIME     .MINUTES   00 000 00 00          : 14                 TIME
~Parameter Information Block
#MNEM.UNIT   Information     Description
#---------- ---------------  ------------------------
 FILE.      ORIGINAL           :File Type
 FIID.      9057A              :File Type Identifier
 VERS.      3.58G              :System Version
 SER .      1                  :System Serial Number
 TRUK.      .498775            :Truck Calibration Number
 TOOL.        1061             :Tool Serial Number
 TIME.      1335               :Time    HrHrMinMin
 LAT .       36 59'            :Latitude
 LON .       104 39'           :Longitude
 LMF .            GL           :Log Measured From
 DMF .            GL           :Driller Measured From
 PD  .            GL           :Permanent Data
 PDEV.                         :Elevation Permanent Data
 EKB .M                        :Elevation Kelly Bushing
 ELEV.DF                       :Elevation DF
 EGL .M        7777            :Elevation Ground Level
 DRDP.          1825           :Driller's Depth
 CASD.       10.               :Casing Diameter
 CASB.           300           :Casing Bottom
 CASX.         STEEL           :Casing Type
 CAST.                         :Casing Thickness
 TNOC.                         :Time Circulation Stopped
 LOGU.        108              :Logging Unit
 RECB.           R.SIPES       :Recorded By
 OSR1.          9139           :Other Services
 OSR2.                         :Other Services
 OSR3.                         :Other Services
 BS  .MM         3.5           :Bit Size
 MST .                         :Mean Surface Temperature
 TGRD.                         :Temperature Gradiant
 MAGN.            12           :Magnetic Declination
 MDEN.       2.7               :Density Matrix
 MATR.      SANDSTONE          :Neutron Matrix
 DTMT.            54           :Delta T Matrix
 DTFL.                         :Delta T Fluid
 MUDS.                         :Mud Sample Source
 MRS .                         :Mud Resistivity
 MTP .                         :Mud Temperature
 MFRS.                         :Resistivity Mud Filtrate
 MFTP.                         :Temperature Mud Filtrate
 MCRS.                         :Resistivity Mud Cake
 MCTP.                         :Temperature Mud Cake
 FTYP.                         :Fluid Type
 FD  .K/M3                     :Fluid Density
 DFV .S                        :Fluid Viscosity
 FPH .                         :Fuild PH
 ELCO.       50000             :Electron Cutoff
~Other Information
#MNEM.UNIT  Information      Description
#---------- ---------------  ------------------------
# -------------------------- 
~A DEPTH  GAMMA    TEMP  RES(16N) RES(64N) RES      LATERAL  NEUTRON  POR(NEU) SANGB  DEL_TEMP SANG   SP    TIME    
# ...
 129.500     88.4  53.5      1.1     10.0     13.8     -2.0    464.4  67.8  47.61  0.01  0.55  -1320.8 0.20000 
 129.600     90.0  53.5      1.1     10.2     14.2     -1.9    455.1  67.5  47.61  0.03  0.55  -1320.9 0.20000 
 129.700     97.4  53.5      0.7     10.0     13.9     -2.4    466.0  69.8  59.03  -0.04  0.55  -1320.9 0.19900 
 129.800     99.0  53.5      2.6      9.7     13.8      0.5    450.4  68.1  117.36 0.09  0.56  -1320.9 0.20000 
 129.900     98.5  53.5      1.3      9.5     12.9     -1.1    441.0  67.4  118.14 -0.07  0.65  -1320.9 0.20000 
 130.000    100.6  53.5      0.6      9.4     12.7     -2.0    448.8  67.0  118.14 0.01  0.65  -1321.0 0.20100 
 130.100     96.3  53.5      0.2      9.5     11.9     -3.4    478.5  66.1  122.10 -0.04  0.65  -1321.0 0.19900 
 130.200     94.8  53.5      2.5      9.9     11.9     -1.2    475.4  66.2  126.54 0.05  0.66  -1321.0 0.20000 
 130.300     91.1  53.5      2.4      9.9     11.3     -0.9    470.7  66.8  127.34 -0.03  0.73  -1321.0 0.20100 
 130.400     90.0  53.5      0.2      9.9     11.2     -3.0    480.1  67.4  127.34 -0.03  0.73  -1320.6 0.20000 
 130.500     91.6  53.5     -0.6      9.8     10.8     -2.9    503.5  65.3  122.22 0.01  0.73  -1320.6 0.20000 
 130.600     87.3  53.5      2.1      9.9     10.8      0.6    487.9  65.3  108.94 0.01  0.74  -1320.6 0.20000 
 130.700     94.8  53.5      2.9     10.2      9.9      1.1    498.8  63.5  108.32 0.03  0.82  -1320.6 0.20000 
 130.800     96.9  53.5      0.4     10.3     10.1     -2.5    517.6  62.6  108.32 -0.04  0.82  -1321.1 0.20000 
 130.900     93.7  53.5      0.7     10.0      9.6     -3.4    500.4  62.1  106.73 0.04  0.82  -1321.1 0.20000 
 131.000     95.3  53.5      2.5      9.4      9.6     -0.1    464.4  62.5  111.13 0.00  0.83  -1321.1 0.20000 
 131.100     95.8  53.5      1.8      8.9      9.4     -1.0    475.4  61.7  111.13 0.04  0.86  -1321.1 0.20000 
 131.200     91.6  53.5      0.3      9.0      9.7     -2.5    467.6  58.4  111.13 -0.06  0.86  -1320.7 0.20000 
 131.300     94.8  53.5     -0.4      9.3     10.0     -3.9    470.7  58.6  131.93 -0.01  0.86  -1320.7 0.20000 
 131.400     94.8  53.5      1.3      9.5     10.3     -2.6    512.9  58.3  173.89 0.07  0.86  -1320.7 0.20000 
 131.500     95.3  53.5      1.5      9.1     10.0     -1.3    539.5  59.5  175.37 -0.03  0.90  -1320.7 0.20000 
 131.600     89.5  53.5     -0.3      8.4      9.9     -3.0    534.8  59.6  175.37 -0.10  0.90  -1320.7 0.20000 
 131.700     88.9  53.5     -1.6      7.7      9.4     -3.6    555.1  58.8  109.87 0.14  0.90  -1320.7 0.20000 
 131.800     90.0  53.5     -0.1      7.6      9.9     -1.8    578.6  58.2  81.93  -0.09  0.91  -1320.7 0.19900 
 131.900     93.2  53.5      0.7      7.7      8.5     -2.7    547.3  57.2  82.02  -0.01  0.98  -1320.7 0.20000 
 132.000     95.8  53.5     -0.2      7.9      9.0     -3.8    567.6  57.4  82.02  0.05  0.98  -1320.8 0.20000 
 132.100    100.1  53.5     -0.2      8.2      8.4     -3.4    550.4  57.7  80.69  -0.02  0.98  -1320.8 0.20000 
 132.200     95.8  53.5      2.4      7.9      8.6      2.3    534.8  57.9  84.34  0.02  1.00  -1320.8 0.20000 
 132.300     92.1  53.5      1.8      7.8      8.2      2.7    531.7  58.6  84.06  0.00  1.09  -1320.8 0.20000 
 132.400     97.9  53.5      0.3      7.9      8.3     -0.6    537.9  58.5  84.06  0.01  1.09  -1320.8 0.20000 
 132.500     97.4  53.5     -1.5      8.5      8.2     -5.0    502.0  57.4  82.55  -0.02  1.09  -1320.8 0.20000 
 132.600     91.6  53.5      0.1      9.2      8.6     -3.8    520.7  57.6  119.58 0.02  1.12  -1320.8 0.20000 
 132.700     90.0  53.5      1.3      9.5      8.1     -2.2    508.2  58.1  118.14 -0.01  1.17  -1320.8 0.20000 
 132.800     82.1  53.5      0.2      9.6      8.8     -4.4    483.2  58.3  118.14 0.00  1.17  -1321.0 0.20000 
 132.900     80.5  53.5     -0.2      9.6      8.5     -3.4    480.1  59.5  144.03 -0.02  1.17  -1321.0 0.20000 
 133.000     81.0  53.5      0.5      9.5      8.4     -1.9    497.3  58.0  313.58 -0.01  1.20  -1321.0 0.20000 
 133.100     78.9  53.5      1.1      9.9      8.0     -1.8    537.9  58.3  313.07 0.04  1.27  -1321.0 0.20000 
 133.200     79.9  53.5      0.5     10.3      7.8     -3.7    558.3  58.6  313.07 -0.03  1.27  -1320.6 0.20000 
 133.300     73.1  53.5     -0.1     10.0      8.5     -5.1    569.2  59.2  308.17 0.04  1.27  -1320.6 0.20000 
 133.400     73.6  53.5      2.8      9.7      8.0     -1.3    561.4  58.7  308.97 0.02  1.31  -1320.6 0.20100 
 133.500     75.2  53.5      2.7      9.6      7.9     -0.8    541.1  58.3  307.97 -0.07  1.36  -1320.6 0.19900 
 133.600     71.5  53.5      0.2      9.5      8.6     -2.5    502.0  58.2  307.97 0.02  1.36  -1320.9 0.20000 
 133.700     76.8  53.5     -1.2      9.7      7.9     -2.5    486.3  58.7  311.31 0.01  1.36  -1320.9 0.20000 
 133.800     74.1  53.5      0.8      9.7      8.1     -0.5    489.5  59.2  314.60 -0.01  1.39  -1320.9 0.20000 
 133.900     72.5  53.5      1.9      9.6      8.1     -0.4    483.2  60.3  313.34 0.03  1.44  -1320.9 0.20000 
 134.000     77.3  53.5      0.8      9.5      7.9     -0.3    498.8  61.5  313.34 -0.07  1.44  -1320.6 0.20000 
 134.100     76.8  53.5     -0.4      9.3      8.0     -3.0    509.8  61.7  319.06 -0.01  1.44  -1320.6 0.20000 
 134.200     75.7  53.5      0.2      8.9      8.3     -3.3    508.2  64.4  323.73 -0.01  1.45  -1320.6 0.20000 
 134.300     74.6  53.5     -0.4      8.6      7.7     -4.8    487.9  64.7  323.54 0.08  1.46  -1320.6 0.20000 
 134.400     78.3  53.5     -1.4      8.7      7.7     -5.9    489.5  63.9  323.54 -0.01  1.46  -1320.9 0.20000 
 134.500     82.1  53.5     -1.1      9.3      8.2     -3.8    470.7  64.9  320.85 -0.05  1.46  -1320.9 0.20000 
 134.600     78.9  53.5      1.3      9.5      8.6     -1.0    455.1  64.9  320.92 -0.02  1.48  -1320.9 0.20000 
 134.700     81.0  53.5      1.8      9.5      7.8     -1.3    466.0  64.9  320.66 0.03  1.51  -1320.9 0.20000 
 134.800     82.1  53.5      1.3      9.8      8.3     -2.2    455.1  64.7  320.66 0.04  1.51  -1320.5 0.20000 
 134.900     77.8  53.5     -0.8      9.8      8.6     -4.4    453.5  65.6  320.69 -0.05  1.51  -1320.5 0.20000 
 135.000     76.8  53.5      0.2      9.6      8.0     -2.6    475.4  65.6  313.39 0.07  1.60  -1320.5 0.20000 
 135.100     81.5  53.5      2.1      9.2      7.4     -0.3    462.9  65.1  311.12 -0.04  1.68  -1320.5 0.20000 
 135.200     79.4  53.5      2.2      9.1      7.9     -1.0    455.1  64.5  311.12 0.03  1.68  -1320.6 0.20000 
 135.300     78.3  53.5      0.6      9.1      8.2     -1.7    484.8  64.1  329.06 -0.05  1.68  -1320.6 0.20000 
 135.400     73.1  53.5      2.4      9.1      8.6      0.0    491.0  62.2  354.37 -0.01  1.74  -1320.6 0.20000 
 135.500     75.2  53.5      2.7      9.0      8.4      1.0    469.1  61.6  352.13 0.01  1.77  -1320.6 0.20000 
 135.600     75.2  53.5      1.5      9.0      8.2     -0.5    495.7  62.8  352.13 0.01  1.77  -1320.6 0.20000 
 135.700     76.2  53.5     -1.4      9.1      8.2     -4.8    506.7  60.7  346.11 -0.03  1.77  -1320.6 0.20000 
 135.800     76.8  53.5      1.0      9.1      8.4     -0.8    494.1  60.3  340.79 0.02  1.80  -1320.6 0.20000 
 135.900     77.3  53.5      1.9      8.9      8.6     -0.7    500.4  60.5  340.45 0.01  1.83  -1320.6 0.20000 
 136.000     72.5  53.5      0.4      8.7      8.2     -2.0    559.8  59.4  340.45 0.01  1.83  -1320.7 0.20000 
 136.100     73.1  53.5     -1.1      8.7      8.7     -4.0    564.5  59.3  340.38 0.02  1.83  -1320.7 0.20000 
 136.200     71.5  53.5      0.9      8.7      8.1     -2.2    539.5  58.7  340.55 -0.08  1.83  -1320.7 0.20000 
 136.300     70.4  53.5      3.2      8.9      8.2      0.4    537.9  58.7  337.72 0.05  1.82  -1320.7 0.10000 
 136.400     70.9  53.6      2.0      9.3      8.4     -1.1    536.4  57.7  337.53 -0.04  1.81  -1320.8 0.20000 
 136.500     70.4  53.6     -1.4      9.4      8.1     -4.6    492.6  57.8  337.44 -0.04  1.81  -1320.8 0.20000 
 136.600     65.6  53.6      0.1      9.7      7.9     -2.3    480.1  57.5  285.20 0.07  1.81  -1320.8 0.20000 
