~Version Information
VERS.                      2.0: CWLS Log ASCII Standard - VERSION 2.0
WRAP.                       NO: One line per depth step
~Well Information Block
STRT.FT               433.5000: 
STOP.FT              1880.2500: 
STEP.FT                 0.2500: 
NULL.                -999.2500: 
COMP.          Pioneer Natural Resources: COMPANY
WELL.           Buckhorn 12-21: WELL
FLD.           Purgatorie River: FIELD
LOC.           2450' FNL & 608' FWL--: LOCATION
PROV.                       CO: PROVINCE
CNTY.               Las Animas: COUNTRY
SRVC.                         : SERVICE COMPANY
DATE.          Fri Dec 03 14:13:08 2004: LOG DATE
UWI.          005 071 08129 : UNIQUE WELL ID
~Curve Information Block
DEPT.FT            0 000 00 00: Depth
NPOR.pu                       : Neutron Porosity
CCL.                          : Casing Collar Locator
TT3.usec                      : CBL 3' Travel Time
AMP3.mV                       : CBL 3' Amplitude
GR.GAPI                       : Gamma Ray
~Parameter Information Block
~A  Depth       NPOR        CCL         TT3         AMP3         GR     
# ...
  1581.5000     23.4477      0.0000    730.4365      2.5318    103.7793
  1581.7500     23.5348      0.0000    735.6178      2.4340    107.5937
  1582.0000     24.0028      0.0000    735.2752      2.3262    111.2282
  1582.2500     24.9271      0.0000    725.9542      2.2392    114.9040
  1582.5000     26.1469      0.0000    703.5037      2.1925    118.9388
  1582.7500     27.3737      0.0000    665.3491      2.1915    123.9792
  1583.0000     28.3544      0.0000    615.2224      2.2276    130.6387
  1583.2500     28.9399      0.0000    565.9670      2.2817    138.5784
  1583.5000     29.0704      0.0000    535.1488      2.3351    146.0829
  1583.7500     28.7640      0.0000    534.4166      2.3861    150.7230
  1584.0000     28.1089      0.0000    560.8928      2.4522    150.7930
  1584.2500     27.2247      0.0000    598.7613      2.5514    146.5228
  1584.5000     26.2272      0.0000    630.3408      2.6799    139.8967
  1584.7500     25.2168      0.0000    646.0682      2.8125    133.0589
  1585.0000     24.2620      0.0000    644.6758      2.9245    126.8564
  1585.2500     23.3791      0.0000    627.8782      3.0106    120.9445
  1585.5000     22.5457      0.0000    598.4550      3.0826    115.0382
  1585.7500     21.7541      0.0000    561.5208      3.1520    109.7279
  1586.0000     21.0565      0.0000    524.6913      3.2180    106.0153
  1586.2500     20.5617      0.0000    496.6925      3.2709    104.2747
  1586.5000     20.3846      0.0000    484.0474      3.3020    103.8549
  1586.7500     20.5666      0.0000    485.8735      3.3088    103.7230
  1587.0000     20.9995      0.0000    493.2011      3.2967    103.5047
  1587.2500     21.4406      0.0000    497.7909      3.2744    103.8545
  1587.5000     21.6755      0.0000    500.6106      3.2479    105.6006
  1587.7500     21.6771      0.0000    508.0487      3.2179    108.4887
  1588.0000     21.5657      0.0000    522.5741      3.1805    111.0381
  1588.2500     21.4526      0.0000    541.8069      3.1274    111.8388
  1588.5000     21.4048      0.0000    564.1771      3.0501    110.8012
  1588.7500     21.5311      0.0000    590.0579      2.9471    109.1561
  1589.0000     21.9875      0.0000    618.2404      2.8261    108.7427
  1589.2500     22.8544      0.0000    645.3022      2.6961    111.1829
  1589.5000     24.0429      0.0000    667.9059      2.5614    116.8039
  1589.7500     25.3350      0.0000    683.3475      2.4292    123.9071
  1590.0000     26.4910      0.0000    688.5920      2.3227    129.5207
  1590.2500     27.3379      0.0000    680.6179      2.2684    131.4452
  1590.5000     27.8226      0.0000    659.3055      2.2651    129.8870
  1590.7500     28.0233      0.0000    631.2410      2.2790    127.1595
  1591.0000     28.0902      0.0000    608.8137      2.2764    125.6222
  1591.2500     28.1524      0.0000    600.6423      2.2544    125.7759
  1591.5000     28.2599      0.0000    601.1693      2.2378    126.4306
  1591.7500     28.3911      0.0000    593.5416      2.2548    126.6371
  1592.0000     28.4850      0.0000    565.4355      2.3154    126.9396
  1592.2500     28.4547      0.0000    520.4868      2.4024    128.5059
  1592.5000     28.2064      0.0000    473.6049      2.4810    131.5256
  1592.7500     27.6921      0.0000    438.1987      2.5267    134.9061
  1593.0000     26.9566      0.0000    419.5573      2.5452    137.3947
  1593.2500     26.1304      0.0000    417.3414      2.5640    138.6905
  1593.5000     25.3682      0.0000    429.5641      2.6078    139.5045
  1593.7500     24.7682      0.0000    452.3998      2.6815    140.8001
  1594.0000     24.3272      0.0000    477.8528      2.7692    142.9823
  1594.2500     23.9810      0.0000    495.0285      2.8436    145.4713
  1594.5000     23.7011      0.0000    496.1646      2.8787    146.6222
  1594.7500     23.5349      0.0000    481.6614      2.8659    144.2268
  1595.0000     23.5322      0.0000    459.4215      2.8248    137.0125
  1595.2500     23.6403      0.0000    440.5466      2.7889    126.2173
  1595.5000     23.6932      0.0000    435.1825      2.7758    115.1900
  1595.7500     23.5288      0.0000    447.9684      2.7817    106.8780
  1596.0000     23.1256      0.0000    472.6717      2.8042    101.8299
  1596.2500     22.6228      0.0000    492.1454      2.8476     98.6473
  1596.5000     22.1981      0.0000    489.5658      2.9074     95.7644
  1596.7500     21.9201      0.0000    462.7541      2.9729     92.4192
  1597.0000     21.7122      0.0000    425.2445      3.0487     88.4262
  1597.2500     21.4418      0.0000    393.1375      3.1486     83.8671
  1597.5000     21.0512      0.0000    373.5845      3.2681     79.3995
  1597.7500     20.6296      0.0000    364.9152      3.3769     76.3406
  1598.0000     20.3707      0.0000    363.1842      3.4402     75.6211
  1598.2500     20.4252      0.0000    366.8658      3.4457     76.6712
  1598.5000     20.7771      0.0000    377.6012      3.4152     77.9165
  1598.7500     21.2842      0.0000    397.9121      3.3878     78.4864
  1599.0000     21.8318      0.0000    426.7276      3.3802     79.1634
  1599.2500     22.4108      0.0000    455.9150      3.3677     81.6774
  1599.5000     23.0503      0.0000    473.7077      3.3185     87.1872
  1599.7500     23.7249      0.0000    474.8847      3.2365     95.2466
  1600.0000     24.3454      0.0000    466.9502      3.1597    103.9931
  1600.2500     24.8017      0.0000    463.4832      3.1226    111.2684
  1600.5000     25.0023      0.0000    471.1041      3.1278    115.7336
  1600.7500     24.9241      0.0000    483.8318      3.1504    117.3589
  1601.0000     24.6794      0.0000    490.1813      3.1646    117.3027
  1601.2500     24.5105      0.0000    485.7164      3.1574    117.3702
  1601.5000     24.6502      0.0000    477.6153      3.1203    119.2656
  1601.7500     25.1601      0.0000    475.6047      3.0480    123.8672
  1602.0000     25.9158      0.0000    479.8097      2.9472    130.8151
  1602.2500     26.7257      0.0000    480.4278      2.8347    138.7660
  1602.5000     27.4352      0.0000    469.5388      2.7257    146.2283
  1602.7500     27.9531      0.0000    450.1060      2.6346    152.1318
  1603.0000     28.2447      0.0000    432.5073      2.5806    155.5551
  1603.2500     28.3064      0.0000    425.4562      2.5765    155.4396
  1603.5000     28.1197      0.0000    432.4703      2.6120    151.2388
  1603.7500     27.6531      0.0000    454.3133      2.6624    143.8279
  1604.0000     26.9348      0.0000    490.2414      2.7089    135.2689
  1604.2500     26.1067      0.0000    534.3554      2.7414    127.4449
  1604.5000     25.3744      0.0000    572.4251      2.7499    121.0150
  1604.7500     24.9048      0.0000    587.2651      2.7316    115.7072
  1605.0000     24.7569      0.0000    571.1385      2.7023    111.4231
  1605.2500     24.8740      0.0000    532.6928      2.6857    108.9494
  1605.5000     25.1295      0.0000    490.0774      2.6902    109.5743
  1605.7500     25.3893      0.0000    457.5786      2.7072    113.7092
  1606.0000     25.5228      0.0000    438.9326      2.7263    119.7750
  1606.2500     25.3887      0.0000    430.6435      2.7420    124.8162
  1606.5000     24.9061      0.0000    428.5609      2.7557    126.5515
  1606.7500     24.1876      0.0000    431.7325      2.7797    124.9226
  1607.0000     23.5377      0.0000    442.7910      2.8253    121.7661
  1607.2500     23.2384      0.0000    465.9481      2.8728    119.1824
  1607.5000     23.3233      0.0000    503.3519      2.8722    118.1642
  1607.7500     23.5780      0.0000    551.6776      2.7981    118.2723
  1608.0000     23.7444      0.0000    602.1222      2.6870    118.0409
  1608.2500     23.7257      0.0000    644.6636      2.5961    115.9842
  1608.5000     23.6482      0.0000    673.4462      2.5411    112.0067
  1608.7500     23.7630      0.0000    688.8459      2.5029    107.8644
  1609.0000     24.2728      0.0000    694.6292      2.4790    105.6816
  1609.2500     25.2145      0.0000    692.8690      2.4850    106.1848
