~Version Information
 VERS.                                  2.0 : CWLS LAS VERSION
 WRAP.                                   NO : WRAPING MODE
 SWARE .                 MController 2.5.0E : SOFTWARE VERSION
~Well Information
 WELL.                          Lynch 43-30 : WELL
 COMP.        Pioneer Natural Resources Inc : COMPANY
 FLD.                      Purgatoire River : FIELD
 LOC.                NE/SE Sec 30 T32S R67W : LOCATION
 DATE.                             10/25/04 : DATE(S) LOGGED
 SRVC.       Blanco Geological services LLc : SERVICE COMPANY
 STAT.                                   CO : STATE
 CNTY.                           Las Animas : COUNTY
 CTRY.                                  USA : COUNTRY
 API.                       05-071-08170-00 : API NUMBER
 STRT.FT                             410.00 : START DEPTH
 STOP.FT                            2845.00 : STOP DEPTH
 STEP.FT                               1.00 : DEPTH INCREMENT
 NULL.                                -9999 : NULL VALUE
~Curve information
 DEPTH.FT                                   :
 ROP.MIN/FT                                 :
 GAS.UNITS                                  :
~ASCII Log data
# ...
     1410.00        0.267          4.8 
     1411.00        0.233          5.5 
     1412.00        0.300          5.4 
     1413.00        0.200          4.7 
     1414.00        0.200          4.6 
     1415.00        0.200          5.4 
     1416.00        0.167          5.0 
     1417.00        0.200          5.6 
     1418.00        0.167          5.6 
     1419.00        0.200          5.4 
     1420.00        0.200          5.6 
     1421.00        0.167          5.2 
     1422.00        0.167          4.9 
     1423.00        0.167          4.3 
     1424.00        0.167          5.0 
     1425.00        0.217          4.5 
     1426.00        0.167          4.4 
     1427.00        0.200          3.2 
     1428.00        0.167          4.3 
     1429.00        0.200          4.1 
     1430.00        0.167          3.9 
     1431.00        0.233          4.1 
     1432.00        0.167          4.1 
     1433.00        0.167          4.1 
     1434.00        0.167          3.5 
     1435.00        0.200          3.2 
     1436.00        4.217          8.8 
     1437.00        0.267          6.0 
     1438.00        0.483          6.2 
     1439.00        0.267          5.4 
     1440.00        0.333          5.5 
     1441.00        0.633          5.7 
     1442.00        0.533          5.5 
     1443.00        0.433          5.3 
     1444.00        0.367          5.3 
     1445.00        0.400          5.1 
     1446.00        0.383          4.7 
     1447.00        0.433          4.4 
     1448.00        0.367          4.3 
     1449.00        0.433          4.3 
     1450.00        0.533          3.9 
     1451.00        0.500          4.0 
     1452.00        0.467          4.1 
     1453.00        0.483          4.2 
     1454.00        0.433          4.5 
     1455.00        0.467          4.2 
     1456.00        0.467          4.4 
     1457.00        0.500          4.5 
     1458.00        0.467          4.4 
     1459.00        0.300          4.2 
     1460.00        0.333          4.9 
     1461.00        0.283          4.6 
     1462.00        0.300          5.1 
     1463.00        0.300          5.1 
     1464.00        0.333          5.0 
     1465.00        0.333          5.0 
     1466.00        4.683          9.8 
     1467.00        0.200          6.3 
     1468.00        0.300          5.4 
     1469.00        0.183          5.3 
     1470.00        0.200          5.2 
     1471.00        0.133          4.1 
     1472.00        0.233          4.6 
     1473.00        0.233          4.3 
     1474.00        0.200          3.3 
     1475.00        0.233          4.0 
     1476.00        0.200          3.7 
     1477.00        0.233          3.8 
     1478.00        0.200          3.7 
     1479.00        0.200          3.6 
     1480.00        0.267          3.5 
     1481.00        0.267          3.5 
     1482.00        0.267          3.0 
     1483.00        0.233          3.5 
     1484.00        0.317          3.4 
     1485.00        0.333          3.2 
     1486.00        0.267          3.5 
     1487.00        0.333          3.5 
     1488.00        0.267          3.4 
     1489.00        0.267          3.8 
     1490.00        0.267          3.6 
     1491.00        0.267          3.7 
     1492.00        0.267          3.3 
     1493.00        0.233          3.6 
     1494.00        0.167          3.0 
     1495.00        0.133          3.5 
     1496.00        3.117          3.7 
     1497.00        0.267          3.4 
     1498.00        0.350          3.4 
     1499.00        0.300          3.2 
     1500.00        0.300          3.0 
     1501.00        0.300          3.4 
     1502.00        0.333          3.5 
     1503.00        0.267          3.5 
     1504.00        0.267          3.1 
     1505.00        0.267          3.4 
     1506.00        0.400          3.4 
     1507.00        0.333          3.6 
     1508.00        0.267          3.3 
     1509.00        0.283          3.3 
     1510.00        0.200          2.7 
     1511.00        0.267          3.4 
     1512.00        0.333          3.5 
     1513.00        0.367          3.2 
     1514.00        0.333          3.4 
     1515.00        0.333          3.6 
     1516.00        0.333          3.2 
     1517.00        0.333          3.3 
     1518.00        0.367          3.5 
     1519.00        0.417          3.5 
     1520.00        0.400          3.3 
     1521.00        0.400          3.2 
     1522.00        0.400          3.4 
     1523.00        0.400          3.7 
     1524.00        0.367          3.6 
     1525.00        0.433          3.3 
     1526.00        4.500          3.7 
     1527.00        0.367          3.8 
     1528.00        0.433          3.8 
     1529.00        0.400          4.2 
     1530.00        0.300          4.4 
     1531.00        0.333          5.1 
     1532.00        0.300          4.9 
     1533.00        0.333          5.1 
     1534.00        0.300          4.9 
     1535.00        0.317          5.3 
     1536.00        0.333          5.8 
     1537.00        0.300          5.8 
     1538.00        0.333          5.7 
     1539.00        0.267          5.1 
     1540.00        0.267          5.3 
     1541.00        0.267          5.2 
     1542.00        0.267          5.1 
     1543.00        0.267          5.7 
     1544.00        0.200          6.3 
     1545.00        0.233          7.3 
     1546.00        0.200          9.0 
     1547.00        0.200         12.0 
     1548.00        0.217         16.7 
     1549.00        0.200         18.6 
     1550.00        0.233         19.3 
     1551.00        0.200         19.7 
     1552.00        0.200         20.4 
     1553.00        0.233         21.5 
     1554.00        0.233         22.2 
     1555.00        0.300         23.1 
     1556.00        2.717         22.8 
     1557.00        0.267          5.6 
     1558.00        0.233          5.1 
     1559.00        0.200          4.4 
     1560.00        0.333          4.0 
     1561.00        0.267          4.0 
     1562.00        0.300          3.3 
     1563.00        0.333          3.9 
     1564.00        0.417          3.8 
     1565.00        0.367          3.5 
     1566.00        0.333          3.8 
     1567.00        0.367          3.8 
     1568.00        0.367          3.7 
     1569.00        0.400          3.9 
     1570.00        0.233          3.7 
     1571.00        0.267          4.0 
     1572.00        0.267          3.2 
     1573.00        0.300          4.0 
     1574.00        0.267          3.1 
     1575.00        0.250          3.9 
     1576.00        0.233          3.4 
     1577.00        0.233          3.2 
     1578.00        0.233          3.1 
     1579.00        0.167          3.2 
     1580.00        0.167          4.0 
     1581.00        0.167          3.2 
     1582.00        0.133          3.9 
     1583.00        0.200          3.6 
     1584.00        0.200          3.4 
     1585.00        0.233          3.8 
     1586.00        3.250          4.0 
     1587.00        0.300          3.4 
     1588.00        0.233          3.8 
     1589.00        0.200          4.0 
     1590.00        0.200          3.1 
     1591.00        0.267          3.7 
     1592.00        0.250          3.8 
     1593.00        0.300          4.3 
     1594.00        0.167          4.4 
     1595.00        0.167          3.8 
     1596.00        0.233          4.0 
     1597.00        0.333          3.7 
     1598.00        0.333          3.9 
     1599.00        0.333          3.8 
     1600.00        0.233          3.0 
     1601.00        0.367          4.0 
     1602.00        0.167          3.5 
     1603.00        0.200          3.8 
     1604.00        0.167          3.9 
     1605.00        0.133          3.5 
     1606.00        0.183          4.3 
     1607.00        0.167          5.1 
     1608.00        0.133          5.1 
     1609.00        0.233          5.2 
