~Version Information
VERS.                      2.0: CWLS Log ASCII Standard - VERSION 2.0
WRAP.                       NO: One line per depth step
~Well Information Block
STRT.FT               350.0000: 
STOP.FT              1391.5000: 
STEP.FT                 0.2500: 
NULL.                -999.2500: 
COMP.          Petrogulf Corporation: COMPANY
WELL.             Leier 17-42R: WELL
FLD.           Purgatorie River: FIELD
LOC.           2398' FNL & 1109' FEL: LOCATION
PROV.                 Colorado: PROVINCE
CNTY.               Las Animas: COUNTRY
SRVC.                Patterson: SERVICE COMPANY
DATE.          Mon Oct 17 09:42:26 2005: LOG DATE
UWI.                          : UNIQUE WELL ID
~Curve Information Block
DEPT.FT            0 000 00 00: Depth
SP.mV                         : DIL Spontaneous Potential
RILD.Ohm-m                    : DIL Deep Resistivity
RILM.Ohm-m                    : DIL Medium Resistivity
RLL3.Ohm-m                    : DIL Shallow Resistivity
GR.GAPI                       : Gamma Ray
~Parameter Information Block
~A  Depth        SP         RILD        RILM        RLL3         GR     
# ...
   742.0000    229.6209     10.9115     10.6816     13.7109    123.0842
   742.2500    228.8748     10.7502     10.5341     13.6502    117.6130
   742.5000    228.0903     10.6142     10.4038     13.6019    113.0119
   742.7500    227.2637     10.5089     10.2929     13.5888    112.4971
   743.0000    226.4032     10.4377     10.2032     13.6413    114.6607
   743.2500    225.5227     10.4023     10.1372     13.7699    117.2836
   743.5000    224.6304     10.4023     10.0975     13.9269    121.7483
   743.7500    223.7237     10.4336     10.0874     14.0082    124.3220
   744.0000    222.7932     10.4867     10.1099     13.9284    126.0948
   744.2500    221.8340     10.5474     10.1663     13.7270    125.3234
   744.5000    220.8561     10.5998     10.2543     13.6234    121.9583
   744.7500    219.8894     10.6321     10.3666     13.9589    119.7291
   745.0000    218.9790     10.6411     10.4904     15.0112    119.2614
   745.2500    218.1728     10.6331     10.6086     16.7496    121.5749
   745.5000    217.5067     10.6219     10.7037     18.7044    127.7022
   745.7500    216.9956     10.6246     10.7623     20.1404    131.8924
   746.0000    216.6355     10.6583     10.7804     20.4937    135.9186
   746.2500    216.4094     10.7389     10.7660     19.7276    136.8542
   746.5000    216.2815     10.8794     10.7382     18.2877    137.2189
   746.7500    216.1780     11.0892     10.7237     16.7340    137.7759
   747.0000    215.9801     11.3715     10.7528     15.4244    139.0734
   747.2500    215.5568     11.7214     10.8551     14.4865    139.4039
   747.5000    214.8254     12.1251     11.0580     14.0223    138.0738
   747.7500    213.7913     12.5632     11.3856     14.3879    136.2177
   748.0000    212.5419     13.0167     11.8575     16.4263    133.3596
   748.2500    211.2149     13.4740     12.4877     21.4832    132.0906
   748.5000    209.9749     13.9342     13.2828     30.9627    131.3221
   748.7500    209.0088     14.4069     14.2385     45.3572    131.1875
   749.0000    208.5185     14.9116     15.3380     63.1918    130.4895
   749.2500    208.6858     15.4779     16.5522     80.6902    128.9504
   749.5000    209.6086     16.1456     17.8446     92.7557    124.0407
   749.7500    211.2407     16.9591     19.1804     95.1813    119.2436
   750.0000    213.3804     17.9567     20.5358     87.1007    112.1359
   750.2500    215.7314     19.1561     21.9035     71.9553    109.5128
   750.5000    218.0015     20.5380     23.2902     55.8268    111.3408
   750.7500    219.9816     22.0347     24.7072     44.1531    116.3908
   751.0000    221.5706     23.5332     26.1575     39.3220    126.6965
   751.2500    222.7556     24.9004     27.6253     40.4794    132.6384
   751.5000    223.5733     26.0264     29.0713     44.8194    136.3577
   751.7500    224.0746     26.8623     30.4384     49.1492    134.8957
   752.0000    224.3058     27.4272     31.6659     51.2089    129.1142
   752.2500    224.3054     27.7845     32.7082     50.4741    125.0696
   752.5000    224.1092     28.0059     33.5475     48.0564    121.7591
   752.7500    223.7569     28.1438     34.1928     45.7413    122.0261
   753.0000    223.2948     28.2208     34.6655     44.8721    124.9801
   753.2500    222.7711     28.2337     34.9817     45.8114    126.9642
   753.5000    222.2273     28.1644     35.1379     48.1045    126.9433
   753.7500    221.6926     27.9926     35.1091     50.9434    124.2838
   754.0000    221.1876     27.7070     34.8584     53.5008    118.1747
   754.2500    220.7286     27.3119     34.3530     55.0108    114.6834
   754.5000    220.3251     26.8280     33.5814     54.7882    112.4197
   754.7500    219.9712     26.2860     32.5628     52.4108    112.6037
   755.0000    219.6419     25.7171     31.3461     48.0139    113.7570
   755.2500    219.2976     25.1444     29.9997     42.3961    114.6373
   755.5000    218.8954     24.5786     28.5971     36.7380    116.6441
   755.7500    218.4014     24.0190     27.2035     32.0849    118.8682
   756.0000    217.8034     23.4594     25.8692     28.9344    123.4643
   756.2500    217.1181     22.8980     24.6276     27.1616    126.9228
   756.5000    216.3876     22.3449     23.4988     26.2527    131.8055
   756.7500    215.6659     21.8215     22.4943     25.6361    134.3624
   757.0000    215.0014     21.3519     21.6208     24.9189    136.5736
   757.2500    214.4266     20.9514     20.8823     23.9710    137.1877
   757.5000    213.9548     20.6197     20.2800     22.8961    138.4447
   757.7500    213.5839     20.3434     19.8115     21.9483    140.5544
   758.0000    213.3066     20.1043     19.4685     21.4235    145.8470
   758.2500    213.1219     19.8886     19.2373     21.5344    149.8031
   758.5000    213.0406     19.6922     19.0993     22.2934    154.2461
   758.7500    213.0802     19.5207     19.0337     23.4523    155.5668
   759.0000    213.2527     19.3862     19.0222     24.5604    155.2349
   759.2500    213.5567     19.3043     19.0523     25.1686    153.9761
   759.5000    213.9775     19.2916     19.1205     25.0847    151.5521
   759.7500    214.4925     19.3625     19.2316     24.4766    149.8734
   760.0000    215.0710     19.5238     19.3958     23.7157    146.8054
   760.2500    215.6699     19.7675     19.6236     23.1126    144.0028
   760.5000    216.2305     20.0658     19.9204     22.8026    139.1625
   760.7500    216.6852     20.3729     20.2811     22.8413    136.4783
   761.0000    216.9748     20.6339     20.6863     23.3367    134.4311
   761.2500    217.0681     20.7968     21.1008     24.4341    134.0265
   761.5000    216.9722     20.8231     21.4732     26.1658    133.1341
   761.7500    216.7232     20.6954     21.7415     28.3476    131.8073
   762.0000    216.3632     20.4183     21.8417     30.6357    129.5290
   762.2500    215.9188     20.0147     21.7208     32.6545    128.6563
   762.5000    215.3960     19.5215     21.3514     34.0827    128.7488
   762.7500    214.7934     18.9854     20.7410     34.7300    129.3016
   763.0000    214.1187     18.4603     19.9340     34.6131    129.7566
   763.2500    213.3960     18.0011     19.0041     33.8606    129.2358
   763.5000    212.6612     17.6554     18.0396     32.4421    126.2520
   763.7500    211.9529     17.4562     17.1280     30.0927    122.4518
   764.0000    211.3071     17.4179     16.3446     26.6798    115.1802
   764.2500    210.7580     17.5359     15.7480     22.6337    111.2394
   764.5000    210.3368     17.7885     15.3809     18.9339    110.1611
   764.7500    210.0671     18.1409     15.2741     16.8032    113.0431
   765.0000    209.9563     18.5514     15.4515     17.7596    119.7742
   765.2500    209.9941     18.9808     15.9331     24.2955    123.2110
   765.5000    210.1598     19.4018     16.7356     40.5925    123.3723
   765.7500    210.4349     19.8075     17.8698     72.0615    119.3469
   766.0000    210.8168     20.2146     19.3340    122.6699    107.3554
   766.2500    211.3304     20.6632     21.1042    190.5547     96.2127
   766.5000    212.0263     21.2109     23.1242    264.8228     77.2382
   766.7500    212.9590     21.9241     25.2994    327.2360     64.9923
   767.0000    214.1558     22.8662     27.5002    359.5953     50.5019
   767.2500    215.5977     24.0842     29.5810    352.7748     44.7531
   767.5000    217.2231     25.5936     31.4103    311.1652     42.5287
   767.7500    218.9440     27.3618     32.9044    249.3891     44.5904
   768.0000    220.6628     29.2938     34.0483    184.1702     50.8243
   768.2500    222.2835     31.2309     34.8937    127.5904     55.9882
   768.5000    223.7214     32.9721     35.5370     85.3546     64.4669
   768.7500    224.9162     34.3212     36.0868     58.4511     70.4690
   769.0000    225.8463     35.1457     36.6366     44.9548     79.0490
   769.2500    226.5307     35.4188     37.2465     41.0856     83.4474
   769.5000    227.0150     35.2200     37.9358     42.3732     86.9100
   769.7500    227.3497     34.6938     38.6823     45.1571     87.5217
