~Version Information
VERS.                      2.0: CWLS Log ASCII Standard - VERSION 2.0
WRAP.                       NO: One line per depth step
~Well Information Block
STRT.FT               425.0000: 
STOP.FT              2461.0000: 
STEP.FT                 0.1000: 
NULL.                -999.2500: 
COMP.          Evergreen Operating Corporation: COMPANY
WELL.              Nomad 32-10: WELL
FLD.           Purgatorie River: FIELD
LOC.           2281' FNL & 1585' FEL: LOCATION
PROV.                 Colorado: PROVINCE
CNTY.               Las Animas: COUNTRY
SRVC.                Patterson: SERVICE COMPANY
DATE.          Thu Aug 12 11:13:52 2004: LOG DATE
UWI.           05 071 08127 00: UNIQUE WELL ID
~Curve Information Block
DEPT.FT            0 000 00 00: Depth
DCAL.in                       : CDL Caliper
RHOB.g/cc                     : CDL Bulk Density
RHOC.g/cc                     : CDL Density Correction
DPOR.pu                       : CDL Density Porosity
NPOR.pu                       : Neutron Porosity
GR.GAPI                       : Gamma Ray
~Parameter Information Block
~A  Depth       DCAL        RHOB        RHOC        DPOR        NPOR         GR     
# ...
   693.8000      8.2262      2.4751      0.0070     10.6001     19.1019     77.1725
   693.9000      8.2262      2.4701      0.0629     10.9011     19.5172     80.1047
   694.0000      8.2269      2.4567      0.0118     11.7165     19.8766     79.2440
   694.1000      8.2269      2.4459      0.0126     12.3699     19.9763     75.2956
   694.2000      8.2269      2.4436      0.0457     12.5083     19.9896     71.4161
   694.3000      8.2293      2.4392      0.0457     12.7758     20.2044     71.2346
   694.4000      8.2293      2.4325      0.0461     13.1814     20.4537     75.1120
   694.5000      8.2264      2.4339      0.0380     13.0956     20.3785     79.6208
   694.6000      8.2264      2.4482     -0.0018     12.2275     20.2550     81.9044
   694.7000      8.2264      2.4720      0.0465     10.7857     20.5046     80.8742
   694.8000      8.2231      2.4912      0.0718      9.6261     20.9741     78.7241
   694.9000      8.2231      2.4918      0.0746      9.5906     21.3548     79.8596
   695.0000      8.2292      2.4767      0.0418     10.5022     21.5031     83.9712
   695.1000      8.2292      2.4623      0.0537     11.3778     21.4476     87.6715
   695.2000      8.2292      2.4568      0.0489     11.7105     21.2836     86.4537
   695.3000      8.2298      2.4608      0.0306     11.4677     21.0196     79.4241
   695.4000      8.2298      2.4757      0.0313     10.5641     20.7020     73.2933
   695.5000      8.2290      2.4926      0.0333      9.5383     20.6034     73.4696
   695.6000      8.2290      2.4964      0.0437      9.3095     20.9242     77.3610
   695.7000      8.2290      2.4874      0.0059      9.8529     21.4242     81.0590
   695.8000      8.2369      2.4784      0.0233     10.4021     21.7043     84.4488
   695.9000      8.2369      2.4726      0.0283     10.7528     21.5621     85.2913
   696.0000      8.2425      2.4661      0.0607     11.1445     21.2034     81.2523
   696.1000      8.2425      2.4660      0.0096     11.1495     21.1178     75.2927
   696.2000      8.2425      2.4794      0.0096     10.3414     21.4441     71.6576
   696.3000      8.2425      2.4879      0.0459      9.8250     21.7952     71.6874
   696.4000      8.2425      2.4768     -0.0015     10.4979     21.8852     73.3872
   696.5000      8.2445      2.4616      0.0041     11.4184     21.8044     75.9139
   696.6000      8.2445      2.4556     -0.0032     11.7818     21.7758     79.9046
   696.7000      8.2445      2.4567      0.0043     11.7174     21.8583     85.5393
   696.8000      8.2390      2.4641     -0.0075     11.2637     21.8565     93.2889
   696.9000      8.2390      2.4751      0.0422     10.5996     21.7070     98.7925
   697.0000      8.2381      2.4812      0.0451     10.2279     21.9122     98.1824
   697.1000      8.2381      2.4840      0.0077     10.0629     22.8189     96.7028
   697.2000      8.2381      2.4920      0.0459      9.5781     23.9232     98.7027
   697.3000      8.2506      2.5026      0.0570      8.9310     24.7424    101.4770
   697.4000      8.2506      2.5105      0.0563      8.4535     25.5927    101.2141
   697.5000      8.2494      2.5193      0.0461      7.9223     26.7201    100.9222
   697.6000      8.2494      2.5252      0.0401      7.5648     27.8459    103.9641
   697.7000      8.2494      2.5187      0.0285      7.9568     28.8118    106.8458
   697.8000      8.2462      2.5039      0.0210      8.8546     29.4193    111.6303
   697.9000      8.2462      2.4963     -0.0266      9.3133     29.5989    126.9700
   698.0000      8.2325      2.5018     -0.0156      8.9832     29.5757    147.3529
   698.1000      8.2325      2.5021      0.0484      8.9664     29.3507    156.2098
   698.2000      8.2325      2.4901     -0.0498      9.6882     29.0036    151.3532
   698.3000      8.2352      2.4862     -0.0102      9.9271     28.8033    143.8580
   698.4000      8.2352      2.4984      0.0468      9.1879     28.8119    142.4297
   698.5000      8.2426      2.5166      0.0328      8.0869     28.8388    147.4107
   698.6000      8.2426      2.5262      0.0435      7.5010     28.6329    152.9212
   698.7000      8.2426      2.5171      0.0159      8.0562     28.1888    153.3253
   698.8000      8.2457      2.4932      0.0626      9.5060     27.7508    149.3828
   698.9000      8.2457      2.4688     -0.0039     10.9813     27.5263    144.7534
   699.0000      8.2483      2.4587     -0.0360     11.5925     27.5427    141.8237
   699.1000      8.2483      2.4665     -0.0125     11.1228     27.5743    143.3867
   699.2000      8.2483      2.4884     -0.0315      9.7937     27.4833    146.1964
   699.3000      8.2450      2.5179      0.0318      8.0067     27.4458    145.5422
   699.4000      8.2450      2.5392      0.0421      6.7165     27.4257    140.0129
   699.5000      8.2433      2.5420      0.0685      6.5426     27.2463    134.1404
   699.6000      8.2433      2.5326      0.0453      7.1180     27.1181    136.5088
   699.7000      8.2433      2.5239      0.0558      7.6414     27.2060    144.8965
   699.8000      8.2298      2.5194      0.0604      7.9126     27.3549    148.7430
   699.9000      8.2298      2.5188      0.0238      7.9527     27.4960    145.7707
   700.0000      8.2443      2.5280      0.0349      7.3967     27.5768    140.1248
   700.1000      8.2443      2.5443      0.0201      6.4047     27.4007    137.7286
   700.2000      8.2443      2.5614      0.0347      5.3696     26.9058    140.4466
   700.3000      8.2445      2.5770      0.0560      4.4226     26.3147    140.7007
   700.4000      8.2445      2.5835      0.0760      4.0281     26.0332    135.6667
   700.5000      8.2444      2.5735      0.0680      4.6357     26.2966    128.9164
   700.6000      8.2444      2.5569     -0.0030      5.6418     26.6416    121.0882
   700.7000      8.2444      2.5457      0.0555      6.3210     26.6929    113.7109
   700.8000      8.2501      2.5351      0.0091      6.9621     26.7338    111.9702
   700.9000      8.2501      2.5237      0.0142      7.6573     27.0484    116.3587
   701.0000      8.2400      2.5165      0.0197      8.0924     27.5432    120.0193
   701.1000      8.2400      2.5166     -0.0256      8.0823     27.7435    119.7275
   701.2000      8.2400      2.5237      0.0090      7.6528     27.4474    119.2840
   701.3000      8.2465      2.5328     -0.0165      7.1015     27.1001    121.3990
   701.4000      8.2465      2.5424      0.0239      6.5188     27.2582    123.5934
   701.5000      8.2457      2.5455      0.0032      6.3326     27.8331    124.1558
   701.6000      8.2457      2.5306      0.0536      7.2389     28.1949    125.9514
   701.7000      8.2457      2.5042     -0.0391      8.8392     27.9814    131.4702
   701.8000      8.2511      2.4857      0.0148      9.9587     27.5947    139.0943
   701.9000      8.2511      2.4792     -0.0371     10.3510     27.6743    142.1908
   702.0000      8.2462      2.4794      0.0013     10.3370     28.2101    136.7599
   702.1000      8.2462      2.4776      0.0239     10.4494     28.6760    129.0391
   702.2000      8.2462      2.4699     -0.0254     10.9141     29.0214    126.0220
   702.3000      8.2445      2.4634      0.0023     11.3106     29.5405    126.2518
   702.4000      8.2445      2.4619     -0.0027     11.4019     29.6237    125.1497
   702.5000      8.2449      2.4663     -0.0119     11.1324     28.5664    124.7683
   702.6000      8.2449      2.4758      0.0212     10.5584     27.2095    130.8119
   702.7000      8.2449      2.4858      0.0564      9.9494     26.5277    136.9263
   702.8000      8.2480      2.4989      0.0718      9.1574     26.4873    135.7390
   702.9000      8.2480      2.5175      0.1406      8.0308     26.5074    134.7417
   703.0000      8.2440      2.5318      0.1425      7.1633     26.3121    139.2922
   703.1000      8.2440      2.5344      0.1473      7.0039     26.1728    142.4799
   703.2000      8.2440      2.5269      0.1019      7.4614     26.2274    140.7663
   703.3000      8.2466      2.5153      0.0895      8.1616     26.2830    136.6246
