~Version Information
VERS.                      2.0: CWLS Log ASCII Standard - VERSION 2.0
WRAP.                       NO: One line per depth step
~Well Information Block
STRT.FT               400.0000: 
STOP.FT              2201.0000: 
STEP.FT                 0.1000: 
NULL.                -999.2500: 
COMP.          Evergreen Operating Corporation: COMPANY
WELL.            Triumph 13-10: WELL
FLD.           Purgatorie River: FIELD
LOC.           1551' FSL & 522' FWL: LOCATION
PROV.                 Colorado: PROVINCE
CNTY.               Las Animas: COUNTRY
SRVC.                Patterson: SERVICE COMPANY
DATE.          Mon Jul 26 07:55:18 2004: LOG DATE
UWI.           05 071 08108 00: UNIQUE WELL ID
~Curve Information Block
DEPT.FT            0 000 00 00: Depth
DCAL.in                       : CDL Caliper
RHOB.g/cc                     : CDL Bulk Density
RHOC.g/cc                     : CDL Density Correction
DPOR.pu                       : CDL Density Porosity
NPOR.pu                       : Neutron Porosity
GR.GAPI                       : Gamma Ray
~Parameter Information Block
~A  Depth       DCAL        RHOB        RHOC        DPOR        NPOR         GR     
# ...
  1225.6000      8.1902      2.5149      0.0551      8.1883     28.1638    120.1865
  1225.7000      8.1902      2.5221      0.0849      7.7537     28.1777    117.5775
  1225.8000      8.2066      2.5386      0.0618      6.7511     27.4522    117.6276
  1225.9000      8.2066      2.5616      0.1374      5.3546     26.9704    122.8915
  1226.0000      8.1831      2.5643      0.1561      5.1946     27.3545    132.0426
  1226.1000      8.1831      2.5424      0.0202      6.5210     27.9170    141.4732
  1226.2000      8.1831      2.5247      0.0574      7.5955     28.0001    143.3195
  1226.3000      8.1835      2.5162      0.0301      8.1099     27.9358    137.0415
  1226.4000      8.1835      2.5046      0.0309      8.8092     28.1294    131.2358
  1226.5000      8.1984      2.4927      0.0336      9.5349     28.6812    129.4760
  1226.6000      8.1984      2.4856      0.0232      9.9657     29.5310    127.7025
  1226.7000      8.1984      2.4769      0.0501     10.4896     30.2733    123.6820
  1226.8000      8.1908      2.4559      0.0259     11.7636     30.8037    119.0836
  1226.9000      8.1908      2.4151      0.0311     14.2377     31.3876    113.7696
  1227.0000      8.2020      2.3544      0.0154     17.9179     31.6091    109.1372
  1227.1000      8.2020      2.2920     -0.0619     21.6957     31.2684    109.1942
  1227.2000      8.2020      2.2571     -0.0663     23.8150     30.9908    113.9926
  1227.3000      8.2123      2.2574     -0.0508     23.7944     31.2070    120.5947
  1227.4000      8.2123      2.2682      0.0195     23.1396     32.0159    125.0959
  1227.5000      8.2502      2.2547      0.0544     23.9550     33.0359    122.0584
  1227.6000      8.2502      2.2058      0.0301     26.9236     33.6403    110.9334
  1227.7000      8.2502      2.1334      0.0212     31.3106     33.8302     99.1907
  1227.8000      8.2176      2.0518     -0.0236     36.2517     33.9555     92.4573
  1227.9000      8.2176      1.9742     -0.0051     40.9567     33.9823     91.8476
  1228.0000      8.2205      1.9142     -0.0100     44.5912     33.5326     95.8540
  1228.1000      8.2205      1.8825     -0.0084     46.5175     32.8753     97.8076
  1228.2000      8.2205      1.8818     -0.0273     46.5560     32.6559     95.3011
  1228.3000      8.3153      1.9106      0.0241     44.8134     32.8226     95.8517
  1228.4000      8.3153      1.9740      0.0478     40.9709     32.5178    103.5311
  1228.5000      8.4339      2.0795      0.2106     34.5778     31.4959    111.0786
  1228.6000      8.4339      2.2049      0.3956     26.9777     30.4620    113.3534
  1228.7000      8.4339      2.3176      0.4096     20.1480     29.6673    112.4448
  1228.8000      8.7391      2.4102      0.4466     14.5308     28.9192    110.3015
  1228.9000      8.7391      2.4772      0.4308     10.4748     28.4192    112.7123
  1229.0000      8.3840      2.5160      0.2933      8.1220     28.4864    123.6766
  1229.1000      8.3840      2.5487      0.2341      6.1391     28.8410    135.7505
  1229.2000      8.3840      2.5807      0.2667      4.1990     28.4544    141.1908
  1229.3000      8.1744      2.5845      0.2432      3.9688     26.9136    142.2853
  1229.4000      8.1744      2.5567      0.1422      5.6572     25.3272    142.5396
  1229.5000      8.1536      2.5267      0.0835      7.4704     24.7360    142.0546
  1229.6000      8.1536      2.5118      0.0617      8.3770     24.8803    140.7694
  1229.7000      8.1536      2.5099      0.0251      8.4923     25.2181    137.4154
  1229.8000      8.1493      2.5164      0.0366      8.0978     25.4864    133.8460
  1229.9000      8.1493      2.5215      0.0491      7.7883     25.4460    131.0851
  1230.0000      8.1310      2.5197      0.0309      7.8957     25.3557    127.9742
  1230.1000      8.1310      2.5229      0.0377      7.7055     25.3888    126.0859
  1230.2000      8.1310      2.5400      0.0353      6.6685     25.1758    124.7370
  1230.3000      8.1285      2.5633      0.0500      5.2549     24.7939    121.4385
  1230.4000      8.1285      2.5866      0.0327      3.8403     24.7467    120.5631
  1230.5000      8.1293      2.6148      0.0675      2.1327     25.0290    126.8818
  1230.6000      8.1293      2.6450      0.0976      0.3024     25.0327    134.6856
  1230.7000      8.1293      2.6694      0.0856     -1.1731     24.5856    135.7693
  1230.8000      8.1410      2.6989      0.0703     -2.9607     24.1000    129.6571
  1230.9000      8.1410      2.7463      0.1053     -5.8364     23.7778    120.2770
  1231.0000      8.1318      2.7988      0.1237     -9.0208     23.4500    112.2081
  1231.1000      8.1318      2.8351      0.1592    -11.2161     22.9801    106.9388
  1231.2000      8.1318      2.8497      0.1017    -12.1043     22.4999    100.5441
  1231.3000      8.1258      2.8501      0.0789    -12.1246     22.1401     90.5660
  1231.4000      8.1258      2.8464      0.0462    -11.9014     21.6721     81.5501
  1231.5000      8.1291      2.8485      0.0209    -12.0322     21.0877     78.9936
  1231.6000      8.1291      2.8451      0.0445    -11.8258     20.6870     82.8164
  1231.7000      8.1291      2.8181      0.0328    -10.1854     20.0545     87.0569
  1231.8000      8.1530      2.7772     -0.0005     -7.7118     18.9256     85.7709
  1231.9000      8.1530      2.7403     -0.0016     -5.4722     18.0005     82.8510
  1232.0000      8.1654      2.7098      0.0057     -3.6250     18.0743     85.4004
  1232.1000      8.1654      2.6787      0.0089     -1.7396     19.2728     89.9664
  1232.2000      8.1654      2.6497     -0.0442      0.0185     20.5464     89.2362
  1232.3000      8.1783      2.6329      0.0285      1.0345     20.7144     84.8737
  1232.4000      8.1783      2.6234      0.0132      1.6131     19.8423     82.6112
  1232.5000      8.1751      2.6201      0.0204      1.8151     18.8922     84.3056
  1232.6000      8.1751      2.6345     -0.0379      0.9396     18.7414     87.6210
  1232.7000      8.1751      2.6571      0.0625     -0.4284     19.1675     88.1964
  1232.8000      8.1597      2.6624      0.0675     -0.7532     19.5067     85.8695
  1232.9000      8.1597      2.6486      0.0755      0.0851     19.8922     83.9686
  1233.0000      8.1579      2.6285      0.0519      1.3051     20.6614     85.3936
  1233.1000      8.1579      2.6117      0.0394      2.3241     21.7478     93.4131
  1233.2000      8.1579      2.6035      0.0240      2.8209     22.7800    102.7019
  1233.3000      8.1535      2.6064      0.0037      2.6410     23.1746    105.6431
  1233.4000      8.1535      2.6206      0.0220      1.7828     22.7204    106.7181
  1233.5000      8.1553      2.6387      0.0669      0.6874     22.1730    110.0870
  1233.6000      8.1553      2.6535      0.0622     -0.2130     22.1676    110.8333
  1233.7000      8.1553      2.6658      0.0500     -0.9552     22.5884    107.7292
  1233.8000      8.1684      2.6720      0.0928     -1.3354     23.2047    107.5953
  1233.9000      8.1684      2.6627      0.0822     -0.7668     23.7656    114.3896
  1234.0000      8.1810      2.6374      0.0887      0.7666     24.2775    121.5595
  1234.1000      8.1810      2.6090      0.0435      2.4832     24.9131    121.7057
  1234.2000      8.1810      2.5977      0.0258      3.1667     25.5226    116.4413
  1234.3000      8.1808      2.6064      0.0684      2.6421     25.9861    114.6141
  1234.4000      8.1808      2.6150      0.0409      2.1205     26.2939    120.4003
  1234.5000      8.1815      2.6113      0.0580      2.3481     26.5561    125.5545
  1234.6000      8.1815      2.6000      0.0489      3.0273     27.0983    124.7093
  1234.7000      8.1815      2.5996     -0.0004      3.0527     27.6808    120.4108
  1234.8000      8.1804      2.6245      0.0229      1.5447     27.5125    114.4845
  1234.9000      8.1804      2.6610      0.0791     -0.6647     26.6501    111.1161
  1235.0000      8.1706      2.6820      0.0868     -1.9376     26.0510    113.7637
  1235.1000      8.1706      2.6765      0.0644     -1.6065     26.1007    119.8973
