~Version Information
VERS.                      2.0: CWLS Log ASCII Standard - VERSION 2.0
WRAP.                       NO: One line per depth step
~Well Information Block
STRT.FT               480.0000: 
STOP.FT              1994.2000: 
STEP.FT                 0.1000: 
NULL.                -999.2500: 
COMP.          Evergreen Operating Corporation: COMPANY
WELL.          McCullough 34-32 Tr: WELL
FLD.           Purgatoire River: FIELD
LOC.           394' FSL & 2077' FEL: LOCATION
PROV.                 Colorado: PROVINCE
CNTY.               Las Animas: COUNTRY
SRVC.                Patterson: SERVICE COMPANY
DATE.          Mon Sep 20 07:30:00 2004: LOG DATE
UWI.           05 071 08157 00: UNIQUE WELL ID
~Curve Information Block
DEPT.FT            0 000 00 00: Depth
DCAL.in                       : CDL Caliper
RHOB.g/cc                     : CDL Bulk Density
RHOC.g/cc                     : CDL Density Correction
DPOR.pu                       : CDL Density Porosity
NPOR.pu                       : Neutron Porosity
GR.GAPI                       : Gamma Ray
~Parameter Information Block
~A  Depth       DCAL        RHOB        RHOC        DPOR        NPOR         GR     
# ...
  1075.2000      8.0414      2.5909      0.0415      3.5815     24.6335     95.3783
  1075.3000      8.0423      2.6032      0.0590      2.8347     24.5733     93.8387
  1075.4000      8.0423      2.6117      0.0386      2.3231     25.3431     92.8561
  1075.5000      8.0389      2.6211      0.0681      1.7544     26.2599     95.8777
  1075.6000      8.0389      2.6256      0.0997      1.4811     26.6902    102.2958
  1075.7000      8.0389      2.6111      0.0773      2.3554     26.3637    106.9033
  1075.8000      8.0356      2.5830      0.0135      4.0635     25.6848    108.0974
  1075.9000      8.0356      2.5655      0.0298      5.1230     25.5626    107.1543
  1076.0000      8.0368      2.5622      0.0480      5.3193     25.7678    106.7566
  1076.1000      8.0368      2.5581      0.0158      5.5711     25.4231    108.5913
  1076.2000      8.0368      2.5560     -0.0007      5.6988     24.8355    112.2648
  1076.3000      8.0382      2.5633      0.0274      5.2557     24.7027    114.2118
  1076.4000      8.0382      2.5727      0.0375      4.6842     25.1037    112.7660
  1076.5000      8.0400      2.5777      0.0447      4.3829     25.6421    112.2801
  1076.6000      8.0400      2.5842      0.0121      3.9864     26.1162    115.3169
  1076.7000      8.0400      2.6017      0.0447      2.9255     26.3809    118.3513
  1076.8000      8.0424      2.6225      0.0605      1.6640     26.1851    117.7604
  1076.9000      8.0424      2.6280      0.0620      1.3345     25.6217    114.8119
  1077.0000      8.0419      2.6122      0.0489      2.2892     25.1574    113.6969
  1077.1000      8.0419      2.5904      0.0078      3.6137     25.3381    115.0965
  1077.2000      8.0419      2.5836     -0.0025      4.0244     26.1201    116.9440
  1077.3000      8.0398      2.5955     -0.0100      3.3027     26.8772    118.0076
  1077.4000      8.0398      2.6178      0.0040      1.9538     26.9631    117.9518
  1077.5000      8.0390      2.6410      0.0299      0.5425     26.2652    119.2740
  1077.6000      8.0390      2.6489      0.0597      0.0675     25.2491    122.8025
  1077.7000      8.0390      2.6296      0.0354      1.2364     24.2807    122.8625
  1077.8000      8.0390      2.5944      0.0252      3.3685     23.6882    114.4820
  1077.9000      8.0390      2.5644      0.0495      5.1897     23.7872    103.1594
  1078.0000      8.0384      2.5514      0.0344      5.9760     24.5850     99.6218
  1078.1000      8.0384      2.5518      0.0419      5.9545     25.4105    106.6070
  1078.2000      8.0384      2.5545      0.0165      5.7893     25.5187    115.8863
  1078.3000      8.0376      2.5505      0.0400      6.0273     25.1030    117.7564
  1078.4000      8.0376      2.5417     -0.0034      6.5645     24.6797    112.2622
  1078.5000      8.0370      2.5503     -0.0197      6.0406     24.6714    107.5573
  1078.6000      8.0370      2.5834      0.0370      4.0357     25.4469    109.6148
  1078.7000      8.0370      2.6133      0.0698      2.2261     26.6617    115.2712
  1078.8000      8.0366      2.6231      0.0700      1.6332     27.4283    118.2509
  1078.9000      8.0366      2.6213      0.0803      1.7382     27.4620    117.2195
  1079.0000      8.0352      2.6198      0.0732      1.8297     27.3596    115.9567
  1079.1000      8.0352      2.6293      0.0953      1.2558     27.6045    118.4014
  1079.2000      8.0352      2.6548      0.0820     -0.2922     28.1750    122.1707
  1079.3000      8.0281      2.6806      0.1493     -1.8544     28.7820    122.4278
  1079.4000      8.0281      2.6868      0.1210     -2.2279     29.1469    120.2733
  1079.5000      8.0312      2.6709      0.1076     -1.2676     29.1397    120.7203
  1079.6000      8.0312      2.6334      0.0746      1.0090     28.9581    125.6553
  1079.7000      8.0312      2.5799     -0.0049      4.2496     28.9845    132.6315
  1079.8000      8.0622      2.5235     -0.0127      7.6639     29.0065    139.0209
  1079.9000      8.0622      2.4699     -0.0246     10.9140     28.5104    142.1314
  1080.0000      8.0881      2.4231     -0.0417     13.7510     28.1324    138.6653
  1080.1000      8.0881      2.3853     -0.0493     16.0411     28.7978    131.9393
  1080.2000      8.0881      2.3607     -0.0467     17.5359     30.0084    130.4323
  1080.3000      8.0940      2.3643     -0.0696     17.3140     30.5848    134.6547
  1080.4000      8.0940      2.4010     -0.0352     15.0887     29.9740    138.6986
  1080.5000      8.0943      2.4452      0.0396     12.4109     28.8209    141.9582
  1080.6000      8.0943      2.4671      0.0795     11.0820     28.0481    148.0396
  1080.7000      8.0943      2.4707      0.0712     10.8644     27.9490    155.1090
  1080.8000      8.0955      2.4821      0.0895     10.1728     28.5451    155.2945
  1080.9000      8.0955      2.5084      0.1718      8.5797     29.3039    146.9683
  1081.0000      8.0944      2.5379      0.1729      6.7934     29.3785    140.7767
  1081.1000      8.0944      2.5610      0.2197      5.3941     28.8858    143.8498
  1081.2000      8.0944      2.5708      0.2112      4.7973     28.5512    151.9042
  1081.3000      8.0874      2.5675      0.1724      4.9990     28.6566    158.9927
  1081.4000      8.0874      2.5559      0.1013      5.7015     29.0347    161.7090
  1081.5000      8.0772      2.5457      0.0466      6.3198     29.2102    155.7217
  1081.6000      8.0772      2.5471      0.0409      6.2337     29.0213    142.4526
  1081.7000      8.0772      2.5512      0.0725      5.9873     29.0132    130.5026
  1081.8000      8.0732      2.5201      0.1016      7.8699     29.8967    126.2764
  1081.9000      8.0732      2.4186      0.0472     14.0242     31.5028    126.9181
  1082.0000      8.0751      2.2616     -0.0553     23.5394     32.8024    125.6844
  1082.1000      8.0751      2.1009     -0.1359     33.2811     33.0195    120.4598
  1082.2000      8.0751      1.9699     -0.1382     41.2192     32.4859    114.1845
  1082.3000      8.0784      1.8676     -0.1258     47.4183     31.9286    109.1400
  1082.4000      8.0784      1.7960     -0.2175     51.7569     31.4530    105.4069
  1082.5000      8.0942      1.7769     -0.1678     52.9140     30.9269    102.7831
  1082.6000      8.0942      1.8167     -0.0909     50.5036     30.5152    100.7701
  1082.7000      8.0942      1.8966      0.0321     45.6604     30.1883     97.9059
  1082.8000      8.1449      1.9968      0.1388     39.5850     29.4697     93.2138
  1082.9000      8.1449      2.1058      0.2388     32.9842     28.0539     86.9499
  1083.0000      8.2053      2.2188      0.2768     26.1322     26.2451     82.0116
  1083.1000      8.2053      2.3430      0.2667     18.6069     24.6052     82.1132
  1083.2000      8.2053      2.4791      0.2987     10.3550     23.5652     87.0484
  1083.3000      8.1988      2.5959      0.3134      3.2811     23.4972     91.2738
  1083.4000      8.1988      2.6537      0.2239     -0.2215     24.1258     90.7226
  1083.5000      8.1332      2.6496      0.1119      0.0222     24.8530     88.2967
  1083.6000      8.1332      2.6219      0.0596      1.7022     25.6332     89.6217
  1083.7000      8.1332      2.6085      0.0704      2.5149     26.3240     95.2793
  1083.8000      8.0821      2.6104      0.0730      2.3984     26.4273    102.2521
  1083.9000      8.0821      2.6128      0.0478      2.2527     25.8875    110.0475
  1084.0000      8.0645      2.6096      0.0477      2.4461     25.3905    119.2501
  1084.1000      8.0645      2.5996      0.0314      3.0520     25.5037    128.1024
  1084.2000      8.0645      2.5893      0.0220      3.6818     25.8619    131.6728
  1084.3000      8.0630      2.5900      0.0216      3.6393     25.7291    129.6157
  1084.4000      8.0630      2.6037      0.0176      2.8076     24.9497    126.9395
  1084.5000      8.0657      2.6164      0.0885      2.0362     24.0408    124.8308
  1084.6000      8.0657      2.6155      0.0674      2.0916     23.5495    122.0546
  1084.7000      8.0657      2.6069      0.0538      2.6141     23.7415    119.6919
