~Version Information
 VERS.                      2.0: CWLS Log ASCII Standard - VERSION 2.0
 WRAP.                       NO: One line per depth step
 ~Well Information Block
 STRT.FT               465.6000: 
 STOP.FT              1777.2000: 
 STEP.FT                 0.1000: 
 NULL.                -999.2500: 
 COMP.          Petrogulf Corporation: COMPANY
 WELL.          Alexander 9-43R: WELL
 FLD.           Purgatorie River: FIELD
 LOC.           1652' FSL & 1049' FEL: LOCATION
 CNTY.               Las Animas: COUNTY
 SRVC.                         : SERVICE COMPANY
 DATE.          Fri Sep 03 15:08:45 2004: LOG DATE
 UWI.           05 071 08036 00: UNIQUE WELL ID
 STAT.                 Colorado: STATE
 PROV.                         :Province
 ~Curve Information Block
 DEPT.FT            0 000 00 00: Depth
 DCAL.in                       : CDL Caliper
 RHOB.g/cc                     : CDL Bulk Density
 RHOC.g/cc                     : CDL Density Correction
 DPOR.pu                       : CDL Density Porosity
 GR.GAPI                       : Gamma Ray
 NPOR.pu                       : Neutron Porosity
 ~Parameter Information Block
 ~A  Depth       DCAL        RHOB        RHOC        DPOR         GR         NPOR    
# ...
  1252.8000      8.0846      2.5566      0.1188      5.6594    146.9638     23.2427
  1252.9000      8.0846      2.5388      0.0746      6.7417    150.5280     23.9431
  1253.0000      8.0898      2.5282      0.1051      7.3789    152.4558     24.4144
  1253.1000      8.0898      2.5288      0.1118      7.3436    156.6133     24.8708
  1253.2000      8.0898      2.5342      0.1316      7.0169    160.6235     25.7928
  1253.3000      8.0919      2.5376      0.0793      6.8136    162.2153     26.8780
  1253.4000      8.0919      2.5473      0.0782      6.2271    164.1588     27.4347
  1253.5000      8.1053      2.5614      0.1108      5.3678    165.2182     27.4166
  1253.6000      8.1053      2.5550      0.1608      5.7557    164.9485     27.3080
  1253.7000      8.1053      2.5247      0.0467      7.5965    167.5488     27.4566
  1253.8000      8.1089      2.4983      0.0585      9.1923    173.0256     27.7686
  1253.9000      8.1089      2.4863      0.0697      9.9227    175.4912     27.9704
  1254.0000      8.1190      2.4860      0.0390      9.9397    172.3176     28.1322
  1254.1000      8.1190      2.5082      0.0320      8.5922    166.3915     28.3562
  1254.2000      8.1190      2.5531      0.0923      5.8711    160.8659     28.3815
  1254.3000      8.1234      2.5986      0.1153      3.1125    158.8806     28.0516
  1254.4000      8.1234      2.6234      0.1322      1.6146    159.1346     27.6309
  1254.5000      8.1235      2.6255      0.1258      1.4827    159.1687     27.5339
  1254.6000      8.1235      2.6226      0.1146      1.6596    160.6425     27.8148
  1254.7000      8.1235      2.6182      0.1453      1.9266    162.7172     27.9958
  1254.8000      8.1068      2.5948      0.1061      3.3461    162.0306     27.7508
  1254.9000      8.1068      2.5601      0.0515      5.4478    157.8329     27.4191
  1255.0000      8.1046      2.5406      0.0692      6.6284    151.7991     27.5282
  1255.1000      8.1046      2.5387      0.0908      6.7461    150.0275     27.9206
  1255.2000      8.1046      2.5398      0.0778      6.6781    155.5896     27.9882
  1255.3000      8.1438      2.5386      0.0653      6.7524    160.3564     27.7609
  1255.4000      8.1438      2.5409      0.0490      6.6125    158.8085     27.7450
  1255.5000      8.1544      2.5539      0.0169      5.8254    155.5516     28.2228
  1255.6000      8.1544      2.5774      0.0583      4.3972    152.9301     28.9705
  1255.7000      8.1544      2.5951      0.1005      3.3275    148.6334     29.6246
  1255.8000      8.1628      2.5885      0.0892      3.7290    143.7420     29.9796
  1255.9000      8.1628      2.5673      0.0223      5.0131    138.1928     29.8367
  1256.0000      8.1615      2.5550      0.0618      5.7583    130.9749     29.0823
  1256.1000      8.1615      2.5533      0.0266      5.8614    124.4261     28.0709
  1256.2000      8.1615      2.5498      0.0091      6.0709    121.3568     27.6547
  1256.3000      8.1378      2.5370      0.0013      6.8456    121.5189     28.0937
  1256.4000      8.1378      2.5185     -0.0121      7.9679    121.4709     28.6810
  1256.5000      8.1063      2.5055     -0.0023      8.7559    119.7556     28.9281
  1256.6000      8.1063      2.5025      0.0355      8.9395    116.7612     29.0746
  1256.7000      8.1063      2.5101     -0.0261      8.4762    111.8213     29.1328
  1256.8000      8.0875      2.5383      0.0100      6.7674    106.2175     28.9394
  1256.9000      8.0875      2.5851      0.0863      3.9309    102.1407     28.7700
  1257.0000      8.0736      2.6289      0.1115      1.2783     97.3459     28.7777
  1257.1000      8.0736      2.6595      0.1324     -0.5751     91.2306     28.7268
  1257.2000      8.0736      2.6785      0.1434     -1.7253     90.4195     28.3839
  1257.3000      7.9959      2.6827      0.1266     -1.9848     94.6111     27.8122
  1257.4000      7.9959      2.6761      0.1010     -1.5800     95.1682     27.3003
  1257.5000      7.9882      2.6708      0.0470     -1.2593     92.0173     26.8795
  1257.6000      7.9882      2.6717      0.0488     -1.3138     91.2622     26.6054
  1257.7000      7.9882      2.6702      0.0210     -1.2249     92.7098     26.6351
  1257.8000      8.0051      2.6574      0.0190     -0.4499     92.8644     26.5491
  1257.9000      8.0051      2.6326      0.0404      1.0576     91.6114     26.1254
  1258.0000      8.0581      2.6020      0.0474      2.9093     89.1680     25.9688
  1258.1000      8.0581      2.5851     -0.0455      3.9305     87.4643     26.0090
  1258.2000      8.0581      2.5924      0.0526      3.4928     90.1451     25.5700
  1258.3000      8.0531      2.6097      0.0689      2.4406     95.4641     25.0568
  1258.4000      8.0531      2.6288      0.1103      1.2827     96.6587     25.2004
  1258.5000      8.0154      2.6482      0.1129      0.1114     91.7902     25.5361
  1258.6000      8.0154      2.6624      0.0736     -0.7527     84.2801     25.4866
  1258.7000      8.0154      2.6639      0.1071     -0.8408     78.5199     25.3504
  1258.8000      8.0152      2.6489      0.1262      0.0692     77.3110     25.2206
  1258.9000      8.0152      2.6283      0.0674      1.3126     78.9800     24.8132
  1259.0000      8.0408      2.6168      0.0580      2.0145     82.1909     24.3926
  1259.1000      8.0408      2.6143      0.0509      2.1606     88.0369     24.3353
  1259.2000      8.0408      2.6113      0.0252      2.3449     93.2176     24.6021
  1259.3000      8.0492      2.6021      0.0005      2.9026     90.8396     25.0001
  1259.4000      8.0492      2.5860      0.0357      3.8796     83.5248     25.2192
  1259.5000      8.0626      2.5671     -0.0087      5.0219     82.2736     25.0217
  1259.6000      8.0626      2.5603     -0.0280      5.4392     88.6637     24.5696
  1259.7000      8.0626      2.5725     -0.0118      4.6947     95.3817     24.1397
  1259.8000      8.0659      2.5920      0.0682      3.5181    100.3984     23.7160
  1259.9000      8.0659      2.6063      0.0681      2.6487    105.6950     23.2966
  1260.0000      8.0526      2.6155      0.0839      2.0892    109.2430     23.1118
  1260.1000      8.0526      2.6218      0.0862      1.7114    111.3497     23.3009
  1260.2000      8.0526      2.6232      0.1791      1.6254    116.3456     23.8194
  1260.3000      8.0421      2.6119      0.1344      2.3096    122.8654     24.3685
  1260.4000      8.0421      2.5844      0.1563      3.9763    125.7167     24.4597
  1260.5000      8.0468      2.5522      0.0733      5.9287    123.7369     24.1283
  1260.6000      8.0468      2.5378      0.0802      6.7986    118.6072     24.0541
  1260.7000      8.0468      2.5521      0.0563      5.9356    114.0994     24.3718
  1260.8000      8.0508      2.5866      0.1175      3.8408    114.5195     24.9316
  1260.9000      8.0508      2.6241      0.1856      1.5677    116.5645     25.8829
  1261.0000      8.0632      2.6507      0.1805     -0.0447    114.6227     26.8697
  1261.1000      8.0632      2.6602      0.2118     -0.6202    114.8394     27.2906
  1261.2000      8.0632      2.6465      0.2387      0.2100    122.0387     26.9165
  1261.3000      8.0874      2.6106      0.1655      2.3854    129.3060     26.0506
  1261.4000      8.0874      2.5654      0.1168      5.1264    132.2487     25.3156
  1261.5000      8.0943      2.5244      0.0503      7.6120    132.3407     25.0233
  1261.6000      8.0943      2.4996     -0.0120      9.1144    129.7475     25.1740
  1261.7000      8.0943      2.4930      0.0141      9.5178    127.1428     25.3712
  1261.8000      8.0978      2.4925      0.0342      9.5477    128.3803     25.0939
  1261.9000      8.0978      2.4897      0.0247      9.7177    132.7693     24.5875
  1262.0000      8.0968      2.4910      0.0036      9.6375    139.5331     24.3892
  1262.1000      8.0968      2.5010      0.0749      9.0321    147.8123     24.5455
  1262.2000      8.0968      2.5123      0.0670      8.3431    155.7438     24.9478
  1262.3000      8.0995      2.5188      0.0640      7.9516    162.8250     25.3994
