~Version Information
 VERS.                      2.0: CWLS Log ASCII Standard - VERSION 2.0
 WRAP.                       NO: One line per depth step
 ~Well Information Block
 STRT.FT               115.0000: 
 STOP.FT              1768.2500: 
 STEP.FT                 0.2500: 
 NULL.                -999.2500: 
 COMP.          Petrogulf Corporation: COMPANY
 WELL.           Parsons 23-15V: WELL
 FLD.           Purgatorie River: FIELD
 LOC.           2095' FSL & 1817' FWL--API 05 071 07556 00----: LOCATION
 CNTY.               Las Animas: COUNTY
 SRVC.                         : SERVICE COMPANY
 DATE.          Fri Apr 19 16:58:41 2002: LOG DATE
 UWI.                          : UNIQUE WELL ID
 STAT.                       CO: STATE
 PROV.                         :Province
 ~Curve Information Block
 DEPT.FT            0 000 00 00: Depth
 SP.mV                         : DIL Spontaneous Potential
 RILD.Ohm-m                    : DIL Deep Resistivity
 RILM.Ohm-m                    : DIL Medium Resistivity
 RLL3.Ohm-m                    : DIL Shallow Resistivity
 GR.GAPI                       : Gamma Ray
 ~Parameter Information Block
 ~A  Depth        SP         RILD        RILM        RLL3         GR     
# ...
  1207.0000   -183.3894      8.9957      9.0662      9.8372    151.3820
  1207.2500   -183.3817      8.9189      9.0614     10.1261    149.8019
  1207.5000   -183.4429      8.8451      9.0633     10.4275    148.2308
  1207.7500   -183.5549      8.7840      9.0584     10.6494    148.1332
  1208.0000   -183.6861      8.7453      9.0402     10.7411    150.3176
  1208.2500   -183.8002      8.7356      9.0104     10.7083    154.7761
  1208.5000   -183.8708      8.7564      8.9777     10.5947    160.7287
  1208.7500   -183.8882      8.8047      8.9547     10.4547    166.3821
  1209.0000   -183.8577      8.8729      8.9553     10.3364    169.5107
  1209.2500   -183.7937      8.9504      8.9906     10.2755    169.0967
  1209.5000   -183.7126      9.0260      9.0656     10.2984    166.1189
  1209.7500   -183.6275      9.0893      9.1763     10.4315    162.3742
  1210.0000   -183.5440      9.1341      9.3096     10.6949    158.8740
  1210.2500   -183.4605      9.1594      9.4464     11.0761    155.6413
  1210.5000   -183.3713      9.1689      9.5671     11.5068    152.6402
  1210.7500   -183.2706      9.1693      9.6579     11.8768    150.2952
  1211.0000   -183.1566      9.1680      9.7141     12.0849    149.0876
  1211.2500   -183.0345      9.1718      9.7393     12.0934    149.2277
  1211.5000   -182.9173      9.1854      9.7422     11.9407    150.7480
  1211.7500   -182.8229      9.2108      9.7323     11.7036    153.1555
  1212.0000   -182.7666      9.2471      9.7176     11.4456    154.8727
  1212.2500   -182.7532      9.2903      9.7038     11.1936    153.9827
  1212.5000   -182.7792      9.3344      9.6957     10.9484    150.0034
  1212.7500   -182.8404      9.3712      9.6991     10.7154    144.3078
  1213.0000   -182.9385      9.3917      9.7190     10.5411    138.6062
  1213.2500   -183.0742      9.3888      9.7559     10.5368    133.7800
  1213.5000   -183.2377      9.3596      9.8029     10.8349    130.2717
  1213.7500   -183.4041      9.3070      9.8441     11.4596    128.5113
  1214.0000   -183.5420      9.2382      9.8593     12.2168    128.5250
  1214.2500   -183.6247      9.1620      9.8309     12.7690    129.8707
  1214.5000   -183.6382      9.0866      9.7510     12.8800    132.3764
  1214.7500   -183.5829      9.0194      9.6248     12.5828    136.4070
  1215.0000   -183.4728      8.9658      9.4686     12.0960    142.0426
  1215.2500   -183.3316      8.9297      9.3035     11.6174    148.3526
  1215.5000   -183.1915      8.9117      9.1489     11.2229    153.7570
  1215.7500   -183.0894      8.9094      9.0189     10.9118    156.9358
  1216.0000   -183.0583      8.9186      8.9215     10.6882    157.4622
  1216.2500   -183.1142      8.9355      8.8589     10.5920    155.9119
  1216.5000   -183.2476      8.9597      8.8294     10.6731    153.3934
  1216.7500   -183.4292      8.9954      8.8292     10.9357    150.7644
  1217.0000   -183.6261      9.0502      8.8546     11.2986    148.1884
  1217.2500   -183.8152      9.1332      8.9053     11.6148    145.3972
  1217.5000   -183.9865      9.2508      8.9869     11.7519    142.2827
  1217.7500   -184.1420      9.4042      9.1131     11.6829    139.1054
  1218.0000   -184.2943      9.5878      9.3041     11.5503    136.0463
  1218.2500   -184.4669      9.7902      9.5821     11.7135    132.7278
  1218.5000   -184.6855      9.9973      9.9631     12.7726    128.4052
  1218.7500   -184.9614     10.1961     10.4463     15.4382    122.7046
  1219.0000   -185.2777     10.3777     11.0043     20.0385    116.2484
  1219.2500   -185.5905     10.5392     11.5773     25.7990    110.8195
  1219.5000   -185.8470     10.6832     12.0828     30.6727    108.7840
  1219.7500   -186.0101     10.8162     12.4439     32.4130    111.5629
  1220.0000   -186.0777     10.9471     12.6239     30.2432    118.1326
  1220.2500   -186.0821     11.0841     12.6406     25.4511    125.5342
  1220.5000   -186.0692     11.2312     12.5497     20.2811    131.4114
  1220.7500   -186.0680     11.3848     12.4128     16.3600    135.8162
  1221.0000   -186.0754     11.5325     12.2735     14.0857    140.2659
  1221.2500   -186.0676     11.6575     12.1511     13.0470    145.5503
  1221.5000   -186.0253     11.7462     12.0471     12.6692    150.8702
  1221.7500   -185.9471     11.7951     11.9567     12.5535    154.5637
  1222.0000   -185.8440     11.8137     11.8792     12.5156    155.1200
  1222.2500   -185.7273     11.8207     11.8224     12.5121    152.0561
  1222.5000   -185.6007     11.8376     11.8019     12.5670    146.5716
  1222.7500   -185.4598     11.8827     11.8360     12.7204    140.9893
  1223.0000   -185.2968     11.9686     11.9417     12.9951    136.8427
  1223.2500   -185.1087     12.1021     12.1314     13.3944    133.6787
  1223.5000   -184.9031     12.2867     12.4118     13.9227    130.1323
  1223.7500   -184.6955     12.5235     12.7839     14.5991    125.8325
  1224.0000   -184.5017     12.8119     13.2431     15.4433    121.6948
  1224.2500   -184.3340     13.1484     13.7799     16.4474    118.5047
  1224.5000   -184.2032     13.5261     14.3806     17.5571    115.8026
  1224.7500   -184.1180     13.9339     15.0275     18.6813    112.4701
  1225.0000   -184.0804     14.3571     15.6990     19.7272    108.2456
  1225.2500   -184.0808     14.7790     16.3687     20.6301    104.2720
  1225.5000   -184.1010     15.1842     17.0052     21.3461    102.0424
  1225.7500   -184.1236     15.5599     17.5727     21.8231    102.1796
  1226.0000   -184.1396     15.8959     18.0368     21.9979    104.4753
  1226.2500   -184.1474     16.1850     18.3721     21.8331    108.6912
  1226.5000   -184.1445     16.4225     18.5696     21.3523    114.7327
  1226.7500   -184.1215     16.6057     18.6378     20.6419    122.0258
  1227.0000   -184.0626     16.7338     18.5974     19.8288    129.2295
  1227.2500   -183.9545     16.8062     18.4744     19.0481    134.9063
  1227.5000   -183.7943     16.8231     18.2947     18.4014    138.3945
  1227.7500   -183.5913     16.7867     18.0822     17.9271    139.9566
  1228.0000   -183.3620     16.7016     17.8582     17.6110    140.3571
  1228.2500   -183.1244     16.5743     17.6395     17.4240    140.5107
  1228.5000   -182.8951     16.4130     17.4356     17.3456    141.2128
  1228.7500   -182.6900     16.2282     17.2467     17.3608    142.6020
  1229.0000   -182.5214     16.0331     17.0657     17.4475    143.8345
  1229.2500   -182.3894     15.8427     16.8828     17.5659    143.7964
  1229.5000   -182.2767     15.6697     16.6901     17.6544    142.3833
  1229.7500   -182.1555     15.5210     16.4842     17.6518    140.7742
  1230.0000   -182.0017     15.3972     16.2676     17.5349    140.2520
  1230.2500   -181.8034     15.2946     16.0471     17.3290    140.9680
  1230.5000   -181.5622     15.2076     15.8309     17.0744    142.0684
  1230.7500   -181.2897     15.1299     15.6258     16.7921    142.9384
  1231.0000   -181.0023     15.0534     15.4349     16.4879    143.9990
  1231.2500   -180.7144     14.9695     15.2590     16.1833    146.1664
  1231.5000   -180.4335     14.8722     15.0973     15.9359    149.7041
  1231.7500   -180.1604     14.7617     14.9478     15.8170    153.7511
  1232.0000   -179.8964     14.6460     14.8072     15.8587    156.7992
  1232.2500   -179.6485     14.5383     14.6710     16.0160    157.5768
  1232.5000   -179.4276     14.4528     14.5363     16.1819    155.8733
  1232.7500   -179.2430     14.4001     14.4050     16.2506    152.8512
  1233.0000   -179.1002     14.3869     14.2859     16.1834    150.3861
  1233.2500   -179.0022     14.4176     14.1939     16.0233    149.6889
  1233.5000   -178.9482     14.4961     14.1468     15.8549    150.3817
  1233.7500   -178.9308     14.6255     14.1627     15.7568    150.8450
  1234.0000   -178.9374     14.8068     14.2574     15.7909    149.4999
  1234.2500   -178.9557     15.0372     14.4443     16.0169    145.9957
  1234.5000   -178.9762     15.3110     14.7334     16.4952    141.3624
  1234.7500   -178.9913     15.6219     15.1309     17.2782    137.0016
