~Version Information
VERS.                      2.0: CWLS Log ASCII Standard - VERSION 2.0
WRAP.                       NO: One line per depth step
~Well Information Block
STRT.FT               483.5000: 
STOP.FT              2348.7500: 
STEP.FT                 0.2500: 
NULL.                -999.2500: 
COMP.          Pioneer Natural Resources: COMPANY
WELL.          Hill Climb 22-2: WELL
FLD.           Purgatoire River: FIELD
LOC.           1820' FNL & 2193' FWL: LOCATION
PROV.                 Colorado: PROVINCE
CNTY.               Las Animas: COUNTRY
SRVC.                Patterson: SERVICE COMPANY
DATE.          Wed Oct 20 08:57:51 2004: LOG DATE
UWI.           05 071 08175 00: UNIQUE WELL ID
~Curve Information Block
DEPT.FT            0 000 00 00: Depth
DIR.Ohm-m                     : IEL Induction Resistivity
SN.Ohm-m                      : IEL Short Normal
SP.mV                         : IEL Spontaneous Potential
GR.GAPI                       : Gamma Ray
~Parameter Information Block
~A  Depth       DIR          SN          SP          GR     
# ...
  1723.0000      0.0000      0.0000      0.0000    112.4450
  1723.2500      0.0000      0.0000      0.0000    118.0517
  1723.5000      0.0000      0.0000      0.0000    118.0553
  1723.7500      0.0000      0.0000      0.0000    113.2035
  1724.0000      0.0000      0.0000      0.0000    102.3737
  1724.2500      0.0000      0.0000      0.0000     94.9957
  1724.5000      0.0000      0.0000      0.0000     86.3777
  1724.7500      0.0000      0.0000      0.0000     83.1218
  1725.0000      0.0000      0.0000      0.0000     82.0186
  1725.2500      0.0000      0.0000      0.0000     82.9625
  1725.5000      0.0000      0.0000      0.0000     84.7162
  1725.7500      0.0000      0.0000      0.0000     85.1945
  1726.0000      0.0000      0.0000      0.0000     84.8552
  1726.2500      0.0000      0.0000      0.0000     84.7567
  1726.5000      0.0000      0.0000      0.0000     86.6776
  1726.7500      0.0000      0.0000      0.0000     89.9558
  1727.0000      0.0000      0.0000      0.0000     96.8901
  1727.2500      0.0000      0.0000      0.0000    100.9521
  1727.5000      0.0000      0.0000      0.0000    102.0802
  1727.7500      0.0000      0.0000      0.0000     98.1371
  1728.0000      0.0000      0.0000      0.0000     86.6939
  1728.2500      0.0000      0.0000      0.0000     78.2838
  1728.5000      0.0000      0.0000      0.0000     70.1548
  1728.7500      0.0000      0.0000      0.0000     69.8093
  1729.0000      0.0000      0.0000      0.0000     77.0734
  1729.2500      0.0000      0.0000      0.0000     85.5457
  1729.5000      0.0000      0.0000      0.0000     99.7555
  1729.7500      0.0000      0.0000      0.0000    107.9398
  1730.0000      0.0000      0.0000      0.0000    115.8097
  1730.2500      0.0000      0.0000      0.0000    118.2886
  1730.5000      0.0000      0.0000      0.0000    120.7764
  1730.7500      0.0000      0.0000      0.0000    123.2547
  1731.0000      0.0000      0.0000      0.0000    127.6588
  1731.2500      0.0000      0.0000      0.0000    129.0723
  1731.5000      0.0000      0.0000      0.0000    126.8886
  1731.7500      0.0000      0.0000      0.0000    123.7625
  1732.0000      0.0000      0.0000      0.0000    120.9154
  1732.2500      0.0000      0.0000      0.0000    121.8589
  1732.5000      0.0000      0.0000      0.0000    126.7951
  1732.7500      0.0000      0.0000      0.0000    130.8494
  1733.0000      0.0000      0.0000      0.0000    136.0216
  1733.2500      0.0000      0.0000      0.0000    138.2972
  1733.5000      0.0000      0.0000      0.0000    138.6290
  1733.7500      0.0000      0.0000      0.0000    135.6094
  1734.0000      0.0000      0.0000      0.0000    125.2050
  1734.2500      0.0000      0.0000      0.0000    115.2881
  1734.5000      0.0000      0.0000      0.0000     99.6389
  1734.7500      0.0000      0.0000      0.0000     90.8327
  1735.0000      0.0000      0.0000      0.0000     82.0609
  1735.2500      0.0000      0.0000      0.0000     79.5316
  1735.5000      0.0000      0.0000      0.0000     81.1026
  1735.7500      0.0000      0.0000      0.0000     85.9463
  1736.0000      0.0000      0.0000      0.0000     98.3541
  1736.2500      0.0000      0.0000      0.0000    108.8692
  1736.5000      0.0000      0.0000      0.0000    124.9585
  1736.7500      0.0000      0.0000      0.0000    134.1393
  1737.0000      0.0000      0.0000      0.0000    143.4860
  1737.2500      0.0000      0.0000      0.0000    146.3344
  1737.5000      0.0000      0.0000      0.0000    146.2519
  1737.7500      0.0000      0.0000      0.0000    144.0202
  1738.0000      0.0000      0.0000      0.0000    137.7634
  1738.2500      0.0000      0.0000      0.0000    131.4687
  1738.5000      0.0000      0.0000      0.0000    119.8636
  1738.7500      0.0000      0.0000      0.0000    112.6446
  1739.0000      0.0000      0.0000      0.0000    106.7844
  1739.2500      0.0000      0.0000      0.0000    107.7733
  1739.5000      0.0000      0.0000      0.0000    116.4499
  1739.7500      0.0000      0.0000      0.0000    125.3312
  1740.0000      0.0000      0.0000      0.0000    138.8471
  1740.2500      0.0000      0.0000      0.0000    145.5746
  1740.5000      0.0000      0.0000      0.0000    150.5033
  1740.7500      0.0000      0.0000      0.0000    150.9850
  1741.0000      0.0000      0.0000      0.0000    149.8585
  1741.2500      0.0000      0.0000      0.0000    148.9879
  1741.5000      0.0000      0.0000      0.0000    148.4483
  1741.7500      0.0000      0.0000      0.0000    148.7352
  1742.0000      0.0000      0.0000      0.0000    149.6291
  1742.2500      0.0000      0.0000      0.0000    149.8828
  1742.5000      0.0000      0.0000      0.0000    148.9354
  1742.7500      0.0000      0.0000      0.0000    147.7168
  1743.0000      0.0000      0.0000      0.0000    146.5718
  1743.2500      0.0000      0.0000      0.0000    146.8710
  1743.5000      0.0000      0.0000      0.0000    148.4863
  1743.7500      0.0000      0.0000      0.0000    149.5438
  1744.0000      0.0000      0.0000      0.0000    149.6347
  1744.2500      0.0000      0.0000      0.0000    148.1990
  1744.5000      0.0000      0.0000      0.0000    144.9817
  1744.7500      0.0000      0.0000      0.0000    143.9658
  1745.0000      0.0000      0.0000      0.0000    146.0269
  1745.2500      0.0000      0.0000      0.0000    148.8589
  1745.5000      0.0000      0.0000      0.0000    152.4397
  1745.7500      0.0000      0.0000      0.0000    115.4380
  1746.0000      0.0000      0.0000      0.0000    116.9321
  1746.2500      0.0000      0.0000      0.0000    118.0215
  1746.5000      0.0000      0.0000      0.0000    118.9229
  1746.7500      0.0000      0.0000      0.0000    118.5608
  1747.0000      0.0000      0.0000      0.0000    117.4235
  1747.2500      0.0000      0.0000      0.0000    117.5909
  1747.5000      0.0000      0.0000      0.0000    120.4967
  1747.7500      0.0000      0.0000      0.0000    123.2523
  1748.0000      0.0000      0.0000      0.0000    125.1586
  1748.2500      0.0000      0.0000      0.0000    123.7313
  1748.5000      0.0000      0.0000      0.0000    118.8043
  1748.7500      0.0000      0.0000      0.0000    115.5928
  1749.0000      0.0000      0.0000      0.0000    113.1544
  1749.2500      0.0000      0.0000      0.0000    112.7632
  1749.5000      0.0000      0.0000      0.0000    111.4781
  1749.7500      0.0000      0.0000      0.0000    109.1404
  1750.0000      0.0000      0.0000      0.0000    104.0925
  1750.2500      0.0000      0.0000      0.0000    100.7666
  1750.5000      0.0000      0.0000      0.0000     96.6749
  1750.7500      0.0000      0.0000      0.0000     94.4026
  1751.0000      0.0000      0.0000      0.0000     91.6948
  1751.2500      0.0000      0.0000      0.0000     90.6712
  1751.5000      0.0000      0.0000      0.0000     90.3839
  1751.7500      0.0000      0.0000      0.0000     90.6740
  1752.0000      0.0000      0.0000      0.0000     91.4574
  1752.2500      0.0000      0.0000      0.0000     92.3878
  1752.5000      0.0000      0.0000      0.0000     94.6714
  1752.7500      0.0000      0.0000      0.0000     96.6090
  1753.0000      0.0000      0.0000      0.0000     99.5509
  1753.2500      0.0000      0.0000      0.0000    101.3209
  1753.5000      0.0000      0.0000      0.0000    103.3897
  1753.7500      0.0000      0.0000      0.0000    103.9851
  1754.0000      0.0000      0.0000      0.0000    102.9296
  1754.2500      0.0000      0.0000      0.0000    100.8633
  1754.5000      0.0000      0.0000      0.0000     96.3675
  1754.7500      0.0000      0.0000      0.0000     92.8853
  1755.0000      0.0000      0.0000      0.0000     87.7513
  1755.2500      0.0000      0.0000      0.0000     85.2734
  1755.5000      0.0000      0.0000      0.0000     85.0319
  1755.7500      0.0000      0.0000      0.0000     87.8329
  1756.0000      0.0000      0.0000      0.0000     95.5716
  1756.2500      0.0000      0.0000      0.0000    101.7225
