~Version Information
VERS.                      2.0: CWLS Log ASCII Standard - VERSION 2.0
WRAP.                       NO: One line per depth step
~Well Information Block
STRT.FT               488.0000: 
STOP.FT              1824.7000: 
STEP.FT                 0.1000: 
NULL.                -999.2500: 
COMP.          Pioneer Natural Resources: COMPANY
WELL.            Buckeye 11-13: WELL
FLD.           Purgatoire River: FIELD
LOC.           211' FNL & 1054' FWL: LOCATION
STAT.                 Colorado: State
CNTY.               Las Animas: COUNTY
CTRY. USA : Country
SECT. 13 : Section
TOWN. 33S : Township
RANG. 67W : Range
SRVC.                Patterson: SERVICE COMPANY
DATE.          Mon Mar 07 02:06:39 2005: LOG DATE
API.           05 071 08317 00: UNIQUE WELL ID
~Curve Information Block
DEPT.FT            0 000 00 00: Depth
DCAL.in                       : CDL Caliper
RHOB.g/cc                     : CDL Bulk Density
RHOC.g/cc                     : CDL Density Correction
DPOR.pu                       : CDL Density Porosity
GR.GAPI                       : Gamma Ray
NPOR.pu                       : Neutron Porosity
~Parameter Information Block
~A  Depth       DCAL        RHOB        RHOC        DPOR         GR         NPOR    
# ...
  1102.4000      7.9401      2.4937      0.0923      9.4708    156.6494     28.2711
  1102.5000      7.9403      2.4990      0.0861      9.1529    161.5361     28.1003
  1102.6000      7.9403      2.4965      0.1337      9.3043    164.4377     27.3692
  1102.7000      7.9403      2.4672      0.1012     11.0761    163.6917     26.6063
  1102.8000      7.9391      2.4241      0.0673     13.6903    162.6775     26.4661
  1102.9000      7.9391      2.4068     -0.0377     14.7416    162.0671     27.0409
  1103.0000      7.9351      2.4439     -0.0014     12.4933    157.3488     27.6196
  1103.1000      7.9351      2.5110      0.0887      8.4265    149.4917     27.7080
  1103.2000      7.9351      2.5521      0.1686      5.9361    142.5691     27.4107
  1103.3000      7.8794      2.5581      0.0515      5.5684    140.7144     27.2652
  1103.4000      7.8794      2.5731      0.0229      4.6604    144.5607     27.6181
  1103.5000      7.8622      2.6083      0.1404      2.5283    146.5262     28.2046
  1103.6000      7.8622      2.6248      0.1659      1.5282    142.9215     28.5430
  1103.7000      7.8622      2.6092      0.0537      2.4731    137.9358     28.5614
  1103.8000      7.8615      2.5890      0.0184      3.6965    135.6300     28.5002
  1103.9000      7.8615      2.5787      0.0042      4.3224    136.0682     28.2298
  1104.0000      7.8616      2.5677     -0.0183      4.9885    137.3679     27.5131
  1104.1000      7.8616      2.5498     -0.0520      6.0724    138.3944     26.7369
  1104.2000      7.8616      2.5395     -0.0578      6.6984    140.9531     26.6028
  1104.3000      7.8613      2.5501     -0.0769      6.0554    145.4837     27.1540
  1104.4000      7.8613      2.5718     -0.0371      4.7415    144.9070     27.8184
  1104.5000      7.8598      2.5840     -0.0071      3.9997    138.3681     28.1969
  1104.6000      7.8598      2.5793     -0.0078      4.2875    135.9958     28.3977
  1104.7000      7.8598      2.5674     -0.0120      5.0032    141.8584     28.7175
  1104.8000      7.8603      2.5599     -0.0114      5.4601    147.6639     28.9608
  1104.9000      7.8603      2.5527     -0.0126      5.8992    147.1527     28.6957
  1105.0000      7.8611      2.5407     -0.0404      6.6238    145.8767     28.1509
  1105.1000      7.8611      2.5310     -0.0116      7.2122    148.5856     28.1341
  1105.2000      7.8611      2.5286     -0.0166      7.3552    149.7441     28.8861
  1105.3000      7.8612      2.5376     -0.0688      6.8126    143.1634     29.7164
  1105.4000      7.8612      2.5529      0.0211      5.8825    132.4102     30.1075
  1105.5000      7.8618      2.5561      0.0158      5.6882    125.5628     30.3603
  1105.6000      7.8618      2.5476      0.0008      6.2064    123.2839     30.8162
  1105.7000      7.8618      2.5465     -0.0586      6.2747    123.0304     31.3936
  1105.8000      7.8613      2.5551      0.0258      5.7529    124.9731     31.8478
  1105.9000      7.8613      2.5605      0.0160      5.4228    126.6707     31.9064
  1106.0000      7.8595      2.5731     -0.0105      4.6587    124.5457     31.6366
  1106.1000      7.8595      2.6099      0.0568      2.4299    120.0425     31.2011
  1106.2000      7.8595      2.6642      0.0662     -0.8617    116.0258     30.5783
  1106.3000      7.8607      2.7238      0.0991     -4.4723    111.6764     29.8574
  1106.4000      7.8607      2.7833      0.0909     -8.0775    106.5021     29.3259
  1106.5000      7.8582      2.8301      0.1821    -10.9130    104.4376     29.0930
  1106.6000      7.8582      2.8371      0.1396    -11.3422    106.3714     28.8138
  1106.7000      7.8582      2.7956      0.1198     -8.8247    107.1779     28.4518
  1106.8000      7.8487      2.7244      0.0153     -4.5102    104.8241     28.2271
  1106.9000      7.8487      2.6471     -0.0540      0.1742    101.7607     28.0614
  1107.0000      7.8567      2.5877     -0.1496      3.7754    100.4978     28.1209
  1107.1000      7.8567      2.5664     -0.1626      5.0679    103.2193     28.3500
  1107.2000      7.8567      2.5790     -0.0994      4.3043    107.9065     28.0370
  1107.3000      7.8592      2.6000     -0.0621      3.0295    110.9681     26.6572
  1107.4000      7.8592      2.6113     -0.0168      2.3443    113.5852     25.0221
  1107.5000      7.8587      2.6087      0.0160      2.5050    118.7800     24.4574
  1107.6000      7.8587      2.5937     -0.0030      3.4137    125.9042     24.8160
  1107.7000      7.8587      2.5750      0.0069      4.5461    129.2990     25.0370
  1107.8000      7.8558      2.5667      0.0026      5.0509    126.7179     24.9583
  1107.9000      7.8558      2.5695      0.0642      4.8804    123.1267     24.9109
  1108.0000      7.8391      2.5674      0.0680      5.0034    123.8883     24.9579
  1108.1000      7.8391      2.5538      0.0395      5.8286    130.4671     25.3382
  1108.2000      7.8391      2.5364      0.0397      6.8822    139.0956     26.0643
  1108.3000      7.8495      2.5289     -0.0155      7.3382    142.4836     26.4459
  1108.4000      7.8495      2.5365      0.0005      6.8813    138.9597     26.0746
  1108.5000      7.8602      2.5417      0.0213      6.5666    136.5939     25.5172
  1108.6000      7.8602      2.5315      0.0021      7.1789    139.4489     25.4070
  1108.7000      7.8602      2.5176     -0.0393      8.0265    141.7824     25.5981
  1108.8000      7.8604      2.5101     -0.0249      8.4800    139.8167     25.7982
  1108.9000      7.8604      2.5091     -0.0518      8.5373    136.4941     25.9581
  1109.0000      7.8601      2.5207     -0.0361      7.8372    136.1976     26.2351
  1109.1000      7.8601      2.5418     -0.0124      6.5588    142.4295     26.3649
  1109.2000      7.8601      2.5490      0.0042      6.1203    152.9359     25.6765
  1109.3000      7.8611      2.5339     -0.0432      7.0378    162.2429     24.7727
  1109.4000      7.8611      2.5102      0.0057      8.4723    168.5145     25.1949
  1109.5000      7.8621      2.4843     -0.0268     10.0419    168.7767     27.1145
  1109.6000      7.8621      2.4644     -0.0793     11.2493    164.2958     28.7985
  1109.7000      7.8621      2.4628     -0.0835     11.3452    160.9507     29.0246
  1109.8000      7.8615      2.4776     -0.0331     10.4482    158.7894     28.6123
  1109.9000      7.8615      2.5077     -0.0559      8.6258    154.6676     28.5751
  1110.0000      7.8629      2.5582      0.0058      5.5625    148.4321     29.0036
  1110.1000      7.8629      2.6209      0.0206      1.7629    144.1891     29.6955
  1110.2000      7.8629      2.6784      0.0335     -1.7198    143.7463     29.9786
  1110.3000      7.8598      2.7102      0.0414     -3.6480    140.3427     29.2807
  1110.4000      7.8598      2.7061      0.0457     -3.3982    133.2592     28.3084
  1110.5000      7.8609      2.6808      0.0293     -1.8645    132.5499     27.9310
  1110.6000      7.8609      2.6484      0.0099      0.0958    141.4490     28.3133
  1110.7000      7.8609      2.6115     -0.0722      2.3342    151.6306     28.9185
  1110.8000      7.8612      2.5853     -0.1445      3.9198    155.2789     28.8176
  1110.9000      7.8612      2.5863     -0.1278      3.8628    154.1295     28.0255
  1111.0000      7.8613      2.6025     -0.0347      2.8773    153.6574     27.5048
  1111.1000      7.8613      2.6057      0.0154      2.6847    155.2127     27.7271
  1111.2000      7.8613      2.5855     -0.0013      3.9093    159.1132     28.2739
  1111.3000      7.8599      2.5636      0.0254      5.2355    163.6380     28.7526
  1111.4000      7.8599      2.5672      0.0773      5.0160    164.1913     29.2212
  1111.5000      7.8609      2.5980      0.0834      3.1512    157.9523     29.7479
  1111.6000      7.8609      2.6370      0.0859      0.7900    150.7750     30.1757
  1111.7000      7.8609      2.6678      0.1117     -1.0798    149.9521     30.4476
  1111.8000      7.8603      2.6845      0.1392     -2.0924    154.6928     30.6772
  1111.9000      7.8603      2.6765      0.1765     -1.6033    160.9684     30.7885
