~Version Information
VERS.                      2.0: CWLS Log ASCII Standard - VERSION 2.0
WRAP.                       NO: One line per depth step
~Well Information Block
STRT.FT               801.5000: 
STOP.FT              2513.0000: 
STEP.FT                 0.2500: 
NULL.                -999.2500: 
COMP.          Petrogulf Corporation: COMPANY
WELL.               YWAM 7-32V: WELL
FLD.           Purgatoire River: FIELD
LOC.           2423' FNL & 2412' FEL: LOCATION
PROV.                 Colorado: PROVINCE
CNTY.               Las Animas: COUNTRY
SRVC.                Patterson: SERVICE COMPANY
DATE.          Sun Dec 14 06:58:17 2003: LOG DATE
UWI.                          : UNIQUE WELL ID
~Curve Information Block
DEPT.FT            0 000 00 00: Depth
SP.mV                         : DIL Spontaneous Potential
RILD.Ohm-m                    : DIL Deep Resistivity
RILM.Ohm-m                    : DIL Medium Resistivity
RLL3.Ohm-m                    : DIL Shallow Resistivity
GR.GAPI                       : Gamma Ray
~Parameter Information Block
~A  Depth        SP         RILD        RILM        RLL3         GR     
# ...
  2033.5000   -261.5168     21.9388     18.3904     33.6039     88.7237
  2033.7500   -261.6926     20.7566     18.8238     52.1427     87.1130
  2034.0000   -261.7707     19.4846     19.2863     81.9955     78.2469
  2034.2500   -261.5479     18.2373     19.5126    115.7845     70.1768
  2034.5000   -260.8452     17.1173     19.3057    140.3457     59.4298
  2034.7500   -259.5805     16.1885     18.6456    143.7547     55.3083
  2035.0000   -257.8266     15.4675     17.6899    124.0583     55.4911
  2035.2500   -255.8103     14.9304     16.6565     90.8927     59.9240
  2035.5000   -253.8350     14.5246     15.7080     58.0355     71.8478
  2035.7500   -252.1703     14.1834     14.9133     34.4929     81.8930
  2036.0000   -250.9672     13.8439     14.2689     21.6966     96.9367
  2036.2500   -250.2259     13.4622     13.7333     16.5393    105.4186
  2036.5000   -249.8219     13.0231     13.2551     15.3084    114.8099
  2036.7500   -249.5784     12.5370     12.7908     15.5022    118.9245
  2037.0000   -249.3482     12.0284     12.3159     15.8489    122.0072
  2037.2500   -249.0595     11.5255     11.8312     15.8274    122.1462
  2037.5000   -248.7154     11.0549     11.3603     15.3285    120.7026
  2037.7500   -248.3674     10.6396     10.9371     14.4873    119.6747
  2038.0000   -248.0817     10.2976     10.5910     13.5686    118.8445
  2038.2500   -247.9128     10.0371     10.3375     12.8510    118.5423
  2038.5000   -247.8903      9.8543     10.1753     12.5160    118.1115
  2038.7500   -248.0182      9.7349     10.0898     12.5844    117.9362
  2039.0000   -248.2825      9.6605     10.0589     12.9282    117.8425
  2039.2500   -248.6666      9.6153     10.0605     13.3418    117.6594
  2039.5000   -249.1700      9.5888     10.0803     13.6313    117.0476
  2039.7500   -249.8113      9.5749     10.1158     13.6879    116.5836
  2040.0000   -250.6047      9.5718     10.1745     13.5168    115.9093
  2040.2500   -251.5242      9.5827     10.2669     13.2048    115.2457
  2040.5000   -252.4898      9.6138     10.3987     12.8682    113.4581
  2040.7500   -253.3944      9.6665     10.5652     12.6333    111.6808
  2041.0000   -254.1585      9.7294     10.7485     12.6572    108.3369
  2041.2500   -254.7712      9.7792     10.9191     13.1241    105.7245
  2041.5000   -255.2874      9.7943     11.0429     14.1566    101.0913
  2041.7500   -255.7891      9.7710     11.0920     15.6627     97.4841
  2042.0000   -256.3390      9.7259     11.0554     17.2564     91.8664
  2042.2500   -256.9503      9.6855     10.9422     18.3854     88.7315
  2042.5000   -257.5790      9.6724     10.7772     18.6197     86.3176
  2042.7500   -258.1349      9.6991     10.5917     17.8832     86.6698
  2043.0000   -258.5126      9.7673     10.4148     16.4683     89.8383
  2043.2500   -258.6333      9.8711     10.2689     14.8560     92.9041
  2043.5000   -258.4807      9.9982     10.1690     13.4681     96.9059
  2043.7500   -258.1165     10.1277     10.1233     12.5121     98.1187
  2044.0000   -257.6700     10.2293     10.1336     12.0256     97.0150
  2044.2500   -257.3085     10.2682     10.1933     12.0372     94.6118
  2044.5000   -257.1933     10.2208     10.2856     12.6256     89.9299
  2044.7500   -257.4253     10.0924     10.3840     13.7766     87.2450
  2045.0000   -258.0002      9.9206     10.4569     15.2022     85.6051
  2045.2500   -258.8016      9.7585     10.4773     16.3719     86.4921
  2045.5000   -259.6421      9.6499     10.4326     16.8024     90.4404
  2045.7500   -260.3360      9.6169     10.3315     16.3701     94.4225
  2046.0000   -260.7688      9.6612     10.2018     15.3570    101.4888
  2046.2500   -260.9278      9.7733     10.0816     14.2118    106.0116
  2046.5000   -260.8748      9.9381     10.0074     13.2653    110.8486
  2046.7500   -260.6794     10.1346     10.0076     12.6167    112.4771
  2047.0000   -260.3754     10.3321     10.0986     12.2090    113.5815
  2047.2500   -259.9706     10.4913     10.2859     11.9883    114.3424
  2047.5000   -259.4831     10.5727     10.5623     12.0348    116.0697
  2047.7500   -258.9570     10.5514     10.9031     12.5830    117.1214
  2048.0000   -258.4501     10.4282     11.2609     13.8942    117.4498
  2048.2500   -258.0139     10.2297     11.5650     16.0227    116.8168
  2048.5000   -257.6716      9.9943     11.7370     18.6063    115.7472
  2048.7500   -257.3997      9.7577     11.7201     20.8601    115.7445
  2049.0000   -257.1310      9.5438     11.5050     21.8868    117.3525
  2049.2500   -256.7972      9.3643     11.1309     21.1783    119.2212
  2049.5000   -256.3893      9.2209     10.6647     18.9434    122.0721
  2049.7500   -255.9727      9.1079     10.1752     15.9722    123.2821
  2050.0000   -255.6345      9.0145      9.7170     13.1590    123.2795
  2050.2500   -255.4161      8.9279      9.3236     11.0878    122.0016
  2050.5000   -255.2935      8.8372      9.0082      9.9332    118.5627
  2050.7500   -255.2057      8.7357      8.7672      9.5947    115.5764
  2051.0000   -255.0960      8.6211      8.5869      9.8544    110.6108
  2051.2500   -254.9431      8.4961      8.4515     10.4539    107.3939
  2051.5000   -254.7623      8.3699      8.3497     11.1281    103.5034
  2051.7500   -254.5712      8.2589      8.2802     11.6482    101.6418
  2052.0000   -254.3547      8.1833      8.2513     11.8803     99.0140
  2052.2500   -254.0715      8.1624      8.2759     11.8258     96.5659
  2052.5000   -253.6965      8.2101      8.3649     11.6202     91.4670
  2052.7500   -253.2600      8.3353      8.5228     11.4782     87.7518
  2053.0000   -252.8533      8.5435      8.7476     11.5921     83.1933
  2053.2500   -252.5892      8.8393      9.0339     12.0495     81.1114
  2053.5000   -252.5399      9.2245      9.3756     12.8380     78.5639
  2053.7500   -252.6915      9.6920      9.7683     13.8970     76.4862
  2054.0000   -252.9473     10.2199     10.2095     15.1241     72.0974
  2054.2500   -253.1758     10.7745     10.6999     16.3597     68.4166
  2054.5000   -253.2722     11.3264     11.2419     17.4364     62.5860
  2054.7500   -253.2041     11.8703     11.8384     18.2680     59.2176
  2055.0000   -253.0281     12.4282     12.4903     18.8756     56.1469
  2055.2500   -252.8711     13.0343     13.1962     19.3442     55.6925
  2055.5000   -252.8810     13.7113     13.9540     19.7975     56.5131
  2055.7500   -253.1666     14.4581     14.7620     20.4283     56.9506
  2056.0000   -253.7602     15.2511     15.6199     21.5158     55.9047
  2056.2500   -254.6186     16.0591     16.5241     23.3414     54.0375
  2056.5000   -255.6564     16.8582     17.4606     26.0177     50.6712
  2056.7500   -256.7893     17.6387     18.3980     29.3194     48.7704
  2057.0000   -257.9579     18.3983     19.2912     32.6129     46.8367
  2057.2500   -259.1230     19.1330     20.0952     34.9938     45.9569
  2057.5000   -260.2475     19.8350     20.7824     35.7099     44.7875
  2057.7500   -261.2823     20.4996     21.3519     34.6804     44.0493
  2058.0000   -262.1599     21.1309     21.8268     32.6424     43.3264
  2058.2500   -262.8035     21.7382     22.2446     30.6721     43.3335
  2058.5000   -263.1635     22.3230     22.6471     29.4749     44.1333
  2058.7500   -263.2676     22.8671     23.0679     29.0873     44.9582
  2059.0000   -263.2362     23.3298     23.5162     29.1420     45.9752
  2059.2500   -263.2328     23.6617     23.9623     29.2982     46.1321
  2059.5000   -263.3726     23.8376     24.3410     29.4379     45.2779
  2059.7500   -263.6532     23.8896     24.5858     29.5955     44.1354
  2060.0000   -263.9543     23.9096     24.6754     29.8240     42.4067
  2060.2500   -264.1008     24.0078     24.6506     30.1470     41.7989
  2060.5000   -263.9415     24.2546     24.5850     30.5732     42.0843
  2060.7500   -263.4018     24.6506     24.5379     31.0986     42.9283
  2061.0000   -262.5057     25.1389     24.5312     31.6787     44.9380
  2061.2500   -261.3754     25.6448     24.5561     32.2086     46.8254
