~Version Information
VERS.                      2.0: CWLS Log ASCII Standard - VERSION 2.0
WRAP.                       NO: One line per depth step
~Well Information Block
STRT.FT               704.0000: 
STOP.FT              2530.0000: 
STEP.FT                 0.2500: 
NULL.                -999.2500: 
COMP.          Pioneer Natural Resources: COMPANY
WELL.          Aztec Federal 41-15: WELL
FLD.           Purgatorie River: FIELD
LOC.           706' FNL & 1253' FEL: LOCATION
CNTY.               Las Animas: COUNTY
SRVC.          Superior Well Services: SERVICE COMPANY
DATE.          Tue Mar 18 09-04-19 2008: LOG DATE
UWI.           05-071-08342-00: UNIQUE WELL ID
STAT.                       CO: STATE
~Curve Information Block
DEPT.FT            0 000 00 00: Depth
DIR.Ohm-m                     : IEL Induction Resistivity
SN.Ohm-m                      : IEL Short Normal
SP.mV                         : IEL Spontaneous Potential
GR.GAPI                       : Gamma Ray
~Parameter Information Block
~A  Depth       DIR          SN          SP          GR     
# ...
   972.0000     18.2814   2000.0000   2000.0000    123.0282
   972.2500     19.2483   2000.0000   2000.0000    116.4624
   972.5000     19.9730   2000.0000   2000.0000    111.5653
   972.7500     21.1732   2000.0000   2000.0000    103.6975
   973.0000     22.0475   2000.0000   2000.0000     98.5266
   973.2500     23.4825   2000.0000   2000.0000     91.7673
   973.5000     24.5394   2000.0000   2000.0000     88.2375
   973.7500     26.3176   2000.0000   2000.0000     84.5033
   974.0000     27.6505   2000.0000   2000.0000     83.1207
   974.2500     29.8627   2000.0000   2000.0000     83.1296
   974.5000     31.4404   2000.0000   2000.0000     84.6954
   974.7500     33.8409   2000.0000   2000.0000     88.8566
   975.0000     35.3794   2000.0000   2000.0000     92.0472
   975.2500     37.4715   2000.0000   2000.0000     96.0889
   975.5000     38.6876   2000.0000   2000.0000     97.9250
   975.7500     40.2712   2000.0000   2000.0000     99.5344
   976.0000     41.2211   2000.0000   2000.0000    100.0424
   976.2500     42.5857   2000.0000   2000.0000    100.1075
   976.5000     43.4792   2000.0000   2000.0000     99.7437
   976.7500     44.7576   2000.0000   2000.0000     98.8749
   977.0000     45.5229   2000.0000   2000.0000     98.3068
   977.2500     46.4894   2000.0000   2000.0000     97.6103
   977.5000     47.0211   2000.0000   2000.0000     97.0485
   977.7500     47.7102   2000.0000   2000.0000     95.2912
   978.0000     48.1270   2000.0000   2000.0000     93.0538
   978.2500     48.6752   2000.0000   2000.0000     87.9223
   978.5000     48.9373   2000.0000   2000.0000     83.7497
   978.7500     49.0443   2000.0000   2000.0000     77.7070
   979.0000     48.8572   2000.0000   2000.0000     74.5475
   979.2500     48.1329   2000.0000   2000.0000     71.6591
   979.5000     47.3574   2000.0000   2000.0000     70.8601
   979.7500     45.7995   2000.0000   2000.0000     70.8150
   980.0000     44.5398   2000.0000   2000.0000     71.2925
   980.2500     42.4252   2000.0000   2000.0000     72.8168
   980.5000     40.9488   2000.0000   2000.0000     74.8081
   980.7500     38.7770   2000.0000   2000.0000     80.4118
   981.0000     37.4132   2000.0000   2000.0000     86.2663
   981.2500     35.5169   2000.0000   2000.0000     97.3605
   981.5000     34.3380   2000.0000   2000.0000    104.9893
   981.7500     32.6776   2000.0000   2000.0000    114.5391
   982.0000     31.6487   2000.0000   2000.0000    119.0325
   982.2500     30.2464   2000.0000   2000.0000    123.1545
   982.5000     29.4070   2000.0000   2000.0000    124.5863
   982.7500     28.2590   2000.0000   2000.0000    125.6341
   983.0000     27.5415   2000.0000   2000.0000    126.2197
   983.2500     26.5102   2000.0000   2000.0000    128.0379
   983.5000     25.8506   2000.0000   2000.0000    130.2438
   983.7500     24.8994   2000.0000   2000.0000    134.6262
   984.0000     24.2749   2000.0000   2000.0000    137.3432
   984.2500     23.3021   2000.0000   2000.0000    138.9111
   984.5000     22.6011   2000.0000   2000.0000    137.2466
   984.7500     21.4543   2000.0000   2000.0000    130.4311
   985.0000     20.6411   2000.0000   2000.0000    123.8991
   985.2500     19.4008   2000.0000   2000.0000    113.7144
   985.5000     18.5931   2000.0000   2000.0000    108.2249
   985.7500     17.4506   2000.0000   2000.0000    103.9261
   986.0000     16.7454   2000.0000   2000.0000    104.2353
   986.2500     15.7727   2000.0000   2000.0000    109.0866
   986.5000     15.1750   2000.0000   2000.0000    114.2218
   986.7500     14.3408   2000.0000   2000.0000    122.1983
   987.0000     13.8189   2000.0000   2000.0000    126.3673
   987.2500     13.0787   2000.0000   2000.0000    130.0324
   987.5000     12.6131   2000.0000   2000.0000    131.1846
   987.7500     11.9631   2000.0000   2000.0000    132.3282
   988.0000     11.5681   2000.0000   2000.0000    133.0513
   988.2500     11.0430   2000.0000   2000.0000    133.4647
   988.5000     10.7415   2000.0000   2000.0000    132.7683
   988.7500     10.3660   2000.0000   2000.0000    130.2907
   989.0000     10.1687   2000.0000   2000.0000    128.2905
   989.2500      9.9539   2000.0000   2000.0000    126.0364
   989.5000      9.8641   2000.0000   2000.0000    125.5204
   989.7500      9.8034   2000.0000   2000.0000    126.4077
   990.0000      9.8062   2000.0000   2000.0000    127.8699
   990.2500      9.8602   2000.0000   2000.0000    130.5494
   990.5000      9.9190   2000.0000   2000.0000    132.0361
   990.7500     10.0211   2000.0000   2000.0000    132.7494
   991.0000     10.0855   2000.0000   2000.0000    131.8416
   991.2500     10.1553   2000.0000   2000.0000    128.6970
   991.5000     10.1745   2000.0000   2000.0000    126.1113
   991.7500     10.1588   2000.0000   2000.0000    122.8451
   992.0000     10.1250   2000.0000   2000.0000    121.4712
   992.2500     10.0603   2000.0000   2000.0000    120.4203
   992.5000     10.0219   2000.0000   2000.0000    120.1056
   992.7500      9.9919   2000.0000   2000.0000    120.0948
   993.0000      9.9982   2000.0000   2000.0000    120.5099
   993.2500     10.0532   2000.0000   2000.0000    121.6054
   993.5000     10.1195   2000.0000   2000.0000    122.2553
   993.7500     10.2552   2000.0000   2000.0000    122.5955
   994.0000     10.3625   2000.0000   2000.0000    122.5192
   994.2500     10.5362   2000.0000   2000.0000    122.5461
   994.5000     10.6560   2000.0000   2000.0000    122.8466
   994.7500     10.8414   2000.0000   2000.0000    123.6671
   995.0000     10.9725   2000.0000   2000.0000    124.4810
   995.2500     11.1889   2000.0000   2000.0000    126.4584
   995.5000     11.3510   2000.0000   2000.0000    128.4608
   995.7500     11.6274   2000.0000   2000.0000    132.3359
   996.0000     11.8364   2000.0000   2000.0000    135.1796
   996.2500     12.1907   2000.0000   2000.0000    139.0925
   996.5000     12.4570   2000.0000   2000.0000    140.8992
   996.7500     12.9108   2000.0000   2000.0000    141.3348
   997.0000     13.2601   2000.0000   2000.0000    139.7857
   997.2500     13.8818   2000.0000   2000.0000    135.4035
   997.5000     14.3824   2000.0000   2000.0000    132.2081
   997.7500     15.3019   2000.0000   2000.0000    128.8518
   998.0000     16.0496   2000.0000   2000.0000    127.7949
   998.2500     17.4021   2000.0000   2000.0000    126.4638
   998.5000     18.4640   2000.0000   2000.0000    124.4012
   998.7500     20.2818   2000.0000   2000.0000    118.1517
   999.0000     21.6216   2000.0000   2000.0000    111.9924
   999.2500     23.7893   2000.0000   2000.0000    100.9829
   999.5000     25.3435   2000.0000   2000.0000     93.2921
   999.7500     27.9112   2000.0000   2000.0000     82.4158
  1000.0000     29.8549   2000.0000   2000.0000     76.0857
  1000.2500     33.2564   2000.0000   2000.0000     68.2643
  1000.5000     35.9012   2000.0000   2000.0000     64.0159
  1000.7500     40.4091   2000.0000   2000.0000     58.6385
  1001.0000     43.6529   2000.0000   2000.0000     55.5966
  1001.2500     48.4337   2000.0000   2000.0000     52.0990
  1001.5000     51.1838   2000.0000   2000.0000     50.7982
  1001.7500     53.9434   2000.0000   2000.0000     50.8300
  1002.0000     54.5649   2000.0000   2000.0000     52.1450
  1002.2500     53.5266   2000.0000   2000.0000     55.5510
  1002.5000     51.6681   2000.0000   2000.0000     58.5022
  1002.7500     47.6362   2000.0000   2000.0000     63.9985
  1003.0000     44.4766   2000.0000   2000.0000     68.5918
  1003.2500     39.6286   2000.0000   2000.0000     76.8688
  1003.5000     36.6043   2000.0000   2000.0000     82.9257
  1003.7500     32.6538   2000.0000   2000.0000     91.9742
  1004.0000     30.4476   2000.0000   2000.0000     97.7477
  1004.2500     27.6884   2000.0000   2000.0000    106.2194
  1004.5000     26.1191   2000.0000   2000.0000    111.9728
  1004.7500     24.0071   2000.0000   2000.0000    120.7426
  1005.0000     22.6964   2000.0000   2000.0000    126.2672
  1005.2500     20.8390   2000.0000   2000.0000    132.8564
