~Version Information
 VERS.                      2.0: CWLS Log ASCII Standard - VERSION 2.0
 WRAP.                       NO: One line per depth step
 ~Well Information Block
 STRT.FT              1969.0000: 
 STOP.FT              2129.7500: 
 STEP.FT                 0.2500: 
 NULL.                -999.2500: 
 COMP.          Petrogulf Corporation: COMPANY
 WELL.             State 16-43V: WELL
 FLD.           Purgatorie River: FIELD
 LOC.           2437' FSL & 734' FEL----: LOCATION
 CNTY.               Las Animas: COUNTY
 SRVC.                         : SERVICE COMPANY
 DATE.          Thu Dec 09 15:38:16 2004: LOG DATE
 UWI.                          : UNIQUE WELL ID
 STAT.                       CO: STATE
 PROV.                         :Province
 ~Curve Information Block
 DEPT.FT            0 000 00 00: Depth
 GR.GAPI                       : Gamma Ray
 CCL.                          : Casing Collar Locator
 TT3.usec                      : CBL 3' Travel Time
 AMP3.mV                       : CBL 3' Amplitude
 ~Parameter Information Block
 ~A  Depth        GR         CCL         TT3         AMP3    
# ...
  2103.0000     87.8991      0.0000    668.4797      2.3729
  2103.2500     90.0218      0.0000    675.1703      2.3308
  2103.5000     92.5060      0.0000    685.3322      2.3329
  2103.7500     94.7088      0.0000    698.3843      2.3855
  2104.0000     96.7082      0.0000    713.8037      2.4646
  2104.2500     98.3212      0.0000    731.0405      2.5239
  2104.5000     98.5882      0.0000    747.4023      2.5221
  2104.7500     96.9461      0.0000    756.6480      2.4534
  2105.0000     94.6521      0.0000    752.7545      2.3550
  2105.2500     94.2994      0.0000    736.5562      2.2816
  2105.5000     97.3407      0.0000    716.7234      2.2672
  2105.7500    102.2733      0.0000    702.7654      2.3090
  2106.0000    105.9089      0.0000    698.0040      2.3807
  2106.2500    106.4493      0.0000    699.0821      2.4562
  2106.5000    104.8001      0.0000    700.0861      2.5179
  2106.7500    102.9416      0.0000    696.8996      2.5516
  2107.0000    101.7199      0.0000    689.5705      2.5457
  2107.2500    100.6063      0.0000    681.7230      2.5024
  2107.5000     99.1573      0.0000    677.5928      2.4456
  2107.7500     97.9514      0.0000    679.2297      2.4083
  2108.0000     97.9316      0.0000    685.7773      2.4049
  2108.2500     99.2188      0.0000    694.5579      2.4226
  2108.5000    100.8275      0.0000    702.8624      2.4402
  2108.7500    101.4336      0.0000    709.6479      2.4499
  2109.0000    100.3314      0.0000    716.3882      2.4569
  2109.2500     97.8664      0.0000    725.4688      2.4693
  2109.5000     95.1081      0.0000    735.9637      2.4942
  2109.7500     93.0065      0.0000    741.6367      2.5391
  2110.0000     91.9173      0.0000    735.9666      2.6066
  2110.2500     92.1431      0.0000    719.4183      2.6880
  2110.5000     94.5287      0.0000    699.5272      2.7627
  2110.7500     99.5798      0.0000    683.9706      2.8117
  2111.0000    105.7353      0.0000    675.4138      2.8318
  2111.2500    109.6669      0.0000    672.3904      2.8334
  2111.5000    109.2677      0.0000    672.6971      2.8255
  2111.7500    105.7731      0.0000    675.2487      2.8078
  2112.0000    102.2132      0.0000    679.8142      2.7771
  2112.2500    100.3615      0.0000    685.9637      2.7370
  2112.5000     99.9529      0.0000    692.4482      2.7004
  2112.7500    100.3481      0.0000    697.4267      2.6835
  2113.0000    101.8513      0.0000    699.3036      2.6965
  2113.2500    105.0659      0.0000    697.8871      2.7408
  2113.5000    109.5829      0.0000    694.9144      2.8153
  2113.7500    113.8992      0.0000    692.5937      2.9207
  2114.0000    116.4789      0.0000    691.1058      3.0520
  2114.2500    116.5891      0.0000    688.3048      3.1868
  2114.5000    114.4693      0.0000    682.3110      3.2894
  2114.7500    111.1977      0.0000    673.7523      3.3372
  2115.0000    108.1043      0.0000    665.3777      3.3441
  2115.2500    105.8539      0.0000    660.1655      3.3506
  2115.5000    104.2613      0.0000    659.6993      3.3862
  2115.7500    103.1811      0.0000    663.3727      3.4449
  2116.0000    103.1148      0.0000    668.1318      3.4905
  2116.2500    104.5525      0.0000    668.1957      3.4690
  2116.5000    107.0439      0.0000    654.0049      3.3083
  2116.7500    109.2751      0.0000    612.0241      2.9146
  2117.0000    110.0696      0.0000    530.2595      2.2098
  2117.2500    109.4379      0.0000    410.1937      1.2164
  2117.5000    108.7607      0.0000    273.8398      0.1098
  2117.7500    109.6060      0.0000    153.4298     -0.8593
  2118.0000    112.0009      0.0000     70.6510     -1.5235
  2118.2500    113.9775      0.0000     26.3353     -1.8788
  2118.5000    113.2172      0.0000      7.8599     -2.0270
  2118.7500    109.3453      0.0000      1.8613     -2.0752
  2119.0000    104.3542      0.0000      0.3445     -2.0874
  2119.2500    100.5746      0.0000      0.0458     -2.0898
  2119.5000     98.5836      0.0000   -999.2500   -999.2500
  2119.7500     97.4251      0.0000   -999.2500   -999.2500
  2120.0000     96.4479      0.0000   -999.2500   -999.2500
  2120.2500     96.3631      0.0000   -999.2500   -999.2500
  2120.5000     98.5932      0.0000   -999.2500   -999.2500
  2120.7500    103.8104      0.0000   -999.2500   -999.2500
  2121.0000    111.0036      0.0000   -999.2500   -999.2500
  2121.2500    117.9631      2.0000   -999.2500   -999.2500
  2121.5000    123.0534      0.0000   -999.2500   -999.2500
  2121.7500    126.7273      0.0000   -999.2500   -999.2500
  2122.0000    131.0308     -2.0000   -999.2500   -999.2500
  2122.2500    137.3684      0.0000   -999.2500   -999.2500
  2122.5000    144.8031      0.0000   -999.2500   -999.2500
  2122.7500    150.5904      0.0000   -999.2500   -999.2500
  2123.0000    152.3881      0.0000   -999.2500   -999.2500
  2123.2500    150.1478      0.0000   -999.2500   -999.2500
  2123.5000    146.0553      0.0000   -999.2500   -999.2500
  2123.7500    142.7630      0.0000   -999.2500   -999.2500
  2124.0000    141.5453      0.0000   -999.2500   -999.2500
  2124.2500    141.7030      0.0000   -999.2500   -999.2500
  2124.5000    141.3424      0.0000   -999.2500   -999.2500
  2124.7500    138.9562      0.0000   -999.2500   -999.2500
  2125.0000    134.6682   -999.2500   -999.2500   -999.2500
  2125.2500    129.8524   -999.2500   -999.2500   -999.2500
  2125.5000    125.5823   -999.2500   -999.2500   -999.2500
  2125.7500    121.8872   -999.2500   -999.2500   -999.2500
  2126.0000    118.2873   -999.2500   -999.2500   -999.2500
  2126.2500    114.3459   -999.2500   -999.2500   -999.2500
  2126.5000    109.6449   -999.2500   -999.2500   -999.2500
  2126.7500    103.3760   -999.2500   -999.2500   -999.2500
  2127.0000     93.9416   -999.2500   -999.2500   -999.2500
  2127.2500     79.5784   -999.2500   -999.2500   -999.2500
  2127.5000     60.3628   -999.2500   -999.2500   -999.2500
  2127.7500     39.5080   -999.2500   -999.2500   -999.2500
  2128.0000     21.6792   -999.2500   -999.2500   -999.2500
  2128.2500      9.7719   -999.2500   -999.2500   -999.2500
  2128.5000      3.5673   -999.2500   -999.2500   -999.2500
  2128.7500      1.0442   -999.2500   -999.2500   -999.2500
  2129.0000      0.2429   -999.2500   -999.2500   -999.2500
  2129.2500      0.0443   -999.2500   -999.2500   -999.2500
  2129.5000      0.0055   -999.2500   -999.2500   -999.2500
  2129.7500      0.0000   -999.2500   -999.2500   -999.2500
