~Version Information
VERS.                      2.0: CWLS Log ASCII Standard - VERSION 2.0
WRAP.                       NO: One line per depth step
~Well Information Block
STRT.FT               806.0000: 
STOP.FT              1812.2000: 
STEP.FT                 0.1000: 
NULL.                -999.2500: 
COMP.          Pioneer Natural Resources: COMPANY
WELL.            Hill 33-22 Tr: WELL
FLD.           Purgatoire River: FIELD
LOC.           1573' FSL & 1585' FEL: LOCATION
PROV.                 Colorado: PROVINCE
CNTY.               Las Animas: COUNTRY
SRVC.                Patterson: SERVICE COMPANY
DATE.          Thu Apr 14 12:25:33 2005: LOG DATE
UWI.           05 071 08316 00: UNIQUE WELL ID
~Curve Information Block
DEPT.FT            0 000 00 00: Depth
DCAL.in                       : CDL Caliper
RHOB.g/cc                     : CDL Bulk Density
RHOC.g/cc                     : CDL Density Correction
DPOR.pu                       : CDL Density Porosity
GR.GAPI                       : Gamma Ray
NPOR.pu                       : Neutron Porosity
~Parameter Information Block
~A  Depth       DCAL        RHOB        RHOC        DPOR         GR         NPOR    
# ...
  1660.4000      7.9468      2.6261      0.0925      1.4512    127.5707     27.4233
  1660.5000      7.9508      2.5979      0.0622      3.1600    127.1704     27.5197
  1660.6000      7.9508      2.5692      0.0622      4.8977    132.8269     28.3348
  1660.7000      7.9508      2.5409      0.0361      6.6110    139.5569     29.3911
  1660.8000      7.9501      2.5153     -0.0099      8.1615    140.0381     30.0384
  1660.9000      7.9501      2.4959      0.0204      9.3414    134.6187     29.8358
  1661.0000      7.9465      2.4833     -0.0442     10.1011    129.5764     29.2477
  1661.1000      7.9465      2.4771     -0.0384     10.4774    128.7463     29.2614
  1661.2000      7.9465      2.4737      0.0070     10.6821    129.8495     30.0964
  1661.3000      7.9651      2.4784     -0.0133     10.4000    130.4437     30.4604
  1661.4000      7.9651      2.5030     -0.0056      8.9094    130.5021     29.3842
  1661.5000      8.0008      2.5419      0.0631      6.5528    129.7246     27.7341
  1661.6000      8.0008      2.5734      0.0917      4.6422    126.3683     26.7518
  1661.7000      8.0008      2.5895      0.0345      3.6676    120.9405     26.9465
  1661.8000      8.0086      2.6024      0.0876      2.8845    118.8062     27.6122
  1661.9000      8.0086      2.6123      0.1074      2.2866    120.3327     27.5754
  1662.0000      7.9353      2.6053      0.0804      2.7072    119.9677     27.0107
  1662.1000      7.9353      2.5844      0.0572      3.9787    117.8713     26.6792
  1662.2000      7.9353      2.5678      0.0469      4.9821    117.7378     26.6534
  1662.3000      7.9257      2.5602      0.0050      5.4441    118.7462     26.7851
  1662.4000      7.9257      2.5456      0.0406      6.3277    117.6303     27.0837
  1662.5000      7.9638      2.5214      0.0035      7.7918    112.0784     27.7162
  1662.6000      7.9638      2.5083     -0.0088      8.5878    105.5571     28.5404
  1662.7000      7.9638      2.5146     -0.0004      8.2041    104.5114     28.9962
  1662.8000      7.9729      2.5261      0.0183      7.5118    106.4702     28.6080
  1662.9000      7.9729      2.5302      0.0943      7.2635    106.3410     27.8706
  1663.0000      7.9896      2.5325      0.0977      7.1216    106.9910     27.9839
  1663.1000      7.9896      2.5479      0.0647      6.1904    110.4060     28.9810
  1663.2000      7.9896      2.5766      0.1161      4.4466    115.7311     29.7102
  1663.3000      8.0005      2.5947      0.1652      3.3523    123.0420     29.7516
  1663.4000      8.0005      2.5825      0.1225      4.0923    128.4343     29.3140
  1663.5000      7.9892      2.5530      0.0882      5.8805    126.2294     28.6998
  1663.6000      7.9892      2.5281      0.0778      7.3902    118.9998     28.7433
  1663.7000      7.9892      2.5187      0.0372      7.9563    115.5283     29.9532
  1663.8000      8.0017      2.5286      0.0515      7.3567    116.5129     31.4022
  1663.9000      8.0017      2.5522      0.0673      5.9265    116.1409     31.9142
  1664.0000      8.0095      2.5813      0.0674      4.1664    114.0409     31.5070
  1664.1000      8.0095      2.6089      0.1035      2.4907    111.9618     30.8273
  1664.2000      8.0095      2.6264      0.1185      1.4274    110.7295     30.4538
  1664.3000      8.0111      2.6258      0.1543      1.4667    111.9464     30.2975
  1664.4000      8.0111      2.6035      0.1060      2.8192    114.7397     29.9059
  1664.5000      8.0242      2.5654      0.0625      5.1280    116.8158     29.4426
  1664.6000      8.0242      2.5305      0.0038      7.2402    119.8952     29.3185
  1664.7000      8.0242      2.5142      0.0402      8.2283    123.6876     29.3297
  1664.8000      8.0268      2.5037      0.0078      8.8672    123.2691     29.1721
  1664.9000      8.0268      2.4869      0.0175      9.8841    118.3686     29.2932
  1665.0000      8.0056      2.4758      0.0098     10.5558    113.9873     29.9558
  1665.1000      8.0056      2.4861     -0.0253      9.9315    113.0182     30.5840
  1665.2000      8.0056      2.5137      0.0157      8.2583    113.1852     30.5727
  1665.3000      7.9952      2.5371      0.0597      6.8442    110.2099     29.8416
  1665.4000      7.9952      2.5504     -0.0133      6.0368    106.1587     28.7122
  1665.5000      7.9978      2.5672      0.0744      5.0165    107.9583     27.5439
  1665.6000      7.9978      2.5875      0.0882      3.7879    114.4042     26.6762
  1665.7000      7.9978      2.5924      0.1463      3.4928    118.3140     26.5818
  1665.8000      8.0072      2.5689      0.0963      4.9166    119.4823     27.3936
  1665.9000      8.0072      2.5355      0.0078      6.9411    121.1758     28.0322
  1666.0000      7.9995      2.5205      0.0270      7.8514    121.8526     27.4668
  1666.1000      7.9995      2.5304      0.0017      7.2481    118.7940     26.9097
  1666.2000      7.9995      2.5580      0.0041      5.5771    112.8732     27.5001
  1666.3000      7.9741      2.5887      0.0496      3.7166    107.3481     28.3527
  1666.4000      7.9741      2.6148      0.0274      2.1311    104.5218     28.5278
  1666.5000      7.9737      2.6339      0.1214      0.9786    104.3081     28.3172
  1666.6000      7.9737      2.6365      0.0565      0.8177    104.3151     28.0656
  1666.7000      7.9737      2.6293      0.0616      1.2522    103.0705     27.7539
  1666.8000      7.9594      2.6250      0.1033      1.5179    101.0624     27.5704
  1666.9000      7.9594      2.6180      0.0861      1.9388    101.1076     27.9166
  1667.0000      7.9611      2.6087      0.0676      2.5019    107.5390     28.4509
  1667.1000      7.9611      2.6115      0.0113      2.3338    117.0680     28.4580
  1667.2000      7.9611      2.6219      0.0897      1.7011    120.6112     28.0559
  1667.3000      7.9606      2.6186      0.0642      1.9050    117.4803     27.8398
  1667.4000      7.9606      2.5963      0.0599      3.2562    113.8031     27.8104
  1667.5000      7.9539      2.5656      0.0165      5.1164    111.2294     27.6896
  1667.6000      7.9539      2.5399     -0.0061      6.6715    109.4400     27.6270
  1667.7000      7.9539      2.5247      0.0388      7.5961    110.6550     27.8553
  1667.8000      7.9590      2.5149      0.0159      8.1849    113.9237     28.2244
  1667.9000      7.9590      2.5097      0.0000      8.5060    115.0832     28.4762
  1668.0000      7.9609      2.5048      0.0284      8.7978    112.3706     28.6560
  1668.1000      7.9609      2.4840      0.0550     10.0591    109.3199     28.8671
  1668.2000      7.9609      2.4454     -0.0517     12.4022    110.6327     29.0765
  1668.3000      7.9682      2.4131     -0.0062     14.3584    115.3453     29.3935
  1668.4000      7.9682      2.3976      0.0350     15.2984    118.4484     29.7913
  1668.5000      7.9704      2.3864      0.0174     15.9777    118.1620     30.2160
  1668.6000      7.9704      2.3678      0.0818     17.1057    119.4403     30.7920
  1668.7000      7.9704      2.3406      0.0177     18.7486    126.1207     31.7963
  1668.8000      8.0155      2.3175      0.0406     20.1513    133.5080     32.7023
  1668.9000      8.0155      2.3072      0.0525     20.7767    133.4235     32.5583
  1669.0000      8.0474      2.3019      0.0302     21.0970    126.9306     31.8081
  1669.1000      8.0474      2.2959      0.0352     21.4591    126.1212     31.2793
  1669.2000      8.0474      2.2975      0.0077     21.3636    133.5815     30.6243
  1669.3000      8.0655      2.3110      0.0630     20.5449    137.1195     29.6166
  1669.4000      8.0655      2.3366      0.0623     18.9917    131.9973     28.9665
  1669.5000      7.9804      2.3908      0.0576     15.7076    128.0404     28.9110
  1669.6000      7.9804      2.4762      0.1500     10.5347    132.6442     28.9951
  1669.7000      7.9804      2.5521      0.2084      5.9342    141.5651     28.7123
  1669.8000      7.9571      2.5795      0.1160      4.2716    146.6639     27.9032
  1669.9000      7.9571      2.5642      0.0542      5.2002    143.0454     27.1898
