~Version Information
VERS.                      2.0: CWLS Log ASCII Standard - VERSION 2.0
WRAP.                       NO: One line per depth step
~Well Information Block
STRT.FT              1727.9000: 
STOP.FT              1961.0000: 
STEP.FT                 0.1000: 
NULL.                -999.2500: 
COMP.          Petrogulf Corporation: COMPANY
WELL.              Royal 8-33R: WELL
FLD.           Purgatorie River: FIELD
LOC.           2401' FSL & 2270' FEL: LOCATION
CNTY.               Las Animas: COUNTY
SRVC.                         : SERVICE COMPANY
DATE.          Mon Apr 26 06:57:24 2004: LOG DATE
UWI.           05 071 08041 00: UNIQUE WELL ID
STAT.                 Colorado: STATE
~Curve Information Block
DEPT.FT            0 000 00 00: Depth
DCAL.in                       : CDL Caliper
RHOB.g/cc                     : CDL Bulk Density
RHOC.g/cc                     : CDL Density Correction
DPOR.pu                       : CDL Density Porosity
GR.GAPI                       : Gamma Ray
~Parameter Information Block
~A  Depth       DCAL        RHOB        RHOC        DPOR         GR     
# ...
  1851.1000      7.9261      2.5372      0.1248      6.8348    142.1427
  1851.2000      7.9261      2.5586      0.0524      5.5378    141.8007
  1851.3000      7.9223      2.5870      0.1455      3.8162    139.7454
  1851.4000      7.9223      2.5872      0.0998      3.8071    127.6991
  1851.5000      7.8926      2.5645      0.0714      5.1844    122.7985
  1851.6000      7.8926      2.5512      0.0668      5.9878    135.0203
  1851.7000      7.8926      2.5502      0.0973      6.0501    152.9325
  1851.8000      7.8823      2.5455      0.0727      6.3331    163.0071
  1851.9000      7.8823      2.5350      0.0711      6.9702    162.3496
  1852.0000      7.8839      2.5265      0.1280      7.4840    155.5902
  1852.1000      7.8839      2.5246      0.0432      7.5977    145.7761
  1852.2000      7.8839      2.5237      0.0689      7.6520    132.8278
  1852.3000      7.8790      2.5035      0.0878      8.8789    123.5447
  1852.4000      7.8790      2.4632     -0.0220     11.3232    122.5877
  1852.5000      7.8597      2.4385     -0.0440     12.8201    122.6916
  1852.6000      7.8597      2.4575      0.0163     11.6685    122.1532
  1852.7000      7.8597      2.5011      0.0955      9.0235    124.4288
  1852.8000      7.8387      2.5264      0.1458      7.4903    129.3756
  1852.9000      7.8387      2.5316      0.1008      7.1745    134.7018
  1853.0000      7.8133      2.5414      0.1192      6.5794    135.7287
  1853.1000      7.8133      2.5444      0.0915      6.4003    126.0408
  1853.2000      7.8133      2.5317      0.0652      7.1706    104.0119
  1853.3000      7.8009      2.5171      0.0243      8.0526     82.2616
  1853.4000      7.8009      2.4935      0.0963      9.4823     72.4757
  1853.5000      7.8216      2.4616     -0.0375     11.4200     72.2398
  1853.6000      7.8216      2.4612     -0.0155     11.4399     74.4605
  1853.7000      7.8216      2.5019      0.0642      8.9740     77.1560
  1853.8000      7.8558      2.5341      0.0989      7.0244     85.3762
  1853.9000      7.8558      2.5182      0.0712      7.9865    100.4120
  1854.0000      7.8457      2.4698      0.0396     10.9192    116.4781
  1854.1000      7.8457      2.4328      0.0124     13.1645    128.8363
  1854.2000      7.8457      2.4469     -0.0037     12.3078    136.5918
  1854.3000      7.8328      2.5133      0.1148      8.2838    141.0803
  1854.4000      7.8328      2.5778      0.1494      4.3750    140.5817
  1854.5000      7.8480      2.5946      0.1286      3.3593    125.4332
  1854.6000      7.8480      2.5814      0.1157      4.1589    102.7710
  1854.7000      7.8480      2.5836      0.0800      4.0237     96.8316
  1854.8000      7.8322      2.6067      0.1507      2.6235    110.1679
  1854.9000      7.8322      2.6202      0.1559      1.8062    121.2049
  1855.0000      7.8337      2.6161      0.1750      2.0548    125.2721
  1855.1000      7.8337      2.6026      0.1825      2.8709    134.1419
  1855.2000      7.8337      2.5764      0.1236      4.4607    136.9338
  1855.3000      7.7934      2.5368      0.1384      6.8618    121.3231
  1855.4000      7.7934      2.4947      0.0932      9.4144    107.3290
  1855.5000      7.7988      2.4748      0.0799     10.6169    104.0252
  1855.6000      7.7988      2.4918      0.0621      9.5878     94.1818
  1855.7000      7.7988      2.5204      0.1866      7.8574     80.9057
  1855.8000      7.8391      2.5223      0.1497      7.7400     80.6682
  1855.9000      7.8391      2.5006      0.1523      9.0517     87.9033
  1856.0000      7.8532      2.4770      0.0933     10.4865     83.6557
  1856.1000      7.8532      2.4553      0.0759     11.8008     63.5763
  1856.2000      7.8532      2.4375      0.0054     12.8783     44.7508
  1856.3000      7.8621      2.4312     -0.0279     13.2631     43.2136
  1856.4000      7.8621      2.4326     -0.0117     13.1728     55.9664
  1856.5000      7.8698      2.4217      0.1041     13.8386     65.6327
  1856.6000      7.8698      2.3957     -0.0324     15.4098     60.9155
  1856.7000      7.8698      2.3819      0.0327     16.2467     53.9835
  1856.8000      7.8706      2.3867      0.0148     15.9568     63.3865
  1856.9000      7.8706      2.4018      0.0540     15.0402     81.2572
  1857.0000      7.8758      2.4238      0.0808     13.7087     84.7232
  1857.1000      7.8758      2.4441      0.0935     12.4771     77.4013
  1857.2000      7.8758      2.4454      0.1612     12.3978     78.5890
  1857.3000      7.8737      2.4230      0.0040     13.7591     81.7466
  1857.4000      7.8737      2.4024      0.0682     15.0053     73.0502
  1857.5000      7.8814      2.3875      0.0938     15.9114     63.7823
  1857.6000      7.8814      2.3540      0.0531     17.9414     60.6709
  1857.7000      7.8814      2.3084     -0.0241     20.7035     52.7268
  1857.8000      7.8847      2.2872     -0.0799     21.9883     42.1114
  1857.9000      7.8847      2.3039      0.0353     20.9757     36.7429
  1858.0000      7.8868      2.3361     -0.0001     19.0214     35.9410
  1858.1000      7.8868      2.3584      0.0800     17.6732     39.0335
  1858.2000      7.8868      2.3652      0.0311     17.2631     43.5800
  1858.3000      7.8834      2.3858     -0.0387     16.0149     45.0262
  1858.4000      7.8834      2.4296      0.2043     13.3593     41.5858
  1858.5000      7.8619      2.4525      0.1318     11.9676     35.8457
  1858.6000      7.8619      2.4417      0.1010     12.6266     33.0995
  1858.7000      7.8619      2.4356      0.0442     12.9961     36.9750
  1858.8000      7.8496      2.4437      0.1228     12.5013     44.4911
  1858.9000      7.8496      2.4351      0.1010     13.0258     47.5052
  1859.0000      7.8641      2.4122     -0.0360     14.4109     42.3536
  1859.1000      7.8641      2.4085      0.0631     14.6382     36.3803
  1859.2000      7.8641      2.4275      0.1039     13.4831     41.6371
  1859.3000      7.8688      2.4498      0.1358     12.1363     56.9054
  1859.4000      7.8688      2.4604      0.1076     11.4919     65.0337
  1859.5000      7.8657      2.4601      0.0271     11.5064     59.3811
  1859.6000      7.8657      2.4462      0.1510     12.3517     53.3042
  1859.7000      7.8657      2.4129      0.0073     14.3680     53.4472
  1859.8000      7.8613      2.3796      0.0302     16.3868     54.2274
  1859.9000      7.8613      2.3643      0.0160     17.3133     53.9943
  1860.0000      7.8591      2.3706      0.0411     16.9321     55.1415
  1860.1000      7.8591      2.3891      0.0736     15.8140     54.7256
  1860.2000      7.8591      2.4060      0.0399     14.7864     49.2038
  1860.3000      7.8543      2.4247      0.0660     13.6553     44.4229
  1860.4000      7.8543      2.4393      0.1221     12.7679     43.4427
  1860.5000      7.8553      2.4310      0.0761     13.2709     42.2532
  1860.6000      7.8553      2.4039      0.0383     14.9160     40.8967
  1860.7000      7.8553      2.3770      0.0058     16.5450     39.8290
  1860.8000      7.8552      2.3578      0.0803     17.7105     38.1089
  1860.9000      7.8552      2.3444      0.0283     18.5227     35.1347
  1861.0000      7.8669      2.3391      0.0464     18.8432     30.7229
  1861.1000      7.8669      2.3491     -0.0106     18.2347     26.4408
  1861.2000      7.8669      2.3724      0.0521     16.8217     26.1923
  1861.3000      7.8694      2.3952      0.0294     15.4420     31.4720
  1861.4000      7.8694      2.4090      0.0893     14.6075     36.3309
  1861.5000      7.8693      2.4099      0.0151     14.5542     34.6613
  1861.6000      7.8693      2.4058      0.0303     14.7998     30.0339
  1861.7000      7.8693      2.4008      0.0523     15.1036     30.3573
  1861.8000      7.8747      2.3822      0.0365     16.2290     39.4326
  1861.9000      7.8747      2.3517     -0.0114     18.0766     53.5204
  1862.0000      7.8729      2.3303     -0.0403     19.3774     64.2606
  1862.1000      7.8729      2.3218      0.0085     19.8879     66.8555
  1862.2000      7.8729      2.3102      0.0019     20.5943     59.8840
