~Version Information
VERS.                      2.0: CWLS Log ASCII Standard - VERSION 2.0
WRAP.                       NO: One line per depth step
~Well Information Block
STRT.FT               964.2000: 
STOP.FT              2596.7000: 
STEP.FT                 0.1000: 
NULL.                -999.2500: 
COMP.          Petrogulf Corporation: COMPANY
WELL.             Valejo 8-12V: WELL
FLD.           Purgatorie River: FIELD
LOC.           1510' FNL & 1460' FWL: LOCATION
CNTY.               Las Animas: COUNTY
SRVC.                         : SERVICE COMPANY
DATE.          Sat Nov 15 12:30:37 2003: LOG DATE
UWI.                          : UNIQUE WELL ID
STAT.                 Colorado: STATE
~Curve Information Block
DEPT.FT            0 000 00 00: Depth
DCAL.in                       : CDL Caliper
RHOB.g/cc                     : CDL Bulk Density
RHOC.g/cc                     : CDL Density Correction
DPOR.pu                       : CDL Density Porosity
GR.GAPI                       : Gamma Ray
NPOR.pu                       : Neutron Porosity
~Parameter Information Block
~A  Depth       DCAL        RHOB        RHOC        DPOR         GR         NPOR    
# ...
  1300.2000      8.7281      2.7181      0.0747     -4.1265     98.0155     28.1156
  1300.3000      8.7279      2.7125      0.0655     -3.7879    102.6499     27.6516
  1300.4000      8.7279      2.6836      0.0663     -2.0354    105.8051     28.7810
  1300.5000      8.7274      2.6463     -0.0015      0.2270    104.3888     27.7535
  1300.6000      8.7274      2.6253      0.0033      1.4954    102.2189     24.0436
  1300.7000      8.7274      2.6226      0.0322      1.6612    103.7913     21.0218
  1300.8000      8.7268      2.6236      0.0045      1.6012    106.6289     21.3734
  1300.9000      8.7268      2.6184      0.0390      1.9160    107.9649     24.4101
  1301.0000      8.7265      2.5991      0.0523      3.0848    106.7417     27.1202
  1301.1000      8.7265      2.5749      0.0040      4.5494    104.6597     27.8289
  1301.2000      8.7265      2.5581      0.0528      5.5691    103.8906     26.3661
  1301.3000      8.7266      2.5428      0.0140      6.4982    104.5703     24.0491
  1301.4000      8.7266      2.5324      0.0070      7.1267    105.7151     23.0122
  1301.5000      8.7273      2.5370      0.0099      6.8474    104.5969     23.4061
  1301.6000      8.7273      2.5500      0.0503      6.0598    100.2450     23.8396
  1301.7000      8.7273      2.5590      0.0227      5.5140     97.1481     23.5046
  1301.8000      8.7283      2.5642      0.0618      5.2012     97.5993     22.6834
  1301.9000      8.7283      2.5739      0.0352      4.6117    100.2096     21.6155
  1302.0000      8.7294      2.5865      0.0365      3.8492    104.9913     20.4139
  1302.1000      8.7294      2.5889      0.0832      3.7015    111.4020     19.4379
  1302.2000      8.7294      2.5834      0.0139      4.0358    113.9869     18.8424
  1302.3000      8.7304      2.5896      0.0509      3.6614    105.8746     18.6413
  1302.4000      8.7304      2.6105      0.0689      2.3953     92.0136     18.3819
  1302.5000      8.7311      2.6295      0.0585      1.2423     85.9140     17.8091
  1302.6000      8.7311      2.6387      0.0421      0.6826     90.1152     18.1505
  1302.7000      8.7311      2.6452      0.0529      0.2884     96.7908     19.2319
  1302.8000      8.7315      2.6461      0.0934      0.2359    100.2844     18.7428
  1302.9000      8.7315      2.6293      0.0779      1.2569    101.4157     16.6990
  1303.0000      8.7313      2.6037      0.0513      2.8075    103.1675     15.2982
  1303.1000      8.7313      2.5935      0.0137      3.4226    106.4168     15.8268
  1303.2000      8.7313      2.6099      0.0169      2.4299    109.5423     17.7120
  1303.3000      8.7303      2.6412      0.0596      0.5316    105.3510     18.6119
  1303.4000      8.7303      2.6675      0.0733     -1.0632     92.0873     17.5128
  1303.5000      8.7290      2.6766      0.0640     -1.6139     82.6766     16.9719
  1303.6000      8.7290      2.6684      0.0551     -1.1149     82.3975     18.3782
  1303.7000      8.7290      2.6518      0.0417     -0.1086     82.9687     19.4446
  1303.8000      8.7278      2.6377      0.0342      0.7461     79.5489     19.1430
  1303.9000      8.7278      2.6290      0.0611      1.2722     76.5856     18.8836
  1304.0000      8.7272      2.6197      0.0546      1.8334     79.1075     19.0805
  1304.1000      8.7272      2.6113      0.0363      2.3456     86.4828     19.1438
  1304.2000      8.7272      2.6124      0.0295      2.2789     92.4763     18.7135
  1304.3000      8.7271      2.6229      0.0415      1.6452     92.5766     17.6436
  1304.4000      8.7271      2.6290      0.0960      1.2727     90.0155     16.4926
  1304.5000      8.7271      2.6233      0.0284      1.6157     89.5499     15.9362
  1304.6000      8.7271      2.6148      0.0598      2.1355     91.4915     16.4908
  1304.7000      8.7271      2.6014      0.0438      2.9484     91.1450     18.2061
  1304.8000      8.7267      2.5798      0.0035      4.2524     87.4442     19.7124
  1304.9000      8.7267      2.5678     -0.0184      4.9828     84.1554     19.8594
  1305.0000      8.7260      2.5793      0.0297      4.2867     83.4608     19.1377
  1305.1000      8.7260      2.6065      0.0153      2.6379     86.1025     18.5038
  1305.2000      8.7260      2.6335      0.0596      1.0015     90.6485     19.1061
  1305.3000      8.7251      2.6493      0.0219      0.0417     94.6017     21.0502
  1305.4000      8.7251      2.6538      0.0554     -0.2319     94.8904     22.4571
  1305.5000      8.7244      2.6573      0.0465     -0.4445     89.2272     22.3060
  1305.6000      8.7244      2.6750      0.0318     -1.5140     81.3151     21.1154
  1305.7000      8.7244      2.7043      0.0907     -3.2899     77.4450     19.8974
  1305.8000      8.7241      2.7201      0.0820     -4.2490     79.5522     19.8383
  1305.9000      8.7241      2.7095      0.0591     -3.6087     84.4570     20.7630
  1306.0000      8.7241      2.6919      0.0108     -2.5392     89.2777     21.3194
  1306.1000      8.7241      2.6908      0.0005     -2.4698     94.8053     21.2209
  1306.2000      8.7241      2.6935      0.0427     -2.6350     97.8120     21.0884
  1306.3000      8.7240      2.6747      0.0480     -1.4940     94.0108     20.9828
  1306.4000      8.7240      2.6507     -0.0353     -0.0408     85.6710     20.0378
  1306.5000      8.7227      2.6455      0.0098      0.2724     76.8369     17.0250
  1306.6000      8.7227      2.6428      0.0459      0.4339     71.5571     13.6048
  1306.7000      8.7227      2.6276      0.0132      1.3566     72.1502     12.9854
  1306.8000      8.7191      2.6154     -0.0124      2.0964     76.6318     15.1139
  1306.9000      8.7191      2.6209     -0.0023      1.7628     81.7831     17.3037
  1307.0000      8.7131      2.6333      0.0509      1.0109     86.3582     18.4965
  1307.1000      8.7131      2.6345      0.0734      0.9390     89.7399     19.6718
  1307.2000      8.7131      2.6253      0.0595      1.4983     92.5230     20.7039
  1307.3000      8.7071      2.6153      0.0324      2.1015     97.3108     22.1285
  1307.4000      8.7071      2.6086      0.0212      2.5074    103.4389     25.0315
  1307.5000      8.7044      2.6041      0.0437      2.7836    103.9462     27.1716
  1307.6000      8.7044      2.5972      0.0450      3.1998     97.4657     26.0397
  1307.7000      8.7044      2.5954     -0.0059      3.3092     92.4901     23.0982
  1307.8000      8.7074      2.6081      0.0629      2.5367     94.0351     21.0818
  1307.9000      8.7074      2.6294      0.0136      1.2493     98.9805     19.9988
  1308.0000      8.7145      2.6453      0.0803      0.2873    102.1309     18.6425
  1308.1000      8.7145      2.6440      0.0477      0.3636    101.7433     17.8827
  1308.2000      8.7145      2.6341      0.0415      0.9647     98.9361     18.9349
  1308.3000      8.7229      2.6259      0.0714      1.4635     95.7436     20.5984
  1308.4000      8.7229      2.6178      0.0259      1.9515     94.4188     20.5319
  1308.5000      8.7304      2.6112      0.0461      2.3543     94.5100     18.5991
  1308.6000      8.7304      2.6078      0.0192      2.5579     94.6353     18.1139
  1308.7000      8.7304      2.6146      0.0039      2.1451     96.3748     20.7936
  1308.8000      8.7367      2.6360      0.0350      0.8460     99.5841     22.8020
  1308.9000      8.7367      2.6561      0.0674     -0.3678     99.7108     21.0696
  1309.0000      8.7422      2.6562      0.0617     -0.3769     98.1952     17.7190
  1309.1000      8.7422      2.6448     -0.0097      0.3136     95.1751     15.6858
  1309.2000      8.7422      2.6332      0.0615      1.0208     85.8148     15.7417
  1309.3000      8.7474      2.6172      0.0166      1.9886     73.2444     16.4186
  1309.4000      8.7474      2.6061      0.0267      2.6601     62.5897     16.2594
  1309.5000      8.7534      2.6062      0.0377      2.6563     57.1891     15.9210
  1309.6000      8.7534      2.5976      0.0591      3.1779     57.9821     15.9732
  1309.7000      8.7534      2.5692      0.0254      4.8989     58.3036     16.0479
