~Version Information
 VERS.                                  2.0 : CWLS LAS VERSION
 WRAP.                                   NO : WRAPING MODE
 SWARE .                 MController 2.5.0E : SOFTWARE VERSION
~Well Information
 WELL.                        Labrador 34-30: WELL
 COMP.             Pioneer Natural Resources: COMPANY
 FLD.                       Purgatoire River: FIELD
 LOC.                SW/SE Sec 30 T34S R65W : LOCATION
 DATE.                            12/05/2004: DATE(S) LOGGED
 SRVC.       Blanco Geological Services LLC : SERVICE COMPANY
 STAT.                                    CO: STATE
 CNTY.                            Las Animas: COUNTY
 CTRY.                                   USA: COUNTRY
 API.                           05-071-08202: API NUMBER
 STRT.FT                             302.00 : START DEPTH
 STOP.FT                            1765.00 : STOP DEPTH
 STEP.FT                               1.00 : DEPTH INCREMENT
 NULL.                                -9999 : NULL VALUE
~Curve information
 DEPTH.FT                                   :
 ROP.MIN/FT                                 :
 GAS.UNITS                                  :
~ASCII Log data
      302.00    -9999.000          1.2 
      303.00        0.167          2.0 
      304.00        0.133          2.0 
      305.00        0.167          2.7 
      306.00        0.267          2.7 
      307.00        0.233          2.0 
      308.00        0.133          2.1 
      309.00        0.167          1.8 
      310.00        0.133          2.2 
      311.00        0.100          1.9 
      312.00        0.133          2.2 
      313.00        0.133          1.7 
      314.00        0.133          1.6 
      315.00        0.100          2.3 
      316.00        0.133          2.0 
      317.00        0.167          1.9 
      318.00        0.167          2.1 
      319.00        0.150          2.1 
      320.00        0.100          1.6 
      321.00        0.067          2.2 
      322.00        0.100          2.1 
      323.00        0.100          1.9 
      324.00        0.133          1.8 
      325.00        0.200          2.5 
      326.00        2.300          4.7 
      327.00        0.283          2.8 
      328.00        0.233          3.5 
      329.00        0.200          3.8 
      330.00        0.200          3.7 
      331.00        0.200          3.6 
      332.00        0.167          3.9 
      333.00        0.200          4.3 
      334.00        0.200          4.1 
      335.00        0.167          4.6 
      336.00        0.133          4.3 
      337.00        0.200          5.0 
      338.00        0.167          4.4 
      339.00        0.167          4.4 
      340.00        0.200          4.5 
      341.00        0.167          4.3 
      342.00        0.200          4.1 
      343.00        0.167          3.2 
      344.00        0.200          2.9 
      345.00        0.217          2.9 
      346.00        0.167          2.7 
      347.00        0.200          2.9 
      348.00        0.233          2.9 
      349.00        0.167          2.7 
      350.00        0.200          3.1 
      351.00        0.200          3.2 
      352.00        0.233          7.3 
      353.00        0.200         14.1 
      354.00        0.267         18.8 
      355.00        0.200         17.9 
      356.00        1.917         15.0 
      357.00        0.267          6.0 
      358.00        0.200          5.9 
      359.00        0.200          5.7 
      360.00        0.167          4.7 
      361.00        0.200          4.4 
      362.00        0.167          4.6 
      363.00        0.200          6.0 
      364.00        0.167          5.5 
      365.00        0.167          5.0 
      366.00        0.167          4.9 
      367.00        0.167          4.4 
      368.00        0.200          4.3 
      369.00        0.167          4.5 
      370.00        0.133          4.6 
      371.00        0.183          3.8 
      372.00        0.167          4.2 
      373.00        0.167          4.4 
      374.00        0.133          4.3 
      375.00        0.133          3.6 
      376.00        0.067          4.2 
      377.00        0.100          4.4 
      378.00        0.100          3.7 
      379.00        0.100          4.5 
      380.00        0.133          4.0 
      381.00        0.200          4.9 
      382.00        0.200          6.9 
      383.00        0.200         16.8 
      384.00        0.267         30.0 
      385.00        0.167         30.2 
      386.00        2.283         23.2 
      387.00        0.267          6.0 
      388.00        0.200          6.3 
      389.00        0.200          5.8 
      390.00        0.200          6.7 
      391.00        0.167          5.8 
      392.00        0.167          5.8 
      393.00        0.100          5.6 
      394.00        0.167          5.5 
      395.00        0.133          4.9 
      396.00        0.167          4.7 
      397.00        0.167          3.9 
      398.00        0.100          3.6 
      399.00        0.150          4.2 
      400.00        0.167          3.8 
      401.00        0.167          4.1 
      402.00        0.200          3.8 
      403.00        0.200          4.2 
      404.00        0.167          4.3 
      405.00        0.233          3.8 
      406.00        0.233          3.6 
      407.00        0.167          4.0 
      408.00        0.167          4.7 
      409.00        0.167          5.5 
      410.00        0.200          7.5 
      411.00        0.167          9.4 
      412.00        0.167          8.1 
      413.00        0.133          6.7 
      414.00        0.267          5.1 
      415.00        0.200          4.9 
      416.00        2.250          7.0 
      417.00        0.200          6.8 
      418.00        0.267          7.4 
      419.00        0.167          6.3 
      420.00        0.200          6.3 
      421.00        0.200          7.1 
      422.00        0.167          6.3 
      423.00        0.217          7.0 
      424.00        0.167          6.2 
      425.00        0.167          5.9 
      426.00        0.167          6.1 
      427.00        0.200          5.9 
      428.00        0.167          6.1 
      429.00        0.200          6.1 
      430.00        0.167          5.2 
      431.00        0.167          5.3 
      432.00        0.200          4.8 
      433.00        0.200          5.5 
      434.00        0.133          4.4 
      435.00        0.133          3.4 
      436.00        0.167          4.7 
      437.00        0.133          4.3 
      438.00        0.167          4.4 
      439.00        0.133          4.3 
      440.00        0.167          4.5 
      441.00        0.133          4.7 
      442.00        0.167          4.5 
      443.00        0.133          4.5 
      444.00        0.250          4.1 
      445.00        0.167          3.7 
      446.00        2.567          4.3 
      447.00        0.233          3.3 
      448.00        0.183          3.5 
      449.00        0.200          3.1 
      450.00        0.167          3.4 
      451.00        0.100          3.8 
      452.00        0.133          3.4 
      453.00        0.167          3.7 
      454.00        0.167          3.3 
      455.00        0.267          3.6 
      456.00        0.133          2.9 
      457.00        0.167          3.2 
      458.00        0.133          2.8 
      459.00        0.167          2.7 
      460.00        0.133          2.6 
      461.00        0.133          2.9 
      462.00        0.133          3.1 
      463.00        0.133          2.8 
      464.00        0.100          2.2 
      465.00        0.100          3.1 
      466.00        0.167          2.8 
      467.00        0.167          2.4 
      468.00        0.200          3.0 
      469.00        0.167          2.8 
      470.00        0.183          3.0 
      471.00        0.167          2.5 
      472.00        0.167          3.0 
      473.00        0.167          2.6 
      474.00        0.300          3.3 
      475.00        0.133          2.8 
      476.00        2.417          3.3 
      477.00        0.233          3.1 
      478.00        0.200          3.0 
      479.00        0.200          2.8 
      480.00        0.200          3.0 
      481.00        0.167          2.3 
      482.00        0.200          2.2 
      483.00        0.200          2.7 
      484.00        0.167          2.7 
      485.00        0.200          2.8 
      486.00        0.167          2.3 
      487.00        0.167          2.9 
      488.00        0.167          2.2 
      489.00        0.167          2.6 
      490.00        0.200          2.9 
      491.00        0.167          2.9 
      492.00        0.200          3.0 
      493.00        0.183          3.3 
      494.00        0.167          2.5 
      495.00        0.167          2.4 
      496.00        0.167          2.8 
      497.00        0.200          2.7 
      498.00        0.100          3.0 
      499.00        0.100          2.6 
      500.00        0.100          2.8 
      501.00        0.167          3.3 
