~Version Information
 VERS.                                  2.0 : CWLS LAS VERSION
 WRAP.                                   NO : WRAPING MODE
 SWARE .                 MController 2.5.0H : SOFTWARE VERSION
~Well Information
 WELL.                        TAMI J. 23-18 : WELL
 COMP.            PIONEER NATURAL RESOURCES : COMPANY
 FLD.                      PURGATOIRE RIVER : FIELD
 LOC.                 NE/SW Sec18 T33S R65W : LOCATION
 DATE.                             12/12/04 : DATE(S) LOGGED
 SRVC.        BLANCO GEOLOGICAL SEVICES LLC : SERVICE COMPANY
 STAT.                                   CO : STATE
 CNTY.                           LAS ANIMAS : COUNTY
 CTRY.                                  USA : COUNTRY
 API.                          05-071-08073 : API NUMBER
 STRT.FT                             263.00 : START DEPTH
 STOP.FT                            1765.00 : STOP DEPTH
 STEP.FT                               1.00 : DEPTH INCREMENT
 NULL.                                -9999 : NULL VALUE
~Curve information
 DEPTH.FT                                   :
 ROP.MIN/FT                                 :
 GAS.UNITS                                  :
~ASCII Log data
# ...
     1463.00        0.200         71.4 
     1464.00        0.233         71.4 
     1465.00        0.267         71.2 
     1466.00        4.050        258.3 
     1467.00        0.300        171.2 
     1468.00        0.233        158.8 
     1469.00        0.233        155.8 
     1470.00        0.133        157.6 
     1471.00        0.150        157.6 
     1472.00        0.167        162.7 
     1473.00        0.333        170.4 
     1474.00        0.367        173.8 
     1475.00        0.267        173.8 
     1476.00        0.267        168.3 
     1477.00        0.300        157.0 
     1478.00        0.300        148.2 
     1479.00        0.333        137.1 
     1480.00        0.333        122.6 
     1481.00        0.300        110.6 
     1482.00        0.317        109.8 
     1483.00        0.300         98.2 
     1484.00        0.200         92.4 
     1485.00        0.167         92.4 
     1486.00        0.133         90.2 
     1487.00        0.133         88.2 
     1488.00        0.233         84.8 
     1489.00        0.200         87.5 
     1490.00        0.233         96.4 
     1491.00        0.200        109.1 
     1492.00        0.267        116.7 
     1493.00        0.267        120.1 
     1494.00        0.267        119.9 
     1495.00        0.100        119.9 
     1496.00        3.517        404.4 
     1497.00        0.550        339.3 
     1498.00        0.400        312.5 
     1499.00        0.333        309.0 
     1500.00        0.333        304.6 
     1501.00        0.300        289.3 
     1502.00        0.300        273.4 
     1503.00        0.300        245.8 
     1504.00        0.267        244.2 
     1505.00        0.167        219.8 
     1506.00        0.267        217.6 
     1507.00        0.200        197.6 
     1508.00        0.133        176.9 
     1509.00        0.167        168.6 
     1510.00        0.250        158.7 
     1511.00        0.300        151.6 
     1512.00        0.200        145.7 
     1513.00        0.167        145.1 
     1514.00        0.267        142.5 
     1515.00        0.267        136.5 
     1516.00        0.267        133.4 
     1517.00        0.267        131.0 
     1518.00        0.267        129.0 
     1519.00        0.267        131.1 
     1520.00        0.300        132.2 
     1521.00        0.267        133.7 
     1522.00        0.267        131.8 
     1523.00        0.283        128.4 
     1524.00        0.233        127.9 
     1525.00        0.267        113.5 
     1526.00        4.017       1074.0 
     1527.00        0.367        841.6 
     1528.00        0.200        557.4 
     1529.00        0.267        558.0 
     1530.00        0.300        537.5 
     1531.00        0.267        440.0 
     1532.00        0.267        251.7 
     1533.00        0.317        233.3 
     1534.00        0.467        234.1 
     1535.00        0.333        234.3 
     1536.00        0.200        229.4 
     1537.00        0.167        228.5 
     1538.00        0.133        221.8 
     1539.00        0.133        217.8 
     1540.00        0.233        216.3 
     1541.00        0.333        214.6 
     1542.00        0.333        214.0 
     1543.00        0.333        207.1 
     1544.00        0.300        206.1 
     1545.00        0.317        198.7 
     1546.00        0.433        191.3 
     1547.00        0.367        183.0 
     1548.00        0.267        166.3 
     1549.00        0.333        164.5 
     1550.00        0.233        147.2 
     1551.00        0.200        136.9 
     1552.00        0.167        132.0 
     1553.00        0.167        123.0 
     1554.00        0.167        123.0 
     1555.00        0.300        118.3 
     1556.00        2.117        291.9 
     1557.00        0.333        314.6 
     1558.00        0.300        321.3 
     1559.00        0.400        323.9 
     1560.00        0.367        317.4 
     1561.00        0.367        302.1 
     1562.00        0.417        288.5 
     1563.00        0.300        280.4 
     1564.00        0.300        268.8 
     1565.00        0.333        252.6 
     1566.00        0.367        231.5 
     1567.00        0.267        211.2 
     1568.00        0.433        186.3 
     1569.00        0.333        169.3 
     1570.00        0.333        168.3 
     1571.00        0.367        158.6 
     1572.00        0.350        153.7 
     1573.00        0.300        146.1 
     1574.00        0.333        144.1 
     1575.00        0.300        142.7 
     1576.00        0.367        141.9 
     1577.00        0.300        141.9 
     1578.00        0.200        138.7 
     1579.00        0.200        136.7 
     1580.00        0.200        136.7 
     1581.00        0.233        140.5 
     1582.00        0.233        147.0 
     1583.00        0.267        152.4 
     1584.00        0.283        160.0 
     1585.00        0.200        164.0 
     1586.00        3.817        465.8 
     1587.00        0.333        442.6 
     1588.00        0.300        414.9 
     1589.00        0.267        386.1 
     1590.00        0.300        352.6 
     1591.00        0.533        324.7 
     1592.00        0.367        270.4 
     1593.00        0.333        255.7 
     1594.00        0.317        238.3 
     1595.00        0.300        212.7 
     1596.00        0.233        206.2 
     1597.00        0.200        189.3 
     1598.00        0.200        183.0 
     1599.00        0.300        178.9 
     1600.00        0.433        208.9 
     1601.00        0.400        226.4 
     1602.00        0.300        219.0 
     1603.00        0.200        204.1 
     1604.00        0.200        202.0 
     1605.00        0.267        172.7 
     1606.00        0.250        171.1 
     1607.00        0.233        161.6 
     1608.00        0.267        157.0 
     1609.00        0.267        158.3 
     1610.00        0.233        159.7 
     1611.00        0.300        159.0 
     1612.00        0.233        154.5 
     1613.00        0.300        152.5 
     1614.00        0.267        151.4 
     1615.00        0.167        147.9 
     1616.00        2.383        274.0 
     1617.00        0.367        280.5 
     1618.00        0.433        291.1 
     1619.00        0.333        296.6 
     1620.00        0.333        293.0 
     1621.00        0.400        284.3 
     1622.00        0.317        274.0 
     1623.00        0.300        273.5 
     1624.00        0.333        266.8 
     1625.00        0.267        256.3 
     1626.00        0.300        240.3 
     1627.00        0.300        220.9 
     1628.00        0.267        198.6 
     1629.00        0.300        186.5 
     1630.00        0.300        177.6 
     1631.00        0.300        174.5 
     1632.00        0.333        159.7 
     1633.00        0.283        147.7 
     1634.00        0.267        143.7 
     1635.00        0.267        139.7 
     1636.00        0.267        136.1 
     1637.00        0.300        135.6 
     1638.00        0.200        135.6 
     1639.00        0.267        140.4 
     1640.00        0.233        146.5 
     1641.00        0.233        152.3 
     1642.00        0.200        152.5 
     1643.00        0.200        152.5 
     1644.00        0.233        151.5 
     1645.00        0.267        146.4 
     1646.00        2.217        270.4 
     1647.00        0.633        311.7 
     1648.00        0.333        313.3 
     1649.00        0.300        311.3 
     1650.00        0.350        297.5 
     1651.00        0.367        277.3 
     1652.00        0.433        257.5 
     1653.00        0.367        240.4 
     1654.00        0.300        238.5 
     1655.00        0.333        226.2 
     1656.00        0.300        211.0 
     1657.00        0.367        198.3 
     1658.00        0.400        187.1 
     1659.00        0.350        167.4 
     1660.00        0.333        164.5 
     1661.00        0.367        154.3 
     1662.00        0.333        148.6 
