
~Version Information
 VERS.                                  2.0 : CWLS LAS VERSION
 WRAP.                                   NO : WRAPING MODE
 SWARE .                 MController 2.5.0N : SOFTWARE VERSION
~Well Information
 WELL.                          Whinny 42-4 : WELL
 COMP.                                  N/A : COMPANY
 FLD.                      Purgatoire River : FIELD
 LOC.                SE/NE Sec 2 T33S  R67W : LOCATION
 DATE.                           8/19-20/05 : DATE(S) LOGGED
 SRVC.       BLANCO Geological Services LLC : SERVICE COMPANY
 STAT.                                   CO : STATE
 CNTY.                           Las Animas : COUNTY
 CTRY.                                  USA : COUNTRY
 API.                       05-071-08406-00 : API NUMBER
 STRT.FT                             574.00 : START DEPTH
 STOP.FT                            2360.00 : STOP DEPTH
 STEP.FT                               1.00 : DEPTH INCREMENT
 NULL.                                -9999 : NULL VALUE
~Curve information
 DEPTH.FT                                   :
 ROP.MIN/FT                                 :
 GAS.UNITS                                  :
~ASCII Log data
# ...
       774.0         0.13         68.9 
       775.0         0.10         68.1 
       776.0         0.40         64.5 
       777.0         0.20         62.9 
       778.0         0.43         62.4 
       779.0         0.23         63.6 
       780.0         0.40         60.2 
       781.0         0.10         58.9 
       782.0         0.30         55.3 
       783.0         0.20         53.3 
       784.0         0.20         53.9 
       785.0         0.42         55.8 
       786.0         0.10         55.9 
       787.0         0.40         59.1 
       788.0         0.10         60.0 
       789.0         0.30         59.5 
       790.0         0.10         58.7 
       791.0         0.10         58.2 
       792.0         0.40         54.7 
       793.0         0.20         53.1 
       794.0         0.10         52.5 
       795.0         0.40         52.5 
       796.0         0.10         52.9 
       797.0         0.37         54.7 
       798.0         0.30         55.1 
       799.0         0.10         53.7 
       800.0         0.32         49.6 
       801.0         0.10         49.0 
       802.0         0.10         48.3 
       803.0         0.30         45.2 
       804.0         0.30         44.5 
       805.0         0.10         43.7 
       806.0         0.10         43.3 
       807.0         0.20         43.6 
       808.0         0.10         43.6 
       809.0         0.30         42.8 
       810.0         0.20         42.0 
       811.0         0.23         40.2 
       812.0         0.20         40.3 
       813.0         0.30         40.1 
       814.0         0.10         39.6 
       815.0         0.10         39.5 
       816.0         0.20         39.0 
       817.0         0.10         38.3 
       818.0         0.42         38.2 
       819.0         0.30         36.1 
       820.0         0.30         35.9 
       821.0         0.10         36.1 
       822.0         0.13         35.5 
       823.0         0.10         36.7 
       824.0         0.40         35.6 
       825.0         0.10         35.2 
       826.0         0.40         34.4 
       827.0         0.10         33.3 
       828.0         0.30         34.9 
       829.0         0.20         34.0 
       830.0         0.13         35.0 
       831.0         0.30         34.4 
       832.0         0.10         33.8 
       833.0         0.32         31.8 
       834.0         0.20         32.1 
       835.0         0.20         34.8 
       836.0         0.03         35.2 
       837.0         0.10         34.8 
       838.0         0.30         34.8 
       839.0         0.30         36.7 
       840.0         0.30         35.9 
       841.0         0.10         35.2 
       842.0         0.10         35.1 
       843.0         0.43         32.5 
       844.0         0.07         32.1 
       845.0         0.10         32.4 
       846.0         0.17         33.3 
       847.0         0.10         35.6 
       848.0         0.07         35.5 
       849.0         0.10         37.7 
       850.0         0.42         39.1 
       851.0         0.27         38.3 
       852.0         0.03         38.2 
       853.0         0.40         34.9 
       854.0         0.20         35.5 
       855.0         0.40         37.4 
       856.0         0.40         36.7 
       857.0         0.10         34.8 
       858.0         0.50         34.5 
       859.0         0.30         34.4 
       860.0         0.20         37.4 
       861.0         0.62         38.0 
       862.0         0.10         38.2 
       863.0         0.50         38.7 
       864.0         0.50         38.8 
       865.0         0.50         40.6 
       866.0         0.20         40.8 
       867.0         0.50         39.5 
       868.0         0.10         38.0 
       869.0         0.67         33.0 
       870.0         0.35         33.0 
       871.0         1.00         31.1 
       872.0         0.50         31.6 
       873.0         0.50         28.0 
       874.0         0.60         29.2 
       875.0         0.62         27.7 
       876.0         0.23         28.4 
       877.0         0.50         29.2 
       878.0         0.20         28.8 
       879.0         0.50         31.2 
       880.0         0.57         30.5 
       881.0         0.10         31.4 
       882.0         0.40         30.6 
       883.0         0.10         30.5 
       884.0         0.27         30.1 
       885.0         0.10         28.3 
       886.0         0.20         29.1 
       887.0         0.22         28.3 
       888.0         0.30         29.7 
       889.0         0.30         28.1 
       890.0         0.40         27.1 
       891.0         0.40         28.9 
       892.0         0.40         27.4 
       893.0         0.37         32.2 
       894.0         0.10         34.2 
       895.0         0.37         45.6 
       896.0         0.07         47.0 
       897.0         0.40         49.6 
       898.0         0.32         50.7 
       899.0         0.13         50.5 
       900.0         0.17         49.6 
       901.0         0.40         50.5 
       902.0         0.30         53.8 
       903.0         0.37         60.1 
       904.0         0.20         60.2 
       905.0         0.40         60.4 
       906.0         0.20         61.0 
       907.0         0.20         60.3 
       908.0         0.27         58.4 
       909.0         0.30         58.1 
       910.0         0.20         58.2 
       911.0         0.42         58.0 
       912.0         0.10         58.0 
       913.0         0.30         57.8 
       914.0         0.10         57.5 
       915.0         0.20         57.0 
       916.0         0.20         57.0 
       917.0         0.10         56.8 
       918.0         0.40         58.5 
       919.0         0.40         68.8 
       920.0         0.07         70.1 
       921.0         0.40         66.6 
       922.0         0.10         65.1 
       923.0         0.40         65.8 
       924.0         0.10         66.5 
       925.0         0.42         65.3 
       926.0         0.20         63.8 
       927.0         0.40         60.1 
       928.0         0.20         60.4 
       929.0         0.40         62.5 
       930.0         0.10         63.8 
       931.0         0.40         68.6 
       932.0         0.20         67.4 
       933.0         0.20         65.9 
       934.0         0.40         64.6 
       935.0         0.10         64.4 
       936.0         0.62        106.5 
       937.0         0.10        123.0 
       938.0         0.47        159.3 
       939.0         0.20        163.5 
       940.0         0.43        180.3 
       941.0         0.20        179.7 
       942.0         0.40        172.1 
       943.0         0.30        173.8 
       944.0         0.50        169.5 
       945.0         0.27        169.8 
       946.0         0.42        168.7 
       947.0         0.20        169.8 
       948.0         0.40        169.6 
       949.0         0.20        169.6 
       950.0         0.40        170.5 
       951.0         0.30        171.4 
       952.0         0.30        172.6 
       953.0         0.40        171.9 
       954.0         0.20        168.4 
       955.0         0.10        164.4 
       956.0         0.40        159.8 
       957.0         0.25        160.7 
       958.0         0.30        160.2 
       959.0         0.20        160.5 
       960.0         0.30        162.4 
       961.0         0.30        161.7 
       962.0         0.20        162.0 
       963.0         0.40        169.2 
       964.0         0.30        167.1 
       965.0         0.20        166.0 
       966.0         0.20        163.5 
       967.0         0.40        160.8 
       968.0         0.10        161.1 
       969.0         0.52        161.9 
       970.0         0.13        162.1 
       971.0         0.20        160.4 
       972.0         0.20        158.2 
       973.0         0.40        155.5 
