~Version Information
VERS.                      2.0: CWLS Log ASCII Standard - VERSION 2.0
WRAP.                       NO: One line per depth step
~Well Information Block
STRT.FT               580.0000: 
STOP.FT              1756.0000: 
STEP.FT                 0.1000: 
NULL.                -999.2500: 
COMP.          Pioneer Natural Resources: COMPANY
WELL.          Lookout Point 31-23 Tr: WELL
FLD.           Purgatoire River: FIELD
LOC.           541' FNL & 1768' FEL: LOCATION
PROV.                 Colorado: PROVINCE
CNTY.               Las Animas: COUNTRY
SRVC.                Patterson: SERVICE COMPANY
DATE.          Mon Jan 24 07:20:20 2005: LOG DATE
UWI.           05 071 08260 00: UNIQUE WELL ID
~Curve Information Block
DEPT.FT            0 000 00 00: Depth
DCAL.in                       : CDL Caliper
DPOR.pu                       : CDL Density Porosity
GR.GAPI                       : Gamma Ray
NPOR.pu                       : Neutron Porosity
RHOB.g/cc                     : CDL Bulk Density
RHOC.g/cc                     : CDL Density Correction
~Parameter Information Block
~A  Depth       DCAL        DPOR         GR         NPOR        RHOB        RHOC    
# ...
   656.8000      8.2600     10.7375     97.3977     30.8205      2.4728      0.0791
   656.9000      8.2600     11.4945     93.5468     31.3994      2.4603      0.0535
   657.0000      8.2626     12.4591     91.6178     32.1279      2.4444      0.0650
   657.1000      8.2626     12.8542     90.4403     32.4496      2.4379      0.0254
   657.2000      8.2626     12.5123     90.1402     32.3880      2.4435      0.0296
   657.3000      8.2649     11.7345     89.7665     32.2132      2.4564      0.0258
   657.4000      8.2649     10.9342     88.5037     31.8821      2.4696      0.0228
   657.5000      8.2648     11.0136     88.9240     31.5525      2.4683      0.0679
   657.6000      8.2648     12.5769     93.3332     31.6323      2.4425      0.0371
   657.7000      8.2648     14.5088     99.3615     31.9409      2.4106      0.0079
   657.8000      8.2639     15.3220    102.0586     31.8987      2.3972      0.0039
   657.9000      8.2639     14.9618    102.0966     31.7652      2.4031      0.0518
   658.0000      8.2656     14.2039    105.5381     32.0842      2.4156      0.0539
   658.1000      8.2656     13.8239    111.5640     32.4396      2.4219      0.0579
   658.2000      8.2656     14.4776    115.6982     32.3861      2.4111      0.0631
   658.3000      8.2769     15.8870    116.4081     32.1056      2.3879      0.0190
   658.4000      8.2769     16.4540    111.6034     31.6318      2.3785     -0.0230
   658.5000      8.2968     15.4639    105.0456     30.9370      2.3948      0.0590
   658.6000      8.2968     14.3751    104.8155     30.5031      2.4128      0.0716
   658.7000      8.2968     13.9967    108.9274     30.5405      2.4191      0.0364
   658.8000      8.3178     13.6521    113.0120     30.6191      2.4247      0.0910
   658.9000      8.3178     13.2152    118.6509     30.6618      2.4319      0.0762
   659.0000      8.3350     13.0618    121.7357     30.9916      2.4345      0.0947
   659.1000      8.3350     13.0811    117.7452     31.4949      2.4342      0.0842
   659.2000      8.3350     12.7523    112.5442     31.6730      2.4396      0.0823
   659.3000      8.3436     12.2494    111.8690     31.2663      2.4479      0.1285
   659.4000      8.3436     12.1904    115.3189     30.6344      2.4489      0.1300
   659.5000      8.3457     12.2075    119.0548     30.4699      2.4486      0.0540
   659.6000      8.3457     11.8974    120.6158     30.6766      2.4537      0.0768
   659.7000      8.3457     11.9433    120.6984     30.6360      2.4529      0.0690
   659.8000      8.3411     12.7168    120.9042     30.2449      2.4402      0.0733
   659.9000      8.3411     13.3689    121.2388     29.6369      2.4294      0.0139
   660.0000      8.3146     13.0157    120.0256     28.9612      2.4352      0.0300
   660.1000      8.3146     12.0935    115.6663     28.6952      2.4505      0.0459
   660.2000      8.3146     11.4493    109.3795     28.9500      2.4611      0.0617
   660.3000      8.2699     11.3667    103.8308     28.9724      2.4624      0.0566
   660.4000      8.2699     11.5821     99.9051     28.6089      2.4589      0.0529
   660.5000      8.2437     11.5371     98.3559     28.5367      2.4596      0.0577
   660.6000      8.2437     11.0635    100.6370     28.7968      2.4675      0.0640
   660.7000      8.2437     10.4663    106.1591     28.8336      2.4773      0.0839
   660.8000      8.2393     10.1448    113.8166     28.4683      2.4826      0.1171
   660.9000      8.2393     10.2980    120.5143     27.9605      2.4801      0.1347
   661.0000      8.2392     10.9357    123.2400     27.8184      2.4696      0.1239
   661.1000      8.2392     11.8303    122.6589     28.4378      2.4548      0.1039
   661.2000      8.2392     12.1712    120.6048     29.1841      2.4492      0.0784
   661.3000      8.2381     11.4741    117.4375     29.0926      2.4607      0.0791
   661.4000      8.2381     10.5711    113.2038     28.1648      2.4756      0.0973
   661.5000      8.2328     10.3465    110.0626     27.1738      2.4793      0.0945
   661.6000      8.2328     10.5830    111.3293     26.9040      2.4754      0.0781
   661.7000      8.2328     10.8846    117.1960     27.1666      2.4704      0.0865
   661.8000      8.2119     10.9043    124.9628     27.1814      2.4701      0.0476
   661.9000      8.2119     10.1820    129.5611     26.5941      2.4820      0.0656
   662.0000      8.1757      8.6992    126.7200     25.7695      2.5065      0.0806
   662.1000      8.1757      6.9731    120.5684     25.5858      2.5349      0.1067
   662.2000      8.1757      5.9440    118.9390     26.3175      2.5519      0.1173
   662.3000      8.1457      6.0412    122.2171     27.0336      2.5503      0.0845
   662.4000      8.1457      6.5650    123.7595     27.1994      2.5417      0.0482
   662.5000      8.1267      6.7713    120.6497     27.5112      2.5383      0.0861
   662.6000      8.1267      6.8301    115.9813     28.3262      2.5373      0.0679
   662.7000      8.1267      7.1952    111.8594     29.2086      2.5313      0.0690
   662.8000      8.1118      7.6622    109.5836     29.8491      2.5236      0.0030
   662.9000      8.1118      8.1128    111.9430     30.3182      2.5161      0.0273
   663.0000      8.1052      9.4800    115.8572     30.9462      2.4936      0.0190
   663.1000      8.1052     11.7648    116.5686     31.7420      2.4559     -0.0418
   663.2000      8.1052     13.2242    116.8933     32.2626      2.4318     -0.0422
   663.3000      8.1048     12.9783    118.5993     32.4228      2.4359     -0.0522
   663.4000      8.1048     11.6338    119.2106     32.2732      2.4580      0.0077
   663.5000      8.1038     10.0778    120.1930     31.8861      2.4837      0.0542
   663.6000      8.1038      9.2028    120.8507     31.5391      2.4982      0.0814
   663.7000      8.1038      9.2886    117.8029     31.0111      2.4967      0.0940
   663.8000      8.1023      9.7628    112.6413     30.1662      2.4889      0.0691
   663.9000      8.1023     10.2779    109.6113     29.7005      2.4804      0.0887
   664.0000      8.1020     11.0277    110.2475     29.8599      2.4680      0.0704
   664.1000      8.1020     11.8274    110.2995     29.9421      2.4548      0.0440
   664.2000      8.1020     12.5696    107.2606     29.5153      2.4426      0.0376
   664.3000      8.1020     13.5792    105.2790     28.7775      2.4259      0.0119
   664.4000      8.1020     14.4175    107.9519     28.1281      2.4121      0.0014
   664.5000      8.1015     14.0844    113.7087     27.8694      2.4176      0.0153
   664.6000      8.1015     12.5412    120.1162     27.9591      2.4431      0.0630
   664.7000      8.1015     10.8995    124.3879     28.0942      2.4702      0.0679
   664.8000      8.1000     10.1559    124.3035     27.9997      2.4824      0.0988
   664.9000      8.1000     10.3473    121.4353     27.6003      2.4793      0.0775
   665.0000      8.0961     10.5202    117.0492     27.3382      2.4764      0.0786
   665.1000      8.0961      9.6818    110.8026     27.6010      2.4903      0.0778
   665.2000      8.0961      8.0737    105.3082     27.9891      2.5168      0.0851
   665.3000      8.0894      6.8210    103.4668     27.9930      2.5375      0.1277
   665.4000      8.0894      6.4983    103.5207     27.8853      2.5428      0.1061
   665.5000      8.0831      6.6878    104.2240     27.9258      2.5397      0.0985
   665.6000      8.0831      6.7500    105.2820     27.8593      2.5386      0.1076
   665.7000      8.0831      6.2035    106.4297     27.5488      2.5476      0.0694
   665.8000      8.0799      5.3455    108.7175     27.3229      2.5618      0.1097
   665.9000      8.0799      5.1542    110.1961     27.4480      2.5650      0.1034
   666.0000      8.0794      5.3257    108.8255     27.6563      2.5621      0.0713
   666.1000      8.0794      4.7431    108.2836     27.6611      2.5717      0.0595
   666.2000      8.0794      3.6121    112.9308     27.5757      2.5904      0.0580
   666.3000      8.0772      2.4897    120.4544     27.6069      2.6089      0.0112
