~Version Information
VERS.                      2.0: CWLS Log ASCII Standard - VERSION 2.0
WRAP.                       NO: One line per depth step
~Well Information Block
STRT.FT               260.0000: 
STOP.FT              1199.2000: 
STEP.FT                 0.1000: 
NULL.                -999.2500: 
COMP.          Evergreen Operating Corporation: COMPANY
WELL.             Justin 32-10: WELL
FLD.           Purgatorie River: FIELD
LOC.           2994' FNL & 1449' FEL: LOCATION
PROV.                 Colorado: PROVINCE
CNTY.               Las Animas: COUNTRY
SRVC.                         : SERVICE COMPANY
DATE.          Mon Aug 30 07:14:35 2004: LOG DATE
UWI.           05 071 08053 00: UNIQUE WELL ID
~Curve Information Block
DEPT.FT            0 000 00 00: Depth
LTEN.lb                       : Surface Line Tension
DCAL.in                       : CDL Caliper
RHOB.g/cc                     : CDL Bulk Density
RHOC.g/cc                     : CDL Density Correction
DPOR.pu                       : CDL Density Porosity
GR.GAPI                       : Gamma Ray
NPOR.pu                       : Neutron Porosity
~Parameter Information Block
~A  Depth       LTEN        DCAL        RHOB        RHOC        DPOR         GR         NPOR    
# ...
   940.4000    848.0912      7.9808      2.4676      0.0770     11.0573    109.3978     29.9905
   940.5000    930.9917      7.9924      2.4563      0.0794     11.7389    118.7857     29.7221
   940.6000    930.9917      7.9924      2.4295      0.0763     13.3664    122.0360     29.1293
   940.7000    930.9917      7.9924      2.4024      0.0364     15.0037    115.8947     28.1052
   940.8000    894.3935      7.9981      2.3873      0.0477     15.9198    105.3194     27.4382
   940.9000    894.3935      7.9981      2.3788      0.0440     16.4338     97.4979     27.9150
   941.0000    913.6832      7.9640      2.3560      0.0601     17.8185     96.1130     28.6888
   941.1000    913.6832      7.9640      2.3045      0.0597     20.9422     97.5406     28.9479
   941.2000    913.6832      7.9640      2.2302      0.0368     25.4414     95.3343     29.2258
   941.3000    888.5986      7.9629      2.1436      0.0463     30.6939     89.2019     29.6297
   941.4000    888.5986      7.9629      2.0469      0.0496     36.5514     84.3220     29.8133
   941.5000    875.4866      7.9927      1.9369      0.0748     43.2178     82.9509     29.9058
   941.6000    875.4866      7.9927      1.8151      0.0126     50.5999     80.7826     30.3244
   941.7000    875.4866      7.9927      1.7003     -0.0002     57.5564     73.3791     31.4344
   941.8000    902.4857      8.0085      1.6136      0.0004     62.8143     63.7817     32.9460
   941.9000    902.4857      8.0085      1.5545      0.0610     66.3909     57.4242     34.0447
   942.0000    934.9130      7.9846      1.5092      0.1324     69.1387     52.8747     34.3112
   942.1000    934.9130      7.9846      1.4794      0.0824     70.9485     46.1459     33.8825
   942.2000    934.9130      7.9846      1.4782      0.1112     71.0191     41.8199     33.0565
   942.3000    874.6708      8.0018      1.4998      0.1235     69.7096     45.6687     32.0696
   942.4000    874.6708      8.0018      1.5283      0.1420     67.9818     53.0422     31.3484
   942.5000    906.0006      8.0087      1.5683      0.0922     65.5579     56.9558     31.2605
   942.6000    906.0006      8.0087      1.6411      0.1081     61.1463     56.9661     31.9389
   942.7000    906.0006      8.0087      1.7493      0.1192     54.5895     55.1047     33.0848
   942.8000    882.3575      7.9932      1.8608      0.1656     47.8330     53.0522     33.7768
   942.9000    882.3575      7.9932      1.9477      0.1277     42.5630     55.6866     33.3882
   943.0000    870.4393      7.9637      2.0224      0.1210     38.0342     66.6444     32.3129
   943.1000    870.4393      7.9637      2.0989      0.1791     33.4028     80.8076     31.6601
   943.2000    870.4393      7.9637      2.1625      0.1537     29.5485     90.0329     32.0306
   943.3000    957.5486      7.9612      2.2001      0.0912     27.2661     94.7685     32.4817
   943.4000    957.5486      7.9612      2.2142      0.0816     26.4127     98.3825     32.0016
   943.5000    953.1459      7.9547      2.2142      0.0308     26.4091     96.4100     31.1628
   943.6000    953.1459      7.9547      2.2072      0.0211     26.8364     88.8790     30.8302
   943.7000    953.1459      7.9547      2.1836      0.0587     28.2640     85.7886     30.8770
   943.8000    878.7082      7.9326      2.1378     -0.0006     31.0435     90.5002     31.1893
   943.9000    878.7082      7.9326      2.0889     -0.0046     34.0073     96.1972     31.7998
   944.0000    810.3257      7.9378      2.0526      0.0440     36.2075     98.0536     32.2227
   944.1000    810.3257      7.9378      2.0293      0.0424     37.6167     94.7848     32.2057
   944.2000    810.3257      7.9378      2.0291      0.0106     37.6277     87.3229     31.8242
   944.3000    867.2467      7.9526      2.0612      0.0401     35.6840     79.6797     31.0145
   944.4000    867.2467      7.9526      2.1080      0.1242     32.8492     75.8715     30.3073
   944.5000    872.5792      7.9469      2.1437      0.1486     30.6868     77.7716     30.1482
   944.6000    872.5792      7.9469      2.1645      0.1390     29.4236     83.8112     30.1342
   944.7000    872.5792      7.9469      2.1831      0.1076     28.2973     89.8034     29.9981
   944.8000    851.3621      7.9321      2.2115      0.1118     26.5731     93.3146     29.8586
   944.9000    851.3621      7.9321      2.2524      0.0869     24.0956     94.9521     29.8670
   945.0000    836.9333      7.9287      2.2994      0.0463     21.2512     97.3266     29.9059
   945.1000    836.9333      7.9287      2.3458      0.0471     18.4382    100.5453     29.8111
   945.2000    836.9333      7.9287      2.3851      0.0968     16.0546    100.7794     29.8720
   945.3000    890.5728      7.9502      2.4083      0.1181     14.6496     99.0898     30.2598
   945.4000    890.5728      7.9502      2.4137      0.1107     14.3194    100.4111     30.5697
   945.5000    840.1181      7.9260      2.4107      0.1030     14.5019    103.7751     30.2171
   945.6000    840.1181      7.9260      2.4084      0.0589     14.6426    106.0808     29.0550
   945.7000    840.1181      7.9260      2.4129      0.0548     14.3683    105.5157     27.8842
   945.8000    823.5970      7.9315      2.4274      0.0581     13.4928    103.2435     27.5660
   945.9000    823.5970      7.9315      2.4467      0.0813     12.3207    102.3903     27.9157
   946.0000    887.9845      7.9326      2.4584      0.0925     11.6130    100.6964     28.0188
   946.1000    887.9845      7.9326      2.4556      0.0860     11.7794     96.4961     27.5026
   946.2000    887.9845      7.9326      2.4503      0.0640     12.1001     95.1359     27.1080
   946.3000    873.7513      7.9508      2.4576      0.0413     11.6605     96.7906     27.3166
   946.4000    873.7513      7.9508      2.4723      0.0544     10.7681     95.4325     27.5932
   946.5000    860.6088      7.9246      2.4781      0.0449     10.4158     91.7044     27.6804
   946.6000    860.6088      7.9246      2.4703      0.0412     10.8896     89.0507     27.7786
   946.7000    860.6088      7.9246      2.4569      0.0359     11.7052     86.0657     27.6976
   946.8000    881.8955      7.9226      2.4474      0.0559     12.2770     84.6420     27.3759
   946.9000    881.8955      7.9226      2.4510      0.0203     12.0609     87.8566     27.4263
   947.0000    841.3979      7.9532      2.4705      0.0545     10.8776     90.5383     27.9140
   947.1000    841.3979      7.9532      2.4927      0.0591      9.5361     90.3129     28.4421
   947.2000    841.3979      7.9532      2.5027      0.0724      8.9258     92.6365     29.0669
   947.3000    896.4245      7.9227      2.5057      0.0213      8.7443     97.7593     29.1266
   947.4000    896.4245      7.9227      2.5107      0.0743      8.4438    101.2022     28.0808
   947.5000    915.4128      7.9221      2.5157      0.0568      8.1408    102.5614     27.1380
   947.6000    915.4128      7.9221      2.5221      0.0432      7.7498    102.5067     27.1740
   947.7000    915.4128      7.9221      2.5296      0.0480      7.2998    101.8927     27.4065
   947.8000    858.6616      7.9270      2.5322      0.0476      7.1391    104.2748     27.1476
   947.9000    858.6616      7.9270      2.5305      0.0524      7.2437    107.1025     26.7106
   948.0000    875.1033      7.9311      2.5276      0.0207      7.4203    101.1452     26.7158
   948.1000    875.1033      7.9311      2.5201      0.0519      7.8715     88.9225     27.2370
   948.2000    875.1033      7.9311      2.5001      0.0483      9.0866     81.9849     27.8277
   948.3000    876.4639      7.9363      2.4714      0.0246     10.8272     80.2974     28.1673
   948.4000    876.4639      7.9363      2.4490      0.0463     12.1816     78.9023     28.1053
   948.5000    930.1450      7.9277      2.4460     -0.0007     12.3652     80.9316     27.6864
   948.6000    930.1450      7.9277      2.4610      0.0315     11.4561     88.2766     27.5021
   948.7000    930.1450      7.9277      2.4742      0.0636     10.6566     96.0857     27.5622
