~Version Information
VERS.                      2.0: CWLS Log ASCII Standard - VERSION 2.0
WRAP.                       NO: One line per depth step
~Well Information Block
STRT.FT               550.0000: 
STOP.FT              2359.0000: 
STEP.FT                 0.1000: 
NULL.                -999.2500: 
COMP.          Pioneer Natural Resources: COMPANY
WELL.              Whinny 42-2: WELL
FLD.           Purgatoire River: FIELD
LOC.           1836' FNL & 466' FEL: LOCATION
PROV.                 Colorado: PROVINCE
CNTY.               Las Animas: COUNTRY
SRVC.                Patterson: SERVICE COMPANY
DATE.          Mon Aug 22 07:28:42 2005: LOG DATE
UWI.           05 071 08406 00: UNIQUE WELL ID
~Curve Information Block
DEPT.FT            0 000 00 00: Depth
DCAL.in                       : CDL Caliper
RHOB.g/cc                     : CDL Bulk Density
RHOC.g/cc                     : CDL Density Correction
DPOR.pu                       : CDL Density Porosity
GR.GAPI                       : Gamma Ray
NPOR.pu                       : Neutron Porosity
~Parameter Information Block
~A  Depth       DCAL        RHOB        RHOC        DPOR         GR         NPOR    
# ...
   790.0000      8.1235      2.4047      0.0002     14.8691     61.9291     17.3383
   790.1000      8.1235      2.4523      0.0655     11.9792     60.8003     17.2296
   790.2000      8.1235      2.5057      0.1338      8.7463     58.1573     17.3151
   790.3000      8.1247      2.5398      0.1425      6.6791     55.5308     17.5174
   790.4000      8.1247      2.5345      0.1776      7.0015     53.8745     17.6257
   790.5000      8.1188      2.4939      0.0929      9.4618     55.4419     17.4754
   790.6000      8.1188      2.4446      0.0543     12.4509     58.8887     17.0312
   790.7000      8.1188      2.4071      0.0310     14.7215     60.0104     16.1343
   790.8000      8.1109      2.3782      0.0468     16.4755     58.1086     14.7387
   790.9000      8.1109      2.3332      0.0241     19.1976     57.6382     13.3046
   791.0000      8.1083      2.2541     -0.0106     23.9925     59.8864     12.1888
   791.1000      8.1083      2.1468     -0.0126     30.4948     62.5604     11.2799
   791.2000      8.1083      2.0278     -0.0588     37.7082     65.1410     10.6155
   791.3000      8.1046      1.9057     -0.0762     45.1069     66.4325     10.2215
   791.4000      8.1046      1.7837     -0.1258     52.5028     65.0773      9.8344
   791.5000      8.1185      1.6702     -0.1659     59.3819     62.5820      9.6466
   791.6000      8.1185      1.5651     -0.1359     65.7487     61.5808     10.0070
   791.7000      8.1185      1.4553     -0.0953     72.4047     64.1157     10.5928
   791.8000      8.1429      1.3538     -0.1078     78.5579     68.8597     10.9649
   791.9000      8.1429      1.3036     -0.0338     81.5983     71.4229     11.3274
   792.0000      8.1663      1.3190      0.0919     80.6677     71.6777     12.0820
   792.1000      8.1663      1.3727      0.1954     77.4134     71.1912     13.4995
   792.2000      8.1663      1.4451      0.1680     73.0254     71.5253     15.6509
   792.3000      8.2189      1.5395      0.1950     67.3027     74.0859     17.9821
   792.4000      8.2189      1.6557      0.2398     60.2609     79.2143     19.6824
   792.5000      8.3964      1.7835      0.2631     52.5124     88.6362     20.6929
   792.6000      8.3964      1.9082      0.2942     44.9598    100.8572     21.7557
   792.7000      8.3964      2.0211      0.2621     38.1172    113.7247     23.3935
   792.8000      8.6025      2.1353      0.2057     31.1945    126.4421     25.2046
   792.9000      8.6025      2.2548      0.3020     23.9502    135.9350     26.5978
   793.0000      8.5299      2.3591      0.2602     17.6311    140.6654     27.5108
   793.1000      8.5299      2.4328      0.2336     13.1624    141.9445     27.9859
   793.2000      8.5299      2.4730      0.1215     10.7278    138.4032     28.1751
   793.3000      8.4447      2.4923      0.1025      9.5602    132.6163     28.4260
   793.4000      8.4447      2.5121      0.0449      8.3552    132.9460     28.6259
   793.5000      8.2543      2.5372      0.0749      6.8386    138.5309     28.5163
   793.6000      8.2543      2.5463      0.0771      6.2845    142.7767     28.3841
   793.7000      8.2543      2.5279      0.0660      7.4026    146.4179     28.3617
   793.8000      8.1809      2.5024      0.0100      8.9470    149.8597     27.9346
   793.9000      8.1809      2.4890      0.0722      9.7586    149.9749     26.9641
   794.0000      8.1837      2.4752      0.0247     10.5913    153.5038     26.1286
   794.1000      8.1837      2.4435      0.0381     12.5181    162.0083     25.9413
   794.2000      8.1837      2.3900      0.0051     15.7599    167.8956     26.3353
   794.3000      8.1878      2.3184     -0.0259     20.0952    171.6789     26.8345
   794.4000      8.1878      2.2424     -0.0553     24.7005    170.2248     26.9524
   794.5000      8.1951      2.1815     -0.0924     28.3920    161.3911     26.5647
   794.6000      8.1951      2.1407     -0.0466     30.8687    156.1735     25.9930
   794.7000      8.1951      2.1106     -0.0762     32.6912    159.2146     25.6588
   794.8000      8.1928      2.0840     -0.0479     34.3056    161.0175     25.6273
   794.9000      8.1928      2.0646     -0.0204     35.4762    156.8387     25.6860
   795.0000      8.2003      2.0783      0.0498     34.6497    153.6481     25.6235
   795.1000      8.2003      2.1562      0.1230     29.9266    154.6093     25.6249
   795.2000      8.2003      2.2939      0.2759     21.5837    155.1398     25.9924
   795.3000      8.2766      2.4425      0.4074     12.5758    151.8698     26.5157
   795.4000      8.2766      2.5555      0.4780      5.7245    145.4333     26.8080
   795.5000      8.3418      2.6220      0.4786      1.6991    137.4749     26.8467
   795.6000      8.3418      2.6450      0.5044      0.3036    129.5125     26.5952
   795.7000      8.3418      2.6285      0.3728      1.3011    121.2304     25.9509
   795.8000      8.1742      2.5871      0.3267      3.8133    113.9758     25.3220
   795.9000      8.1742      2.5358      0.1642      6.9221    108.5960     25.0606
   796.0000      8.1400      2.4854      0.0727      9.9783    101.7031     24.7621
   796.1000      8.1400      2.4443      0.0795     12.4694     91.6678     24.0758
   796.2000      8.1400      2.4151      0.0547     14.2356     80.2206     23.1851
   796.3000      8.1492      2.3932      0.0658     15.5617     71.5373     22.3919
   796.4000      8.1492      2.3736      0.0289     16.7492     70.7237     22.0619
   796.5000      8.1234      2.3568      0.0099     17.7714     74.9199     22.1406
   796.6000      8.1234      2.3421     -0.0099     18.6620     77.1769     22.0720
   796.7000      8.1234      2.3275      0.0358     19.5481     79.9217     21.6126
   796.8000      8.1094      2.3175      0.0059     20.1514     85.6233     21.0131
   796.9000      8.1094      2.3223     -0.0350     19.8593     87.2166     20.5970
   797.0000      8.0894      2.3393      0.0235     18.8288     83.4772     20.4380
   797.1000      8.0894      2.3525      0.0464     18.0313     80.3231     20.4199
   797.2000      8.0894      2.3535      0.0498     17.9701     79.1532     20.5211
   797.3000      8.0737      2.3510      0.0023     18.1187     79.9291     20.8497
   797.4000      8.0737      2.3509      0.0686     18.1264     83.7924     21.1462
   797.5000      8.0566      2.3453      0.0291     18.4659     88.7462     21.1069
   797.6000      8.0566      2.3384      0.0330     18.8859     91.4831     21.0308
   797.7000      8.0566      2.3395      0.0323     18.8207     91.1227     21.1779
   797.8000      8.0577      2.3444     -0.0018     18.5217     90.1943     21.2751
   797.9000      8.0577      2.3444      0.0488     18.5193     91.4138     21.1306
   798.0000      8.0593      2.3361      0.0267     19.0258     95.7520     20.7963
   798.1000      8.0593      2.3291     -0.0072     19.4474    103.3147     20.3583
   798.2000      8.0593      2.3364      0.0176     19.0063    106.7281     20.0616
   798.3000      8.0691      2.3583      0.0413     17.6785     99.0713     20.1895
   798.4000      8.0691      2.3856      0.0833     16.0273     90.1499     20.5612
   798.5000      8.0578      2.4009      0.1087     15.0990     86.2628     20.6854
   798.6000      8.0578      2.4017      0.0790     15.0476     81.0807     20.4670
   798.7000      8.0578      2.4121      0.0405     14.4170     76.8427     20.3362
   798.8000      8.0601      2.4368      0.1010     12.9188     81.0825     20.6785
   798.9000      8.0601      2.4469      0.0625     12.3107     91.8827     21.1994
   799.0000      8.0818      2.4329      0.0425     13.1562    101.2239     21.4057
   799.1000      8.0818      2.4218      0.0155     13.8318    104.4123     21.3284
   799.2000      8.0818      2.4247      0.0615     13.6524    104.2501     21.2318
   799.3000      8.0978      2.4172      0.0651     14.1104    104.2700     21.2397
   799.4000      8.0978      2.3889      0.0070     15.8244    102.6954     21.3459
   799.5000      8.1007      2.3660     -0.0209     17.2094     98.0537     21.3603
