~Version Information
VERS.                      2.0: CWLS Log ASCII Standard - VERSION 2.0
WRAP.                       NO: One line per depth step
~Well Information Block
STRT.FT               528.0000: 
STOP.FT              2250.0000: 
STEP.FT                 0.1000: 
NULL.                -999.2500: 
COMP.          Pioneer Natural Resources: COMPANY
WELL.           Parklane 43-34: WELL
FLD.           Purgatorie River: FIELD
LOC.           1704' FSL & 1119' FEL: LOCATION
PROV.                 Colorado: PROVINCE
CNTY.               Las Animas: COUNTRY
SRVC.                         : SERVICE COMPANY
DATE.          Thu Oct 07 08:21:17 2004: LOG DATE
UWI.           05 071 08162 00: UNIQUE WELL ID
~Curve Information Block
DEPT.FT            0 000 00 00: Depth
LTEN.lb                       : Surface Line Tension
DCAL.in                       : CDL Caliper
RHOB.g/cc                     : CDL Bulk Density
RHOC.g/cc                     : CDL Density Correction
DPOR.pu                       : CDL Density Porosity
GR.GAPI                       : Gamma Ray
NPOR.pu                       : Neutron Porosity
~Parameter Information Block
~A  Depth       LTEN        DCAL        RHOB        RHOC        DPOR         GR         NPOR    
# ...
  1326.0000   1005.8474      8.1718      2.6015      0.1112      2.9416    105.0704     21.2736
  1326.1000   1005.8474      8.1718      2.5841      0.1256      3.9942    100.4180     21.1421
  1326.2000   1005.8474      8.1718      2.5608      0.0685      5.4089    109.1061     21.0331
  1326.3000   1026.0112      8.1856      2.5512      0.0423      5.9896    124.2162     20.9762
  1326.4000   1026.0112      8.1856      2.5673      0.0536      5.0152    129.9967     20.7205
  1326.5000   1015.9404      8.1896      2.5993      0.0670      3.0698    120.6742     19.7952
  1326.6000   1015.9404      8.1896      2.6355      0.0707      0.8815    106.7045     18.6051
  1326.7000   1015.9404      8.1896      2.6729      0.0538     -1.3891     99.0772     18.1254
  1326.8000   1013.4944      8.1867      2.7050      0.1375     -3.3344     98.7091     18.4551
  1326.9000   1013.4944      8.1867      2.7187      0.0986     -4.1612     98.2916     18.7735
  1327.0000   1001.1668      8.1852      2.7135      0.0932     -3.8507     94.3308     18.6875
  1327.1000   1001.1668      8.1852      2.7026      0.0325     -3.1905     89.6444     18.6474
  1327.2000   1001.1668      8.1852      2.6940      0.0643     -2.6695     84.6971     18.5219
  1327.3000   1036.6343      8.1897      2.6777      0.0253     -1.6813     79.9286     17.6544
  1327.4000   1036.6343      8.1897      2.6385     -0.0029      0.6997     80.6161     16.5019
  1327.5000   1031.0432      8.1970      2.5855     -0.0682      3.9099     87.3428     16.0984
  1327.6000   1031.0432      8.1970      2.5524      0.0016      5.9158     93.0275     16.3645
  1327.7000   1031.0432      8.1970      2.5528      0.0125      5.8890     92.3252     16.5337
  1327.8000    983.6400      8.2041      2.5691      0.0685      4.9028     85.6117     16.2560
  1327.9000    983.6400      8.2041      2.5827      0.0368      4.0773     78.5495     15.7463
  1328.0000   1027.5057      8.2085      2.5905      0.0405      3.6042     78.1058     15.6193
  1328.1000   1027.5057      8.2085      2.5926      0.0401      3.4779     84.5462     15.8983
  1328.2000   1027.5057      8.2085      2.5900      0.0360      3.6342     90.2941     16.0491
  1328.3000   1004.7505      8.2107      2.5899      0.0466      3.6427     91.1057     16.1676
  1328.4000   1004.7505      8.2107      2.5955      0.0663      3.3035     90.9759     16.5849
  1328.5000    986.3478      8.2148      2.5978      0.0524      3.1610     93.3104     17.1018
  1328.6000    986.3478      8.2148      2.5883      0.0535      3.7389     97.1495     17.6219
  1328.7000    986.3478      8.2148      2.5679      0.0351      4.9769    102.1722     18.4840
  1328.8000   1017.6260      8.2209      2.5447      0.0196      6.3818    107.8042     19.7419
  1328.9000   1017.6260      8.2209      2.5300      0.0162      7.2704    112.2830     20.4786
  1329.0000    983.4187      8.2249      2.5295      0.0203      7.3046    117.9409     20.3960
  1329.1000    983.4187      8.2249      2.5343      0.0125      7.0092    122.0450     20.5106
  1329.2000    983.4187      8.2249      2.5337      0.0171      7.0507    117.6866     20.9924
  1329.3000    990.2783      8.2272      2.5274      0.0136      7.4326    110.3606     21.3336
  1329.4000    990.2783      8.2272      2.5203      0.0331      7.8589    109.2100     21.8495
  1329.5000   1021.2347      8.2308      2.5213      0.0089      7.8011    113.0926     22.6639
  1329.6000   1021.2347      8.2308      2.5367      0.0544      6.8642    116.4169     23.3093
  1329.7000   1021.2347      8.2308      2.5583      0.0488      5.5590    117.4723     23.6694
  1329.8000   1009.3995      8.2350      2.5720      0.0695      4.7247    118.3098     23.8724
  1329.9000   1009.3995      8.2350      2.5701      0.0707      4.8422    118.5333     23.7591
  1330.0000   1008.6512      8.2370      2.5583      0.0440      5.5558    120.1706     23.3106
  1330.1000   1008.6512      8.2370      2.5475      0.0397      6.2137    130.3652     22.8820
  1330.2000   1008.6512      8.2370      2.5342      0.0279      7.0195    146.4534     22.7871
  1330.3000   1026.7582      8.2366      2.5137      0.0192      8.2615    153.8645     23.0934
  1330.4000   1026.7582      8.2366      2.4987      0.0187      9.1710    146.8990     23.3307
  1330.5000   1023.7331      8.2361      2.4986      0.0572      9.1772    135.6939     23.0227
  1330.6000   1023.7331      8.2361      2.4997      0.0494      9.1071    130.5069     22.4429
  1330.7000   1023.7331      8.2361      2.4917     -0.0110      9.5943    134.8748     21.9108
  1330.8000   1017.7665      8.2363      2.4782      0.0252     10.4110    145.0694     21.6698
  1330.9000   1017.7665      8.2363      2.4590      0.0213     11.5764    152.0538     22.2691
  1331.0000   1030.8002      8.2365      2.4357      0.0318     12.9856    151.0881     23.5481
  1331.1000   1030.8002      8.2365      2.4155      0.0439     14.2121    148.3805     24.5687
  1331.2000   1030.8002      8.2365      2.4013      0.0249     15.0703    149.0947     24.5871
  1331.3000   1015.1721      8.2360      2.3897      0.0204     15.7765    151.1118     23.8545
  1331.4000   1015.1721      8.2360      2.3746     -0.0123     16.6924    150.1324     23.5591
  1331.5000    968.1016      8.2352      2.3608      0.0223     17.5245    144.1982     24.0781
  1331.6000    968.1016      8.2352      2.3544      0.0343     17.9122    138.0446     24.5564
  1331.7000    968.1016      8.2352      2.3454      0.0673     18.4631    133.7974     24.9617
  1331.8000   1018.9020      8.2372      2.3257      0.0495     19.6566    129.7170     25.5976
  1331.9000   1018.9020      8.2372      2.3043      0.0902     20.9537    126.9290     26.0823
  1332.0000    954.7882      8.2498      2.2848      0.0622     22.1305    127.0751     26.3428
  1332.1000    954.7882      8.2498      2.2537      0.0746     24.0204    130.4685     26.8726
  1332.2000    954.7882      8.2498      2.1948      0.0408     27.5879    132.5276     28.1021
  1332.3000    977.2104      8.2710      2.1118     -0.0114     32.6163    125.9597     29.4469
  1332.4000    977.2104      8.2710      2.0287     -0.0611     37.6540    114.9948     29.9585
  1332.5000   1002.8748      8.2844      1.9641     -0.0379     41.5726    110.0064     30.1844
  1332.6000   1002.8748      8.2844      1.9102     -0.0070     44.8345    109.9905     30.9522
  1332.7000   1002.8748      8.2844      1.8433      0.0107     48.8885    108.6921     31.5435
  1332.8000    942.7966      8.2878      1.7526     -0.0379     54.3868    105.0247     31.6206
  1332.9000    942.7966      8.2878      1.6516     -0.0366     60.5075    101.8086     32.0163
  1333.0000    985.6409      8.2905      1.5608     -0.0365     66.0107     98.2174     32.7402
  1333.1000    985.6409      8.2905      1.4971     -0.0079     69.8747     91.3510     33.0750
  1333.2000    985.6409      8.2905      1.4664      0.0059     71.7353     83.0268     32.9075
  1333.3000    979.7161      8.3202      1.4542      0.0599     72.4725     76.4175     33.0150
  1333.4000    979.7161      8.3202      1.4470      0.0080     72.9106     73.0208     33.5750
  1333.5000    930.3584      8.4295      1.4666     -0.0101     71.7238     73.0778     33.5867
  1333.6000    930.3584      8.4295      1.5448      0.0561     66.9835     73.7726     32.7759
  1333.7000    930.3584      8.4295      1.6757      0.1560     59.0470     72.6686     32.0820
  1333.8000    989.1453      8.6019      1.8181      0.2207     50.4201     69.8085     32.0952
  1333.9000    989.1453      8.6019      1.9367      0.2356     43.2288     66.5057     32.0506
  1334.0000    934.5121      8.6827      2.0416      0.2186     36.8752     65.8680     31.3472
  1334.1000    934.5121      8.6827      2.1655      0.1891     29.3643     70.9440     30.4395
  1334.2000    934.5121      8.6827      2.3013      0.2382     21.1320     79.5789     29.7442
  1334.3000    959.9962      8.5759      2.3982      0.2502     15.2587     85.7974     29.3335
