~Version Information
 VERS.                      2.0: CWLS Log ASCII Standard - VERSION 2.0
 WRAP.                       NO: One line per depth step
 ~Well Information Block
 STRT.FT               886.1000: 
 STOP.FT              2599.0000: 
 STEP.FT                 0.1000: 
 NULL.                -999.2500: 
 COMP.          Petrogulf Corporation: COMPANY
 WELL.               YWAM 7-23V: WELL
 FLD.           Purgatorie River: FIELD
 LOC.           230' FSL & 225' FWL: LOCATION
 CNTY.               Las Animas: COUNTY
 SRVC.                         : SERVICE COMPANY
 DATE.          Sat Oct 30 10:42:52 2004: LOG DATE
 UWI.           05 071 08227 00: UNIQUE WELL ID
 STAT.                 Colorado: STATE
 PROV.                         :Province
 ~Curve Information Block
 DEPT.FT            0 000 00 00: Depth
 DCAL.in                       : CDL Caliper
 RHOB.g/cc                     : CDL Bulk Density
 RHOC.g/cc                     : CDL Density Correction
 DPOR.pu                       : CDL Density Porosity
 GR.GAPI                       : Gamma Ray
 NPOR.pu                       : Neutron Porosity
 ~Parameter Information Block
 ~A  Depth       DCAL        RHOB        RHOC        DPOR         GR         NPOR    
# ...
  1241.3000      8.0262      2.5515      0.1575      5.9717    120.0239     27.9182
  1241.4000      8.0262      2.5465      0.1265      6.2708    111.0436     27.8454
  1241.5000      8.0669      2.5466      0.1782      6.2680    100.2573     27.7885
  1241.6000      8.0669      2.5413      0.1629      6.5858     95.4565     27.5591
  1241.7000      8.0669      2.5200      0.1149      7.8770     95.0319     27.5542
  1241.8000      8.0885      2.4821      0.0996     10.1751     98.2275     27.4735
  1241.9000      8.0885      2.4417      0.0644     12.6266    105.8761     26.8158
  1242.0000      8.0877      2.4186      0.0474     14.0230    112.2031     26.0970
  1242.1000      8.0877      2.4170      0.0527     14.1204    115.0700     25.8383
  1242.2000      8.0877      2.4309     -0.0067     13.2765    116.3284     26.0712
  1242.3000      8.0806      2.4507      0.0445     12.0760    115.7345     26.6824
  1242.4000      8.0806      2.4586      0.0541     11.6018    112.1384     27.0858
  1242.5000      8.0900      2.4514      0.0194     12.0389    104.9831     26.8301
  1242.6000      8.0900      2.4429      0.0554     12.5517     97.9305     26.4999
  1242.7000      8.0900      2.4403      0.0254     12.7085     97.4807     26.4499
  1242.8000      8.0998      2.4392      0.0922     12.7747    106.7588     26.3084
  1242.9000      8.0998      2.4333      0.0467     13.1362    118.9785     26.2283
  1243.0000      8.1087      2.4226      0.0354     13.7801    125.0006     26.7548
  1243.1000      8.1087      2.4062      0.0643     14.7775    123.5820     27.7936
  1243.2000      8.1087      2.3820      0.0388     16.2442    116.2526     28.7009
  1243.3000      8.1028      2.3635      0.0089     17.3663    108.2645     28.8987
  1243.4000      8.1028      2.3750      0.0420     16.6637    109.1524     28.6510
  1243.5000      8.1194      2.4229      0.0959     13.7650    120.2368     28.6134
  1243.6000      8.1194      2.4815      0.1420     10.2132    130.3764     28.6447
  1243.7000      8.1194      2.5246      0.1565      7.6012    130.4991     28.3105
  1243.8000      8.2196      2.5530      0.2019      5.8763    125.6132     27.4727
  1243.9000      8.2196      2.5820      0.2415      4.1232    124.3175     26.3199
  1244.0000      8.3740      2.6081      0.3054      2.5410    123.9961     25.5965
  1244.1000      8.3740      2.6052      0.2638      2.7181    121.4086     26.0224
  1244.2000      8.3740      2.5602      0.1814      5.4394    123.8416     27.7694
  1244.3000      8.2322      2.4896      0.1006      9.7229    133.3901     29.5989
  1244.4000      8.2322      2.4195      0.1158     13.9680    139.9701     29.7783
  1244.5000      8.2176      2.3774      0.0319     16.5192    138.2082     28.6483
  1244.6000      8.2176      2.3756      0.1038     16.6304    135.2625     27.9551
  1244.7000      8.2176      2.3964      0.0775     15.3711    137.4905     28.5634
  1244.8000      8.1961      2.4211      0.1635     13.8741    142.1758     29.4739
  1244.9000      8.1961      2.4399      0.1764     12.7355    142.4486     29.3786
  1245.0000      8.2546      2.4579      0.1679     11.6401    137.5297     28.4054
  1245.1000      8.2546      2.4922      0.1926      9.5648    131.3546     27.2321
  1245.2000      8.2546      2.5338      0.2963      7.0422    123.5684     26.4302
  1245.3000      8.2806      2.5609      0.2563      5.4016    116.4009     26.3977
  1245.4000      8.2806      2.5761      0.2143      4.4805    117.4309     26.8611
  1245.5000      8.2761      2.5916      0.0999      3.5411    127.6146     27.1330
  1245.6000      8.2761      2.6084      0.1353      2.5199    136.3129     27.2922
  1245.7000      8.2761      2.6243      0.0721      1.5548    134.7371     27.6712
  1245.8000      8.1578      2.6393      0.1398      0.6456    128.8404     28.1149
  1245.9000      8.1578      2.6454      0.0873      0.2817    124.5890     28.1906
  1246.0000      8.0478      2.6365      0.1265      0.8180    119.8685     27.6890
  1246.1000      8.0478      2.6192      0.0685      1.8649    114.3941     26.8161
  1246.2000      8.0478      2.6100      0.0734      2.4229    110.4390     25.9208
  1246.3000      8.0286      2.6159      0.0123      2.0647    108.7402     25.4169
  1246.4000      8.0286      2.6292      0.0692      1.2617    106.6292     25.4736
  1246.5000      8.0107      2.6506      0.0300     -0.0333    103.4609     25.6765
  1246.6000      8.0107      2.6804      0.0974     -1.8413    103.6585     25.3064
  1246.7000      8.0107      2.7030      0.0856     -3.2146    106.2392     24.0180
  1246.8000      8.0141      2.7138      0.0264     -3.8646    108.5387     22.2952
  1246.9000      8.0141      2.7225      0.0631     -4.3923    111.6013     21.0079
  1247.0000      8.0079      2.7257      0.0722     -4.5862    112.6466     21.0425
  1247.1000      8.0079      2.7122      0.0806     -3.7675    107.7022     22.3062
  1247.2000      8.0079      2.6811      0.0695     -1.8859     98.6992     23.1887
  1247.3000      7.9716      2.6383      0.0613      0.7073     92.4302     22.9743
  1247.4000      7.9716      2.5966      0.0293      3.2344     92.4841     22.5530
  1247.5000      7.9523      2.5755      0.0243      4.5123     95.0031     22.7328
  1247.6000      7.9523      2.5735      0.0896      4.6382     94.5836     23.8152
  1247.7000      7.9523      2.5789      0.0039      4.3105     92.2010     25.4001
  1247.8000      7.9203      2.6023      0.0426      2.8934     90.1394     26.1509
  1247.9000      7.9203      2.6406      0.1292      0.5687     89.0686     25.5944
  1248.0000      7.9146      2.6633      0.1371     -0.8068     89.4451     24.9631
  1248.1000      7.9146      2.6572      0.1216     -0.4349     88.4070     24.7925
  1248.2000      7.9146      2.6330      0.1305      1.0306     86.7610     24.3406
  1248.3000      7.9164      2.5974      0.0797      3.1861     89.8923     23.6167
  1248.4000      7.9164      2.5649      0.0110      5.1588     95.4860     23.0279
  1248.5000      7.9214      2.5595      0.0338      5.4850     98.3271     22.4593
  1248.6000      7.9214      2.5771      0.0643      4.4168    100.7526     22.2222
  1248.7000      7.9214      2.5843      0.0921      3.9847    104.9578     22.9176
  1248.8000      7.9462      2.5631      0.0641      5.2661    108.6323     23.7337
  1248.9000      7.9462      2.5297      0.0617      7.2911    108.5582     23.7555
  1249.0000      7.9533      2.5070      0.0188      8.6663    102.8386     23.3658
  1249.1000      7.9533      2.5007      0.0516      9.0505     95.1900     23.3411
  1249.2000      7.9533      2.4994      0.0618      9.1286     93.4671     23.9850
  1249.3000      7.9467      2.4986      0.0693      9.1772     99.5275     24.2138
  1249.4000      7.9467      2.5057      0.0137      8.7443    108.7407     23.1753
  1249.5000      7.9462      2.5129      0.0990      8.3096    117.1346     22.1841
  1249.6000      7.9462      2.5075      0.0110      8.6383    120.3984     22.2522
  1249.7000      7.9462      2.5073      0.0283      8.6499    116.5518     22.8571
  1249.8000      7.9522      2.5282      0.0802      7.3835    110.1218     23.4876
  1249.9000      7.9522      2.5579      0.0970      5.5792    107.4889     23.8825
  1250.0000      7.9692      2.5748      0.1225      4.5570    108.2108     23.8879
  1250.1000      7.9692      2.5644      0.1250      5.1867    110.2674     23.8059
  1250.2000      7.9692      2.5373      0.0506      6.8294    116.0589     23.8617
  1250.3000      7.9486      2.5216      0.0622      7.7822    122.0334     23.7508
  1250.4000      7.9486      2.5241      0.1386      7.6306    121.1143     23.1705
  1250.5000      7.9434      2.5321      0.0614      7.1477    113.4589     22.6571
  1250.6000      7.9434      2.5407      0.0570      6.6218    104.3236     22.8906
  1250.7000      7.9434      2.5448      0.0883      6.3765     98.5286     23.5055
  1250.8000      7.9458      2.5362      0.0710      6.8973     97.5206     23.6361
