~Version Information
VERS.                      2.0: CWLS Log ASCII Standard - VERSION 2.0
WRAP.                       NO: One line per depth step
~Well Information Block
STRT.FT               806.0000: 
STOP.FT              1814.0000: 
STEP.FT                 0.2500: 
NULL.                -999.2500: 
COMP.          Pioneer Natural Resources: COMPANY
WELL.            Hill 33-22 Tr: WELL
FLD.           Purgatoire River: FIELD
LOC.           1573' FSL & 1585' FEL: LOCATION
PROV.                 Colorado: PROVINCE
CNTY.               Las Animas: COUNTRY
SRVC.                Patterson: SERVICE COMPANY
DATE.          Thu Apr 14 09:13:17 2005: LOG DATE
UWI.           05 071 08316 00: UNIQUE WELL ID
~Curve Information Block
DEPT.FT            0 000 00 00: Depth
SN.Ohm-m                      : IEL Short Normal
SP.mV                         : IEL Spontaneous Potential
DIR.Ohm-m                     : IEL Induction Resistivity
GR.GAPI                       : Gamma Ray
~Parameter Information Block
~A  Depth        SN          SP         DIR          GR     
# ...
  1576.5000     19.3915     55.8552     17.8636    109.4497
  1576.7500     19.2278     55.7958     17.3678    107.8313
  1577.0000     19.1130     55.7438     16.9954    108.4924
  1577.2500     18.8485     55.6817     16.7462    110.9224
  1577.5000     18.3509     55.6044     16.5751    116.0550
  1577.7500     17.7120     55.5248     16.4218    119.3579
  1578.0000     17.0752     55.4699     16.2327    123.1215
  1578.2500     16.5139     55.4692     15.9702    124.8279
  1578.5000     16.0557     55.5406     15.6163    126.2845
  1578.7500     15.7847     55.6814     15.1752    126.3598
  1579.0000     15.7824     55.8687     14.6714    124.7343
  1579.2500     15.9886     56.0648     14.1389    122.4836
  1579.5000     16.2522     56.2277     13.6068    118.0726
  1579.7500     16.4545     56.3247     13.0917    115.2858
  1580.0000     16.4981     56.3489     12.6005    113.0824
  1580.2500     16.3362     56.3266     12.1387    113.6830
  1580.5000     16.0191     56.3059     11.7165    117.7277
  1580.7500     15.5724     56.3270     11.3498    121.7672
  1581.0000     14.9755     56.3975     11.0558    128.0655
  1581.2500     14.3520     56.4907     10.8477    131.6995
  1581.5000     13.9665     56.5682     10.7315    136.0340
  1581.7500     13.9382     56.6071     10.7043    138.3805
  1582.0000     14.1136     56.6113     10.7526    141.3677
  1582.2500     14.2334     56.5978     10.8510    142.8655
  1582.5000     14.1251     56.5743     10.9649    143.4879
  1582.7500     13.8129     56.5281     11.0587    142.1094
  1583.0000     13.4650     56.4352     11.1092    136.6595
  1583.2500     13.2644     56.2842     11.1130    131.0925
  1583.5000     13.3272     56.0946     11.0848    121.5446
  1583.7500     13.5694     55.9141     11.0494    115.6434
  1584.0000     13.8187     55.7974     11.0345    109.5363
  1584.2500     14.1226     55.7792     11.0668    108.2080
  1584.5000     14.5256     55.8560     11.1702    110.7734
  1584.7500     14.7761     55.9879     11.3620    114.8614
  1585.0000     14.6939     56.1190     11.6479    122.3684
  1585.2500     14.4331     56.2061     12.0154    127.0795
  1585.5000     14.2448     56.2392     12.4321    132.5372
  1585.7500     14.3062     56.2420     12.8522    134.8128
  1586.0000     14.6755     56.2526     13.2315    135.8206
  1586.2500     15.2586     56.2987     13.5439    134.7920
  1586.5000     15.8902     56.3821     13.7869    131.0885
  1586.7500     16.4635     56.4833     13.9791    127.6385
  1587.0000     17.0013     56.5787     14.1542    121.5862
  1587.2500     17.5671     56.6508     14.3565    117.1364
  1587.5000     18.1128     56.6864     14.6346    110.4114
  1587.7500     18.5802     56.6751     15.0325    106.6198
  1588.0000     19.0915     56.6160     15.5785    103.3378
  1588.2500     19.7975     56.5201     16.2738    103.0120
  1588.5000     20.5804     56.4043     17.0846    104.3181
  1588.7500     21.1117     56.2829     17.9447    105.3971
  1589.0000     21.2181     56.1653     18.7745    106.2556
  1589.2500     21.0645     56.0547     19.5058    106.2362
  1589.5000     20.9438     55.9501     20.0935    105.2506
  1589.7500     21.0147     55.8541     20.5104    103.6570
  1590.0000     21.3208     55.7835     20.7413     99.6162
  1590.2500     21.8777     55.7605     20.7926     96.3308
  1590.5000     22.6190     55.7860     20.7043     92.2236
  1590.7500     23.3714     55.8245     20.5486     90.9386
  1591.0000     23.9525     55.8244     20.4075     91.9337
  1591.2500     24.2861     55.7545     20.3443     94.4898
  1591.5000     24.3722     55.6193     20.3839    100.3689
  1591.7500     24.1711     55.4488     20.5078    104.8219
  1592.0000     23.7085     55.2780     20.6610    110.3551
  1592.2500     23.1986     55.1308     20.7681    112.0995
  1592.5000     22.8167     55.0154     20.7512    110.7245
  1592.7500     22.5059     54.9275     20.5510    107.5336
  1593.0000     22.1775     54.8552     20.1502    101.4626
  1593.2500     21.9034     54.7842     19.5849     97.9765
  1593.5000     21.7682     54.7082     18.9347     95.2183
  1593.7500     21.6905     54.6402     18.2940     95.4088
  1594.0000     21.5038     54.6106     17.7426     98.8665
  1594.2500     21.1142     54.6504     17.3281    103.1922
  1594.5000     20.5316     54.7722     17.0640    112.0408
  1594.7500     19.8197     54.9595     16.9396    118.7741
  1595.0000     19.0728     55.1691     16.9369    128.6791
  1595.2500     18.4119     55.3493     17.0433    134.4398
  1595.5000     17.9367     55.4652     17.2490    140.7697
  1595.7500     17.7290     55.5150     17.5305    142.7559
  1596.0000     17.8692     55.5239     17.8360    141.0467
  1596.2500     18.3354     55.5217     18.0944    136.2310
  1596.5000     19.0122     55.5268     18.2456    123.8494
  1596.7500     19.8994     55.5455     18.2737    113.3706
  1597.0000     21.1527     55.5796     18.2158     97.4481
  1597.2500     22.8633     55.6288     18.1439     88.3795
  1597.5000     24.8838     55.6868     18.1376     78.8036
  1597.7500     26.8765     55.7412     18.2654     75.4602
  1598.0000     28.4254     55.7805     18.5809     74.9692
  1598.2500     29.1143     55.7968     19.1239     77.3102
  1598.5000     28.7728     55.7782     19.9133     83.5377
  1598.7500     27.7303     55.7016     20.9233     88.4066
  1599.0000     26.6165     55.5414     22.0579     94.6846
  1599.2500     25.8847     55.2924     23.1560     97.0231
  1599.5000     25.5998     54.9908     24.0488     96.1932
  1599.7500     25.6302     54.7090     24.6336     92.3461
  1600.0000     25.9394     54.5201     24.8950     82.3114
  1600.2500     26.6703     54.4577     24.8596     73.9520
  1600.5000     27.9825     54.5007     24.5487     61.4230
  1600.7500     29.8433     54.5933     23.9758     54.2668
  1601.0000     32.0471     54.6828     23.1769     46.4259
  1601.2500     34.3109     54.7467     22.2236     43.2738
  1601.5000     36.2239     54.7910     21.1977     41.2967
  1601.7500     37.3047     54.8305     20.1592     41.4531
  1602.0000     37.2257     54.8774     19.1373     43.6903
  1602.2500     35.8811     54.9462     18.1517     46.9107
  1602.5000     33.3065     55.0548     17.2345     55.6587
  1602.7500     29.7518     55.2066     16.4290     64.7194
  1603.0000     25.8219     55.3758     15.7698     82.7589
  1603.2500     22.2629     55.5135     15.2626     96.3251
  1603.5000     19.5246     55.5719     14.8804    115.1128
  1603.7500     17.6654     55.5318     14.5733    124.4811
  1604.0000     16.5330     55.4161     14.2882    132.0525
  1604.2500     15.8539     55.2757     13.9893    132.9645
  1604.5000     15.3476     55.1568     13.6711    129.5825
  1604.7500     14.8841     55.0778     13.3577    125.2023
  1605.0000     14.5330     55.0344     13.0885    117.2195
  1605.2500     14.4975     55.0172     12.8987    111.9553
  1605.5000     14.9097     55.0205     12.8080    105.8156
  1605.7500     15.7042     55.0371     12.8196    103.7808
  1606.0000     16.6715     55.0525     12.9262    104.7632
  1606.2500     17.5132     55.0505     13.1174    108.1321
  1606.5000     17.9910     55.0210     13.3817    116.3926
  1606.7500     18.1111     54.9592     13.7071    123.0460
  1607.0000     18.0433     54.8560     14.0769    132.2565
  1607.2500     17.9163     54.7009     14.4657    136.1963
  1607.5000     17.7682     54.5002     14.8370    136.6346
  1607.7500     17.6045     54.2850     15.1472    133.1406
  1608.0000     17.4690     54.0906     15.3594    124.3186
  1608.2500     17.4295     53.9309     15.4616    118.0818
  1608.5000     17.4630     53.7936     15.4760    111.2833
  1608.7500     17.4769     53.6565     15.4477    109.3275
  1609.0000     17.4928     53.5034     15.4214    109.9156
  1609.2500     17.6355     53.3321     15.4214    111.6646
  1609.5000     17.9274     53.1566     15.4449    114.0699
  1609.7500     18.2158     53.0055     15.4669    114.3589
