~Version Information
 VERS.                                  2.0 : CWLS LAS VERSION
 WRAP.                                   NO : WRAPING MODE
 SWARE .                 MController 2.5.0J : SOFTWARE VERSION
~Well Information
 WELL.                       Costello 44-24 : WELL
 COMP.    Pioneer Natural Resources USA Inc : COMPANY
 FLD.                      Purgatoire River : FIELD
 LOC.                SE/SE Sec 24 T32S R67W : LOCATION
 DATE.                            7/10/2005 : DATE(S) LOGGED
 SRVC.       BLANCO Geological Services LLC : SERVICE COMPANY
 STAT.                                   CO : STATE
 CNTY.                           Las Animas : COUNTY
 CTRY.                                  USA : COUNTRY
 API.                       05-071-08413-00 : API NUMBER
 STRT.FT                             305.00 : START DEPTH
 STOP.FT                            2545.00 : STOP DEPTH
 STEP.FT                               1.00 : DEPTH INCREMENT
 NULL.                                 999 : NULL VALUE
~Curve information
 DEPTH.FT                                   :
 ROP.MIN/FT                                 :
 GAS.UNITS                                  :
~ASCII Log data
# ...
      2105.0         0.27        840.3 
      2106.0         0.23        930.7 
      2107.0         0.23       1049.1 
      2108.0         0.23       1129.7 
      2109.0         0.23       1140.8 
      2110.0         0.33       1154.8 
      2111.0         0.43       1152.9 
      2112.0         0.40       1118.0 
      2113.0         0.37       1125.9 
      2114.0         0.35       1181.5 
      2115.0         0.30       1261.7 
      2116.0         0.27       1261.7 
      2117.0         0.30       1215.1 
      2118.0         0.30       1141.1 
      2119.0         0.30       1102.4 
      2120.0         0.37       1080.5 
      2121.0         0.30       1063.7 
      2122.0         0.33       1055.1 
      2123.0         0.33       1049.7 
      2124.0         0.37       1040.9 
      2125.0         0.25       1040.9 
      2126.0         5.42       2902.9 
      2127.0         1.03       1318.9 
      2128.0         0.55       1557.5 
      2129.0         0.43       1556.6 
      2130.0         0.43       1462.0 
      2131.0         0.40       1302.1 
      2132.0         0.53       1232.5 
      2133.0         0.57       1197.6 
      2134.0         0.33       1147.2 
      2135.0         0.22       1124.3 
      2136.0         0.17       1116.1 
      2137.0         0.20       1104.0 
      2138.0         0.20       1088.8 
      2139.0         0.17       1077.0 
      2140.0         0.17       1068.5 
      2141.0         0.20       1047.5 
      2142.0         0.20       1030.1 
      2143.0         0.20       1014.8 
      2144.0         0.17       1005.9 
      2145.0         0.17       1007.2 
      2146.0         0.20       1016.4 
      2147.0         0.17       1016.4 
      2148.0         0.20       1011.7 
      2149.0         0.13        993.6 
      2150.0         0.17        994.5 
      2151.0         0.20        988.2 
      2152.0         0.13        967.5 
      2153.0         0.20        929.1 
      2154.0         0.22        932.9 
      2155.0         0.23        940.6 
      2156.0         7.77       2925.8 
      2157.0         0.13       1043.1 
      2158.0         0.23       1057.7 
      2159.0         0.33       1113.8 
      2160.0         0.30       1190.0 
      2161.0         0.33       1569.9 
      2162.0         0.33       1584.5 
      2163.0         0.35       1471.5 
      2164.0         0.30       1458.8 
      2165.0         0.27       1376.3 
      2166.0         0.30       1286.8 
      2167.0         0.27       1232.5 
      2168.0         0.33       1168.1 
      2169.0         0.27       1140.2 
      2170.0         0.23       1117.3 
      2171.0         0.20       1091.0 
      2172.0         0.23       1078.0 
      2173.0         0.23       1065.6 
      2174.0         0.20       1057.4 
      2175.0         0.13       1053.9 
      2176.0         0.17       1052.6 
      2177.0         0.22       1055.8 
      2178.0         0.20       1052.0 
      2179.0         0.20       1045.9 
      2180.0         0.17       1045.9 
      2181.0         0.23       1041.2 
      2182.0         0.27       1032.6 
      2183.0         0.20       1031.0 
      2184.0         0.20       1021.5 
      2185.0         0.20       1017.0 
      2186.0        38.90       1028.5 
      2187.0        16.25        987.5 
      2188.0         4.88       3328.9 
      2189.0         0.27       1476.0 
      2190.0         0.30       1518.2 
      2191.0         0.23       1532.8 
      2192.0         0.27       1530.6 
      2193.0         0.32       1426.5 
      2194.0         0.30       1352.2 
      2195.0         0.27       1342.0 
      2196.0         0.23       1239.8 
      2197.0         0.27       1203.7 
      2198.0         0.20       1150.0 
      2199.0         0.23       1119.6 
      2200.0         0.27       1100.2 
      2201.0         0.23       1082.4 
      2202.0         0.23       1063.7 
      2203.0         0.20       1038.0 
      2204.0         0.17       1033.6 
      2205.0         0.13       1027.2 
      2206.0         0.13       1027.2 
      2207.0         0.20       1021.5 
      2208.0         0.18       1014.8 
      2209.0         0.17       1008.8 
      2210.0         0.17       1005.3 
      2211.0         0.10       1007.2 
      2212.0         0.17       1007.2 
      2213.0         0.17       1007.5 
      2214.0         0.17       1007.5 
      2215.0         0.17       1006.9 
      2216.0         5.33       2358.9 
      2217.0         0.33       1083.1 
      2218.0         0.23       1122.1 
      2219.0         0.23       1198.9 
      2220.0         0.23       1293.8 
      2221.0         0.27       1358.2 
      2222.0         0.33       1344.9 
      2223.0         0.30       1306.5 
      2224.0         0.27       1266.2 
      2225.0         0.23       1198.9 
      2226.0         0.23       1171.9 
      2227.0         0.20       1161.8 
      2228.0         0.17       1116.4 
      2229.0         0.17       1102.1 
      2230.0         0.18       1095.4 
      2231.0         0.17       1086.9 
      2232.0         0.17       1076.1 
      2233.0         0.13       1069.7 
      2234.0         0.17       1069.7 
      2235.0         0.17       1063.4 
      2236.0         0.17       1057.4 
      2237.0         0.20       1051.0 
      2238.0         0.20       1044.7 
      2239.0         0.20       1025.6 
      2240.0         0.13       1019.6 
      2241.0         0.13       1012.0 
      2242.0         0.10       1000.9 
      2243.0         0.17       1000.9 
      2244.0         0.20        994.2 
      2245.0         0.17       1012.9 
      2246.0         5.27       2553.5 
      2247.0         0.23       1378.2 
      2248.0         0.33       1239.8 
      2249.0         0.30       1182.1 
      2250.0         0.27       1284.0 
      2251.0         0.30       1416.0 
      2252.0         0.33       1455.7 
      2253.0         0.35       1417.9 
      2254.0         0.30       1371.2 
      2255.0         0.27       1266.8 
      2256.0         0.23       1253.5 
      2257.0         0.20       1201.4 
      2258.0         0.23       1194.5 
      2259.0         0.27       1146.5 
      2260.0         0.30       1100.8 
      2261.0         0.30       1083.1 
      2262.0         0.27       1063.1 
      2263.0         0.27       1044.0 
      2264.0         0.27       1029.1 
      2265.0         0.27       1027.8 
      2266.0         0.28       1015.5 
      2267.0         0.30       1003.4 
      2268.0         0.27        999.3 
      2269.0         0.27        997.7 
      2270.0         0.23       1000.2 
      2271.0         0.27       1018.6 
      2272.0         0.27       1022.4 
      2273.0         0.37       1034.2 
      2274.0         0.23       1044.7 
      2275.0         0.17       1050.4 
      2276.0         4.57       2229.1 
      2277.0         0.27       1455.4 
      2278.0         0.17       1305.9 
      2279.0         0.17       1305.9 
      2280.0         0.20       1290.3 
      2281.0         0.27       1341.1 
      2282.0         0.30       1451.9 
      2283.0         0.33       1554.1 
      2284.0         0.57       1518.5 
      2285.0         0.47       1288.1 
      2286.0         0.52       1079.9 
      2287.0         0.50       1043.7 
      2288.0         0.47       1064.0 
      2289.0         0.70       1055.5 
      2290.0         0.70       1067.8 
      2291.0         0.68       1016.1 
      2292.0         0.47        988.2 
      2293.0         0.40        999.3 
      2294.0         0.40       1037.4 
      2295.0         0.37       1052.0 
      2296.0         0.40       1051.6 
      2297.0         0.40       1043.4 
      2298.0         0.37       1028.8 
      2299.0         0.37       1010.4 
      2300.0         0.38        993.2 
      2301.0         0.40        983.7 
      2302.0         0.37        972.3 
      2303.0         0.40        965.6 
      2304.0         0.37        957.7 
