~Version Information
VERS.                      2.0: CWLS Log ASCII Standard - VERSION 2.0
WRAP.                       NO: One line per depth step
~Well Information Block
STRT.FT               823.7000: 
STOP.FT              2444.0000: 
STEP.FT                 0.1000: 
NULL.                -999.2500: 
COMP.          Petrogulf Corporation: COMPANY
WELL.            Kraft 17-23 V: WELL
FLD.           Purgatorie River: FIELD
LOC.           1500' FSL & 1773' FWL: LOCATION
CNTY.               Las Animas: COUNTY
SRVC.                         : SERVICE COMPANY
DATE.          Thu Nov 20 07:09:00 2003: LOG DATE
UWI.                          : UNIQUE WELL ID
STAT.                 Colorado: STATE
~Curve Information Block
DEPT.FT            0 000 00 00: Depth
DCAL.in                       : CDL Caliper
RHOB.g/cc                     : CDL Bulk Density
RHOC.g/cc                     : CDL Density Correction
DPOR.pu                       : CDL Density Porosity
GR.GAPI                       : Gamma Ray
NPOR.pu                       : Neutron Porosity
~Parameter Information Block
~A  Depth       DCAL        RHOB        RHOC        DPOR         GR         NPOR    
# ...
  2426.9000      7.8807      2.5717      0.0968      4.7435     84.4386     22.0884
  2427.0000      7.8660      2.5457      0.0566      6.3238     74.9929     21.8849
  2427.1000      7.8660      2.5257      0.0011      7.5347     55.8512     21.7548
  2427.2000      7.8660      2.5348      0.0227      6.9794     29.0611     21.8750
  2427.3000      7.8692      2.5589      0.1257      5.5230      9.3037     22.0895
  2427.4000      7.8692      2.5608      0.0773      5.4080      1.7067     22.5497
  2427.5000      7.9173      2.5289      0.0853      7.3423      0.1725     23.4914
  2427.6000      7.9173      2.4819      0.0277     10.1888      0.0092     24.3984
  2427.7000      7.9173      2.4556     -0.0025     11.7835      0.0000     24.9264
  2427.8000      7.9606      2.4650      0.0834     11.2149   -999.2500     25.4886
  2427.9000      7.9606      2.4849      0.0629     10.0041   -999.2500     26.3354
  2428.0000      7.9687      2.4929      0.0721      9.5237   -999.2500     27.0975
  2428.1000      7.9687      2.4910      0.0883      9.6336   -999.2500     26.8352
  2428.2000      7.9687      2.4858      0.0741      9.9534   -999.2500     25.4300
  2428.3000      7.9569      2.4811      0.0335     10.2336   -999.2500     24.3108
  2428.4000      7.9569      2.4847      0.0934     10.0182   -999.2500     24.0550
  2428.5000      7.9301      2.4979      0.1127      9.2173   -999.2500     24.0147
  2428.6000      7.9301      2.5154      0.1190      8.1587   -999.2500     23.9314
  2428.7000      7.9301      2.5237      0.1535      7.6556   -999.2500     23.8437
  2428.8000      7.9079      2.5101      0.1432      8.4805   -999.2500     23.8042
  2428.9000      7.9079      2.4832      0.0924     10.1076   -999.2500     24.0299
  2429.0000      7.9081      2.4650      0.0329     11.2120   -999.2500     24.2873
  2429.1000      7.9081      2.4740      0.0370     10.6640   -999.2500     23.9491
  2429.2000      7.9081      2.5108      0.1124      8.4365   -999.2500     23.0163
  2429.3000      7.9054      2.5466      0.1291      6.2688   -999.2500     22.1404
  2429.4000      7.9054      2.5514      0.1194      5.9786   -999.2500     21.6837
  2429.5000      7.9208      2.5229      0.0794      7.7030   -999.2500     21.7664
  2429.6000      7.9208      2.4780      0.0322     10.4248   -999.2500     23.5614
  2429.7000      7.9208      2.4404     -0.0213     12.7022   -999.2500     29.5226
  2429.8000      7.9430      2.4311     -0.0346     13.2684   -999.2500     38.7224
  2429.9000      7.9430      2.4438      0.0807     12.4966   -999.2500     45.5472
  2430.0000      7.9404      2.4550      0.0209     11.8154   -999.2500     48.1153
  2430.1000      7.9404      2.4586      0.0683     11.6021   -999.2500     48.6293
  2430.2000      7.9404      2.4574      0.0937     11.6722   -999.2500     48.6841
  2430.3000      7.9027      2.4568      0.0325     11.7100   -999.2500     48.6872
  2430.4000      7.9027      2.4587      0.0915     11.5966   -999.2500   -999.2500
  2430.5000      7.8657      2.4535      0.0960     11.9107   -999.2500   -999.2500
  2430.6000      7.8657      2.4480      0.0664     12.2449   -999.2500   -999.2500
  2430.7000      7.8657      2.4534      0.0877     11.9148   -999.2500   -999.2500
  2430.8000      7.8543      2.4573      0.0866     11.6767   -999.2500   -999.2500
  2430.9000      7.8543      2.4485      0.0832     12.2126   -999.2500   -999.2500
  2431.0000      7.8639      2.4349      0.0584     13.0387   -999.2500   -999.2500
  2431.1000      7.8639      2.4197      0.0322     13.9581   -999.2500   -999.2500
  2431.2000      7.8639      2.4011      0.0027     15.0822   -999.2500   -999.2500
  2431.3000      7.8653      2.3962     -0.0218     15.3814   -999.2500   -999.2500
  2431.4000      7.8653      2.4193      0.0115     13.9798   -999.2500   -999.2500
  2431.5000      7.8184      2.4587      0.0606     11.5947   -999.2500   -999.2500
  2431.6000      7.8184      2.5027      0.0080      8.9293   -999.2500   -999.2500
  2431.7000      7.8184      2.5424      0.1596      6.5201   -999.2500   -999.2500
  2431.8000      7.7689      2.5518      0.1383      5.9522   -999.2500   -999.2500
  2431.9000      7.7689      2.5270      0.0545      7.4537   -999.2500   -999.2500
  2432.0000      7.8017      2.5026      0.0511      8.9359   -999.2500   -999.2500
  2432.1000      7.8017      2.5039      0.0309      8.8570   -999.2500   -999.2500
  2432.2000      7.8017      2.5196      0.0761      7.9049   -999.2500   -999.2500
  2432.3000      7.8626      2.5268      0.1122      7.4663   -999.2500   -999.2500
  2432.4000      7.8626      2.5171      0.0839      8.0569   -999.2500   -999.2500
  2432.5000      7.9208      2.4867      0.0697      9.8999   -999.2500   -999.2500
  2432.6000      7.9208      2.4414     -0.0070     12.6449   -999.2500   -999.2500
  2432.7000      7.9208      2.4083     -0.0265     14.6506   -999.2500   -999.2500
  2432.8000      7.9660      2.4026     -0.0158     14.9952   -999.2500   -999.2500
  2432.9000      7.9660      2.4048      0.0374     14.8628   -999.2500   -999.2500
  2433.0000      7.9682      2.4066      0.0250     14.7493   -999.2500   -999.2500
  2433.1000      7.9682      2.4313     -0.0010     13.2549   -999.2500   -999.2500
  2433.2000      7.9682      2.4761      0.1429     10.5379   -999.2500   -999.2500
  2433.3000      7.9484      2.5076      0.1265      8.6285   -999.2500   -999.2500
  2433.4000      7.9484      2.5173      0.0445      8.0440   -999.2500   -999.2500
  2433.5000      7.9172      2.5118      0.0932      8.3775   -999.2500   -999.2500
  2433.6000      7.9172      2.4914      0.0070      9.6112   -999.2500   -999.2500
  2433.7000      7.9172      2.4704     -0.0038     10.8823   -999.2500   -999.2500
  2433.8000      7.8870      2.4674     -0.0253     11.0677   -999.2500   -999.2500
  2433.9000      7.8870      2.4819      0.0158     10.1861   -999.2500   -999.2500
  2434.0000      7.8774      2.4956      0.0948      9.3554   -999.2500   -999.2500
  2434.1000      7.8774      2.4894      0.0766      9.7333   -999.2500   -999.2500
  2434.2000      7.8774      2.4657      0.0279     11.1719   -999.2500   -999.2500
  2434.3000      7.8884      2.4480      0.0126     12.2399   -999.2500   -999.2500
  2434.4000      7.8884      2.4482      0.0254     12.2331   -999.2500   -999.2500
  2434.5000      7.8914      2.4499      0.0630     12.1277   -999.2500   -999.2500
  2434.6000      7.8914      2.4452      0.0006     12.4104   -999.2500   -999.2500
  2434.7000      7.8914      2.4499      0.0421     12.1298   -999.2500   -999.2500
  2434.8000      7.9031      2.4674      0.0788     11.0641   -999.2500   -999.2500
  2434.9000      7.9031      2.4833      0.1107     10.1003   -999.2500   -999.2500
  2435.0000      7.9110      2.4924      0.0433      9.5517   -999.2500   -999.2500
  2435.1000      7.9110      2.5087      0.0304      8.5658   -999.2500   -999.2500
  2435.2000      7.9110      2.5384      0.0931      6.7659   -999.2500   -999.2500
  2435.3000      7.8750      2.5642      0.1536      5.1984   -999.2500   -999.2500
  2435.4000      7.8750      2.5771      0.0952      4.4205   -999.2500   -999.2500
  2435.5000      7.8453      2.5847      0.1736      3.9578   -999.2500   -999.2500
  2435.6000      7.8453      2.5784      0.1172      4.3386   -999.2500   -999.2500
  2435.7000      7.8453      2.5445      0.1346      6.3951   -999.2500   -999.2500
  2435.8000      7.8727      2.4986      0.0407      9.1760   -999.2500   -999.2500
  2435.9000      7.8727      2.4706      0.0346     10.8743   -999.2500   -999.2500
  2436.0000      7.9118      2.4605      0.0490     11.4819   -999.2500   -999.2500
  2436.1000      7.9118      2.4504      0.0381     12.0943   -999.2500   -999.2500
  2436.2000      7.9118      2.4501     -0.0537     12.1133   -999.2500   -999.2500
  2436.3000      7.9412      2.4703      0.0721     10.8895   -999.2500   -999.2500
  2436.4000      7.9412      2.4813      0.0873     10.2268   -999.2500   -999.2500
