~Version Information
 VERS.                                  2.0 : CWLS LAS VERSION
 WRAP.                                   NO : WRAPING MODE
 SWARE .                 MController 2.5.0N : SOFTWARE VERSION
~Well Information
 WELL.                     Prospector 12-19 : WELL
 COMP.    Pioneer Natural Resources USA Inc : COMPANY
 FLD.                      Purgatoire River : FIELD
 LOC.                SW/NW Sec 19 T34S R64W : LOCATION
 DATE.                           4/24-25/05 : DATE(S) LOGGED
 SRVC.       Blanco Geological Services LLC : SERVICE COMPANY
 STAT.                                   CO : STATE
 CNTY.                           Las Animas : COUNTY
 CTRY.                                  USA : COUNTRY
 API.                       05-071-08191-00 : API NUMBER
 STRT.FT                             351.00 : START DEPTH
 STOP.FT                             900.00 : STOP DEPTH
 STEP.FT                               1.00 : DEPTH INCREMENT
 NULL.                                -9999 : NULL VALUE
~Curve information
 DEPTH.FT                                   :
 ROP.MIN/FT                                 :
 GAS.UNITS                                  :
~ASCII Log data
# ...
       751.0         7.20        297.9 
       752.0         0.65         24.2 
       753.0         0.63         29.8 
       754.0         0.63         85.1 
       755.0         0.27         77.4 
       756.0         0.23         51.1 
       757.0         0.27         36.7 
       758.0         0.27         28.0 
       759.0         0.35         27.3 
       760.0         0.40         29.1 
       761.0         0.43         28.0 
       762.0         0.47         30.8 
       763.0         0.40         26.0 
       764.0         0.47         23.1 
       765.0         0.50         25.7 
       766.0         0.48         27.2 
       767.0         0.47         20.5 
       768.0         0.47         14.8 
       769.0         0.50         18.8 
       770.0         0.47         18.2 
       771.0         0.50         15.3 
       772.0         0.50         15.3 
       773.0         0.52         13.0 
       774.0         0.40         10.9 
       775.0         0.47         12.8 
       776.0        11.32         20.0 
       777.0         0.42          4.0 
       778.0         0.60          4.2 
       779.0         0.67          4.4 
       780.0         0.73          4.3 
       781.0         0.73          4.4 
       782.0         0.85          4.3 
       783.0         0.80          4.5 
       784.0         1.03          4.5 
       785.0         0.92          4.3 
       786.0         0.87          4.4 
       787.0         2.12          4.6 
       788.0         1.23          4.5 
       789.0         0.90          4.6 
       790.0         0.80          4.5 
       791.0         0.82          4.4 
       792.0         0.73          4.4 
       793.0         0.77          4.5 
       794.0         0.73          4.4 
       795.0         0.78          4.3 
       796.0         0.77          4.3 
       797.0         0.77          4.6 
       798.0         0.80          4.8 
       799.0         0.88          4.8 
       800.0         1.00          4.8 
       801.0         0.87          5.0 
       802.0         0.88          5.0 
       803.0         0.87          4.6 
       804.0         1.13          4.3 
       805.0         0.43          4.2 
       806.0         5.53          5.3 
       807.0         0.53          5.0 
       808.0         1.28          5.3 
       809.0         0.47          5.4 
       810.0         0.67          5.1 
       811.0         0.63          4.8 
       812.0         0.67          4.9 
       813.0         0.78          5.1 
       814.0         0.70          4.9 
       815.0         0.80          5.1 
       816.0         0.93          5.0 
       817.0         0.88          5.1 
       818.0         0.87          4.9 
       819.0         1.10          5.2 
       820.0         0.85          4.9 
       821.0         0.93          4.9 
       822.0         0.70          4.9 
       823.0         0.83          4.9 
       824.0         1.08          5.0 
       825.0         0.77          5.0 
       826.0         0.87          4.9 
       827.0         0.98          5.2 
       828.0         1.00          5.4 
       829.0         0.87          5.4 
       830.0         0.67         30.1 
       831.0         0.68         18.7 
       832.0         0.73         18.8 
       833.0         0.97         18.7 
       834.0         0.53         18.3 
       835.0         0.75         18.6 
       836.0         1.63         18.6 
       837.0         1.03         18.5 
       838.0         0.78         18.7 
       839.0         1.77         18.9 
       840.0         0.70         18.6 
       841.0         0.68         18.3 
       842.0         0.50         18.3 
       843.0         0.77         18.2 
       844.0         0.87         18.2 
       845.0         0.82         18.1 
       846.0         1.00         18.1 
       847.0         0.97         18.2 
       848.0         0.63         18.0 
       849.0         0.82         18.4 
       850.0         0.57         18.2 
       851.0         0.67         18.1 
       852.0         0.77         18.4 
       853.0         0.92         18.4 
       854.0         0.87         18.5 
       855.0         0.77         18.3 
       856.0         0.70         18.4 
       857.0         0.57         18.4 
       858.0         0.82         18.3 
       859.0         0.57         18.3 
       860.0         0.73         18.2 
       861.0         0.63         18.4 
       862.0         0.68         18.2 
       863.0         0.77         18.4 
       864.0         0.77         18.2 
       865.0         0.63         18.1 
       866.0         0.67         18.4 
       867.0         0.78         18.4 
       868.0         5.83         18.5 
       869.0         0.77         18.4 
       870.0         0.70         18.5 
       871.0         0.63         18.7 
       872.0         0.67         18.5 
       873.0         0.55         18.5 
       874.0         0.50         18.5 
       875.0         0.50         18.3 
       876.0         0.57         18.3 
       877.0         0.60         18.0 
       878.0         0.65         18.2 
       879.0         0.57         18.1 
       880.0         0.50         18.2 
       881.0         0.53         18.0 
       882.0         0.57         18.0 
       883.0         0.50         18.0 
       884.0         0.50         18.0 
       885.0         0.55         17.9 
       886.0         0.50         17.9 
       887.0         0.47         18.0 
       888.0         0.50         18.0 
       889.0         0.60         18.1 
       890.0         0.52         17.9 
       891.0         0.47         17.8 
       892.0         0.53         17.9 
       893.0         0.47         18.1 
       894.0         0.55         18.1 
       895.0         0.63         18.1 
       896.0         0.50         17.8 
       897.0         0.47         18.0 
       898.0         0.37         17.9 
       899.0         0.53         18.0 
       900.0         0.57         18.2 
