~Version Information
VERS.                      2.0: CWLS Log ASCII Standard - VERSION 2.0
WRAP.                       NO: One line per depth step
~Well Information Block
STRT.FT               -12.2500: 
STOP.FT              2595.7500: 
STEP.FT                 0.2500: 
NULL.                -999.2500: 
COMP.          Petrogulf Corporation: COMPANY
WELL.            Montoya 1-44V: WELL
FLD.           Purgatoire River: FIELD
LOC.           753' FSL & 990' FEL--: LOCATION
PROV.                       CO: PROVINCE
CNTY.               Las Aniams: COUNTRY
SRVC.          Patterson Wireline: SERVICE COMPANY
DATE.          Mon Jun 13 11:58:10 2005: LOG DATE
UWI.           05 071 08142 00: UNIQUE WELL ID
~Curve Information Block
DEPT.FT            0 000 00 00: Depth
CCL.                          : Casing Collar Locator
TT3.usec                      : CBL 3' Travel Time
AMP3.mV                       : CBL 3' Amplitude
GR.GAPI                       : Gamma Ray
~Parameter Information Block
~A  Depth       CCL         TT3         AMP3         GR     
# ...
  1696.2500      0.0000    792.9199      6.8546     69.5613
  1696.5000      0.0000    795.1998      6.8832     71.0942
  1696.7500      0.0000    790.3592      6.9642     72.7733
  1697.0000      0.0000    781.3851      7.1429     74.1325
  1697.2500      0.0000    772.2136      7.4286     75.5310
  1697.5000      0.0000    765.6224      7.8036     77.9404
  1697.7500      0.0000    763.5013      8.2442     82.2817
  1698.0000      0.0000    767.3716      8.7315     89.3283
  1698.2500      0.0000    777.3722      9.2421     99.7634
  1698.5000      0.0000    789.6997      9.7599    113.3561
  1698.7500      0.0000    794.2625     10.3201    127.9669
  1699.0000      0.0000    776.0895     11.0137    139.9940
  1699.2500      0.0000    723.3218     11.9168    146.2651
  1699.5000      0.0000    638.5980     13.0114    145.9411
  1699.7500      0.0000    543.9479     14.1781    141.2150
  1700.0000      0.0000    470.0482     15.2675    136.1476
  1700.2500      0.0000    434.4917     16.2113    134.0838
  1700.5000      0.0000    428.2860     17.0939    135.7012
  1700.7500      0.0000    425.4063     18.1138    139.3603
  1701.0000      0.0000    406.9198     19.4783    143.0019
  1701.2500      0.0000    374.6358     21.3459    145.3978
  1701.5000      0.0000    342.4156     23.8246    145.8379
  1701.7500      0.0000    319.8898     26.9491    143.3832
  1702.0000      0.0000    306.8105     30.6240    137.2198
  1702.2500      0.0000    298.1677     34.5872    127.9528
  1702.5000      0.0000    290.2172     38.4223    118.2507
  1702.7500      0.0000    282.3260     41.6340    111.8301
  1703.0000      0.0000    275.7201     43.8112    111.2890
  1703.2500      0.0000    271.6242     44.8171    116.2748
  1703.5000      0.0000    270.4029     44.8429    123.7157
  1703.7500      0.0000    271.9859     44.2370    130.3807
  1704.0000      0.0000    276.2910     43.2383    135.1721
  1704.2500      0.0000    282.8931     41.8582    138.7376
  1704.5000      0.0000    290.5056     39.9958    141.6396
  1704.7500      0.0000    297.3363     37.6336    143.6970
  1705.0000      0.0000    302.1546     34.9273    144.6907
  1705.2500      0.0000    304.8750     32.1424    145.0302
  1705.5000      0.0000    306.1667     29.5192    145.7976
  1705.7500      0.0000    306.7550     27.1762    148.1427
  1706.0000      0.0000    307.0957     25.1258    152.2366
  1706.2500      0.0000    307.4071     23.3559    156.7626
  1706.5000      0.0000    307.7723     21.8725    159.8418
  1706.7500      0.0000    308.1951     20.6869    160.6315
  1707.0000      0.0000    308.6399     19.8135    159.9154
  1707.2500      0.0000    309.0656     19.2720    159.1351
  1707.5000      0.0000    309.4470     19.0395    158.9393
  1707.7500      0.0000    309.7746     19.0000    158.7847
  1708.0000      0.0000    310.0369     18.9986    157.8022
  1708.2500      0.0000    310.2064     18.9675    155.6621
  1708.5000      0.0000    310.2512     18.9628    152.5414
  1708.7500      0.0000    310.1590     19.0583    148.8455
  1709.0000      0.0000    309.9734     19.2317    145.3652
  1709.2500      0.0000    309.8788     19.3702    143.4089
  1709.5000      0.0000    310.6125     19.3675    144.2498
  1709.7500      0.0000    314.1595     19.1954    148.2688
  1710.0000      0.0000    324.4909     18.8950    154.6383
  1710.2500      0.0000    346.6603     18.5206    161.5996
  1710.5000      0.0000    382.7627     18.1145    167.0062
  1710.7500      0.0000    426.6887     17.7428    169.1479
  1711.0000      0.0000    463.6512     17.5325    167.6859
  1711.2500      0.0000    477.6322     17.6136    163.7417
  1711.5000      0.0000    461.7860     17.9823    158.6491
  1711.7500      0.0000    423.3781     18.4450    152.7706
  1712.0000      0.0000    378.9660     18.7574    145.9721
  1712.2500      0.0000    343.4235     18.8351    138.9647
  1712.5000      0.0000    322.1951     18.8075    133.3926
  1712.7500      0.0000    312.3820     18.8723    130.5378
  1713.0000      0.0000    308.6505     19.1183    130.1766
  1713.2500      0.0000    307.2818     19.4812    130.4413
  1713.5000      0.0000    306.7068     19.8339    128.6362
  1713.7500      0.0000    306.4886     20.0904    122.8961
  1714.0000      0.0000    306.5351     20.2283    113.7311
  1714.2500      0.0000    306.7238     20.2428    103.9336
  1714.5000      0.0000    306.9213     20.1160     96.7430
  1714.7500      0.0000    307.0380     19.8601     93.9428
  1715.0000      0.0000    307.0549     19.5864     95.2897
  1715.2500      0.0000    306.9914     19.5015     99.1706
  1715.5000      0.0000    306.8741     19.7913    103.5437
  1715.7500      0.0000    306.7715     20.4633    106.5599
  1716.0000      0.0000    306.9170     21.2656    107.0729
  1716.2500      0.0000    308.1005     21.7416    105.2802
  1716.5000      0.0000    312.6107     21.4075    102.7572
  1716.7500      0.0000    325.7407     19.9734    101.2828
  1717.0000      0.0000    356.3387     17.4805    101.4844
  1717.2500      0.0000    413.1325     14.2685    102.7460
  1717.5000      0.0000    496.1919     10.8379    104.0360
  1717.7500      0.0000    591.0410      7.7159    104.2471
  1718.0000      0.0000    674.9722      5.3103    101.9818
  1718.2500      0.0000    732.6017      3.7679     95.9672
  1718.5000      0.0000    765.2574      2.9717     86.1625
  1718.7500      0.0000    785.4746      2.6951     74.2318
  1719.0000     -2.0000    803.9360      2.7251     62.6822
  1719.2500     -2.0000    821.5616      2.8670     53.5671
  1719.5000      0.0000    832.2529      2.9487     47.8234
  1719.7500     -2.0000    831.2563      2.9053     45.4244
  1720.0000      2.0000    819.2966      2.8295     45.8753
  1720.2500      2.0000    799.1143      2.8930     48.5684
  1720.5000      0.0000    770.8059      3.2245     52.9262
  1720.7500      2.0000    731.6157      3.9050     58.5280
  1721.0000      2.0000    678.5110      5.0927     65.1274
  1721.2500      0.0000    611.0905      7.1149     72.3577
  1721.5000      0.0000    534.7034     10.2943     79.7152
  1721.7500      0.0000    460.6133     14.5316     87.2482
  1722.0000      0.0000    400.3097     19.0984     95.9755
  1722.2500      0.0000    358.8974     23.0600    106.9333
  1722.5000      0.0000    334.1437     26.0182    119.7421
  1722.7500      0.0000    320.5139     28.2997    132.3834
  1723.0000      0.0000    313.1347     30.3331    142.4983
  1723.2500      0.0000    309.1436     32.0428    149.1092
  1723.5000      0.0000    307.1330     32.9837    153.1373
  1723.7500      0.0000    306.2969     32.9087    155.9809
  1724.0000      0.0000    306.0637     32.0494    157.6625
  1724.2500      0.0000    306.0789     30.9143    156.8245
  1724.5000      0.0000    306.1941     29.9129    152.5886
  1724.7500      0.0000    306.3635     29.1636    145.9106
  1725.0000      0.0000    306.5673     28.5684    138.9149
  1725.2500      0.0000    306.7646     28.0175    133.1229
  1725.5000      0.0000    306.9148     27.5297    128.4554
  1725.7500      0.0000    307.0020     27.2571    123.9223
  1726.0000      0.0000    307.0268     27.3968    119.3027
  1726.2500      0.0000    306.9797     28.0805    115.8820
  1726.5000      0.0000    306.8376     29.2861    115.2747
  1726.7500      0.0000    306.5948     30.8198    117.8768
  1727.0000      0.0000    306.2880     32.4059    122.8687
  1727.2500      0.0000    305.9823     33.8291    129.2749
  1727.5000      0.0000    305.7336     35.0129    136.3304
  1727.7500      0.0000    305.5700     35.9825    143.0512
  1728.0000      0.0000    305.5027     36.7701    148.2570
  1728.2500      0.0000    305.5374     37.3448    151.2939
  1728.5000      0.0000    305.6684     37.6087    152.4550
  1728.7500      0.0000    305.8677     37.4572    152.5124
  1729.0000      0.0000    306.0889     36.8616    152.1098
  1729.2500      0.0000    306.2855     35.9154    151.7281
  1729.5000      0.0000    306.4259     34.8030    151.7771
