~Version Information
VERS.                      2.0: CWLS Log ASCII Standard - VERSION 2.0
WRAP.                       NO: One line per depth step
~Well Information Block
STRT.FT                -8.2500: 
STOP.FT              1175.7500: 
STEP.FT                 0.2500: 
NULL.                -999.2500: 
COMP.          Evergreen Operating Corporation: COMPANY
WELL.             Justin 32-10: WELL
FLD.           Purgatorie River: FIELD
LOC.           2994' FNL & 1449' FEL: LOCATION
PROV.                 Colorado: PROVINCE
CNTY.               Las Animas: COUNTRY
SRVC.                         : SERVICE COMPANY
DATE.          Wed Sep 29 10:00:10 2004: LOG DATE
UWI.           05 071 08053 00: UNIQUE WELL ID
~Curve Information Block
DEPT.FT            0 000 00 00: Depth
GR.GAPI                       : Gamma Ray
CCL.                          : Casing Collar Locator
TT3.usec                      : CBL 3' Travel Time
AMP3.mV                       : CBL 3' Amplitude
~Parameter Information Block
~A  Depth        GR         CCL         TT3         AMP3    
# ...
   762.2500    119.6949      0.0000    800.5339      4.0832
   762.5000    126.3200      0.0000    780.6292      4.1627
   762.7500    132.8938      0.0000    752.8820      4.2933
   763.0000    139.2713      0.0000    724.0919      4.4904
   763.2500    144.8906      0.0000    704.3475      4.7530
   763.5000    148.4705      0.0000    704.5667      5.0682
   763.7500    148.8059      0.0000    731.1191      5.4144
   764.0000    146.2252      0.0000    779.7200      5.7623
   764.2500    142.8301      0.0000    835.6597      6.0853
   764.5000    140.7769      0.0000    881.8354      6.3765
   764.7500    140.4698      0.0000    905.2381      6.6470
   765.0000    140.8161      0.0000    896.6436      6.9021
   765.2500    140.9844      0.0000    850.7938      7.1257
   765.5000    141.2118      0.0000    773.2367      7.2952
   765.7500    141.9499      0.0000    684.5570      7.4075
   766.0000    142.7979      0.0000    609.1950      7.4947
   766.2500    142.5783      0.0000    555.7866      7.6140
   766.5000    140.4255      0.0000    512.7225      7.8110
   766.7500    136.6894      0.0000    466.2790      8.0822
   767.0000    132.6997      0.0000    418.5119      8.3748
   767.2500    129.6608      0.0000    385.1012      8.6201
   767.5000    127.7266      0.0000    381.1714      8.7542
   767.7500    126.0546      0.0000    411.6947      8.7130
   768.0000    123.8053      0.0000    469.6782      8.4458
   768.2500    121.1324      0.0000    539.0265      7.9783
   768.5000    119.0507      0.0000    601.0504      7.4640
   768.7500    118.2537      0.0000    642.7453      7.1182
   769.0000    118.2202      0.0000    661.9989      7.0428
   769.2500    117.5621      0.0000    663.2504      7.1413
   769.5000    115.1677      0.0000    645.7693      7.2526
   769.7500    111.2033      0.0000    601.5854      7.3263
   770.0000    107.3588      0.0000    530.6819      7.4158
   770.2500    106.1452     -1.3971    451.1486      7.5764
   770.5000    109.3973     -2.4481    386.5557      7.8767
   770.7500    116.9340     -0.9274    347.4745      8.4981
   771.0000    126.4690      0.0000    328.9379      9.7677
   771.2500    134.7141      0.0000    320.5431     12.0029
   771.5000    138.7366      0.0000    314.6194     15.1698
   771.7500    137.1863      0.0000    307.9640     18.6257
   772.0000    131.1545      0.0000    300.3041     21.3666
   772.2500    123.7733      0.0000    292.4730     22.7402
   772.5000    118.4461      0.0000    285.3869     22.9138
   772.7500    117.1660      0.0000    279.7948     22.6135
   773.0000    120.0442      0.0000    276.0722     22.5128
   773.2500    125.7284      0.0000    274.0567     22.8789
   773.5000    132.0392      0.0000    273.1897     23.6019
   773.7500    136.5164      0.0000    272.8878     24.4084
   774.0000    137.0984      0.0000    272.7819     25.0673
   774.2500    133.1351      0.0000    272.7205     25.4853
   774.5000    126.1022      0.0000    272.6749     25.6791
   774.7500    119.0341      0.0000    272.7012     25.6811
   775.0000    114.8097      0.0000    272.9990     25.4644
   775.2500    114.5486      0.0000    274.0538     24.9328
   775.5000    117.2532      0.0000    276.6668     23.9791
   775.7500    120.7752      0.0000    281.5867     22.5620
   776.0000    123.0668      0.0000    288.7616     20.7519
   776.2500    122.7573      0.0000    296.9154     18.7270
   776.5000    119.3350      0.0000    304.1657     16.7245
   776.7500    113.4926      0.0000    309.2457     14.9686
   777.0000    107.0298      0.0000    312.0972     13.6102
   777.2500    101.8711      0.0000    313.4206     12.7021
   777.5000     99.1091      0.0000    313.9283     12.2090
   777.7500     98.7551      0.0000    314.0142     12.0508
   778.0000     99.7674      0.0000    313.8363     12.1530
   778.2500    100.2689      0.0000    313.4898     12.4685
   778.5000     98.5257      0.0000    313.0861     12.9557
   778.7500     94.2408      0.0000    312.7375     13.5436
   779.0000     88.6896      0.0000    312.5195     14.1144
   779.2500     83.4235      0.0000    312.4828     14.5222
   779.5000     79.0660      0.0000    312.8077     14.6410
   779.7500     75.4006      0.0000    314.1447     14.4054
   780.0000     72.1365      0.0000    318.0920     13.8117
   780.2500     69.1550      0.0000    327.3038     12.8989
   780.5000     66.1839      0.0000    344.3025     11.7496
   780.7500     62.7460      0.0000    369.2177     10.5006
   781.0000     58.6189      0.0000    398.9716      9.3245
   781.2500     54.1639      0.0000    430.3200      8.3744
   781.5000     50.0496      0.0000    464.0466      7.7273
   781.7500     46.6966      0.0000    504.1018      7.3638
   782.0000     44.0245      0.0000    550.4911      7.1878
   782.2500     41.7271      0.0000    594.2679      7.0760
   782.5000     39.8436      0.0000    623.1929      6.9341
   782.7500     38.9650      0.0000    633.6484      6.7307
   783.0000     39.6567      0.0000    634.4135      6.4852
   783.2500     41.6898      0.0000    637.0775      6.2312
   783.5000     44.0493      0.0000    644.8409      6.0007
   783.7500     45.7948      0.0000    652.2466      5.8203
   784.0000     46.7633      0.0000    653.7141      5.6801
   784.2500     47.3182      0.0000    650.4178      5.5124
   784.5000     47.6621      0.0000    649.6738      5.2485
   784.7500     47.7291      0.0000    658.6778      4.8982
   785.0000     47.5984      0.0000    678.2789      4.5414
   785.2500     47.6269     -0.9045    702.3553      4.2517
   785.5000     48.1868      0.0000    723.0200      4.0609
   785.7500     49.4725      1.3229    735.9462      3.9811
   786.0000     51.3855      0.0000    741.1893      4.0389
   786.2500     53.3059      0.0000    741.2645      4.2776
   786.5000     54.1953      0.0000    739.9341      4.7065
   786.7500     53.3466      0.0000    741.1103      5.2312
   787.0000     51.0464      0.0000    745.9255      5.6679
   787.2500     48.3335      0.0000    749.6512      5.8783
   787.5000     46.2326      0.0000    743.1127      5.8854
   787.7500     45.2864      0.0000    720.3306      5.8338
   788.0000     45.5870      0.0000    686.3880      5.8631
   788.2500     47.0528      0.0000    654.2760      6.0431
   788.5000     49.6484      0.0000    629.5109      6.3912
   788.7500     53.3420      0.0000    600.8032      6.8972
   789.0000     57.8907      0.0000    552.3600      7.5215
   789.2500     62.8080      0.0000    484.2522      8.1945
   789.5000     67.7460      0.0000    414.5126      8.8476
   789.7500     72.9264      0.0000    361.9137      9.4558
   790.0000     78.9489      0.0000    332.0349     10.0537
   790.2500     85.9507      0.0000    319.0158     10.7098
   790.5000     93.1020      0.0000    314.5770     11.4735
   790.7500     99.1504      0.0000    313.3300     12.3165
   791.0000    103.4207      0.0000    312.9915     13.1150
   791.2500    106.2462      0.0000    312.8746     13.7131
   791.5000    108.6232      0.0000    312.8492     14.0153
   791.7500    111.4801      0.0000    312.9029     14.0156
   792.0000    115.1164      0.0000    313.0311     13.7607
   792.2500    119.1514      0.0000    313.1948     13.3194
   792.5000    122.7353      0.0000    313.3469     12.7877
   792.7500    124.8240      0.0000    313.4761     12.2761
   793.0000    124.7049      0.0000    313.6267     11.8448
   793.2500    122.5156      0.0000    313.8619     11.4476
   793.5000    119.2498      0.0000    314.1902     10.9850
   793.7500    116.2710      0.0000    314.5231     10.4342
   794.0000    114.6330      0.0000    314.7141      9.9065
   794.2500    114.5900      0.0000    314.6605      9.5643
   794.5000    115.7310      0.0000    314.3805      9.4972
   794.7500    117.3974      0.0000    314.0041      9.6671
   795.0000    118.6863      0.0000    313.7307      9.9367
   795.2500    118.3759      0.0000    313.8602     10.1303
   795.5000    115.5476      0.0000    315.2075     10.0906
