~Version Information
VERS.                      2.0: CWLS Log ASCII Standard - VERSION 2.0
WRAP.                       NO: One line per depth step
~Well Information Block
STRT.FT               -16.0000: 
STOP.FT              2454.2500: 
STEP.FT                 0.2500: 
NULL.                -999.2500: 
COMP.                         : COMPANY
WELL.                         : WELL
FLD.                          : FIELD
LOC.                          : LOCATION
CNTY.                         : COUNTY
SRVC.                         : SERVICE COMPANY
DATE.          Tue Aug 31 08:09:44 2004: LOG DATE
UWI.                          : UNIQUE WELL ID
STAT.                         : STATE
~Curve Information Block
DEPT.FT            0 000 00 00: Depth
GR.GAPI                       : Gamma Ray
CCL.                          : Casing Collar Locator
TT3.usec                      : CBL 3' Travel Time
AMP3.mV                       : CBL 3' Amplitude
~Parameter Information Block
~A  Depth        GR         CCL         TT3         AMP3    
# ...
  1123.0000     89.4132      0.0000    357.1017     19.6289
  1123.2500     91.7571      0.0000    357.2107     20.3597
  1123.5000     92.6546      0.0000    357.2560     21.2025
  1123.7500     93.0218      0.0000    357.1596     22.1844
  1124.0000     92.8880      0.0000    356.9081     23.2123
  1124.2500     91.9536      0.0000    356.4789     24.1639
  1124.5000     90.5196      0.0000    355.7025     25.0923
  1124.7500     89.7884      0.0000    353.8780     26.2760
  1125.0000     90.9487      0.0000    349.3505     28.0059
  1125.2500     93.9475      0.0000    340.8080     30.3391
  1125.5000     97.5063      0.0000    330.0230     33.0323
  1125.7500    100.3014      0.0000    321.1545     35.6292
  1126.0000    101.6723      0.0000    316.4101     37.7151
  1126.2500    101.2470      0.0000    314.7581     39.1807
  1126.5000     98.6714      0.0000    314.3554     40.1888
  1126.7500     94.1976      0.0000    314.1828     40.9394
  1127.0000     89.1192      0.0000    313.9652     41.5320
  1127.2500     85.0132      0.0000    313.7138     41.9571
  1127.5000     82.4947      0.0000    313.5286     42.1476
  1127.7500     80.9783      0.0000    313.5210     42.0741
  1128.0000     79.6648      0.0000    313.6692     41.8277
  1128.2500     78.4731      0.0000    313.8111     41.6012
  1128.5000     77.9814      0.0000    313.8112     41.5296
  1128.7500     78.7423      0.0000    313.6702     41.5490
  1129.0000     80.7764      0.0000    313.5287     41.4764
  1129.2500     83.5393      0.0000    313.5657     41.1730
  1129.5000     86.2904      0.0000    313.8319     40.5834
  1129.7500     88.5611      0.0000    314.2240     39.7258
  1130.0000     90.1488      0.0000    314.6114     38.6949
  1130.2500     90.6851      0.0000    314.9789     37.5892
  1130.5000     89.5849      0.0000    315.6458     36.4295
  1130.7500     86.6583      0.0000    317.6142     35.1757
  1131.0000     82.6838      0.0000    322.5951     33.8075
  1131.2500     79.2117      0.0000    331.4845     32.3916
  1131.5000     77.6723      0.0000    342.0769     31.0410
  1131.7500     78.6072      0.0000    350.3056     29.8015
  1132.0000     81.6707      0.0000    354.4442     28.6228
  1132.2500     86.1560      0.0000    355.8577     27.4404
  1132.5000     91.3188      0.0000    356.3332     26.2329
  1132.7500     96.2676      0.0000    356.6393     25.0007
  1133.0000    100.0190      0.0000    356.8907     23.7797
  1133.2500    101.9852      0.0000    357.1093     22.6939
  1133.5000    102.2494      0.0000    357.3583     21.9170
  1133.7500    101.1696      0.0000    357.6319     21.5216
  1134.0000     98.9274      0.0000    357.8459     21.4271
  1134.2500     95.7611      0.0000    357.9553     21.5281
  1134.5000     92.3582      0.0000    357.9913     21.7540
  1134.7500     89.4810      0.0000    357.9989     22.0149
  1135.0000     87.1224      0.0000    357.9998     22.2437
  1135.2500     84.3044      0.0000    357.9990     22.4752
  1135.5000     79.8327      0.0000    357.9924     22.7752
  1135.7500     73.2872      0.0000    357.9640     23.1090
  1136.0000     65.4683      0.0000    357.8907     23.3677
  1136.2500     58.0507      0.0000    357.7870     23.5153
  1136.5000     52.6777      0.0000    357.7339     23.6256
  1136.7500     50.0382      0.0000    357.7860     23.7957
  1137.0000     49.4940      0.0000    357.8830     24.0983
  1137.2500     49.5443      0.0000    357.9269     24.5712
  1137.5000     49.0052      0.0000    357.8744     25.2003
  1137.7500     48.0491      0.0000    357.7413     25.9546
  1138.0000     48.0293      0.0000    357.5798     26.8315
  1138.2500     50.1538      0.0000    357.4155     27.7989
  1138.5000     54.3666      0.0000    357.2064     28.7098
  1138.7500     59.5256      0.0000    356.7410     29.4131
  1139.0000     64.3861      0.0000    355.1743     29.9737
  1139.2500     68.1178      0.0000    350.7332     30.6587
  1139.5000     70.1487      0.0000    342.2216     31.6575
  1139.7500     70.1254      0.0000    331.5721     32.8749
  1140.0000     68.2232      0.0000    322.8626     34.0222
  1140.2500     65.1748      0.0000    318.1194     34.8901
  1140.5000     61.7913      0.0000    316.3182     35.4991
  1140.7500     58.5320      0.0000    315.8312     35.9754
  1141.0000     55.5433      0.0000    315.8136     36.3282
  1141.2500     52.9591      0.0000    315.9889     36.3781
  1141.5000     51.1047      0.0000    316.5027     35.9169
  1141.7500     50.4200      0.0000    318.2571     34.9383
  1142.0000     51.1233      0.0000    323.0069     33.6708
  1142.2500     52.9013      0.0000    331.7925     32.3991
  1142.5000     55.0973      0.0000    342.4841     31.3182
  1142.7500     57.3466      0.0000    350.8950     30.5242
  1143.0000     59.8411      0.0000    354.9066     30.0776
  1143.2500     62.7406      0.0000    354.9142     30.0471
  1143.5000     65.4584      0.0000    350.9396     30.4376
  1143.7500     66.9686      0.0000    342.6370     31.1037
  1144.0000     67.0870      0.0000    332.1509     31.8414
  1144.2500     67.0114      0.0000    323.5962     32.5487
  1144.5000     68.1162      0.0000    318.9554     33.2280
  1144.7500     70.4503      0.0000    317.1171     33.9192
  1145.0000     72.8409      0.0000    316.4019     34.7230
  1145.2500     74.2083      0.0000    315.9675     35.8084
  1145.5000     74.4739      0.0000    315.5247     37.2820
  1145.7500     74.4295      0.0000    315.0088     39.0108
  1146.0000     74.8947      0.0000    314.5222     40.6178
  1146.2500     75.8491      0.0000    314.1989     41.7902
  1146.5000     76.4486      0.0000    314.0533     42.5795
  1146.7500     75.8445      0.0000    314.0088     43.2754
  1147.0000     73.7066      0.0000    313.9936     44.0743
  1147.2500     70.1886      0.0000    313.9641     44.9745
  1147.5000     66.0088      0.0000    313.8907     45.8801
  1147.7500     62.5489      0.0000    313.7870     46.6322
  1148.0000     61.2716      0.0000    313.7339     47.0149
  1148.2500     62.7009      0.0000    313.7859     46.9845
  1148.5000     65.9642      0.0000    313.8820     46.7904
  1148.7500     69.3385      0.0000    313.9204     46.6402
  1149.0000     71.4410      0.0000    313.8471     46.4575
  1149.2500     72.2136      0.0000    313.6767     46.1055
  1149.5000     72.8267      0.0000    313.5210     45.6156
  1149.7500     74.4612      0.0000    313.5212     45.1164
  1150.0000     77.0613      0.0000    313.6800     44.6202
  1150.2500     79.2487      0.0000    313.8733     43.9457
  1150.5000     79.5092      0.0000    314.0591     42.8693
  1150.7500     77.5008      0.0000    314.3965     41.2548
  1151.0000     74.2296      0.0000    315.2716     39.1052
  1151.2500     71.0280      0.0000    317.5317     36.6702
  1151.5000     68.4370      0.0000    322.7086     34.3388
  1151.7500     66.0764      0.0000    331.7479     32.2658
  1152.0000     63.4771      0.0000    342.6242     30.2815
  1152.2500     60.8334      0.0000    351.3035     28.1852
  1152.5000     58.8260      0.0000    355.8804     25.9986
  1152.7500     57.8778      0.0000    357.5136     23.9237
  1153.0000     57.7898      0.0000    357.9564     22.0867
  1153.2500     58.0655      0.0000    358.1429     20.4373
  1153.5000     58.4303      0.0000    358.3735     18.9239
  1153.7500     59.0053      0.0000    358.6691     17.6111
  1154.0000     59.9012      0.0000    358.9575     16.6084
  1154.2500     60.6716      0.0000    359.1860     15.9842
  1154.5000     60.5267      0.0000    359.4051     15.7081
  1154.7500     59.3107      0.0000    360.1771     15.6442
  1155.0000     57.8446      0.0000    364.6261     15.6621
  1155.2500     56.7737      0.0000    382.7691     15.6707
  1155.5000     55.3729      0.0000    428.8091     15.4304
  1155.7500     52.1631      0.0000    494.4341     14.6556
  1156.0000     46.6801      0.0000    531.4702     13.6131
  1156.2500     40.1967      0.0000    505.4186     13.0558
