~Version Information
VERS.                      2.0: CWLS Log ASCII Standard - VERSION 2.0
WRAP.                       NO: One line per depth step
~Well Information Block
STRT.FT               250.0000: 
STOP.FT               894.7000: 
STEP.FT                 0.1000: 
NULL.                -999.2500: 
COMP.          Pioneer Natural Resources: COMPANY
WELL.          Santisteven 13-22: WELL
FLD.           Purgatoire River: FIELD
LOC.           1861' FSL & 992' FWL----: LOCATION
PROV.                 Colorado: PROVINCE
CNTY.               Las Animas: COUNTRY
SRVC.                Patterson: SERVICE COMPANY
DATE.          Mon Apr 04 11:05:36 2005: LOG DATE
UWI.           05 071 08337 00: UNIQUE WELL ID
~Curve Information Block
DEPT.FT            0 000 00 00: Depth
DCAL.in                       : CDL Caliper
RHOB.g/cc                     : CDL Bulk Density
RHOC.g/cc                     : CDL Density Correction
DPOR.pu                       : CDL Density Porosity
NPOR.pu                       : Neutron Porosity
GR.GAPI                       : Gamma Ray
~Parameter Information Block
~A  Depth       DCAL        RHOB        RHOC        DPOR        NPOR         GR     
# ...
   413.2000      8.1309      2.6377      0.0885      0.7466     22.0339    113.4091
   413.3000      8.1313      2.6516      0.0878     -0.0971     21.8884    116.5393
   413.4000      8.1313      2.6502      0.0955     -0.0114     22.1684    116.0315
   413.5000      8.1325      2.6300      0.1023      1.2133     23.0443    114.8366
   413.6000      8.1325      2.6011      0.0332      2.9664     24.0954    116.6870
   413.7000      8.1325      2.5797      0.0681      4.2626     24.9116    117.2594
   413.8000      8.1327      2.5674      0.0223      5.0050     25.6649    114.2945
   413.9000      8.1327      2.5643     -0.0046      5.1952     26.5699    112.3274
   414.0000      8.1319      2.5688      0.0151      4.9189     27.1652    113.5417
   414.1000      8.1319      2.5694      0.0356      4.8867     27.0242    115.8294
   414.2000      8.1319      2.5627      0.0291      5.2932     26.3442    118.2019
   414.3000      8.1303      2.5533      0.0282      5.8606     25.5331    124.2440
   414.4000      8.1303      2.5427     -0.0050      6.5015     25.0600    135.7170
   414.5000      8.1302      2.5378     -0.0054      6.7993     24.8556    145.5799
   414.6000      8.1302      2.5449      0.0557      6.3713     24.4017    144.5718
   414.7000      8.1302      2.5542      0.1104      5.8053     23.6623    133.9365
   414.8000      8.1324      2.5551      0.0679      5.7530     22.8048    125.5606
   414.9000      8.1324      2.5430      0.0996      6.4867     22.1646    125.2429
   415.0000      8.1345      2.5101      0.0470      8.4801     22.1343    127.5070
   415.1000      8.1345      2.4686      0.0245     10.9928     22.3892    128.6926
   415.2000      8.1345      2.4493      0.0013     12.1632     22.3935    129.2460
   415.3000      8.1347      2.4612      0.0735     11.4433     22.2276    128.1421
   415.4000      8.1347      2.4871      0.0639      9.8733     22.1870    125.9337
   415.5000      8.1323      2.5154      0.0826      8.1563     22.5161    126.1700
   415.6000      8.1323      2.5475      0.0717      6.2106     23.1936    130.3113
   415.7000      8.1323      2.5778      0.1416      4.3787     23.7558    133.4411
   415.8000      8.1304      2.5895      0.1184      3.6649     23.7855    132.7607
   415.9000      8.1304      2.5774      0.1088      4.3995     23.2894    133.5255
   416.0000      8.1314      2.5547      0.0806      5.7765     22.6845    136.9645
   416.1000      8.1314      2.5466      0.0222      6.2646     22.3596    136.6017
   416.2000      8.1314      2.5666      0.0740      5.0562     22.7752    131.8366
   416.3000      8.1319      2.6012      0.0563      2.9558     23.8950    126.4130
   416.4000      8.1319      2.6338      0.0756      0.9805     24.6879    121.1880
   416.5000      8.1317      2.6504      0.1170     -0.0244     24.7819    119.2871
   416.6000      8.1317      2.6386      0.1182      0.6907     24.7183    124.7284
   416.7000      8.1317      2.6074      0.0283      2.5841     24.6689    133.6653
   416.8000      8.1331      2.5798      0.0633      4.2535     24.6818    138.5437
   416.9000      8.1331      2.5619      0.0761      5.3396     24.9237    141.5526
   417.0000      8.1342      2.5467      0.0396      6.2607     25.2452    145.1026
   417.1000      8.1342      2.5347      0.0690      6.9860     25.4222    141.8528
   417.2000      8.1342      2.5359      0.0357      6.9147     25.4400    130.7293
   417.3000      8.1332      2.5479      0.0688      6.1854     25.4438    118.6147
   417.4000      8.1332      2.5459      0.0626      6.3063     25.4989    111.0089
   417.5000      8.1317      2.5310     -0.1045      7.2091     25.3244    107.7076
   417.6000      8.1317      2.5356     -0.0200      6.9337     24.8459    106.7670
   417.7000      8.1317      2.5605      0.0688      5.4227     24.4247    110.3587
   417.8000      8.1322      2.5840      0.0685      4.0013     24.2226    116.8708
   417.9000      8.1322      2.5929      0.1185      3.4635     24.1852    121.0470
   418.0000      8.1333      2.5856      0.0829      3.9019     24.3683    126.3027
   418.1000      8.1333      2.5769      0.0731      4.4293     24.3875    135.5326
   418.2000      8.1333      2.5786      0.1211      4.3286     23.8514    141.4775
   418.3000      8.1377      2.5836      0.1014      4.0268     23.1310    136.7799
   418.4000      8.1377      2.5830      0.1099      4.0579     22.8332    122.9774
   418.5000      8.1474      2.5828      0.0804      4.0704     22.9451    107.8556
   418.6000      8.1474      2.5980      0.0303      3.1543     22.8978    100.2120
   418.7000      8.1474      2.6224      0.1020      1.6730     22.6605    105.5488
   418.8000      8.1553      2.6258      0.0932      1.4654     22.7174    118.5100
   418.9000      8.1553      2.5961      0.0696      3.2668     22.9353    127.7725
   419.0000      8.1569      2.5432      0.0810      6.4745     23.0814    131.4880
   419.1000      8.1569      2.4830      0.0402     10.1220     23.3521    135.9883
   419.2000      8.1569      2.4464     -0.0474     12.3406     23.6616    141.7600
   419.3000      8.1567      2.4572      0.0261     11.6836     23.8858    144.7706
   419.4000      8.1567      2.5019      0.0603      8.9760     24.1455    144.6822
   419.5000      8.1572      2.5471      0.0809      6.2347     24.3419    143.3595
   419.6000      8.1572      2.5646      0.1036      5.1787     24.3322    142.4184
   419.7000      8.1572      2.5488      0.0678      6.1342     24.0315    144.8928
   419.8000      8.1579      2.5213      0.0636      7.8000     23.4348    151.9546
   419.9000      8.1579      2.5079      0.0338      8.6151     22.8842    159.7062
   420.0000      8.1594      2.5138      0.0677      8.2553     22.6650    165.2278
   420.1000      8.1594      2.5198      0.0704      7.8885     22.6606    168.2420
   420.2000      8.1594      2.5162      0.0510      8.1090     22.5786    169.0723
   420.3000      8.1608      2.5151      0.0466      8.1750     22.4820    167.9145
   420.4000      8.1608      2.5208      0.0658      7.8328     22.7489    164.0027
   420.5000      8.1614      2.5268      0.0884      7.4657     23.2200    161.4471
   420.6000      8.1614      2.5313      0.1064      7.1938     23.4349    167.7677
   420.7000      8.1614      2.5284      0.1303      7.3671     23.1146    181.2534
   420.8000      8.1608      2.5188      0.0492      7.9490     22.3953    187.0838
   420.9000      8.1608      2.5095      0.1156      8.5171     22.0104    175.7767
   421.0000      8.1587      2.4875      0.1064      9.8487     22.3555    159.7331
   421.1000      8.1587      2.4431      0.0566     12.5390     22.9148    152.8537
   421.2000      8.1587      2.3834      0.0595     16.1570     23.2241    153.2672
   421.3000      8.1585      2.3210     -0.0219     19.9375     23.3802    152.4325
   421.4000      8.1585      2.2736     -0.0450     22.8094     23.2493    148.2115
   421.5000      8.1590      2.2482     -0.0248     24.3493     22.5226    147.4474
   421.6000      8.1590      2.2378     -0.0219     24.9834     21.4807    156.2785
   421.7000      8.1590      2.2376      0.0310     24.9944     20.5590    165.9962
   421.8000      8.1585      2.2533      0.0267     24.0421     19.7797    166.3839
   421.9000      8.1585      2.2948      0.0826     21.5278     18.8608    164.0516
   422.0000      8.1580      2.3543      0.1467     17.9214     17.8116    161.7343
   422.1000      8.1580      2.4047      0.1708     14.8665     17.1486    153.3656
   422.2000      8.1580      2.4309      0.1676     13.2798     17.0822    143.0054
   422.3000      8.1579      2.4446      0.1630     12.4487     17.2832    139.4396
   422.4000      8.1579      2.4634      0.1276     11.3100     17.5893    142.6833
   422.5000      8.1572      2.4873      0.1385      9.8606     18.2519    144.6078
   422.6000      8.1572      2.5047      0.1144      8.8053     19.1964    140.9881
   422.7000      8.1572      2.5161      0.0509      8.1142     19.7916    136.0924
