~Version Information
VERS.                      2.0: CWLS Log ASCII Standard - VERSION 2.0
WRAP.                       NO: One line per depth step
~Well Information Block
STRT.FT               258.0000: 
STOP.FT              1001.0000: 
STEP.FT                 0.2500: 
NULL.                -999.2500: 
COMP.          Pioneer Natural Resources: COMPANY
WELL.          Piggyback 33-25: WELL
FLD.           Purgatoire River: FIELD
LOC.           1600' FSL & 1800' FEL: LOCATION
PROV.                 Colorado: PROVINCE
CNTY.               Las Animas: COUNTRY
SRVC.                Patterson: SERVICE COMPANY
DATE.          Fri Apr 29 14:22:38 2005: LOG DATE
UWI.           05 071 08233 00: UNIQUE WELL ID
~Curve Information Block
DEPT.FT            0 000 00 00: Depth
SN.Ohm-m                      : IEL Short Normal
SP.mV                         : IEL Spontaneous Potential
DIR.Ohm-m                     : IEL Induction Resistivity
GR.GAPI                       : Gamma Ray
~Parameter Information Block
~A  Depth        SN          SP         DIR          GR     
# ...
   760.5000     42.3420     55.6370     34.4968     51.4889
   760.7500     41.6179     56.3830     34.1813     51.2673
   761.0000     41.0219     57.1882     33.9230     50.6056
   761.2500     40.6156     58.0575     33.6872     50.3893
   761.5000     40.4119     58.9837     33.4575     50.6313
   761.7500     40.3891     59.9436     33.2335     50.8223
   762.0000     40.5118     60.9038     33.0172     50.2002
   762.2500     40.7384     61.8338     32.8054     48.9061
   762.5000     41.0495     62.7206     32.5948     46.1186
   762.7500     41.4677     63.5724     32.3904     44.3156
   763.0000     41.9824     64.4069     32.2073     42.5379
   763.2500     42.4603     65.2310     32.0569     42.0112
   763.5000     42.7228     66.0286     31.9283     41.6199
   763.7500     42.7157     66.7628     31.7845     41.3224
   764.0000     42.5302     67.3919     31.5792     41.0183
   764.2500     42.2825     67.8897     31.2790     41.3415
   764.5000     42.0311     68.2597     30.8701     43.1850
   764.7500     41.7746     68.5321     30.3453     45.2935
   765.0000     41.4564     68.7460     29.6944     49.1019
   765.2500     40.9792     68.9353     28.9155     51.4573
   765.5000     40.2349     69.1310     28.0323     53.7696
   765.7500     39.1054     69.3705     27.0918     54.3157
   766.0000     37.4776     69.6996     26.1427     54.1454
   766.2500     35.3484     70.1583     25.2144     53.9237
   766.5000     32.9299     70.7604     24.3099     54.1830
   766.7500     30.6220     71.4794     23.4142     54.8434
   767.0000     28.8461     72.2552     22.5089     56.0693
   767.2500     27.7781     73.0198     21.5867     56.5533
   767.5000     27.1314     73.7256     20.6596     56.3436
   767.7500     26.3002     74.3628     19.7580     55.9388
   768.0000     24.8748     74.9539     18.9211     56.4740
   768.2500     23.0409     75.5293     18.1839     58.4432
   768.5000     21.4340     76.0993     17.5648     64.0157
   768.7500     20.5906     76.6472     17.0616     68.7056
   769.0000     20.5593     77.1472     16.6566     75.1511
   769.2500     21.0108     77.5852     16.3293     78.1321
   769.5000     21.5772     77.9602     16.0675     80.4570
   769.7500     22.0292     78.2764     15.8690     81.2206
   770.0000     22.2695     78.5422     15.7377     82.3735
   770.2500     22.3000     78.7763     15.6807     83.2240
   770.5000     22.2068     79.0081     15.7104     83.7144
   770.7500     22.1044     79.2669     15.8459     83.0376
   771.0000     22.0791     79.5652     16.1071     80.6992
   771.2500     22.1844     79.8918     16.5014     78.7363
   771.5000     22.4358     80.2179     17.0094     75.6951
   771.7500     22.8013     80.5110     17.5767     73.5955
   772.0000     23.2531     80.7461     18.1201     70.2383
   772.2500     23.7912     80.9140     18.5530     67.8489
   772.5000     24.3887     81.0256     18.8223     63.9271
   772.7500     24.9786     81.1063     18.9277     61.0391
   773.0000     25.4847     81.1802     18.9043     56.7293
   773.2500     25.8328     81.2572     18.7846     54.5464
   773.5000     26.0002     81.3354     18.5789     53.7830
   773.7500     26.0656     81.4183     18.2849     55.5447
   774.0000     26.1295     81.5211     17.9090     61.4442
   774.2500     26.1617     81.6552     17.4726     66.7202
   774.5000     26.0051     81.8093     17.0036     74.7028
   774.7500     25.5346     81.9502     16.5267     79.2282
   775.0000     24.7482     82.0415     16.0615     84.4202
   775.2500     23.7393     82.0638     15.6289     86.9766
   775.5000     22.6450     82.0236     15.2541     89.6494
   775.7500     21.6031     81.9494     14.9629     90.5811
   776.0000     20.7290     81.8780     14.7721     90.5615
   776.2500     20.0952     81.8392     14.6837     89.7069
   776.5000     19.7155     81.8432     14.6836     87.6736
   776.7500     19.5580     81.8797     14.7460     86.1641
   777.0000     19.5576     81.9259     14.8407     83.8877
   777.2500     19.6245     81.9617     14.9414     82.0919
   777.5000     19.6844     81.9812     15.0371     78.1377
   777.7500     19.7112     81.9953     15.1389     74.4023
   778.0000     19.6896     82.0218     15.2769     67.7292
   778.2500     19.5863     82.0741     15.4897     63.4708
   778.5000     19.4254     82.1534     15.8114     59.2744
   778.7500     19.3697     82.2494     16.2649     58.7677
   779.0000     19.6197     82.3434     16.8577     61.5384
   779.2500     20.2178     82.4122     17.5777     64.9199
   779.5000     21.0215     82.4342     18.3873     70.2425
   779.7500     21.8298     82.3958     19.2210     73.0881
   780.0000     22.5242     82.2941     19.9942     75.9941
   780.2500     23.1366     82.1340     20.6263     77.2656
   780.5000     23.7846     81.9207     21.0738     78.4566
   780.7500     24.5404     81.6550     21.3521     78.7156
   781.0000     25.3764     81.3341     21.5299     78.0558
   781.2500     26.2322     80.9541     21.6976     76.7972
   781.5000     27.1058     80.5110     21.9330     73.7362
   781.7500     28.0686     80.0001     22.2819     71.2829
   782.0000     29.1979     79.4146     22.7592     68.0069
   782.2500     30.4937     78.7452     23.3612     66.4606
   782.5000     31.8362     77.9842     24.0744     64.8919
   782.7500     33.0433     77.1355     24.8795     64.0121
   783.0000     33.9909     76.2232     25.7506     62.6252
   783.2500     34.6672     75.2941     26.6580     61.6045
   783.5000     35.1551     74.4093     27.5720     59.7669
   783.7500     35.6071     73.6277     28.4639     58.2652
   784.0000     36.1860     72.9839     29.3042     55.9375
   784.2500     37.0053     72.4739     30.0599     54.7983
   784.5000     38.1344     72.0621     30.7001     54.2979
   784.7500     39.5156     71.7096     31.2120     54.6383
   785.0000     40.8351     71.4003     31.6158     55.1809
   785.2500     41.6889     71.1450     31.9518     54.9877
   785.5000     41.9256     70.9710     32.2327     53.7179
   785.7500     41.7258     70.9080     32.4066     52.6799
   786.0000     41.4017     70.9746     32.3796     51.8536
   786.2500     41.1638     71.1651     32.0936     52.0745
   786.5000     41.0109     71.4454     31.5836     53.2885
   786.7500     40.7836     71.7641     30.9500     54.3342
   787.0000     40.3226     72.0755     30.2910     56.0478
   787.2500     39.6158     72.3572     29.6628     57.5019
   787.5000     38.7821     72.6108     29.0895     60.3857
   787.7500     37.9009     72.8465     28.5870     62.4193
   788.0000     36.9504     73.0656     28.1685     64.4283
   788.2500     35.9415     73.2514     27.8351     64.5753
   788.5000     34.9981     73.3739     27.5652     63.1732
   788.7500     34.2598     73.4033     27.3185     61.7674
   789.0000     33.7726     73.3239     27.0529     60.2346
   789.2500     33.5074     73.1363     26.7433     60.0846
   789.5000     33.4074     72.8544     26.3915     61.1394
   789.7500     33.3459     72.5013     26.0238     62.2263
   790.0000     33.1412     72.1019     25.6792     63.2752
   790.2500     32.7397     71.6706     25.3907     63.0084
   790.5000     32.2788     71.2091     25.1681     60.9585
   790.7500     31.8738     70.7216     24.9921     58.9929
   791.0000     31.4922     70.2278     24.8295     56.5003
   791.2500     31.1111     69.7557     24.6627     55.6434
   791.5000     30.8361     69.3201     24.5112     55.4472
   791.7500     30.7569     68.9108     24.4274     55.6669
   792.0000     30.8293     68.4962     24.4706     56.0665
   792.2500     30.9722     68.0377     24.6747     56.2948
   792.5000     31.1465     67.5014     25.0324     56.4243
   792.7500     31.3535     66.8631     25.4989     56.1590
   793.0000     31.6672     66.1099     26.0099     54.8462
   793.2500     32.2097     65.2429     26.5032     53.3099
   793.5000     32.9983     64.2835     26.9364     50.4249
   793.7500     33.8695     63.2775     27.3012     48.5294
