~Version Information
VERS.                      2.0: CWLS Log ASCII Standard - VERSION 2.0
WRAP.                       NO: One line per depth step
~Well Information Block
STRT.FT               265.0000: 
STOP.FT              1214.0000: 
STEP.FT                 0.2500: 
NULL.                -999.2500: 
COMP.          Pioneer Natural Resources: COMPANY
WELL.          Pacheco 33-27 Tr: WELL
FLD.           Purgatoire River: FIELD
LOC.           2251' FSL & 2342' FEL: LOCATION
PROV.                 Colorado: PROVINCE
CNTY.               Las Animas: COUNTRY
SRVC.                Patterson: SERVICE COMPANY
DATE.          Fri Jun 10 13:29:04 2005: LOG DATE
UWI.           05 071 08384 00: UNIQUE WELL ID
~Curve Information Block
DEPT.FT            0 000 00 00: Depth
SN.Ohm-m                      : IEL Short Normal
SP.mV                         : IEL Spontaneous Potential
DIR.Ohm-m                     : IEL Induction Resistivity
GR.GAPI                       : Gamma Ray
~Parameter Information Block
~A  Depth        SN          SP         DIR          GR     
# ...
   633.5000   2000.0000   2000.0000      9.0681    145.8806
   633.7500   2000.0000   2000.0000      9.2763    150.2052
   634.0000   2000.0000   2000.0000      9.5640    156.0705
   634.2500   2000.0000   2000.0000      9.9231    159.2800
   634.5000   2000.0000   2000.0000     10.3435    162.8539
   634.7500   2000.0000   2000.0000     10.8137    164.3564
   635.0000   2000.0000   2000.0000     11.3207    164.6791
   635.2500   2000.0000   2000.0000     11.8515    162.9565
   635.5000   2000.0000   2000.0000     12.3999    156.9609
   635.7500   2000.0000   2000.0000     12.9736    151.3999
   636.0000   2000.0000   2000.0000     13.5949    143.6185
   636.2500   2000.0000   2000.0000     14.2899    140.6761
   636.5000   2000.0000   2000.0000     15.0712    141.2038
   636.7500   2000.0000   2000.0000     15.9272    144.1833
   637.0000   2000.0000   2000.0000     16.8241    149.0111
   637.2500   2000.0000   2000.0000     17.7183    149.9120
   637.5000   2000.0000   2000.0000     18.5677    145.0576
   637.7500   2000.0000   2000.0000     19.3319    137.9562
   638.0000   2000.0000   2000.0000     19.9685    124.8884
   638.2500   2000.0000   2000.0000     20.4378    117.1607
   638.5000   2000.0000   2000.0000     20.7168    110.2324
   638.7500   2000.0000   2000.0000     20.8049    109.2533
   639.0000   2000.0000   2000.0000     20.7156    112.4696
   639.2500   2000.0000   2000.0000     20.4665    116.9374
   639.5000   2000.0000   2000.0000     20.0812    125.7726
   639.7500   2000.0000   2000.0000     19.5948    132.4188
   640.0000   2000.0000   2000.0000     19.0479    142.7996
   640.2500   2000.0000   2000.0000     18.4693    149.7607
   640.5000   2000.0000   2000.0000     17.8668    159.5951
   640.7500   2000.0000   2000.0000     17.2373    164.9889
   641.0000   2000.0000   2000.0000     16.5880    169.8126
   641.2500   2000.0000   2000.0000     15.9476    170.3577
   641.5000   2000.0000   2000.0000     15.3572    167.8821
   641.7500   2000.0000   2000.0000     14.8498    165.4776
   642.0000   2000.0000   2000.0000     14.4378    163.8231
   642.2500   2000.0000   2000.0000     14.1149    164.9018
   642.5000   2000.0000   2000.0000     13.8675    168.0985
   642.7500   2000.0000   2000.0000     13.6848    169.0431
   643.0000   2000.0000   2000.0000     13.5614    165.8844
   643.2500   2000.0000   2000.0000     13.4947    160.7878
   643.5000   2000.0000   2000.0000     13.4849    150.8419
   643.7500   2000.0000   2000.0000     13.5373    144.0820
   644.0000   2000.0000   2000.0000     13.6662    135.3273
   644.2500   2000.0000   2000.0000     13.8930    130.9294
   644.5000   2000.0000   2000.0000     14.2387    127.1847
   644.7500   2000.0000   2000.0000     14.7128    126.9450
   645.0000   2000.0000   2000.0000     15.3037    129.8740
   645.2500   2000.0000   2000.0000     15.9745    133.1760
   645.5000   2000.0000   2000.0000     16.6688    137.6956
   645.7500   2000.0000   2000.0000     17.3227    139.0800
   646.0000   2000.0000   2000.0000     17.8820    137.6210
   646.2500   2000.0000   2000.0000     18.3174    134.5282
   646.5000   2000.0000   2000.0000     18.6347    128.5327
   646.7500   2000.0000   2000.0000     18.8753    125.1826
   647.0000   2000.0000   2000.0000     19.1038    123.2929
   647.2500   2000.0000   2000.0000     19.3873    124.5035
   647.5000   2000.0000   2000.0000     19.7742    129.1678
   647.7500   2000.0000   2000.0000     20.2782    133.1081
   648.0000   2000.0000   2000.0000     20.8704    137.8694
   648.2500   2000.0000   2000.0000     21.4821    138.8478
   648.5000   2000.0000   2000.0000     22.0198    135.5590
   648.7500   2000.0000   2000.0000     22.3904    130.4231
   649.0000   2000.0000   2000.0000     22.5230    120.5446
   649.2500   2000.0000   2000.0000     22.3766    114.2842
   649.5000   2000.0000   2000.0000     21.9358    107.5743
   649.7500   2000.0000   2000.0000     21.2088    105.1438
   650.0000   2000.0000   2000.0000     20.2348    103.6655
   650.2500   2000.0000   2000.0000     19.0857    103.5303
   650.5000   2000.0000   2000.0000     17.8537    104.4848
   650.7500   2000.0000   2000.0000     16.6282    106.4597
   651.0000   2000.0000   2000.0000     15.4788    112.8689
   651.2500   2000.0000   2000.0000     14.4471    119.9327
   651.5000   2000.0000   2000.0000     13.5482    133.9884
   651.7500   2000.0000   2000.0000     12.7781    144.3340
   652.0000   2000.0000   2000.0000     12.1229    158.5246
   652.2500   2000.0000   2000.0000     11.5670    165.8818
   652.5000   2000.0000   2000.0000     11.0964    173.0139
   652.7500   2000.0000   2000.0000     10.6989    175.3858
   653.0000   2000.0000   2000.0000     10.3631    176.3308
   653.2500   2000.0000   2000.0000     10.0792    175.8487
   653.5000   2000.0000   2000.0000      9.8400    174.0334
   653.7500   2000.0000   2000.0000      9.6410    171.8208
   654.0000   2000.0000   2000.0000      9.4808    165.7901
   654.2500   2000.0000   2000.0000      9.3602    159.4996
   654.5000   2000.0000   2000.0000      9.2824    147.2862
   654.7500   2000.0000   2000.0000      9.2513    138.3918
   655.0000   2000.0000   2000.0000      9.2689    126.1489
   655.2500   2000.0000   2000.0000      9.3338    119.8104
   655.5000   2000.0000   2000.0000      9.4419    114.3095
   655.7500   2000.0000   2000.0000      9.5873    113.6695
   656.0000   2000.0000   2000.0000      9.7635    116.9928
   656.2500   2000.0000   2000.0000      9.9630    121.3150
   656.5000   2000.0000   2000.0000     10.1758    129.0713
   656.7500   2000.0000   2000.0000     10.3869    134.1487
   657.0000   2000.0000   2000.0000     10.5728    140.9480
   657.2500   2000.0000   2000.0000     10.7025    144.9828
   657.5000   2000.0000   2000.0000     10.7482    150.2691
   657.7500   2000.0000   2000.0000     10.7029    152.8928
   658.0000   2000.0000   2000.0000     10.5896    154.5593
   658.2500   2000.0000   2000.0000     10.4509    153.9832
   658.5000   2000.0000   2000.0000     10.3291    151.1855
   658.7500   2000.0000   2000.0000     10.2535    148.6397
   659.0000   2000.0000   2000.0000     10.2395    145.0012
   659.2500   2000.0000   2000.0000     10.2930    143.4440
   659.5000   2000.0000   2000.0000     10.4133    143.1820
   659.7500   2000.0000   2000.0000     10.5950    144.1978
   660.0000   2000.0000   2000.0000     10.8294    146.4699
   660.2500   2000.0000   2000.0000     11.1059    147.9801
   660.5000   2000.0000   2000.0000     11.4129    149.7969
   660.7500   2000.0000   2000.0000     11.7381    150.4637
   661.0000   2000.0000   2000.0000     12.0722    150.1582
   661.2500   2000.0000   2000.0000     12.4157    149.0161
   661.5000   2000.0000   2000.0000     12.7856    146.3679
   661.7500   2000.0000   2000.0000     13.2156    144.3481
   662.0000   2000.0000   2000.0000     13.7464    141.1100
   662.2500   2000.0000   2000.0000     14.4094    138.5632
   662.5000   2000.0000   2000.0000     15.2096    133.5002
   662.7500   2000.0000   2000.0000     16.1142    129.1126
   663.0000   2000.0000   2000.0000     17.0548    121.5028
   663.2500   2000.0000   2000.0000     17.9471    116.4725
   663.5000   2000.0000   2000.0000     18.7248    110.4268
   663.7500   2000.0000   2000.0000     19.3696    107.9695
   664.0000   2000.0000   2000.0000     19.9137    106.7576
   664.2500   2000.0000   2000.0000     20.4117    107.2123
   664.5000   2000.0000   2000.0000     20.9028    108.8989
   664.7500   2000.0000   2000.0000     21.3866    110.3326
   665.0000   2000.0000   2000.0000     21.8248    112.5911
   665.2500   2000.0000   2000.0000     22.1631    113.9651
   665.5000   2000.0000   2000.0000     22.3582    115.5298
   665.7500   2000.0000   2000.0000     22.3934    116.1537
   666.0000   2000.0000   2000.0000     22.2781    116.1804
   666.2500   2000.0000   2000.0000     22.0402    115.3191
   666.5000   2000.0000   2000.0000     21.7199    112.8024
   666.7500   2000.0000   2000.0000     21.3661    110.9988
