~Version Information
VERS.                      2.0: CWLS Log ASCII Standard - VERSION 2.0
WRAP.                       NO: One line per depth step
~Well Information Block
STRT.FT                -6.2500: 
STOP.FT              2316.0000: 
STEP.FT                 0.2500: 
NULL.                -999.2500: 
COMP.          Pioneer Natural Resources: COMPANY
WELL.             Trimax 44-23: WELL
FLD.           Purgatorie River: FIELD
LOC.           527' FSL & 1064' FEL------: LOCATION
PROV.                       CO: PROVINCE
CNTY.               Las Animas: COUNTRY
SRVC.          Patterson Wireline: SERVICE COMPANY
DATE.          Sat Mar 19 11:18:53 2005: LOG DATE
UWI.           05 071 08326 00: UNIQUE WELL ID
~Curve Information Block
DEPT.FT            0 000 00 00: Depth
CCL.                          : Casing Collar Locator
TT3.usec                      : CBL 3' Travel Time
AMP3.mV                       : CBL 3' Amplitude
GR.GAPI                       : Gamma Ray
~Parameter Information Block
~A  Depth       CCL         TT3         AMP3         GR     
# ...
   596.7500      0.0000    619.5170      3.9566     85.2200
   597.0000      0.0000    584.1207      3.9303     91.9242
   597.2500      0.0000    552.1392      3.9137     99.5621
   597.5000      0.0000    530.2944      3.9175    106.8841
   597.7500      0.0000    520.2191      3.9504    111.9518
   598.0000      0.0000    518.6622      4.0088    113.7660
   598.2500      0.0000    520.3860      4.0755    112.9830
   598.5000      0.0000    521.6487      4.1302    111.3042
   598.7500      0.0000    521.9723      4.1613    110.2596
   599.0000      0.0000    523.3467      4.1704    110.1001
   599.2500      0.0000    528.1237      4.1689    109.6856
   599.5000      0.0000    537.6925      4.1689    107.6019
   599.7500      0.0000    552.8215      4.1753    103.3660
   600.0000      0.0000    574.5052      4.1836     97.6545
   600.2500      0.0000    603.6010      4.1869     91.9136
   600.5000      0.0000    638.8961      4.1842     88.0082
   600.7500      0.0000    675.7750      4.1816     87.5964
   601.0000      0.0000    707.9742      4.1880     90.9696
   601.2500      0.0000    731.2587      4.2101     96.3686
   601.5000      0.0000    744.8962      4.2512    100.9055
   601.7500      0.0000    749.9564      4.3131    102.4427
   602.0000      0.0000    747.0340      4.4005    100.7361
   602.2500      0.0000    735.7274      4.5242     97.2270
   602.5000      0.0000    716.7264      4.6926     93.8972
   602.7500      0.0000    695.0793      4.8967     91.7312
   603.0000      0.0000    679.8779      5.1078     89.8711
   603.2500      0.0000    678.1397      5.2961     86.6573
   603.5000      0.0000    689.4043      5.4498     81.6981
   603.7500      0.0000    707.2761      5.5712     76.5526
   604.0000      0.0000    724.4376      5.6622     73.3001
   604.2500      0.0000    735.5533      5.7176     72.8507
   604.5000      0.0000    737.9612      5.7328     74.7249
   604.7500      0.0000    731.1348      5.7180     77.9539
   605.0000      0.0000    715.9212      5.7033     81.5879
   605.2500      0.0000    695.7293      5.7220     84.4803
   605.5000      0.0000    678.5894      5.7800     85.4266
   605.7500      0.0000    674.5712      5.8438     84.1312
   606.0000      0.0000    687.5317      5.8666     81.8381
   606.2500      0.0000    710.4304      5.8277     80.3822
   606.5000      0.0000    731.2725      5.7461     80.3069
   606.7500      0.0000    742.9226      5.6570     80.1931
   607.0000      0.0000    746.0679      5.5796     78.1050
   607.2500      0.0000    744.8383      5.5087     73.5524
   607.5000      0.0000    742.1392      5.4282     67.8807
   607.7500      0.0000    738.7457      5.3283     62.9678
   608.0000      0.0000    734.7185      5.2084     59.8003
   608.2500      0.0000    730.5779      5.0695     58.3374
   608.5000      0.0000    727.7276      4.9096     58.4569
   608.7500      0.0000    728.3663      4.7313     60.4445
   609.0000      0.0000    734.2339      4.5527     64.1318
   609.2500      0.0000    744.1946      4.4031     68.0197
   609.5000      0.0000    753.7689      4.3033     70.1257
   609.7500      0.0000    758.4931      4.2516     69.8339
   610.0000      0.0000    757.5206      4.2300     68.3199
   610.2500      0.0000    753.1664      4.2196     66.9210
   610.5000      0.0000    747.3742      4.2104     65.6642
   610.7500      0.0000    739.2076      4.2009     63.9256
   611.0000      0.0000    725.8517      4.1947     62.1714
   611.2500      0.0000    706.1140      4.1968     62.2362
   611.5000      0.0000    682.5851      4.2103     65.6845
   611.7500      0.0000    659.4951      4.2351     72.2504
   612.0000      0.0000    639.1521      4.2702     79.9570
   612.2500      0.0000    622.3707      4.3129     86.5289
   612.5000      0.0000    611.9409      4.3541     90.8100
   612.7500      0.0000    613.3477      4.3773     93.1077
   613.0000      0.0000    631.0206      4.3646     94.2251
   613.2500      0.0000    663.7162      4.3095     94.2433
   613.5000      0.0000    703.3551      4.2205     92.4915
   613.7500      0.0000    739.1263      4.1154     88.6869
   614.0000      0.0000    763.8114      4.0114     83.7228
   614.2500      0.0000    776.6183      3.9206     79.1669
   614.5000      0.0000    780.8548      3.8471     76.2431
   614.7500      0.0000    780.1085      3.7870     75.2501
   615.0000      0.0000    776.4214      3.7315     75.4330
   615.2500      0.0000    770.5670      3.6755     75.2224
   615.5000      0.0000    763.1119      3.6235     73.0976
   615.7500      0.0000    755.1490      3.5856     68.8302
   616.0000      0.0000    748.1503      3.5686     64.0726
   616.2500      0.0000    743.1694      3.5712     61.4483
   616.5000      0.0000    740.3186      3.5852     62.7220
   616.7500      0.0000    739.0109      3.5998     67.6816
   617.0000      0.0000    738.5992      3.6065     74.6950
   617.2500      0.0000    738.6811      3.6019     82.0100
   617.5000      0.0000    738.6192      3.5886     88.3324
   617.7500      0.0000    736.5027      3.5733     92.7706
   618.0000      0.0000    728.9254      3.5629     95.0747
   618.2500      0.0000    713.4695      3.5602     95.8906
   618.5000      0.0000    692.9930      3.5616     96.1946
   618.7500      0.0000    676.4795      3.5609     96.3903
   619.0000      0.0000    673.0421      3.5583     96.2244
   619.2500      0.0000    684.5407      3.5642     95.4390
   619.5000      0.0000    705.1885      3.5891     94.1610
   619.7500      0.0000    727.3090      3.6252     92.9106
   620.0000      0.0000    745.3417      3.6431     92.4360
   620.2500      0.0000    756.0943      3.6237     93.1988
   620.5000      0.0000    759.5370      3.6038     94.9085
   620.7500      0.0000    760.1421      3.6729     96.9689
   621.0000      0.0000    763.7175      3.9036     99.2787
   621.2500      0.0000    770.6053      4.2878    101.8938
   621.5000      0.0000    773.6992      4.7597    103.9947
   621.7500      0.0000    765.2072      5.2712    104.0955
   622.0000      0.0000    744.9183      5.8111    101.7341
   622.2500      0.0000    720.6990      6.3430     98.5642
   622.5000     -1.0000    701.5331      6.7541     97.0372
   622.7500      0.0000    691.5142      6.8999     97.6341
   623.0000      0.0000    689.6594      6.7172     97.9940
   623.2500      0.0000    692.6200      6.2964     95.4385
   623.5000      0.0000    696.3004      5.8317     89.9827
   623.7500      0.0000    696.5666      5.4796     84.2357
   624.0000      0.0000    690.3165      5.2612     80.6358
   624.2500      0.0000    676.1601      5.1057     79.3618
   624.5000      0.0000    654.2933      4.9648     78.7200
   624.7500      0.0000    627.2266      4.8560     77.1078
   625.0000      0.0000    601.1498      4.8083     74.4170
   625.2500      0.0000    584.7028      4.8031     71.4812
   625.5000      0.0000    584.1181      4.7760     68.6644
   625.7500      0.0000    598.4813      4.6719     65.8233
   626.0000      0.0000    619.5523      4.5014     63.4720
   626.2500      0.0000    636.6851      4.3424     62.8689
   626.5000      0.0000    642.8782      4.2832     64.6754
   626.7500      0.0000    637.2695      4.3635     68.2850
   627.0000      0.0000    623.4735      4.5651     72.7106
   627.2500      0.0000    606.7985      4.8369     77.4590
   627.5000      0.0000    592.2263      5.1171     82.1423
   627.7500      0.0000    583.0673      5.3490     85.6405
   628.0000      0.0000    580.6917      5.5055     86.2424
   628.2500      0.0000    585.5609      5.6016     82.8842
   628.5000      0.0000    597.8911      5.6754     76.2530
   628.7500      0.0000    616.5688      5.7572     68.5215
   629.0000      0.0000    637.9784      5.8634     61.9355
   629.2500      0.0000    657.2855      6.0120     57.7673
   629.5000      0.0000    671.4753      6.2241     56.3640
   629.7500      0.0000    680.7353      6.5030     57.5599
   630.0000      0.0000    686.7554      6.8243     60.7891
