~Version Information
VERS.                      2.0: CWLS Log ASCII Standard - VERSION 2.0
WRAP.                       NO: One line per depth step
~Well Information Block
STRT.FT               546.0000: 
STOP.FT              1771.5000: 
STEP.FT                 0.1000: 
NULL.                -999.2500: 
COMP.          Petrogulf Corporation: COMPANY
WELL.             McLeod 9-42R: WELL
FLD.           Purgatorie River: FIELD
LOC.           1748' FNL & 372' FEL: LOCATION
PROV.                 Colorado: PROVINCE
CNTY.               Las Animas: COUNTRY
SRVC.                Patterson: SERVICE COMPANY
DATE.          Tue Aug 16 11:11:38 2005: LOG DATE
UWI.                071 08092 : UNIQUE WELL ID
~Curve Information Block
DEPT.FT            0 000 00 00: Depth
DCAL.in                       : CDL Caliper
RHOB.g/cc                     : CDL Bulk Density
RHOC.g/cc                     : CDL Density Correction
DPOR.pu                       : CDL Density Porosity
GR.GAPI                       : Gamma Ray
NPOR.pu                       : Neutron Porosity
~Parameter Information Block
~A  Depth       DCAL        RHOB        RHOC        DPOR         GR         NPOR    
# ...
   786.0000      8.0553      2.5499      0.0860      6.0647    126.3979     29.4300
   786.1000      8.0553      2.5584      0.0826      5.5486    125.1481     29.8570
   786.2000      8.0553      2.5570      0.0777      5.6371    123.2317     29.6941
   786.3000      7.9932      2.5546      0.0809      5.7833    116.6590     28.4554
   786.4000      7.9932      2.5590      0.0887      5.5138    107.9071     27.4340
   786.5000      7.9431      2.5737      0.0417      4.6220    101.6792     27.4549
   786.6000      7.9431      2.5967      0.0902      3.2329     97.2714     27.5272
   786.7000      7.9431      2.6124      0.1118      2.2811     93.7629     26.6139
   786.8000      7.9001      2.6096      0.1383      2.4477     92.3553     24.8910
   786.9000      7.9001      2.5976      0.0997      3.1742     92.1340     23.3104
   787.0000      7.9110      2.5950      0.0612      3.3308     88.9666     22.5081
   787.1000      7.9110      2.6035      0.1002      2.8207     82.8782     22.2664
   787.2000      7.9110      2.6025      0.0891      2.8796     78.4979     22.0455
   787.3000      7.8910      2.5771      0.0561      4.4169     78.4529     21.6014
   787.4000      7.8910      2.5341      0.0179      7.0261     82.1285     20.9895
   787.5000      7.9066      2.4933      0.0119      9.4954     87.2055     20.5246
   787.6000      7.9066      2.4695     -0.0175     10.9407     93.3260     20.9008
   787.7000      7.9066      2.4616      0.0377     11.4154     99.5244     22.1375
   787.8000      7.9978      2.4604      0.0075     11.4915    102.9322     23.3213
   787.9000      7.9978      2.4588      0.0465     11.5882    105.2636     24.3175
   788.0000      8.0148      2.4542      0.0731     11.8682    108.6040     25.3936
   788.1000      8.0148      2.4514      0.0574     12.0336    110.4846     26.3744
   788.2000      8.0148      2.4561      0.1115     11.7521    110.0895     27.2226
   788.3000      8.0537      2.4621      0.1239     11.3892    109.3576     27.8668
   788.4000      8.0537      2.4701      0.0711     10.9034    107.6775     28.2443
   788.5000      8.0148      2.4931      0.0957      9.5120    103.4886     28.2654
   788.6000      8.0148      2.5315      0.1152      7.1794     96.7042     27.7856
   788.7000      8.0148      2.5747      0.0673      4.5619     89.0896     26.7674
   788.8000      7.9773      2.6070      0.1257      2.6062     82.9750     25.4691
   788.9000      7.9773      2.6122      0.1172      2.2911     78.5884     24.1751
   789.0000      7.9665      2.6000      0.0765      3.0273     74.1492     22.6194
   789.1000      7.9665      2.5976      0.0571      3.1737     67.9283     20.9498
   789.2000      7.9665      2.6112      0.0703      2.3513     60.6676     19.7653
   789.3000      7.9501      2.6225      0.0815      1.6654     55.8713     18.7796
   789.4000      7.9501      2.6187      0.0706      1.8945     55.2551     17.6069
   789.5000      7.9742      2.6100      0.0436      2.4272     57.3162     16.3286
   789.6000      7.9742      2.6127      0.0297      2.2598     60.3024     15.2479
   789.7000      7.9742      2.6249      0.0469      1.5192     63.3481     14.7506
   789.8000      7.9581      2.6313      0.0472      1.1327     64.7137     14.8188
   789.9000      7.9581      2.6287      0.0286      1.2930     64.4489     15.1249
   790.0000      7.9224      2.6251      0.0380      1.5103     65.6726     15.4706
   790.1000      7.9224      2.6252      0.0416      1.5054     68.0321     15.9558
   790.2000      7.9224      2.6307      0.0367      1.1697     68.4029     16.6488
   790.3000      7.9065      2.6417      0.0306      0.5007     68.2873     17.2207
   790.4000      7.9065      2.6533      0.0615     -0.1981     70.9559     17.4142
   790.5000      7.9348      2.6555      0.0760     -0.3310     75.8350     17.3707
   790.6000      7.9348      2.6461      0.0491      0.2362     80.8258     17.1070
   790.7000      7.9348      2.6357      0.0540      0.8653     85.5773     16.7781
   790.8000      7.9413      2.6311      0.0331      1.1466     90.0849     16.9842
   790.9000      7.9413      2.6291      0.0207      1.2641     93.7623     17.9561
   791.0000      7.9353      2.6262      0.0508      1.4425     97.4324     19.1347
   791.1000      7.9353      2.6256      0.0343      1.4814    101.1516     20.0163
   791.2000      7.9353      2.6293      0.1214      1.2558    103.2574     21.0379
   791.3000      7.8985      2.6275      0.1069      1.3617    104.3916     22.5803
   791.4000      7.8985      2.6242      0.0340      1.5632    105.7853     24.0656
   791.5000      7.9043      2.6377      0.0834      0.7440    106.3952     25.0174
   791.6000      7.9043      2.6654      0.0953     -0.9329    105.9480     25.7139
   791.7000      7.9043      2.6867      0.0974     -2.2227    106.1806     26.5644
   791.8000      7.9102      2.6896      0.0873     -2.3975    107.9494     27.3888
   791.9000      7.9102      2.6775      0.0750     -1.6677    110.7451     27.9067
   792.0000      7.9165      2.6591      0.0391     -0.5540    111.6987     28.2048
   792.1000      7.9165      2.6390      0.0585      0.6692    108.1795     28.2034
   792.2000      7.9165      2.6199      0.0289      1.8255    104.2069     27.8548
   792.3000      7.9328      2.6135      0.0008      2.2127    105.2136     27.5347
   792.4000      7.9328      2.6242      0.0433      1.5623    109.2056     27.7249
   792.5000      7.9551      2.6338      0.0580      0.9810    109.9400     28.2404
   792.6000      7.9551      2.6317      0.0380      1.1090    107.4505     28.3685
   792.7000      7.9551      2.6306      0.0796      1.1746    107.5524     27.9069
   792.8000      7.9640      2.6450      0.0680      0.3026    111.0857     27.3872
   792.9000      7.9640      2.6792      0.0802     -1.7702    113.6762     27.3897
   793.0000      7.9598      2.7159      0.1238     -3.9944    111.8699     27.8381
   793.1000      7.9598      2.7254      0.1033     -4.5674    106.3196     28.1740
   793.2000      7.9598      2.7041      0.0641     -3.2797    101.7169     27.8182
   793.3000      7.9382      2.6748      0.0322     -1.5053    101.5572     27.0947
   793.4000      7.9382      2.6583      0.0105     -0.5036    105.5872     27.1013
   793.5000      7.9147      2.6540      0.0195     -0.2429    110.1251     27.7225
   793.6000      7.9147      2.6406      0.0248      0.5701    111.0408     27.9545
   793.7000      7.9147      2.6076      0.0075      2.5705    109.0927     27.6281
   793.8000      7.9126      2.5739     -0.0536      4.6138    107.6164     27.2353
   793.9000      7.9126      2.5636     -0.0110      5.2343    107.9213     26.7984
   794.0000      7.9161      2.5750      0.0499      4.5472    108.8908     26.0203
   794.1000      7.9161      2.5892      0.0765      3.6826    107.8588     24.9856
   794.2000      7.9161      2.6033      0.0918      2.8299    103.9956     24.3446
   794.3000      7.9024      2.6276      0.0972      1.3562     99.9355     24.3354
   794.4000      7.9024      2.6651      0.1177     -0.9179     98.6613     24.6424
   794.5000      7.8929      2.7046      0.1217     -3.3094     99.9761     24.9782
   794.6000      7.8929      2.7326      0.1161     -5.0084    101.2290     24.9382
   794.7000      7.8929      2.7490      0.1152     -5.9990    101.5852     24.6612
   794.8000      7.8988      2.7590      0.1284     -6.6030    102.3057     24.7225
   794.9000      7.8988      2.7607      0.1284     -6.7062    103.3378     25.0476
   795.0000      7.8765      2.7501      0.1014     -6.0697    102.4906     25.1814
   795.1000      7.8765      2.7330      0.0425     -5.0297     99.6329     25.2102
   795.2000      7.8765      2.7194      0.0225     -4.2077     96.8594     25.5245
   795.3000      7.8884      2.7104      0.0001     -3.6591     96.1015     25.9225
   795.4000      7.8884      2.6998      0.0609     -3.0204     96.7134     25.8740
   795.5000      7.9329      2.6838      0.0989     -2.0483     96.7957     25.4159
