~Version Information
VERS.                                  2.0 : CWLS LAS VERSION
WRAP.                                   NO : WRAPING MODE
SWARE .                 MController 2.5.0E : SOFTWARE VERSION
~Well Information
WELL.                         Warrior 32-1 : WELL
COMP.             Evergreen Operating Corp : COMPANY
FLD.                      Purgatorie River : FIELD
LOC.                SW/NE Sec 11 T33S R67W : LOCATION
DATE.                    10/02/04-10/03/04 : DATE(S) LOGGED
SRVC.       Blanco Geological Services LLC : SERVICE COMPANY
STAT.                                   CO : STATE
CNTY.                           Las Animas : COUNTY
CTRY.                                  USA : COUNTRY
API.                       05-071-08176-00 : API NUMBER
STRT.FT                             386.00 : START DEPTH
STOP.FT                            2265.00 : STOP DEPTH
STEP.FT                               1.00 : DEPTH INCREMENT
NULL.                                -9999 : NULL VALUE
~Curve information
DEPTH.FT                                   :
ROP.MIN/FT                                 :
GAS.UNITS                                  :
~ASCII Log data
# ...
      592.00        0.167         14.6
      593.00        0.133         14.1
      594.00        0.133         14.1
      595.00        0.133         14.5
      596.00        2.917        130.9
      597.00        0.133         67.9
      598.00        0.233         48.9
      599.00        0.267         46.1
      600.00        0.133         38.1
      601.00        0.133         35.6
      602.00        0.233         33.5
      603.00        0.200         31.6
      604.00        0.167         31.2
      605.00        0.133         30.1
      606.00        0.167         25.8
      607.00        0.167         26.3
      608.00        0.200         26.8
      609.00        0.233         26.2
      610.00        0.233         25.3
      611.00        0.217         26.8
      612.00        0.133         26.8
      613.00        0.233         27.0
      614.00        0.167         26.8
      615.00        0.233         27.0
      616.00        0.167         27.9
      617.00        0.200         28.4
      618.00        0.233         28.6
      619.00        0.233         25.5
      620.00        0.233         23.8
      621.00        0.233         28.1
      622.00        0.233         24.3
      623.00        0.267         22.2
      624.00        0.433         21.5
      625.00        0.350         16.1
      626.00        2.600         92.1
      627.00        0.200         55.6
      628.00        0.167         49.6
      629.00        0.200         38.5
      630.00        0.250         37.9
      631.00        0.233         34.5
      632.00        0.167         32.0
      633.00        0.167         30.2
      634.00        0.233         29.0
      635.00        0.233         27.1
      636.00        0.200         26.2
      637.00        0.200         24.8
      638.00        0.233         24.5
      639.00        0.233         23.8
      640.00        0.233         24.0
      641.00        0.267         23.1
      642.00        0.300         24.0
      643.00        0.267         23.0
      644.00        0.283         22.2
      645.00        0.267         21.3
      646.00        0.267         21.0
      647.00        0.267         21.5
      648.00        0.267         21.3
      649.00        0.267         20.5
      650.00        0.267         22.1
      651.00        0.267         20.3
      652.00        0.300         17.8
      653.00        0.267         16.2
      654.00        0.267         15.8
      655.00        0.267         14.7
      656.00        2.983         94.7
      657.00        0.200         61.9
      658.00        0.167         61.5
      659.00        0.133         54.0
      660.00        0.150         47.6
      661.00        0.167         42.9
      662.00        0.167         38.1
      663.00        0.167         37.0
      664.00        0.133         32.7
      665.00        0.167         31.6
      666.00        0.133         30.5
      667.00        0.100         29.2
      668.00        0.100         29.6
      669.00        0.100         29.6
      670.00        0.067         27.9
      671.00        0.133         28.4
      672.00        0.133         26.9
      673.00        0.100         26.9
      674.00        0.100         26.9
      675.00        0.100         32.0
      676.00        0.167         32.0
      677.00        0.167         33.1
      678.00        0.133         29.2
      679.00        0.133         24.2
      680.00        0.167         20.3
      681.00        0.167         20.3
      682.00        0.133         17.8
      683.00        0.133         17.8
      684.00        0.133         16.0
      685.00        0.283         15.2
      686.00        2.700        110.2
      687.00        0.233         83.4
      688.00        0.167         76.0
      689.00        0.217         62.4
      690.00        0.167         51.9
      691.00        0.167         46.4
      692.00        0.200         43.0
      693.00        0.167         37.3
      694.00        0.167         36.7
      695.00        0.200         33.3
      696.00        0.133         29.7
      697.00        0.133         29.6
      698.00        0.167         27.8
      699.00        0.133         25.9
      700.00        0.133         25.2
      701.00        0.133         23.9
      702.00        0.167         24.9
      703.00        0.133         23.1
      704.00        0.133         23.1
      705.00        0.133         22.4
      706.00        0.133         20.0
      707.00        0.167         22.9
      708.00        0.133         20.0
      709.00        0.133         20.0
      710.00        0.133         20.2
      711.00        0.150         17.6
      712.00        0.100         17.6
      713.00        0.133         16.2
      714.00        0.100         16.2
      715.00        0.167         17.1
      716.00        0.300          5.4
      717.00        0.167          6.0
      718.00        0.233          5.7
      719.00        0.167          6.3
      720.00        0.133          5.2
      721.00        0.133          5.6
      722.00        0.167          6.3
      723.00        4.417          5.8
      724.00        0.250          7.0
      725.00        0.200          8.1
      726.00        0.167          9.1
      727.00        0.300         11.3
      728.00        0.267         14.0
      729.00        0.267         12.4
      730.00        0.200          9.8
      731.00        0.167          8.3
      732.00        0.200          7.4
      733.00        0.200          7.2
      734.00        0.233          6.7
      735.00        0.233          6.1
      736.00        0.133          6.4
      737.00        0.200          6.5
      738.00        0.300          7.6
      739.00        0.317         11.8
      740.00        0.267         16.1
      741.00        0.167         18.9
      742.00        0.167         24.8
      743.00        0.167         32.7
      744.00        0.233         38.3
      745.00        0.267         36.7
      746.00        0.267         31.2
      747.00        0.233         28.5
      748.00        0.267         28.6
      749.00        0.267         27.2
      750.00        0.233         26.0
      751.00        0.200         25.0
      752.00        0.233         23.6
      753.00        3.283         18.0
      754.00        0.167         22.3
      755.00        0.283         29.7
      756.00        0.233         36.7
      757.00        0.200         42.5
      758.00        0.200         53.2
      759.00        0.200         67.8
      760.00        0.233         67.3
      761.00        0.200         53.8
      762.00        0.200         41.4
      763.00        0.133         35.4
      764.00        0.167         29.4
      765.00        0.167         26.2
      766.00        0.167         24.1
      767.00        0.333         20.2
      768.00        0.333         18.6
      769.00        0.300         17.2
      770.00        0.350         16.5
      771.00        0.167         16.3
      772.00        0.133         16.4
      773.00        0.133         15.9
      774.00        0.200         15.8
      775.00        0.267         15.0
      776.00        0.133         15.8
      777.00        0.133         15.1
      778.00        0.133         15.3
      779.00        0.100         14.7
      780.00        0.100         14.1
      781.00        0.100         14.1
      782.00        0.100         14.3
      783.00        4.867         29.4
      784.00        0.300         31.4
      785.00        0.200         32.5
      786.00        0.200         33.6
      787.00        0.200         36.1
      788.00        0.167         41.5
      789.00        0.167         51.3
      790.00        0.300         67.0
      791.00        0.200         68.5
      792.00        0.233         53.1
      793.00        0.233         36.6
      794.00        0.167         28.3
      795.00        0.167         22.2
      796.00        0.200         19.0
      797.00        0.133         16.7
