~Version Information
VERS.                      2.0: CWLS Log ASCII Standard - VERSION 2.0
WRAP.                       NO: One line per depth step
~Well Information Block
STRT.FT                -7.5000: 
STOP.FT               872.5000: 
STEP.FT                 0.5000: 
NULL.                -999.2500: 
COMP.          Pioneer Natural Resources: COMPANY
WELL.          New Mexico 21-5: WELL
FLD.           Purgatorie River: FIELD
LOC.           175' FNL & 1700' FWL: LOCATION
PROV.                 Colorado: PROVINCE
CNTY.               Las Animas: COUNTRY
SRVC.          Patterson Wireline: SERVICE COMPANY
DATE.          Fri Dec 17 09:32:01 2004: LOG DATE
UWI.           05-071-08234-00: UNIQUE WELL ID
~Curve Information Block
DEPT.FT            0 000 00 00: Depth
CCL.                          : Casing Collar Locator
TT3.usec                      : CBL 3' Travel Time
AMP3.mV                       : CBL 3' Amplitude
GR.GAPI                       : Gamma Ray
~Parameter Information Block
~A  Depth       CCL         TT3         AMP3         GR     
# ...
   193.5000      0.0000    835.3920      7.0634     85.7750
   194.0000      0.0000    842.8054      7.0365     89.0905
   194.5000      0.0000    844.9145      7.0202     89.4805
   195.0000      0.0000    845.2358      7.1027     91.5266
   195.5000      0.0000    845.1401      7.1230     94.8274
   196.0000      0.0000    844.9627      6.9182     88.6366
   196.5000      0.0000    844.6432      6.6185     75.0426
   197.0000      0.0000    844.4609      6.4393     66.3037
   197.5000      0.0000    844.3226      6.3547     70.0889
   198.0000      0.0000    843.7907      6.1844     80.7667
   198.5000      0.0000    842.5072      6.0361     86.8179
   199.0000      0.0000    836.1246      6.0489     84.9692
   199.5000      0.0000    815.7944      6.1683     84.6373
   200.0000      0.0000    790.3887      6.3017     89.6721
   200.5000      0.0000    778.9991      6.3216     95.6319
   201.0000      0.0000    773.4555      6.1716     98.9357
   201.5000      0.0000    775.5607      6.0389     99.4654
   202.0000      0.0000    784.7886      6.0450    101.9095
   202.5000      0.0000    789.1992      5.9825    105.0682
   203.0000      0.0000    793.6100      5.7107    102.1309
   203.5000      0.0000    797.4808      5.4181     95.9925
   204.0000      0.0000    798.2114      5.2302     95.9912
   204.5000      0.0000    796.5158      5.1457     95.4698
   205.0000      0.0000    791.8381      5.2381     91.9199
   205.5000      0.0000    787.9661      5.4160     91.2692
   206.0000      0.0000    789.1834      5.4875     91.2091
   206.5000      0.0000    788.8155      5.5235     88.3158
   207.0000      0.0000    787.9515      5.5508     90.2741
   207.5000      0.0000    787.0986      5.4048     96.6527
   208.0000      0.0000    790.9980      5.2026    102.8386
   208.5000      0.0000    800.5866      5.1731    106.6789
   209.0000      0.0000    799.4897      5.2047    102.1482
   209.5000      0.0000    790.7608      5.0481     91.9865
   210.0000      0.0000    792.2525      4.6508     87.2499
   210.5000      0.0000    805.0832      4.1180     90.7511
   211.0000      0.0000    821.3669      3.6176     95.5526
   211.5000      0.0000    807.2825      3.3311     95.9899
   212.0000      0.0000    733.4579      3.1883     90.3132
   212.5000      0.0000    657.3071      3.0590     87.1592
   213.0000      0.0000    659.5306      2.9798     85.9812
   213.5000      0.0000    691.4256      2.9859     82.2654
   214.0000      0.0000    684.2705      3.1219     82.8714
   214.5000      0.0000    664.4724      3.4617     86.5827
   215.0000      0.0000    668.1821      3.9832     90.1890
   215.5000      0.0000    698.8064      4.5574     93.1427
   216.0000      0.0000    751.5485      5.1513     93.0229
   216.5000      0.0000    807.1443      5.7333     87.3308
   217.0000      5.0000    856.3187      6.1601     80.3988
   217.5000      0.0000    892.7744      6.2994     77.5500
   218.0000      0.0000    893.2061      6.1419     80.3008
   218.5000      0.0000    840.6922      6.0079     85.2497
   219.0000      0.0000    786.2361      6.0462     81.3277
   219.5000      0.0000    779.0864      6.0832     72.1668
   220.0000      0.0000    794.9819      6.0846     69.0487
   220.5000      0.0000    778.9603      5.9808     67.7601
   221.0000      0.0000    727.0432      5.7052     65.9757
   221.5000      0.0000    699.2496      5.4591     73.7889
   222.0000      0.0000    698.6835      5.3702     85.7379
   222.5000      0.0000    683.5901      5.1833     93.1027
   223.0000      0.0000    664.3580      4.9438     94.6686
   223.5000      0.0000    668.4149      4.8322     91.8891
   224.0000      0.0000    687.9387      4.8352     91.8283
   224.5000      0.0000    687.2755      4.9342     96.4470
   225.0000      0.0000    675.3526      5.1101     98.1230
   225.5000      0.0000    670.3856      5.1687     93.9495
   226.0000      0.0000    668.6299      5.0743     88.8465
   226.5000      0.0000    667.6766      5.0889     87.4964
   227.0000      0.0000    667.3920      5.2580     85.7884
   227.5000      0.0000    667.6525      5.4137     81.5809
   228.0000      0.0000    674.2181      5.3535     78.7372
   228.5000      0.0000    699.8536      5.1015     74.4429
   229.0000      0.0000    736.8654      5.0368     70.8011
   229.5000      0.0000    757.7407      5.1844     68.6581
   230.0000      0.0000    767.2036      5.3769     62.4763
   230.5000      0.0000    784.5091      5.6731     57.0894
   231.0000      0.0000    809.8666      6.0096     53.2485
   231.5000      0.0000    817.2553      6.0974     48.8460
   232.0000      0.0000    806.9979      5.9669     46.8503
   232.5000      0.0000    800.4528      5.8156     50.3215
   233.0000      0.0000    799.3032      5.6390     56.0776
   233.5000      0.0000    796.8826      5.5207     60.1774
   234.0000      0.0000    792.1863      5.5102     58.5649
   234.5000      0.0000    792.4727      5.4607     50.4093
   235.0000      0.0000    797.7813      5.4161     45.6636
   235.5000      0.0000    803.9385      5.4741     41.8673
   236.0000      0.0000    811.6555      5.6196     39.1620
   236.5000      0.0000    811.0527      5.7623     43.0121
   237.0000      0.0000    807.4807      5.8110     51.2214
   237.5000      0.0000    813.6448      5.8092     63.1569
   238.0000      0.0000    814.5627      5.9214     71.2543
   238.5000      0.0000    809.6022      6.2564     69.1893
   239.0000      0.0000    813.3297      6.5443     63.4341
   239.5000      0.0000    812.3116      6.5651     60.6438
   240.0000      0.0000    796.3592      6.4528     64.3008
   240.5000      0.0000    784.3605      6.2730     70.3796
   241.0000      0.0000    777.2742      6.0613     74.9015
   241.5000      0.0000    769.3015      5.9642     77.9226
   242.0000      0.0000    762.3212      5.9878     84.1159
   242.5000      0.0000    755.4562      5.9018     93.6458
   243.0000      0.0000    752.9632      5.6143     98.5066
   243.5000      0.0000    762.9955      5.4209     96.7116
   244.0000      0.0000    786.6381      5.3770     93.0870
   244.5000      0.0000    806.3737      5.2374     89.2773
   245.0000      0.0000    808.1739      5.1403     82.3490
   245.5000      0.0000    807.9639      5.1995     78.1508
   246.0000      0.0000    803.2010      5.1524     82.0236
   246.5000      0.0000    798.8729      4.9326     90.2745
   247.0000      0.0000    793.0029      4.8010     95.1243
   247.5000      0.0000    783.9125      4.8348     92.9455
   248.0000      0.0000    786.3352      4.8224     84.1875
   248.5000      0.0000    799.9025      4.7518     75.6494
   249.0000      0.0000    822.6478      4.7644     76.6718
   249.5000      0.0000    823.3521      4.7159     84.4654
   250.0000      0.0000    791.7171      4.6251     94.0878
   250.5000      0.0000    764.1068      4.7483    102.3309
   251.0000      0.0000    762.2578      5.0255    104.4462
   251.5000      0.0000    777.9318      5.2548     98.1816
   252.0000      0.0000    795.2701      5.4764     94.4136
   252.5000      0.0000    812.3951      5.7990     98.2390
   253.0000      0.0000    829.4047      6.2040    100.4677
   253.5000      0.0000    835.6867      6.6250     98.8906
   254.0000      0.0000    828.3526      6.8356     92.4698
   254.5000      0.0000    815.9429      6.8565     81.2290
   255.0000      0.0000    811.5707      6.8764     74.6942
   255.5000      0.0000    820.2178      6.9223     80.5626
   256.0000      0.0000    833.8336      6.9694     94.4494
   256.5000      0.0000    840.8898      7.0909    105.9671
   257.0000      0.0000    841.9286      7.3402    114.8660
   257.5000      0.0000    838.8524      7.4376    119.4221
   258.0000      0.0000    832.5546      7.1090    116.7184
   258.5000      0.0000    825.4390      6.7916    109.5942
   259.0000      0.0000    821.2712      6.5048    107.0376
   259.5000      0.0000    813.4060      6.0925    105.3001
   260.0000      0.0000    799.9521      5.9316    100.6166
