~Version Information
VERS.                      2.0: CWLS Log ASCII Standard - VERSION 2.0
WRAP.                       NO: One line per depth step
~Well Information Block
STRT.FT                -2.0000: 
STOP.FT              1016.0000: 
STEP.FT                 0.2500: 
NULL.                -999.2500: 
COMP.          Evergreen Operating Corp.: COMPANY
WELL.              Sunset 24-3: WELL
FLD.           Purgatorie River: FIELD
LOC.           467' FSL & 2262' FWL--: LOCATION
PROV.                       CO: PROVINCE
CNTY.               Las Animas: COUNTRY
SRVC.                         : SERVICE COMPANY
DATE.          Mon Sep 27 13:40:22 2004: LOG DATE
UWI.           005 071 08158  : UNIQUE WELL ID
~Curve Information Block
DEPT.FT            0 000 00 00: Depth
GR.GAPI                       : Gamma Ray
CCL.                          : Casing Collar Locator
TT3.usec                      : CBL 3' Travel Time
AMP3.mV                       : CBL 3' Amplitude
~Parameter Information Block
~A  Depth        GR         CCL         TT3         AMP3    
# ...
   768.5000     98.4288      0.0000    755.4142      3.7171
   768.7500    104.3672      0.0000    755.1563      3.6366
   769.0000    106.4199      0.0000    754.6869      3.5903
   769.2500    103.4856      0.0000    753.6405      3.5817
   769.5000     97.1691      0.0000    751.4402      3.5752
   769.7500     90.6397      0.0000    747.7923      3.5193
   770.0000     86.5419      0.0000    743.4630      3.3955
   770.2500     85.8786      0.0000    740.3593      3.2405
   770.5000     87.9308      0.0000    740.2232      3.1121
   770.7500     90.5002      0.0000    743.0507      3.0422
   771.0000     90.8880      0.0000    747.1254      3.0325
   771.2500     87.7239      0.0000    750.6511      3.0777
   771.5000     82.0416      0.0000    753.0599      3.1696
   771.7500     76.3650      0.0000    754.9163      3.2857
   772.0000     72.9570      0.0000    757.0355      3.3919
   772.2500     73.0125      0.0000    759.6601      3.4597
   772.5000     76.6470      0.0000    762.0831      3.4765
   772.7500     82.6441      0.0000    763.0488      3.4461
   773.0000     88.4148      0.0000    761.7823      3.3861
   773.2500     91.2666      0.0000    758.4924      3.3229
   773.5000     90.3451      0.0000    753.6930      3.2820
   773.7500     87.2239      0.0000    747.4631      3.2769
   774.0000     84.5094      0.0000    739.8444      3.3018
   774.2500     84.0170      0.0000    731.6930      3.3328
   774.5000     86.0383      0.0000    724.5543      3.3387
   774.7500     89.6227      0.0000    719.6341      3.3004
   775.0000     93.2077      0.0000    717.2045      3.2282
   775.2500     95.2961      0.0000    717.0504      3.1600
   775.5000     95.1154      0.0000    719.1827      3.1465
   775.7500     92.9781      0.0000    723.8488      3.2366
   776.0000     89.9912      0.0000    730.7769      3.4588
   776.2500     87.2145      0.0000    738.6129      3.7992
   776.5000     84.9847      0.0000    745.4364      4.1955
   776.7500     82.8953      0.0000    749.9758      4.5641
   777.0000     80.1887      0.0000    752.2512      4.8352
   777.2500     76.2829      0.0000    753.0878      4.9701
   777.5000     71.3325      0.0000    753.1741      4.9622
   777.7500     66.3911      0.0000    752.5103      4.8369
   778.0000     62.8689      0.0000    750.5397      4.6487
   778.2500     61.8708      0.0000    746.8888      4.4667
   778.5000     63.9821      0.0000    742.1550      4.3492
   778.7500     69.2576      0.0000    737.7457      4.3243
   779.0000     77.0659      0.0000    734.1832      4.3849
   779.2500     85.9008      0.0000    729.5149      4.4986
   779.5000     93.5626      0.0000    720.2887      4.6238
   779.7500     98.0405      0.0000    704.5715      4.7225
   780.0000     98.7010      0.0000    683.4440      4.7708
   780.2500     96.5037      0.0000    659.6239      4.7683
   780.5000     92.9399      0.0000    635.7898      4.7349
   780.7500     89.1594      0.0000    614.1758      4.6934
   781.0000     86.2214      0.0000    596.3204      4.6525
   781.2500     85.2563      0.0000    582.7327      4.6119
   781.5000     86.5562      0.0000    573.1628      4.5784
   781.7500     88.8877      0.0000    566.8765      4.5680
   782.0000     90.4117      0.0000    562.6068      4.5895
   782.2500     90.2329      0.0000    559.0457      4.6325
   782.5000     88.6902      0.0000    555.6481      4.6759
   782.7500     86.3541      0.0000    552.5973      4.7011
   783.0000     83.2696      0.0000    550.0358      4.6989
   783.2500     79.3631      0.0000    547.7115      4.6706
   783.5000     75.4490      0.0000    545.0796      4.6280
   783.7500     73.3688      0.0000    541.2360      4.5892
   784.0000     74.5889      0.0000    534.4507      4.5701
   784.2500     78.7364      0.0000    521.9719      4.5769
   784.5000     83.9526      0.0000    501.2342      4.6035
   784.7500     88.5100      0.0000    472.4929      4.6382
   785.0000     91.5920      0.0000    440.4446      4.6723
   785.2500     92.9047      0.0000    412.1974      4.7026
   785.5000     92.4643      0.0000    393.1199      4.7295
   785.7500     90.7177      0.0000    384.9253      4.7584
   786.0000     88.2104      0.0000    387.2970      4.7981
   786.2500     85.0516      0.0000    400.0609      4.8553
   786.5000     81.0719      0.0000    423.1401      4.9297
   786.7500     76.5719      0.0000    454.9229      5.0183
   787.0000     72.6036      0.0000    491.5487      5.1207
   787.2500     70.1350      0.0000    528.1765      5.2330
   787.5000     68.9483      0.0000    560.4545      5.3388
   787.7500     67.7926      0.0000    584.7139      5.4142
   788.0000     65.7762      0.0000    598.3237      5.4427
   788.2500     63.1598      0.0000    601.0022      5.4229
   788.5000     60.5983      0.0000    595.0514      5.3631
   788.7500     58.2062      0.0000    584.3069      5.2780
   789.0000     55.8581      0.0000    574.3732      5.1934
   789.2500     54.0398      0.0000    572.4495      5.1437
   789.5000     53.7270      0.0000    582.2582      5.1518
   789.7500     55.2859      0.0000    597.4800      5.2094
   790.0000     57.8483      0.0000    603.2747      5.2822
   790.2500     59.9701      0.0000    586.9192      5.3369
   790.5000     60.7399      0.0000    547.6651      5.3639
   790.7500     60.1824      0.0000    497.5490      5.3775
   791.0000     58.9998      0.0000    454.1069      5.3966
   791.2500     58.3177      0.0000    432.1915      5.4266
   791.5000     59.3687      0.0000    440.2043      5.4545
   791.7500     62.7979      0.0000    479.2684      5.4630
   792.0000     68.0281      0.0000    541.6116      5.4478
   792.2500     73.4495      0.0000    610.1152      5.4233
   792.5000     77.4238      0.0000    664.3090      5.4087
   792.7500     79.4442      0.0000    690.9548      5.4086
   793.0000     80.5299      0.0000    690.4484      5.4093
   793.2500     82.1699      0.0000    674.2072      5.3921
   793.5000     84.6201      0.0000    656.8272      5.3494
   793.7500     86.5015      0.0000    649.1949      5.2878
   794.0000     86.2436      0.0000    655.3438      5.2168
   794.2500     83.6762      0.0000    672.0648      5.1413
   794.5000     80.1481      0.0000    690.4969      5.0649
   794.7500     77.2559      0.0000    700.6617      5.0003
   795.0000     75.4908      0.0000    697.6219      4.9663
   795.2500     74.0631      0.0000    684.3199      4.9707
   795.5000     71.9650      0.0000    668.2220      4.9974
   795.7500     69.0152      0.0000    655.4111      5.0174
   796.0000     65.8063      0.0000    647.7073      5.0116
   796.2500     62.9078      0.0000    643.8944      4.9836
   796.5000     60.3819      0.0000    642.1398      4.9474
   796.7500     58.1452      0.0000    641.2421      4.9078
   797.0000     56.6115      0.0000    640.7013      4.8548
   797.2500     56.5494      0.0000    640.5042      4.7772
   797.5000     58.1150      0.0000    641.1120      4.6759
   797.7500     60.3786      0.0000    643.6241      4.5612
   798.0000     62.1784      0.0000    649.6970      4.4356
   798.2500     63.1838      0.0000    660.5972      4.2857
   798.5000     63.7932      0.0000    675.8605      4.1059
   798.7500     64.2452      0.0000    693.5297      3.9260
   799.0000     64.1686      0.0000    712.4814      3.8005
   799.2500     62.9136      0.0000    733.2342      3.7658
   799.5000     60.2381      0.0000    754.4184      3.8229
   799.7500     56.7090      0.0000    769.8490      3.9465
   800.0000     53.3496      0.0000    773.1014      4.0878
   800.2500     50.9229      0.0000    765.8942      4.1822
   800.5000     49.7145     -2.0000    758.9924      4.1832
   800.7500     49.9349      0.0000    763.4732      4.0890
   801.0000     51.9558      0.0000    782.1407      3.9392
   801.2500     55.9853      0.0000    808.0914      3.7975
   801.5000     61.8262      0.0000    828.8729      3.7199
   801.7500     69.0770      0.0000    833.1161      3.7089
