~Version Information
 VERS.                                  2.0 : CWLS LAS VERSION
 WRAP.                                   NO : WRAPING MODE
 SWARE .                 MController 2.5.0J : SOFTWARE VERSION
~Well Information
 WELL.                       Costello 44-24 : WELL
 COMP.    Pioneer Natural Resources USA Inc : COMPANY
 FLD.                      Purgatoire River : FIELD
 LOC.                SE/SE Sec 24 T32S R67W : LOCATION
 DATE.                            7/10/2005 : DATE(S) LOGGED
 SRVC.       BLANCO Geological Services LLC : SERVICE COMPANY
 STAT.                                   CO : STATE
 CNTY.                           Las Animas : COUNTY
 CTRY.                                  USA : COUNTRY
 API.                       05-071-08413-00 : API NUMBER
 STRT.FT                             305.00 : START DEPTH
 STOP.FT                            2545.00 : STOP DEPTH
 STEP.FT                               1.00 : DEPTH INCREMENT
 NULL.                                 999 : NULL VALUE
~Curve information
 DEPTH.FT                                   :
 ROP.MIN/FT                                 :
 GAS.UNITS                                  :
~ASCII Log data
# ...
       905.0         0.13         86.5 
       906.0         0.23         89.9 
       907.0         0.27         92.1 
       908.0         0.30         96.5 
       909.0         0.23        114.8 
       910.0         0.27        120.1 
       911.0         0.17        123.4 
       912.0         0.22        120.8 
       913.0         0.10        120.8 
       914.0         0.07        116.2 
       915.0         0.23        111.0 
       916.0         0.23        106.9 
       917.0         0.23        103.8 
       918.0         0.20        103.1 
       919.0         0.20         99.1 
       920.0         0.20         96.5 
       921.0         0.20         94.1 
       922.0         0.13         92.7 
       923.0         0.20         92.2 
       924.0         0.20         88.5 
       925.0         0.20         85.7 
       926.0         2.85        263.1 
       927.0         0.23        283.6 
       928.0         0.27        260.8 
       929.0         0.23        253.8 
       930.0         0.33        224.4 
       931.0         0.32        199.2 
       932.0         0.17        159.8 
       933.0         0.20        138.8 
       934.0         0.23        129.3 
       935.0         0.27        116.3 
       936.0         0.23        115.0 
       937.0         0.30        104.3 
       938.0         0.20         96.2 
       939.0         0.20         93.6 
       940.0         0.20         92.5 
       941.0         0.17         85.9 
       942.0         0.20         84.1 
       943.0         0.17         80.9 
       944.0         0.20         80.1 
       945.0         0.17         79.7 
       946.0         0.27         78.8 
       947.0         0.18         78.0 
       948.0         0.17         77.7 
       949.0         0.20         77.3 
       950.0         0.23         76.8 
       951.0         0.20         75.9 
       952.0         0.23         75.7 
       953.0         0.20         75.3 
       954.0         0.20         74.7 
       955.0         0.20         74.7 
       956.0         2.08         88.2 
       957.0         0.17        154.1 
       958.0         0.40        269.0 
       959.0         0.30        300.2 
       960.0         0.27        295.0 
       961.0         0.23        262.5 
       962.0         0.23        217.5 
       963.0         0.20        191.0 
       964.0         0.23        164.7 
       965.0         0.23        147.6 
       966.0         0.20        111.8 
       967.0         0.13        111.8 
       968.0         0.32        103.8 
       969.0         0.57        103.1 
       970.0         0.37         89.4 
       971.0         0.23         80.2 
       972.0         0.20         75.2 
       973.0         0.23         73.4 
       974.0         0.20         71.9 
       975.0         0.20         70.0 
       976.0         0.17         69.5 
       977.0         0.17         69.4 
       978.0         0.17         70.4 
       979.0         0.20         71.5 
       980.0         0.20         72.0 
       981.0         0.20         72.0 
       982.0         0.28         73.2 
       983.0         0.23         73.9 
       984.0         0.20         73.8 
       985.0         0.17         73.8 
       986.0         2.98        291.0 
       987.0         0.20        280.4 
       988.0         0.27        275.7 
       989.0         0.30        203.5 
       990.0         0.37        173.9 
       991.0         0.27        155.2 
       992.0         0.27        139.4 
       993.0         0.30        124.8 
       994.0         0.27        112.3 
       995.0         0.23        111.4 
       996.0         0.30        100.7 
       997.0         0.28         90.3 
       998.0         0.27         89.7 
       999.0         0.27         81.0 
      1000.0         0.27         77.8 
      1001.0         0.23         73.1 
      1002.0         0.20         72.6 
      1003.0         0.20         71.0 
      1004.0         0.20         69.6 
      1005.0         0.10         69.6 
      1006.0         0.17         71.0 
      1007.0         0.13         71.6 
      1008.0         0.20         71.0 
      1009.0         0.13         70.6 
      1010.0         0.13         71.1 
      1011.0         0.13         75.2 
      1012.0         0.13         75.2 
      1013.0         0.10         75.2 
      1014.0         0.13         76.8 
      1015.0         0.10         76.8 
      1016.0         2.68        263.8 
      1017.0         0.67        797.4 
      1018.0         0.35        786.3 
      1019.0         0.27        533.0 
      1020.0         0.23        440.0 
      1021.0         0.23        228.2 
      1022.0         0.20        203.7 
      1023.0         0.17        163.1 
      1024.0         0.27        153.7 
      1025.0         0.30        136.3 
      1026.0         0.23        114.7 
      1027.0         0.20        110.5 
      1028.0         0.23        109.8 
      1029.0         0.23        100.6 
      1030.0         0.17         98.6 
      1031.0         0.20         90.6 
      1032.0         0.22         88.4 
      1033.0         0.23         86.7 
      1034.0         0.20         83.9 
      1035.0         0.20         84.9 
      1036.0         0.17         86.3 
      1037.0         0.20         86.9 
      1038.0         0.17         86.5 
      1039.0         0.23         85.7 
      1040.0         0.23         84.7 
      1041.0         0.20         83.0 
      1042.0         0.23         81.9 
      1043.0         0.20         80.1 
      1044.0         0.23         79.5 
      1045.0         0.17         78.5 
      1046.0         2.45        126.7 
      1047.0         0.27        224.6 
      1048.0         0.27        298.4 
      1049.0         0.20        308.1 
      1050.0         0.13        277.5 
      1051.0         0.23        263.9 
      1052.0         0.23        246.2 
      1053.0         0.25        211.4 
      1054.0         0.23        200.4 
      1055.0         0.13        169.8 
      1056.0         0.17        150.1 
      1057.0         0.20        144.3 
      1058.0         0.17        127.8 
      1059.0         0.20        125.1 
      1060.0         0.23        115.0 
      1061.0         0.17        110.4 
      1062.0         0.17        107.5 
      1063.0         0.17        104.2 
      1064.0         0.20        102.4 
      1065.0         0.17         95.1 
      1066.0         0.17         91.9 
      1067.0         0.20         84.2 
      1068.0         0.17         84.2 
      1069.0         0.13         82.6 
      1070.0         0.20         81.3 
      1071.0         0.20         77.6 
      1072.0         0.25         76.3 
      1073.0         0.20         75.6 
      1074.0         0.20         74.6 
      1075.0         0.20         74.2 
      1076.0         2.53        136.1 
      1077.0         0.28        209.9 
      1078.0         0.13        236.8 
      1079.0         0.13        243.7 
      1080.0         0.10        242.7 
      1081.0         0.13        229.3 
      1082.0         0.20        217.7 
      1083.0         0.23        212.3 
      1084.0         0.23        208.4 
      1085.0         0.27        220.4 
      1086.0         0.33        232.8 
      1087.0         0.27        234.7 
      1088.0         0.20        233.0 
      1089.0         0.20        226.5 
      1090.0         0.20        216.5 
      1091.0         0.20        206.3 
      1092.0         0.25        196.5 
      1093.0         0.20        194.9 
      1094.0         0.20        181.4 
      1095.0         0.20        174.6 
      1096.0         0.17        173.7 
      1097.0         0.20        162.4 
      1098.0         0.20        158.5 
      1099.0         0.17        156.4 
      1100.0         0.20        152.5 
      1101.0         0.20        148.8 
      1102.0         0.17        145.6 
      1103.0         0.23        143.4 
      1104.0         0.22        141.0 
