~Version Information
VERS.                      2.0: CWLS Log ASCII Standard - VERSION 2.0
WRAP.                       NO: One line per depth step
~Well Information Block
STRT.FT               750.3000: 
STOP.FT              1254.0000: 
STEP.FT                 0.1000: 
NULL.                -999.2500: 
COMP.          Petrogulf Corporation: COMPANY
WELL.           Montoya 13-41V: WELL
FLD.           Purgatorie River: FIELD
LOC.           449' FNL & 891' FEL: LOCATION
CNTY.               Las Animas: COUNTY
SRVC.                         : SERVICE COMPANY
DATE.          Tue Aug 17 15:47:43 2004: LOG DATE
UWI.           05 071 08021 00: UNIQUE WELL ID
STAT.                 Colorado: STATE
~Curve Information Block
DEPT.FT            0 000 00 00: Depth
DCAL.in                       : CDL Caliper
RHOB.g/cc                     : CDL Bulk Density
RHOC.g/cc                     : CDL Density Correction
DPOR.pu                       : CDL Density Porosity
GR.GAPI                       : Gamma Ray
NPOR.pu                       : Neutron Porosity
~Parameter Information Block
~A  Depth       DCAL        RHOB        RHOC        DPOR         GR         NPOR    
# ...
  1239.9000      8.1009      2.4843      0.1997     10.0425   -999.2500     25.1092
  1240.0000      8.1367      2.4435      0.1552     12.5154   -999.2500     25.8640
  1240.1000      8.1367      2.4181      0.1268     14.0549   -999.2500     26.1746
  1240.2000      8.1367      2.4083      0.1176     14.6456   -999.2500     26.1497
  1240.3000      8.1819      2.4049      0.1443     14.8529   -999.2500     25.9540
  1240.4000      8.1819      2.3968      0.1834     15.3464   -999.2500     25.9899
  1240.5000      8.2134      2.3779      0.2352     16.4924   -999.2500     26.3308
  1240.6000      8.2134      2.3526      0.2119     18.0251   -999.2500     26.9696
  1240.7000      8.2134      2.3293      0.2150     19.4336   -999.2500     29.3385
  1240.8000      8.1990      2.3109      0.1779     20.5511   -999.2500     35.8208
  1240.9000      8.1990      2.3008      0.1825     21.1617   -999.2500     44.8726
  1241.0000      8.2339      2.3071      0.1793     20.7814   -999.2500     51.0375
  1241.1000      8.2339      2.3372      0.1953     18.9598   -999.2500     53.2220
  1241.2000      8.2339      2.3905      0.2476     15.7282   -999.2500     53.6487
  1241.3000      8.2456      2.4491      0.3346     12.1783   -999.2500     53.6938
  1241.4000      8.2456      2.4917      0.3325      9.5921   -999.2500     53.6964
  1241.5000      8.2177      2.5216      0.3009      7.7811   -999.2500   -999.2500
  1241.6000      8.2177      2.5484      0.3831      6.1589   -999.2500   -999.2500
  1241.7000      8.2177      2.5637      0.4005      5.2327   -999.2500   -999.2500
  1241.8000      8.4333      2.5562      0.4004      5.6847   -999.2500   -999.2500
  1241.9000      8.4333      2.5230      0.3461      7.6941   -999.2500   -999.2500
  1242.0000      8.6965      2.4729      0.2480     10.7357   -999.2500   -999.2500
  1242.1000      8.6965      2.4128      0.2026     14.3776   -999.2500   -999.2500
  1242.2000      8.6965      2.3302      0.1652     19.3799   -999.2500   -999.2500
  1242.3000      8.1540      2.2101      0.1807     26.6580   -999.2500   -999.2500
  1242.4000      8.1540      2.0504      0.1180     36.3375   -999.2500   -999.2500
  1242.5000      8.0472      1.8603      0.0409     47.8620   -999.2500   -999.2500
  1242.6000      8.0472      1.6748     -0.0603     59.1005   -999.2500   -999.2500
  1242.7000      8.0472      1.5349     -0.0524     67.5843   -999.2500   -999.2500
  1242.8000      8.1671      1.4315     -0.0175     73.8475   -999.2500   -999.2500
  1242.9000      8.1671      1.3349     -0.0304     79.7044   -999.2500   -999.2500
  1243.0000      8.5979      1.2514     -0.0194     84.7631   -999.2500   -999.2500
  1243.1000      8.5979      1.2024     -0.0109     87.7349   -999.2500   -999.2500
  1243.2000      8.5979      1.1903     -0.0012     88.4666   -999.2500   -999.2500
  1243.3000      9.4252      1.2123     -0.0161     87.1306   -999.2500   -999.2500
  1243.4000      9.4252      1.2728     -0.0083     83.4690   -999.2500   -999.2500
  1243.5000     10.1235      1.3659      0.0523     77.8214   -999.2500   -999.2500
  1243.6000     10.1235      1.4700      0.0750     71.5176   -999.2500   -999.2500
  1243.7000     10.1235      1.5634      0.1232     65.8575   -999.2500   -999.2500
  1243.8000     11.1088      1.6313      0.1642     61.7403   -999.2500   -999.2500
  1243.9000     11.1088      1.6642      0.1810     59.7482   -999.2500   -999.2500
  1244.0000     12.3289      1.6625      0.1680     59.8498   -999.2500   -999.2500
  1244.1000     12.3289      1.6390      0.1217     61.2744   -999.2500   -999.2500
  1244.2000     12.3289      1.6074      0.0950     63.1888   -999.2500   -999.2500
  1244.3000     12.3754      1.5717      0.0657     65.3543   -999.2500   -999.2500
  1244.4000     12.3754      1.5359     -0.0228     67.5201   -999.2500   -999.2500
  1244.5000     11.4253      1.5078      0.0009     69.2257   -999.2500   -999.2500
  1244.6000     11.4253      1.4896     -0.0091     70.3278   -999.2500   -999.2500
  1244.7000     11.4253      1.4889      0.0055     70.3702   -999.2500   -999.2500
  1244.8000      9.0195      1.5178      0.0436     68.6206   -999.2500   -999.2500
  1244.9000      9.0195      1.5702      0.1302     65.4418   -999.2500   -999.2500
  1245.0000      9.3567      1.6223      0.1577     62.2836   -999.2500   -999.2500
  1245.1000      9.3567      1.6540      0.1961     60.3618   -999.2500   -999.2500
  1245.2000      9.3567      1.6575      0.2078     60.1535   -999.2500   -999.2500
  1245.3000     10.3062      1.6396      0.1976     61.2349   -999.2500   -999.2500
  1245.4000     10.3062      1.6201      0.1563     62.4199   -999.2500   -999.2500
  1245.5000     10.5965      1.6119      0.1556     62.9173   -999.2500   -999.2500
  1245.6000     10.5965      1.6155      0.1835     62.6947   -999.2500   -999.2500
  1245.7000     10.5965      1.6354      0.1684     61.4918   -999.2500   -999.2500
  1245.8000     10.4320      1.6774      0.2152     58.9465   -999.2500   -999.2500
  1245.9000     10.4320      1.7312      0.2537     55.6838   -999.2500   -999.2500
  1246.0000      9.5358      1.7823      0.2488     52.5906   -999.2500   -999.2500
  1246.1000      9.5358      1.8304      0.2530     49.6715   -999.2500   -999.2500
  1246.2000      9.5358      1.8770      0.2687     46.8508   -999.2500   -999.2500
  1246.3000      9.8970      1.9044      0.3164     45.1854   -999.2500   -999.2500
  1246.4000      9.8970      1.8919      0.2460     45.9439   -999.2500   -999.2500
  1246.5000     10.1016      1.8419      0.2483     48.9746   -999.2500   -999.2500
  1246.6000     10.1016      1.7732      0.2215     53.1414   -999.2500   -999.2500
  1246.7000     10.1016      1.7104      0.1481     56.9462   -999.2500   -999.2500
  1246.8000     10.0547      1.6727      0.1220     59.2325   -999.2500   -999.2500
  1246.9000     10.0547      1.6529      0.1265     60.4330   -999.2500   -999.2500
  1247.0000      9.2133      1.6307      0.0518     61.7767   -999.2500   -999.2500
  1247.1000      9.2133      1.6078      0.0048     63.1639   -999.2500   -999.2500
  1247.2000      9.2133      1.6056      0.0249     63.2959   -999.2500   -999.2500
  1247.3000      8.7965      1.6330      0.0896     61.6368   -999.2500   -999.2500
  1247.4000      8.7965      1.6697      0.1680     59.4135   -999.2500   -999.2500
  1247.5000      9.0253      1.6838      0.1724     58.5548   -999.2500   -999.2500
  1247.6000      9.0253      1.6598      0.1558     60.0124   -999.2500   -999.2500
  1247.7000      9.0253      1.6059      0.1121     63.2773   -999.2500   -999.2500
  1247.8000      9.1819      1.5462      0.0918     66.8968   -999.2500   -999.2500
  1247.9000      9.1819      1.5060      0.0895     69.3316   -999.2500   -999.2500
  1248.0000      8.9126      1.4928      0.1098     70.1359   -999.2500   -999.2500
  1248.1000      8.9126      1.4864      0.1471     70.5238   -999.2500   -999.2500
  1248.2000      8.9126      1.4708      0.0681     71.4687   -999.2500   -999.2500
  1248.3000      8.5150      1.4632      0.0418     71.9243   -999.2500   -999.2500
  1248.4000      8.5150      1.4877      0.0659     70.4437   -999.2500   -999.2500
  1248.5000      9.0069      1.5442      0.0845     67.0164   -999.2500   -999.2500
  1248.6000      9.0069      1.6130      0.1391     62.8507   -999.2500   -999.2500
  1248.7000      9.0069      1.6756      0.1392     59.0525   -999.2500   -999.2500
  1248.8000     10.2610      1.7298      0.1568     55.7698   -999.2500   -999.2500
  1248.9000     10.2610      1.7721      0.1902     53.2048   -999.2500   -999.2500
  1249.0000     11.8670      1.7902      0.2079     52.1119   -999.2500   -999.2500
  1249.1000     11.8670      1.7756      0.1897     52.9917   -999.2500   -999.2500
  1249.2000     11.8670      1.7250      0.1859     56.0624   -999.2500   -999.2500
  1249.3000     14.5351      1.6292      0.1774     61.8691   -999.2500   -999.2500
  1249.4000     14.5351      1.4917      0.0868     70.2015   -999.2500   -999.2500
