~Version Information
VERS.                      2.0: CWLS Log ASCII Standard - VERSION 2.0
WRAP.                       NO: One line per depth step
~Well Information Block
STRT.FT               507.5000: 
STOP.FT              2145.0000: 
STEP.FT                 0.2500: 
NULL.                -999.2500: 
COMP.          Petrogulf Corporation: COMPANY
WELL.            Montoya 1-44R: WELL
FLD.           Purgatorie River: FIELD
LOC.           658' FSL & 1052' FWL: LOCATION
CNTY.               Las Animas: COUNTY
SRVC.                         : SERVICE COMPANY
DATE.          Tue Nov 16 02:59:24 2004: LOG DATE
UWI.           05 071 08239 00: UNIQUE WELL ID
STAT.                 Colorado: STATE
~Curve Information Block
DEPT.FT            0 000 00 00: Depth
SP.mV                         : DIL Spontaneous Potential
RILD.Ohm-m                    : DIL Deep Resistivity
RILM.Ohm-m                    : DIL Medium Resistivity
RLL3.Ohm-m                    : DIL Shallow Resistivity
GR.GAPI                       : Gamma Ray
~Parameter Information Block
~A  Depth        SP         RILD        RILM        RLL3         GR     
# ...
  1067.5000    -68.0555     26.0796     41.7490     71.3122     97.1663
  1067.7500    -68.7526     25.6549     40.0179     69.4524     96.4435
  1068.0000    -69.4470     25.1633     37.7321     65.5250     97.4130
  1068.2500    -70.0193     24.6184     35.2093     59.7897    100.3596
  1068.5000    -70.3857     24.0330     32.7152     52.8474    108.3187
  1068.7500    -70.5077     23.4201     30.4249     45.4959    115.1225
  1069.0000    -70.3962     22.7941     28.4264     38.5326    125.3528
  1069.2500    -70.0996     22.1711     26.7439     32.5791    130.9780
  1069.5000    -69.6898     21.5683     25.3633     27.9849    136.2985
  1069.7500    -69.2540     21.0016     24.2505     24.8220    137.5209
  1070.0000    -68.8880     20.4844     23.3641     22.9482    136.2661
  1070.2500    -68.6907     20.0259     22.6622     22.0961    133.9863
  1070.5000    -68.7569     19.6306     22.1070     21.9576    129.8826
  1070.7500    -69.1601     19.2994     21.6658     22.2439    127.6116
  1071.0000    -69.9339     19.0303     21.3120     22.7188    125.9591
  1071.2500    -71.0564     18.8201     21.0259     23.2105    126.0318
  1071.5000    -72.4448     18.6661     20.7932     23.6102    126.9573
  1071.7500    -73.9631     18.5660     20.6046     23.8625    127.4465
  1072.0000    -75.4419     18.5185     20.4552     23.9517    127.4832
  1072.2500    -76.7062     18.5214     20.3433     23.8931    127.3112
  1072.5000    -77.5986     18.5706     20.2694     23.7258    127.8608
  1072.7500    -78.0028     18.6582     20.2344     23.5086    129.3156
  1073.0000    -77.8632     18.7720     20.2394     23.3144    132.9782
  1073.2500    -77.1891     18.8968     20.2838     23.2212    135.6236
  1073.5000    -76.0636     19.0156     20.3661     23.2991    138.4560
  1073.7500    -74.6415     19.1138     20.4814     23.5959    139.3630
  1074.0000    -73.1335     19.1826     20.6226     24.1248    139.8979
  1074.2500    -71.7765     19.2206     20.7795     24.8566    140.0140
  1074.5000    -70.7971     19.2346     20.9402     25.7188    139.4288
  1074.7500    -70.3651     19.2379     21.0927     26.6028    138.0101
  1075.0000    -70.5597     19.2467     21.2279     27.3793    133.8775
  1075.2500    -71.3515     19.2777     21.3415     27.9202    130.0551
  1075.5000    -72.6086     19.3452     21.4374     28.1245    124.1694
  1075.7500    -74.1269     19.4599     21.5282     27.9435    121.2937
  1076.0000    -75.6678     19.6284     21.6341     27.4026    119.8899
  1076.2500    -77.0012     19.8537     21.7813     26.6133    120.8919
  1076.5000    -77.9362     20.1341     21.9992     25.7737    124.6307
  1076.7500    -78.3451     20.4644     22.3169     25.1552    128.3457
  1077.0000    -78.1682     20.8346     22.7613     25.0726    135.0262
  1077.2500    -77.4196     21.2301     23.3533     25.8402    139.1234
  1077.5000    -76.1809     21.6312     24.1047     27.7124    142.3918
  1077.7500    -74.5922     22.0151     25.0142     30.8210    141.9353
  1078.0000    -72.8329     22.3573     26.0631     35.1229    137.5250
  1078.2500    -71.0980     22.6359     27.2082     40.3735    132.5125
  1078.5000    -69.5663     22.8362     28.3798     46.1343    122.6078
  1078.7500    -68.3747     22.9536     29.4818     51.8186    115.1693
  1079.0000    -67.5985     22.9963     30.4032     56.7675    104.7948
  1079.2500    -67.2432     22.9818     31.0386     60.3459     99.5444
  1079.5000    -67.2514     22.9329     31.3119     62.0438     95.2164
  1079.7500    -67.5220     22.8722     31.1996     61.5713     94.8540
  1080.0000    -67.9337     22.8153     30.7346     58.9292     98.1439
  1080.2500    -68.3738     22.7673     29.9971     54.4335    102.8651
  1080.5000    -68.7547     22.7217     29.0905     48.6748    113.3008
  1080.7500    -69.0293     22.6614     28.1195     42.4127    121.9106
  1081.0000    -69.1830     22.5638     27.1717     36.4281    135.7527
  1081.2500    -69.2243     22.4060     26.3095     31.3797    144.3464
  1081.5000    -69.1686     22.1725     25.5688     27.7063    153.7516
  1081.7500    -69.0273     21.8597     24.9602     25.5946    156.4954
  1082.0000    -68.8040     21.4782     24.4741     24.9995    154.8338
  1082.2500    -68.5042     21.0497     24.0842     25.6928    150.5508
  1082.5000    -68.1468     20.6016     23.7529     27.3119    141.1475
  1082.7500    -67.7675     20.1609     23.4372     29.4040    133.8146
  1083.0000    -67.4205     19.7488     23.0972     31.4754    122.6553
  1083.2500    -67.1639     19.3781     22.7020     33.0572    116.0674
  1083.5000    -67.0454     19.0526     22.2368     33.7843    108.9985
  1083.7500    -67.0885     18.7687     21.7032     33.4689    106.5532
  1084.0000    -67.2873     18.5186     21.1182     32.1370    105.9728
  1084.2500    -67.6124     18.2928     20.5065     30.0101    107.3579
  1084.5000    -68.0157     18.0828     19.8955     27.4339    112.1341
  1084.7500    -68.4439     17.8830     19.3093     24.7817    117.1693
  1085.0000    -68.8455     17.6901     18.7662     22.3630    126.5347
  1085.2500    -69.1799     17.5022     18.2777     20.3686    132.7404
  1085.5000    -69.4216     17.3179     17.8497     18.8632    139.8812
  1085.7500    -69.5663     17.1351     17.4827     17.8148    142.6830
  1086.0000    -69.6322     16.9514     17.1746     17.1445    144.4587
  1086.2500    -69.6548     16.7645     16.9205     16.7731    144.6690
  1086.5000    -69.6811     16.5732     16.7146     16.6518    144.3301
  1086.7500    -69.7530     16.3790     16.5501     16.7692    143.8308
  1087.0000    -69.8930     16.1854     16.4198     17.1368    142.5236
  1087.2500    -70.0917     15.9982     16.3162     17.7609    140.9215
  1087.5000    -70.2985     15.8237     16.2319     18.6113    136.5500
  1087.7500    -70.4274     15.6674     16.1600     19.6023    132.1633
  1088.0000    -70.3708     15.5329     16.0943     20.5918    124.5474
  1088.2500    -70.0329     15.4206     16.0298     21.4065    120.0514
  1088.5000    -69.3604     15.3284     15.9630     21.8833    115.8616
  1088.7500    -68.3747     15.2507     15.8918     21.9141    114.9659
  1089.0000    -67.1863     15.1802     15.8153     21.4777    115.8943
  1089.2500    -65.9838     15.1088     15.7332     20.6459    117.6596
  1089.5000    -64.9985     15.0290     15.6456     19.5621    121.6443
  1089.7500    -64.4531     14.9353     15.5529     18.4004    125.0186
  1090.0000    -64.5096     14.8252     15.4550     17.3221    131.0499
  1090.2500    -65.2361     14.6994     15.3525     16.4442    135.8666
  1090.5000    -66.5917     14.5618     15.2467     15.8266    144.2953
  1090.7500    -68.4357     14.4186     15.1394     15.4781    149.9690
  1091.0000    -70.5612     14.2769     15.0331     15.3718    156.0472
  1091.2500    -72.7283     14.1437     14.9305     15.4596    157.3285
  1091.5000    -74.7033     14.0254     14.8333     15.6812    155.4497
  1091.7500    -76.2906     13.9269     14.7427     15.9680    152.9476
  1092.0000    -77.3497     13.8524     14.6588     16.2479    149.1525
  1092.2500    -77.8049     13.8047     14.5817     16.4538    146.7279
  1092.5000    -77.6438     13.7863     14.5124     16.5388    142.6471
  1092.7500    -76.9115     13.7991     14.4542     16.4914    139.5942
  1093.0000    -75.6984     13.8449     14.4128     16.3442    135.3706
  1093.2500    -74.1400     13.9250     14.3964     16.1692    133.4130
  1093.5000    -72.4061     14.0399     14.4147     16.0597    132.2431
  1093.7500    -70.6831     14.1888     14.4773     16.1026    132.4389
  1094.0000    -69.1533     14.3698     14.5927     16.3513    133.2478
  1094.2500    -67.9548     14.5792     14.7668     16.8092    133.4106
  1094.5000    -67.1589     14.8123     15.0027     17.4320    131.9024
  1094.7500    -66.7544     15.0641     15.3007     18.1492    129.3956
  1095.0000    -66.6625     15.3297     15.6591     18.9018    124.3221
  1095.2500    -66.7684     15.6050     16.0752     19.6844    121.5233
