~Version Information
VERS.                      2.0: CWLS Log ASCII Standard - VERSION 2.0
WRAP.                       NO: One line per depth step
~Well Information Block
STRT.FT               510.0000: 
STOP.FT              1861.5000: 
STEP.FT                 0.1000: 
NULL.                -999.2500: 
COMP.          Pioneer Natural Resources: COMPANY
WELL.           Guajardo 24-16: WELL
FLD.           Purgatoire River: FIELD
LOC.           883' FSL & 2147' FWL: LOCATION
PROV.                 Colorado: PROVINCE
CNTY.               Las Animas: COUNTRY
SRVC.                Patterson: SERVICE COMPANY
DATE.          Mon Aug 08 09:13:01 2005: LOG DATE
UWI.           05 071 08377 00: UNIQUE WELL ID
~Curve Information Block
DEPT.FT            0 000 00 00: Depth
DCAL.in                       : CDL Caliper
RHOB.g/cc                     : CDL Bulk Density
RHOC.g/cc                     : CDL Density Correction
DPOR.pu                       : CDL Density Porosity
GR.GAPI                       : Gamma Ray
NPOR.pu                       : Neutron Porosity
~Parameter Information Block
~A  Depth       DCAL        RHOB        RHOC        DPOR         GR         NPOR    
# ...
  1758.0000      7.9292      2.5478      0.0876      6.1942     86.2329     15.7162
  1758.1000      7.9292      2.5326      0.0759      7.1179     86.2786     15.1037
  1758.2000      7.9292      2.4960      0.0277      9.3357     84.0818     14.9928
  1758.3000      7.9278      2.4655     -0.0139     11.1825     80.2798     15.2783
  1758.4000      7.9278      2.4595      0.0188     11.5435     76.9959     15.5318
  1758.5000      7.9311      2.4540      0.0820     11.8798     73.3336     15.5535
  1758.6000      7.9311      2.4332     -0.0295     13.1405     66.6468     15.4027
  1758.7000      7.9311      2.4174      0.0074     14.0975     62.1560     15.3294
  1758.8000      7.9351      2.4187     -0.0006     14.0199     63.6395     15.5188
  1758.9000      7.9351      2.4256      0.0120     13.6017     65.4541     15.7042
  1759.0000      7.9425      2.4270     -0.0218     13.5144     64.5225     15.4678
  1759.1000      7.9425      2.4270     -0.0187     13.5176     63.2440     15.2709
  1759.2000      7.9425      2.4275      0.0348     13.4877     62.6950     15.4132
  1759.3000      7.9520      2.4216      0.0242     13.8403     62.4786     15.3866
  1759.4000      7.9520      2.4182     -0.0287     14.0499     64.2842     14.9701
  1759.5000      7.9446      2.4381     -0.0199     12.8413     67.3755     14.4636
  1759.6000      7.9446      2.4777      0.0468     10.4424     67.5917     14.3089
  1759.7000      7.9446      2.5083      0.0555      8.5902     67.4045     14.4927
  1759.8000      7.9382      2.5108      0.1038      8.4383     71.8710     14.5129
  1759.9000      7.9382      2.4895      0.0418      9.7250     76.0083     14.4134
  1760.0000      7.9353      2.4676      0.0253     11.0530     74.5573     14.7303
  1760.1000      7.9353      2.4595      0.0192     11.5469     71.5300     15.2112
  1760.2000      7.9353      2.4508      0.0381     12.0705     70.3135     15.0791
  1760.3000      7.9336      2.4238      0.0291     13.7102     70.4156     14.4272
  1760.4000      7.9336      2.3916     -0.0556     15.6593     71.4897     14.0978
  1760.5000      7.9356      2.3818     -0.0448     16.2565     71.4881     14.2103
  1760.6000      7.9356      2.3963     -0.0257     15.3779     71.0075     14.1446
  1760.7000      7.9356      2.4234     -0.0177     13.7319     72.9287     13.7443
  1760.8000      7.9315      2.4539      0.0422     11.8826     73.2900     13.4408
  1760.9000      7.9315      2.4761      0.0574     10.5372     70.5886     13.4994
  1761.0000      7.9294      2.4825      0.0430     10.1489     72.4888     13.5818
  1761.1000      7.9294      2.4762      0.0576     10.5360     79.6263     13.3273
  1761.2000      7.9294      2.4628      0.0639     11.3436     84.6173     13.2838
  1761.3000      7.9274      2.4461      0.0332     12.3549     85.5766     14.4898
  1761.4000      7.9274      2.4361     -0.0017     12.9630     85.3793     16.8333
  1761.5000      7.9246      2.4392     -0.0031     12.7745     85.7682     18.6844
  1761.6000      7.9246      2.4436      0.0242     12.5105     83.3933     18.5764
  1761.7000      7.9246      2.4437      0.0022     12.5051     76.2518     17.3136
  1761.8000      7.9254      2.4537      0.0448     11.8983     68.3385     16.3435
  1761.9000      7.9254      2.4776      0.0375     10.4467     64.0819     15.7240
  1762.0000      7.9209      2.4985      0.0813      9.1792     67.5189     15.5452
  1762.1000      7.9209      2.5030      0.0619      8.9074     76.5935     16.1323
  1762.2000      7.9209      2.5014      0.0489      9.0068     82.4316     16.9054
  1762.3000      7.9228      2.5171      0.0215      8.0517     83.9059     17.0453
  1762.4000      7.9228      2.5521      0.1001      5.9358     86.8200     16.9580
  1762.5000      7.9215      2.5851      0.0378      3.9351     92.0082     17.5296
  1762.6000      7.9215      2.6011      0.1274      2.9648     94.4629     18.6532
  1762.7000      7.9215      2.5941      0.0772      3.3861     92.5947     19.4583
  1762.8000      7.9238      2.5788      0.0259      4.3134     90.6618     20.2199
  1762.9000      7.9238      2.5770      0.0264      4.4250     91.1736     21.4352
  1763.0000      7.9281      2.5868      0.0483      3.8313     92.0142     22.0347
  1763.1000      7.9281      2.5912      0.1008      3.5658     90.2772     21.3442
  1763.2000      7.9281      2.5846      0.0703      3.9645     85.7939     20.0256
  1763.3000      7.9238      2.5869      0.0497      3.8217     82.6805     18.5710
  1763.4000      7.9238      2.6073      0.0910      2.5855     83.8031     17.2467
  1763.5000      7.9208      2.6211      0.0734      1.7495     86.1713     16.6359
  1763.6000      7.9208      2.6127      0.0832      2.2581     83.4256     17.3249
  1763.7000      7.9208      2.5858      0.0604      3.8879     76.4070     18.8596
  1763.8000      7.9192      2.5423      0.0263      6.5278     75.3700     19.6406
  1763.9000      7.9192      2.4935     -0.0271      9.4866     81.0731     18.6331
  1764.0000      7.9338      2.4631     -0.0566     11.3298     83.8658     16.8929
  1764.1000      7.9338      2.4554      0.0496     11.7968     82.6627     15.4872
  1764.2000      7.9338      2.4461      0.0190     12.3575     80.6874     14.2574
  1764.3000      7.9136      2.4137      0.0549     14.3182     76.3329     13.3542
  1764.4000      7.9136      2.3629     -0.0317     17.4023     70.7935     13.0470
  1764.5000      7.9162      2.3276     -0.0767     19.5391     68.4714     13.0339
  1764.6000      7.9162      2.3305      0.0161     19.3614     68.7548     12.9502
  1764.7000      7.9162      2.3547      0.0098     17.8987     68.0248     13.1482
  1764.8000      7.9176      2.3787      0.0309     16.4416     68.5872     13.8324
  1764.9000      7.9176      2.3986      0.0448     15.2351     72.0568     14.6258
  1765.0000      7.9159      2.4143      0.0563     14.2851     77.3831     15.5481
  1765.1000      7.9159      2.4237      0.0677     13.7127     84.6611     16.4684
  1765.2000      7.9159      2.4251      0.0655     13.6274     90.1195     16.9466
  1765.3000      7.9160      2.4128      0.0568     14.3728     91.8468     17.2339
  1765.4000      7.9160      2.3844      0.0547     16.0980     93.9553     17.4024
  1765.5000      7.9197      2.3596     -0.0148     17.6024     97.7475     17.2454
  1765.6000      7.9197      2.3626      0.0250     17.4153    100.0955     17.3183
  1765.7000      7.9197      2.3840      0.0602     16.1206     98.9650     17.7723
  1765.8000      7.9264      2.4000      0.0352     15.1531     94.3811     17.9975
  1765.9000      7.9264      2.4026      0.0692     14.9943     88.2652     18.1498
  1766.0000      7.9287      2.3973      0.0509     15.3171     85.5754     18.6476
  1766.1000      7.9287      2.3923      0.0703     15.6204     86.9854     19.0770
  1766.2000      7.9287      2.3847      0.0721     16.0766     86.9189     19.3019
  1766.3000      7.9252      2.3722      0.0291     16.8370     82.3729     19.5864
  1766.4000      7.9252      2.3626      0.0429     17.4163     76.0497     19.8550
  1766.5000      7.9226      2.3580      0.0312     17.6974     70.7383     20.0397
  1766.6000      7.9226      2.3520      0.0626     18.0614     69.6971     19.7167
  1766.7000      7.9226      2.3434      0.0555     18.5814     75.9234     18.9083
  1766.8000      7.9269      2.3405     -0.0082     18.7573     85.5283     18.6608
  1766.9000      7.9269      2.3487      0.0209     18.2583     91.3644     19.4340
  1767.0000      7.9266      2.3642      0.0173     17.3233     93.4205     20.9175
  1767.1000      7.9266      2.3769      0.0466     16.5525     94.4391     22.2701
  1767.2000      7.9266      2.3768      0.0418     16.5591     93.6795     22.5069
  1767.3000      7.9234      2.3686      0.0421     17.0552     90.6507     21.8085
  1767.4000      7.9234      2.3674      0.0366     17.1292     87.0724     21.1733
  1767.5000      7.9234      2.3713      0.0828     16.8894     86.2809     21.0057
