~Version Information
VERS.                      2.0: CWLS Log ASCII Standard - VERSION 2.0
WRAP.                       NO: One line per depth step
~Well Information Block
STRT.FT               185.5000: 
STOP.FT              2039.2500: 
STEP.FT                 0.2500: 
NULL.                -999.2500: 
COMP.          Petrogulf Corporation: COMPANY
WELL.            Montoya 7-12R: WELL
FLD.           Purgatorie River: FIELD
LOC.           1769' FNL & 658' FWL--: LOCATION
PROV.                       CO: PROVINCE
CNTY.               Las Animas: COUNTRY
SRVC.                         : SERVICE COMPANY
DATE.          Wed Feb 09 09:05:42 2005: LOG DATE
UWI.         005 071 08240  : UNIQUE WELL ID
~Curve Information Block
DEPT.FT            0 000 00 00: Depth
CCL.                          : Casing Collar Locator
CCLRT.                        : CCLRT
TT3.usec                      : CBL 3' Travel Time
AMP3.mV                       : CBL 3' Amplitude
GR.GAPI                       : Gamma Ray
~Parameter Information Block
~A  Depth       CCL        CCLRT        TT3         AMP3         GR     
# ...
  1753.5000      0.0000   -999.2500    699.5522      3.0043    124.3138
  1753.7500      0.0000   -999.2500    692.0096      2.6996    120.2252
  1754.0000      0.0000   -999.2500    684.4133      2.4773    114.7732
  1754.2500      0.0000   -999.2500    674.6452      2.3429    107.9532
  1754.5000      0.0000   -999.2500    659.4094      2.2917    100.5360
  1754.7500      0.0000   -999.2500    635.8212      2.3133     93.6091
  1755.0000      0.0000   -999.2500    605.1476      2.3823     87.8562
  1755.2500      0.0000   -999.2500    574.7455      2.4498     83.3163
  1755.5000      0.0000   -999.2500    553.5969      2.4628     79.7728
  1755.7500      0.0000   -999.2500    544.6534      2.4002     77.1117
  1756.0000      0.0000   -999.2500    543.3105      2.2870     75.0649
  1756.2500      0.0000   -999.2500    543.7846      2.1701     73.0142
  1756.5000      0.0000   -999.2500    544.8659      2.0840     70.4880
  1756.7500      0.0000   -999.2500    549.2079      2.0409     67.5757
  1757.0000      0.0000   -999.2500    559.0344      2.0392     64.6561
  1757.2500      0.0000   -999.2500    573.3470      2.0656     62.1017
  1757.5000      0.0000   -999.2500    588.7805      2.0942     60.3501
  1757.7500      0.0000   -999.2500    602.6384      2.0970     59.9094
  1758.0000      0.0000   -999.2500    614.5749      2.0612     61.0706
  1758.2500      0.0000   -999.2500    625.2798      1.9958     63.3688
  1758.5000      0.0000   -999.2500    634.3884      1.9240     65.3799
  1758.7500      0.0000   -999.2500    640.6096      1.8690     65.6533
  1759.0000      0.0000   -999.2500    643.4770      1.8411     63.9916
  1759.2500      0.0000   -999.2500    644.0176      1.8306     61.2848
  1759.5000      0.0000   -999.2500    643.6204      1.8163     58.1923
  1759.7500      0.0000   -999.2500    643.1957      1.7845     54.7522
  1760.0000      0.0000   -999.2500    643.7016      1.7466     51.3331
  1760.2500      0.0000   -999.2500    646.6758      1.7376     49.1354
  1760.5000      0.0000   -999.2500    653.5389      1.7968     49.2504
  1760.7500      0.0000   -999.2500    664.3483      1.9404     51.5742
  1761.0000      0.0000   -999.2500    677.2226      2.1460     54.9903
  1761.2500      0.0000   -999.2500    688.9171      2.3642     58.2875
  1761.5000      0.0000   -999.2500    695.8112      2.5471     60.5826
  1761.7500      0.0000   -999.2500    694.5059      2.6699     61.3335
  1762.0000      0.0000   -999.2500    682.4018      2.7298     60.7145
  1762.2500      0.0000   -999.2500    659.4937      2.7401     59.9139
  1762.5000      0.0000   -999.2500    630.8610      2.7287     60.6359
  1762.7500      0.0000   -999.2500    606.6256      2.7274     64.1781
  1763.0000      0.0000   -999.2500    596.6837      2.7491     70.9276
  1763.2500      0.0000   -999.2500    603.6130      2.7784     80.4213
  1763.5000      0.0000   -999.2500    621.4209      2.7865     91.6027
  1763.7500      0.0000   -999.2500    641.8040      2.7530    103.0692
  1764.0000      0.0000   -999.2500    660.0218      2.6773    113.4023
  1764.2500      0.0000   -999.2500    674.5361      2.5774    121.5713
  1764.5000      0.0000   -999.2500    684.2702      2.4777    127.2112
  1764.7500      0.0000   -999.2500    688.5906      2.3938    130.4923
  1765.0000      0.0000   -999.2500    688.5268      2.3247    131.6468
  1765.2500      0.0000   -999.2500    686.1885      2.2572    130.8093
  1765.5000      0.0000   -999.2500    683.0197      2.1781    128.4744
  1765.7500      0.0000   -999.2500    679.0283      2.0839    125.7796
  1766.0000      0.0000   -999.2500    673.4588      1.9841    124.1994
  1766.2500      0.0000   -999.2500    666.1956      1.8966    125.0405
  1766.5000      0.0000   -999.2500    658.6946      1.8401    128.7247
  1766.7500      0.0000   -999.2500    653.5596      1.8247    133.7653
  1767.0000      0.0000   -999.2500    652.9048      1.8467    136.9147
  1767.2500      0.0000   -999.2500    656.7946      1.8933    135.5332
  1767.5000      0.0000   -999.2500    662.9854      1.9532    130.0709
  1767.7500      0.0000   -999.2500    668.2207      2.0248    123.6352
  1768.0000      0.0000   -999.2500    670.1784      2.1121    119.0842
  1768.2500      0.0000   -999.2500    668.7478      2.2169    116.7831
  1768.5000      0.0000   -999.2500    665.8793      2.3351    114.9749
  1768.7500      0.0000   -999.2500    664.0818      2.4587    111.7389
  1769.0000      0.0000   -999.2500    664.5307      2.5834    106.2599
  1769.2500      0.0000   -999.2500    666.3707      2.7118     98.6980
  1769.5000      0.0000   -999.2500    667.8592      2.8522     89.7278
  1769.7500      0.0000   -999.2500    667.9388      3.0159     80.3747
  1770.0000      0.0000   -999.2500    666.7652      3.2195     71.8186
  1770.2500      0.0000   -999.2500    665.4243      3.4785     64.9370
  1770.5000      0.0000   -999.2500    665.4341      3.7953     59.9370
  1770.7500      0.0000   -999.2500    667.7017      4.1576     56.2893
  1771.0000      0.0000   -999.2500    671.3850      4.5452     53.0169
  1771.2500      0.0000   -999.2500    674.3573      4.9239     49.3469
  1771.5000      0.0000   -999.2500    675.2072      5.2349     45.2873
  1771.7500      0.0000   -999.2500    674.3181      5.4084     41.4708
  1772.0000      0.0000   -999.2500    672.9889      5.4041     38.4957
  1772.2500      0.0000   -999.2500    672.1132      5.2368     36.5424
  1772.5000      0.0000   -999.2500    671.7649      4.9595     35.5547
  1772.7500      0.0000   -999.2500    671.4664      4.6259     35.5009
  1773.0000      0.0000   -999.2500    670.7208      4.2734     36.3388
  1773.2500      0.0000   -999.2500    669.7010      3.9329     37.8852
  1773.5000      0.0000   -999.2500    669.2906      3.6359     39.7929
  1773.7500      0.0000   -999.2500    669.6008      3.4048     41.5713
  1774.0000      0.0000   -999.2500    667.8978      3.2443     42.6960
  1774.2500      0.0000   -999.2500    659.0464      3.1480     42.7920
  1774.5000      0.0000   -999.2500    639.4594      3.1072     41.6562
  1774.7500      0.0000   -999.2500    610.9950      3.1092     39.2136
  1775.0000      0.0000   -999.2500    580.6339      3.1302     35.7998
  1775.2500      0.0000   -999.2500    556.5530      3.1409     32.4398
  1775.5000     -2.0000   -999.2500    544.9020      3.1228     30.4379
  1775.7500      0.0000   -999.2500    548.5963      3.0810     30.6538
  1776.0000      0.0000   -999.2500    566.1443      3.0410     33.3646
  1776.2500      0.0000   -999.2500    590.4575      3.0368     38.5805
  1776.5000      0.0000   -999.2500    610.9261      3.0907     46.1703
  1776.7500      0.0000   -999.2500    620.1606      3.1826     55.8944
  1777.0000      0.0000   -999.2500    620.4460      3.2382     67.6631
  1777.2500      0.0000   -999.2500    621.7064      3.1703     81.5757
  1777.5000      0.0000   -999.2500    631.1556      2.9518     97.3132
  1777.7500      0.0000   -999.2500    646.5178      2.6439    113.5252
  1778.0000      0.0000   -999.2500    660.5811      2.3467    128.0370
  1778.2500      0.0000   -999.2500    669.6940      2.1295    138.6658
  1778.5000      0.0000   -999.2500    675.4492      2.0037    144.1224
  1778.7500      0.0000   -999.2500    680.3289      1.9390    144.7769
  1779.0000      0.0000   -999.2500    684.6185      1.8989    142.5986
  1779.2500      0.0000   -999.2500    687.2600      1.8637    139.8040
  1779.5000      0.0000   -999.2500    687.8428      1.8303    137.5029
  1779.7500      0.0000   -999.2500    687.0594      1.7985    135.7422
  1780.0000      0.0000   -999.2500    685.9359      1.7628    134.3224
  1780.2500      0.0000   -999.2500    685.1834      1.7175    133.1384
  1780.5000      0.0000   -999.2500    685.3461      1.6647    132.0926
  1780.7500      0.0000   -999.2500    687.1300      1.6173    131.1537
  1781.0000      0.0000   -999.2500    691.1227      1.5945    130.6092
  1781.2500      0.0000   -999.2500    696.9821      1.6085    131.2736
