~Version Information
VERS.                      2.0: CWLS Log ASCII Standard - VERSION 2.0
WRAP.                       NO: One line per depth step
~Well Information Block
STRT.FT               800.0000: 
STOP.FT              1933.5000: 
STEP.FT                 0.2500: 
NULL.                -999.2500: 
COMP.          Pioneer Natural Resources: COMPANY
WELL.            Nova 11-14 Tr: WELL
FLD.           Purgatoire River: FIELD
LOC.           706' FNL & 1109' FWL: LOCATION
PROV.                 Colorado: PROVINCE
CNTY.               Las Animas: COUNTRY
SRVC.                Patterson: SERVICE COMPANY
DATE.          Wed Jul 20 23:28:11 2005: LOG DATE
UWI.           05 071 08434 00: UNIQUE WELL ID
~Curve Information Block
DEPT.FT            0 000 00 00: Depth
SN.Ohm-m                      : IEL Short Normal
SP.mV                         : IEL Spontaneous Potential
DIR.Ohm-m                     : IEL Induction Resistivity
GR.GAPI                       : Gamma Ray
~Parameter Information Block
~A  Depth        SN          SP         DIR          GR     
   800.0000   2000.0000   2000.0000      5.8982     86.2561
   800.2500   2000.0000   2000.0000      5.9883     91.5934
   800.5000   2000.0000   2000.0000      6.0460    100.7399
   800.7500   2000.0000   2000.0000      6.0763    107.5949
   801.0000   2000.0000   2000.0000      6.0897    118.4018
   801.2500   2000.0000   2000.0000      6.0958    125.3509
   801.5000   2000.0000   2000.0000      6.1005    134.4388
   801.7500   2000.0000   2000.0000      6.1072    139.2473
   802.0000   2000.0000   2000.0000      6.1193    144.5759
   802.2500   2000.0000   2000.0000      6.1413    147.2046
   802.5000   2000.0000   2000.0000      6.1762    150.2173
   802.7500   2000.0000   2000.0000      6.2219    151.5257
   803.0000   2000.0000   2000.0000      6.2688    152.0810
   803.2500   2000.0000   2000.0000      6.3018    151.4358
   803.5000   2000.0000   2000.0000      6.3069    148.7815
   803.7500   2000.0000   2000.0000      6.2807    135.8673
   804.0000   2000.0000   2000.0000      6.2330    128.9938
   804.2500   2000.0000   2000.0000      6.1813    123.1451
   804.5000   2000.0000   2000.0000      6.1406    113.7700
   804.7500   2000.0000   2000.0000      6.1168     99.9756
   805.0000   2000.0000   2000.0000      6.1067     91.6611
   805.2500   2000.0000   2000.0000      6.1030     86.1047
   805.5000   2000.0000   2000.0000      6.1000     78.1468
   805.7500   2000.0000   2000.0000      6.0960     68.0092
   806.0000   2000.0000   2000.0000      6.0934     63.8437
   806.2500   2000.0000   2000.0000      6.0952     62.6015
   806.5000   2000.0000   2000.0000      6.1015     62.5174
   806.7500   2000.0000   2000.0000      6.1077     57.6683
   807.0000   2000.0000   2000.0000      6.1048     57.5834
   807.2500   2000.0000   2000.0000      6.0834     56.7557
   807.5000   2000.0000   2000.0000      6.0383     54.6762
   807.7500   2000.0000   2000.0000      5.9733     48.3888
   808.0000   2000.0000   2000.0000      5.9008     46.9818
   808.2500   2000.0000   2000.0000      5.8385     46.5174
   808.5000   2000.0000   2000.0000      5.8025     46.1941
   808.7500   2000.0000   2000.0000      5.8011     45.9734
   809.0000   2000.0000   2000.0000      5.8324     45.6725
   809.2500   2000.0000   2000.0000      5.8852     45.8130
   809.5000   2000.0000   2000.0000      5.9443     46.9493
   809.7500   2000.0000   2000.0000      5.9987     48.1479
   810.0000   2000.0000   2000.0000      6.0496     49.6890
   810.2500   2000.0000   2000.0000      6.1129     50.0269
   810.5000   2000.0000   2000.0000      6.2122     49.3526
   810.7500   2000.0000   2000.0000      6.3656     48.5171
   811.0000   2000.0000   2000.0000      6.5722     47.6294
   811.2500   2000.0000   2000.0000      6.8069     47.6167
   811.5000   2000.0000   2000.0000      7.0274     48.5070
   811.7500   2000.0000   2000.0000      7.1952     49.5222
   812.0000   2000.0000   2000.0000      7.2959     51.1086
   812.2500   2000.0000   2000.0000      7.3481     51.8022
   812.5000   2000.0000   2000.0000      7.3973     51.9744
   812.7500   2000.0000   2000.0000      7.5086     51.7538
   813.0000   2000.0000   2000.0000      7.7598     51.6008
   813.2500   2000.0000   2000.0000      8.2322     51.6658
   813.5000   2000.0000   2000.0000      8.9892     51.4120
   813.7500   2000.0000   2000.0000     10.0293     50.7104
   814.0000   2000.0000   2000.0000     11.2181     49.0263
   814.2500   2000.0000   2000.0000     12.2756     47.8139
   814.5000   2000.0000   2000.0000     12.9406     46.2339
   814.7500   2000.0000   2000.0000     13.2077     45.3528
   815.0000   2000.0000   2000.0000     13.3412     44.2522
   815.2500   2000.0000   2000.0000     13.7279     43.7735
   815.5000   2000.0000   2000.0000     14.9173     43.8049
   815.7500   2000.0000   2000.0000     18.2253     44.4918
   816.0000   2000.0000   2000.0000     29.5555     46.4617
   816.2500   2000.0000   2000.0000    287.3660     48.1234
   816.5000   2000.0000   2000.0000 100000.0000     50.4211
   816.7500   2000.0000   2000.0000 100000.0000     51.4519
   817.0000   2000.0000   2000.0000 100000.0000     51.9246
   817.2500   2000.0000   2000.0000 100000.0000     51.5469
   817.5000   2000.0000   2000.0000 100000.0000     50.4419
   817.7500   2000.0000   2000.0000 100000.0000     49.9937
   818.0000   2000.0000   2000.0000 100000.0000     51.2377
   818.2500   2000.0000   2000.0000 100000.0000     54.0353
   818.5000   2000.0000   2000.0000 100000.0000     61.4904
   818.7500   2000.0000   2000.0000 100000.0000     68.3315
   819.0000   2000.0000   2000.0000 100000.0000     80.3411
   819.2500   2000.0000   2000.0000 100000.0000     88.5759
   819.5000   2000.0000   2000.0000 100000.0000     99.1865
   819.7500   2000.0000   2000.0000 100000.0000    103.9106
   820.0000   2000.0000   2000.0000 100000.0000    106.1700
   820.2500   2000.0000   2000.0000     12.0983    104.3309
   820.5000   2000.0000   2000.0000      5.0126     97.7682
   820.7500   2000.0000   2000.0000      3.4929     92.5201
   821.0000   2000.0000   2000.0000      3.1075     86.9980
   821.2500   2000.0000   2000.0000      3.2332     86.4349
   821.5000   2000.0000   2000.0000      3.7427     90.4923
   821.7500   2000.0000   2000.0000      4.6821     95.3953
   822.0000   2000.0000   2000.0000      6.3114    103.6526
   822.2500   2000.0000   2000.0000      9.4439    108.6364
   822.5000   2000.0000   2000.0000     16.7321    114.2715
   822.7500   2000.0000   2000.0000     38.4647    116.7246
   823.0000   2000.0000   2000.0000     99.3005    119.0361
   823.2500   2000.0000   2000.0000     74.8351    120.1269
   823.5000   2000.0000   2000.0000     31.0669    121.5410
   823.7500   2000.0000   2000.0000     17.0359    122.2742
   824.0000   2000.0000   2000.0000     11.8749    122.4324
   824.2500   2000.0000   2000.0000      9.6854    121.4443
   824.5000   2000.0000   2000.0000      8.7136    117.9767
   824.7500   2000.0000   2000.0000      8.3022    114.6883
   825.0000   2000.0000   2000.0000      8.1630    109.6891
   825.2500   2000.0000   2000.0000      8.1658    107.0770
   825.5000   2000.0000   2000.0000      8.2562    104.3458
   825.7500   2000.0000   2000.0000      8.4186    102.7243
   826.0000   2000.0000   2000.0000      8.6642     99.9926
   826.2500   2000.0000   2000.0000      9.0203     98.4660
   826.5000   2000.0000   2000.0000      9.5085     98.1787
   826.7500   2000.0000   2000.0000     10.1062     99.8370
   827.0000   2000.0000   2000.0000     10.7199    104.6592
   827.2500   2000.0000   2000.0000     11.2133    108.5809
   827.5000   2000.0000   2000.0000     11.4989    113.8798
   827.7500   2000.0000   2000.0000     11.6059    116.5169
   828.0000   2000.0000   2000.0000     11.6403    119.4148
   828.2500   2000.0000   2000.0000     11.6919    120.9872
   828.5000   2000.0000   2000.0000     11.7860    122.5999
   828.7500   2000.0000   2000.0000     11.9028    122.7351
   829.0000   2000.0000   2000.0000     12.0314    121.5802
   829.2500   2000.0000   2000.0000     12.2082    120.7120
   829.5000   2000.0000   2000.0000     12.5068    120.9843
   829.7500   2000.0000   2000.0000     12.9955    122.6934
   830.0000   2000.0000   2000.0000     13.6976    127.0207
   830.2500   2000.0000   2000.0000     14.5763    130.2716
   830.5000   2000.0000   2000.0000     15.5485    134.3493
   830.7500   2000.0000   2000.0000     16.5233    136.1560
   831.0000   2000.0000   2000.0000     17.4430    137.5494
   831.2500   2000.0000   2000.0000     18.3012    137.6667
   831.5000   2000.0000   2000.0000     19.1316    136.1611
   831.7500   2000.0000   2000.0000     19.9830    133.4922
   832.0000   2000.0000   2000.0000     20.8954    126.4644
   832.2500   2000.0000   2000.0000     21.8820    120.1277
   832.5000   2000.0000   2000.0000     22.9187    109.7446
   832.7500   2000.0000   2000.0000     23.9510    103.2481
   833.0000   2000.0000   2000.0000     24.9212     95.3956
   833.2500   2000.0000   2000.0000     25.8003     91.9142
