~Version Information
VERS.                      2.0: CWLS Log ASCII Standard - VERSION 2.0
WRAP.                       NO: One line per depth step
~Well Information Block
STRT.FT               460.0000: 
STOP.FT               961.2500: 
STEP.FT                 0.2500: 
NULL.                -999.2500: 
COMP.          Pioneer Natural Resources: COMPANY
WELL.                Pug 33-19: WELL
FLD.           Purgatoire River: FIELD
LOC.           1381' FSL & 2140' FEL: LOCATION
PROV.                 Colorado: PROVINCE
CNTY.               Las Animas: COUNTRY
SRVC.                Patterson: SERVICE COMPANY
DATE.          Tue Dec 14 08:25:14 2004: LOG DATE
UWI.           05 071 08193 00: UNIQUE WELL ID
~Curve Information Block
DEPT.FT            0 000 00 00: Depth
SN.Ohm-m                      : IEL Short Normal
SP.mV                         : IEL Spontaneous Potential
DIR.Ohm-m                     : IEL Induction Resistivity
GR.GAPI                       : Gamma Ray
~Parameter Information Block
~A  Depth        SN          SP         DIR          GR     
# ...
   493.5000     11.5280    -10.4616     11.1282    166.9125
   493.7500     11.3350    -10.3506     10.9041    165.2365
   494.0000     11.2011    -10.1808     10.7457    162.5297
   494.2500     11.0969     -9.9574     10.6484    161.1217
   494.5000     10.9944     -9.7089     10.6023    159.9134
   494.7500     10.8928     -9.4788     10.5950    159.3322
   495.0000     10.8183     -9.3113     10.6128    157.3090
   495.2500     10.7935     -9.2358     10.6405    154.5937
   495.5000     10.8146     -9.2571     10.6625    149.3747
   495.7500     10.8582     -9.3518     10.6654    146.5591
   496.0000     10.9001     -9.4738     10.6387    145.3843
   496.2500     10.9239     -9.5686     10.5758    146.8847
   496.5000     10.9200     -9.5912     10.4752    151.5521
   496.7500     10.8883     -9.5213     10.3449    155.3430
   497.0000     10.8441     -9.3696     10.2047    160.6967
   497.2500     10.8172     -9.1693     10.0841    163.6334
   497.5000     10.8384     -8.9603     10.0151    166.8303
   497.7500     10.9181     -8.7716     10.0241    168.0126
   498.0000     11.0374     -8.6127     10.1275    168.0160
   498.2500     11.1637     -8.4748     10.3305    166.7005
   498.5000     11.2794     -8.3399     10.6267    162.7573
   498.7500     11.4014     -8.1912     10.9986    158.8926
   499.0000     11.5702     -8.0201     11.4166    151.3118
   499.2500     11.8147     -7.8275     11.8380    145.0121
   499.5000     12.1206     -7.6206     12.2095    133.6254
   499.7500     12.4322     -7.4092     12.4749    125.0285
   500.0000     12.6879     -7.2026     12.5894    112.2499
   500.2500     12.8507     -7.0084     12.5338    105.4278
   500.5000     12.9108     -6.8328     12.3196    100.6711
   500.7500     12.8665     -6.6808     11.9828    102.0802
   501.0000     12.7123     -6.5560     11.5703    110.4030
   501.2500     12.4511     -6.4602     11.1293    118.7408
   501.5000     12.1153     -6.3944     10.7005    132.8421
   501.7500     11.7699     -6.3584     10.3154    141.9991
   502.0000     11.4917     -6.3513      9.9973    153.2358
   502.2500     11.3450     -6.3710      9.7635    157.9185
   502.5000     11.3742     -6.4128      9.6292    159.8588
   502.7500     11.6104     -6.4691      9.6111    158.2632
   503.0000     12.0769     -6.5296      9.7262    153.3565
   503.2500     12.7794     -6.5826      9.9888    149.1616
   503.5000     13.6848     -6.6181     10.4051    141.5387
   503.7500     14.7139     -6.6297     10.9699    135.3892
   504.0000     15.7660     -6.6164     11.6660    125.3286
   504.2500     16.7607     -6.5812     12.4646    119.2136
   504.5000     17.6661     -6.5297     13.3247    112.6862
   504.7500     18.4951     -6.4676     14.1923    110.3408
   505.0000     19.2759     -6.3984     15.0056    109.3041
   505.2500     20.0224     -6.3234     15.7116    109.9402
   505.5000     20.7213     -6.2416     16.2852    112.3950
   505.7500     21.3425     -6.1521     16.7371    114.5703
   506.0000     21.8639     -6.0549     17.1033    117.5751
   506.2500     22.2910     -5.9525     17.4256    118.7949
   506.5000     22.6577     -5.8487     17.7388    118.7790
   506.7500     23.0097     -5.7466     18.0687    117.5676
   507.0000     23.3876     -5.6467     18.4376    114.8387
   507.2500     23.8210     -5.5449     18.8688    113.1299
   507.5000     24.3237     -5.4321     19.3826    111.3354
   507.7500     24.8807     -5.2960     19.9854    110.4169
   508.0000     25.4413     -5.1244     20.6585    108.7505
   508.2500     25.9339     -4.9091     21.3544    107.3996
   508.5000     26.2987     -4.6481     22.0041    105.4806
   508.7500     26.5182     -4.3459     22.5339    104.4224
   509.0000     26.6238     -4.0118     22.8885    103.1990
   509.2500     26.6734     -3.6572     23.0497    102.9249
   509.5000     26.7164     -3.2936     23.0390    104.3059
   509.7500     26.7706     -2.9317     22.9028    106.7514
   510.0000     26.8236     -2.5806     22.6922    112.2668
   510.2500     26.8520     -2.2492     22.4482    116.4529
   510.5000     26.8446     -1.9463     22.1975    122.0129
   510.7500     26.8128     -1.6807     21.9575    124.5839
   511.0000     26.7887     -1.4605     21.7457    126.2962
   511.2500     26.8137     -1.2898     21.5852    125.9824
   511.5000     26.9245     -1.1668     21.5011    123.4359
   511.7500     27.1431     -1.0822     21.5134    120.6066
   512.0000     27.4736     -1.0206     21.6313    115.3499
   512.2500     27.9098     -0.9628     21.8545    111.4608
   512.5000     28.4452     -0.8889     22.1778    105.2408
   512.7500     29.0783     -0.7812     22.5969    100.9226
   513.0000     29.8052     -0.6265     23.1123     94.4282
   513.2500     30.6085     -0.4173     23.7287     90.2965
   513.5000     31.4502     -0.1541     24.4464     84.8994
   513.7500     32.2798      0.1540     25.2452     82.1001
   514.0000     33.0529      0.4888     26.0698     79.2503
   514.2500     33.7515      0.8253     26.8347     78.2617
   514.5000     34.3909      1.1371     27.4586     78.2766
   514.7500     35.0083      1.4023     27.9114     79.2074
   515.0000     35.6364      1.6090     28.2348     81.0107
   515.2500     36.2801      1.7578     28.5095     81.6122
   515.5000     36.9110      1.8591     28.7967     80.7255
   515.7500     37.4868      1.9286     29.1008     79.1266
   516.0000     37.9752      1.9825     29.3771     76.1782
   516.2500     38.3662      2.0345     29.5710     74.2201
   516.5000     38.6688      2.0941     29.6560     71.3885
   516.7500     38.9023      2.1669     29.6456     69.7980
   517.0000     39.0872      2.2553     29.5744     69.4829
   517.2500     39.2349      2.3589     29.4700     72.0851
   517.5000     39.3404      2.4751     29.3363     81.6303
   517.7500     39.3783      2.6002     29.1591     91.0009
   518.0000     39.3057      2.7298     28.9280    105.4676
   518.2500     39.0738      2.8595     28.6526    112.3777
   518.5000     38.6440      2.9856     28.3572    115.0115
   518.7500     37.9985      3.1065     28.0572    111.2826
   519.0000     37.1328      3.2242     27.7354     99.8532
   519.2500     36.0365      3.3440     27.3352     90.5763
   519.5000     34.6808      3.4732     26.7706     77.4694
   519.7500     33.0302      3.6171     25.9490     70.3442
   520.0000     31.0786      3.7757     24.8016     62.7310
   520.2500     28.8822      3.9420     23.3196     59.8515
   520.5000     26.5607      4.1040     21.5758     59.3903
   520.7500     24.2584      4.2479     19.7067     62.3464
   521.0000     22.0912      4.3620     17.8621     73.0591
   521.2500     20.1166      4.4392     16.1596     84.6246
   521.5000     18.3361      4.4769     14.6674    106.8143
   521.7500     16.7226      4.4761     13.4105    122.6201
   522.0000     15.2512      4.4412     12.3859    143.7736
   522.2500     13.9201      4.3789     11.5756    154.5702
   522.5000     12.7539      4.2978     10.9557    164.7322
   522.7500     11.7904      4.2067     10.5018    167.4489
   523.0000     11.0585      4.1131     10.1903    165.8936
   523.2500     10.5611      4.0221      9.9994    161.7883
   523.5000     10.2791      3.9367      9.9086    153.2033
   523.7500     10.1926      3.8590      9.8989    147.4313
   524.0000     10.2909      3.7911      9.9516    140.7065
   524.2500     10.5549      3.7360     10.0466    137.8453
   524.5000     10.9311      3.6971     10.1606    135.4716
   524.7500     11.3296      3.6781     10.2671    134.7322
   525.0000     11.6559      3.6823     10.3396    134.5597
   525.2500     11.8498      3.7118     10.3589    135.2763
   525.5000     11.9019      3.7675     10.3196    138.6676
   525.7500     11.8413      3.8483     10.2310    143.1245
   526.0000     11.7092      3.9505     10.1113    152.8462
   526.2500     11.5419      4.0685      9.9807    159.9962
   526.5000     11.3695      4.1952      9.8570    168.5222
   526.7500     11.2239      4.3225      9.7546    171.4951
