~Version Information
VERS.                      2.0: CWLS Log ASCII Standard - VERSION 2.0
WRAP.                       NO: One line per depth step
~Well Information Block
STRT.FT               800.0000: 
STOP.FT              1933.5000: 
STEP.FT                 0.2500: 
NULL.                -999.2500: 
COMP.          Pioneer Natural Resources: COMPANY
WELL.            Nova 11-14 Tr: WELL
FLD.           Purgatoire River: FIELD
LOC.           706' FNL & 1109' FWL: LOCATION
PROV.                 Colorado: PROVINCE
CNTY.               Las Animas: COUNTRY
SRVC.                Patterson: SERVICE COMPANY
DATE.          Wed Jul 20 23:28:11 2005: LOG DATE
UWI.           05 071 08434 00: UNIQUE WELL ID
~Curve Information Block
DEPT.FT            0 000 00 00: Depth
SN.Ohm-m                      : IEL Short Normal
SP.mV                         : IEL Spontaneous Potential
DIR.Ohm-m                     : IEL Induction Resistivity
GR.GAPI                       : Gamma Ray
~Parameter Information Block
~A  Depth        SN          SP         DIR          GR     
# ...
  1671.0000     21.1283    -43.3721     19.3082    108.7242
  1671.2500     22.3244    -43.4853     19.3773    107.3185
  1671.5000     23.4620    -43.6088     19.5466    104.9220
  1671.7500     24.4234    -43.6760     19.8274    103.0795
  1672.0000     25.1671    -43.6356     20.2064    101.2366
  1672.2500     25.6527    -43.4802     20.6683    101.4236
  1672.5000     25.8844    -43.2510     21.2082    104.0722
  1672.7500     26.0064    -43.0216     21.8272    106.8256
  1673.0000     26.2367    -42.8720     22.5202    110.8988
  1673.2500     26.7085    -42.8664     23.2655    112.7623
  1673.5000     27.4232    -43.0358     24.0201    113.1520
  1673.7500     28.2871    -43.3696     24.7237    111.3627
  1674.0000     29.1374    -43.8193     25.3114    105.8696
  1674.2500     29.8838    -44.3214     25.7266    101.2018
  1674.5000     30.6595    -44.8259     25.9315     94.3801
  1674.7500     31.6404    -45.3107     25.9149     90.4969
  1675.0000     32.7610    -45.7735     25.7059     86.1184
  1675.2500     33.7705    -46.2188     25.3789     84.5928
  1675.5000     34.4771    -46.6566     25.0374     85.5201
  1675.7500     34.7962    -47.1053     24.7745     88.7477
  1676.0000     34.6896    -47.5827     24.6380     97.0978
  1676.2500     34.1996    -48.0867     24.6182    103.9728
  1676.5000     33.4149    -48.5875     24.6586    113.8054
  1676.7500     32.3660    -49.0361     24.6753    118.7553
  1677.0000     31.0072    -49.3798     24.5779    122.5360
  1677.2500     29.3284    -49.5832     24.2924    122.7053
  1677.5000     27.5069    -49.6479     23.7843    120.9800
  1677.7500     25.8682    -49.6087     23.0702    119.8273
  1678.0000     24.6844    -49.5039     22.2074    119.7568
  1678.2500     23.9727    -49.3540     21.2660    120.9810
  1678.5000     23.4263    -49.1704     20.3016    123.8123
  1678.7500     22.6650    -48.9748     19.3430    125.6147
  1679.0000     21.5733    -48.7967     18.3984    127.5940
  1679.2500     20.2809    -48.6531     17.4732    128.8461
  1679.5000     18.9570    -48.5399     16.5839    132.0508
  1679.7500     17.7780    -48.4464     15.7554    135.4681
  1680.0000     16.8605    -48.3732     15.0083    141.6081
  1680.2500     16.1545    -48.3292     14.3470    145.4332
  1680.5000     15.5641    -48.3114     13.7604    150.0296
  1680.7500     15.0479    -48.2934     13.2311    152.6564
  1681.0000     14.5799    -48.2325     12.7454    156.7177
  1681.2500     14.1403    -48.0890     12.2992    159.4245
  1681.5000     13.7367    -47.8392     11.8975    162.5336
  1681.7500     13.4038    -47.4788     11.5502    163.5847
  1682.0000     13.1501    -47.0222     11.2672    164.0418
  1682.2500     12.9182    -46.4974     11.0547    164.2279
  1682.5000     12.6692    -45.9381     10.9138    165.0588
  1682.7500     12.4656    -45.3771     10.8404    165.8256
  1683.0000     12.3675    -44.8360     10.8259    165.9500
  1683.2500     12.3281    -44.3110     10.8584    164.2404
  1683.5000     12.2539    -43.7702     10.9255    157.7017
  1683.7500     12.0622    -43.1698     11.0185    150.9022
  1684.0000     11.7164    -42.4823     11.1343    139.2418
  1684.2500     11.3022    -41.7134     11.2759    132.4196
  1684.5000     11.0530    -40.8968     11.4512    126.8169
  1684.7500     11.2451    -40.0715     11.6719    127.3167
  1685.0000     12.0145    -39.2610     11.9525    134.2712
  1685.2500     13.2384    -38.4667     12.3081    141.6701
  1685.5000     14.6024    -37.6769     12.7503    153.2800
  1685.7500     15.8052    -36.8821     13.2832    159.4180
  1686.0000     16.6898    -36.0880     13.9005    164.5978
  1686.2500     17.2665    -35.3180     14.5857    165.4002
  1686.5000     17.6999    -34.5996     15.3147    163.0201
  1686.7500     18.1895    -33.9469     16.0622    159.0061
  1687.0000     18.8340    -33.3570     16.8091    149.5164
  1687.2500     19.6441    -32.8230     17.5454    141.6823
  1687.5000     20.6116    -32.3510     18.2626    129.9676
  1687.7500     21.7588    -31.9626     18.9381    123.3224
  1688.0000     23.1362    -31.6785     19.5225    115.7975
  1688.2500     24.7480    -31.4989     19.9532    112.2321
  1688.5000     26.4782    -31.3999     20.1943    108.6026
  1688.7500     28.0963    -31.3498     20.2729    107.2718
  1689.0000     29.3586    -31.3286     20.2695    106.9860
  1689.2500     30.1023    -31.3376     20.2583    107.7958
  1689.5000     30.2502    -31.3885     20.2469    109.9062
  1689.7500     29.7783    -31.4831     20.1621    111.6232
  1690.0000     28.7091    -31.6072     19.8955    114.7485
  1690.2500     27.1729    -31.7488     19.3755    117.4834
  1690.5000     25.4454    -31.9120     18.6097    122.8638
  1690.7500     23.7978    -32.1052     17.6697    127.1625
  1691.0000     22.3157    -32.3198     16.6483    134.1378
  1691.2500     20.9305    -32.5255     15.6273    139.0098
  1691.5000     19.5582    -32.6903     14.6663    146.9599
  1691.7500     18.1364    -32.8019     13.8014    152.8003
  1692.0000     16.6436    -32.8687     13.0474    161.6152
  1692.2500     15.1806    -32.8964     12.4042    166.6335
  1692.5000     13.9076    -32.8607     11.8650    171.6326
  1692.7500     12.9061    -32.7046     11.4240    173.1275
  1693.0000     12.1909    -32.3621     11.0793    173.2081
  1693.2500     11.7833    -31.7880     10.8323    172.3304
  1693.5000     11.7241    -30.9778     10.6856    170.0766
  1693.7500     12.0017    -29.9773     10.6417    167.8226
  1694.0000     12.4553    -28.8739     10.7019    162.8934
  1694.2500     12.8337    -27.7659     10.8657    158.5641
  1694.5000     13.0197    -26.7198     11.1298    150.7374
  1694.7500     13.1378    -25.7492     11.4887    144.5518
  1695.0000     13.4561    -24.8262     11.9349    133.2862
  1695.2500     14.2610    -23.9105     12.4599    124.2879
  1695.5000     15.7529    -22.9749     13.0573    109.1810
  1695.7500     18.0324    -22.0156     13.7292     99.0266
  1696.0000     21.1655    -21.0473     14.4924     86.1229
  1696.2500     24.9425    -20.0921     15.3786     80.4967
  1696.5000     28.5564    -19.1774     16.4261     77.8992
  1696.7500     31.0711    -18.3402     17.6641     79.8888
  1697.0000     32.2999    -17.6202     19.0941     86.6021
  1697.2500     32.7853    -17.0412     20.6706     91.9963
  1697.5000     33.0357    -16.6077     22.2875     98.8098
  1697.7500     33.2235    -16.3166     23.7788    101.2723
  1698.0000     33.3854    -16.1589     24.9427    100.8290
  1698.2500     33.4620    -16.1010     25.5982     98.1351
  1698.5000     33.2948    -16.0787     25.6677     92.7909
  1698.7500     32.8096    -16.0235     25.2291     90.1325
  1699.0000     32.1256    -15.8907     24.4774     89.7310
  1699.2500     31.3795    -15.6667     23.6171     92.1463
  1699.5000     30.5331    -15.3718     22.7771     98.7837
  1699.7500     29.4550    -15.0703     21.9931    104.3408
  1700.0000     28.0985    -14.8592     21.2398    113.1839
  1700.2500     26.5577    -14.8134     20.4721    118.8329
  1700.5000     24.9999    -14.9338     19.6518    125.7257
  1700.7500     23.5267    -15.1591     18.7581    128.5915
  1701.0000     22.1063    -15.4254     17.7881    129.9349
  1701.2500     20.6787    -15.6980     16.7601    129.2609
  1701.5000     19.2597    -15.9526     15.7156    127.1792
  1701.7500     17.9094    -16.1538     14.7130    125.8545
  1702.0000     16.7174    -16.2671     13.8093    125.1428
  1702.2500     15.7675    -16.2842     13.0386    126.2257
  1702.5000     15.0081    -16.2277     12.4013    131.1840
  1702.7500     14.2752    -16.1354     11.8685    136.6073
  1703.0000     13.4700    -16.0405     11.3990    145.9009
  1703.2500     12.6181    -15.9582     10.9617    151.1934
  1703.5000     11.8426    -15.8819     10.5502    156.0603
  1703.7500     11.2984    -15.7877     10.1797    157.3084
  1704.0000     10.9912    -15.6395      9.8704    157.0464
  1704.2500     10.7520    -15.3970      9.6315    155.9461
