~Version Information
VERS.                      2.0: CWLS Log ASCII Standard - VERSION 2.0
WRAP.                       NO: One line per depth step
~Well Information Block
STRT.FT               875.6000: 
STOP.FT              2510.0000: 
STEP.FT                 0.1000: 
NULL.                -999.2500: 
COMP.          Petrogulf Corporation: COMPANY
WELL.          Collister 17-31 V: WELL
FLD.           Purgatoire River: FIELD
LOC.           910' FNL & 1594' FEL: LOCATION
PROV.                 Colorado: PROVINCE
CNTY.               Las Animas: COUNTRY
SRVC.                Patterson: SERVICE COMPANY
DATE.          Fri Dec 12 13:49:30 2003: LOG DATE
UWI.                          : UNIQUE WELL ID
~Curve Information Block
DEPT.FT            0 000 00 00: Depth
DCAL.in                       : CDL Caliper
DPOR.pu                       : CDL Density Porosity
NPOR.pu                       : Neutron Porosity
RHOB.g/cc                     : CDL Bulk Density
RHOC.g/cc                     : CDL Density Correction
GR.GAPI                       : Gamma Ray
~Parameter Information Block
~A  Depth       DCAL        DPOR        NPOR        RHOB        RHOC         GR     
# ...
  1643.6000      8.0603     -0.9059     21.2466      2.6649      0.1004    128.5154
  1643.7000      8.0603     -0.7404     20.3296      2.6622      0.1189    131.7691
  1643.8000      8.0827     -0.0540     19.7426      2.6509      0.1369    128.2050
  1643.9000      8.0827      2.2210     19.9423      2.6134      0.1151    119.2376
  1644.0000      8.1304      5.0434     21.1611      2.5668      0.0106    107.4850
  1644.1000      8.1304      6.1186     22.7431      2.5490      0.0281     98.7060
  1644.2000      8.1304      5.1881     23.6973      2.5644      0.0302     97.4712
  1644.3000      8.0493      3.7370     24.0297      2.5883      0.0130    103.5884
  1644.4000      8.0493      2.8355     24.2059      2.6032      0.0501    113.1746
  1644.5000      8.0851      3.5269     24.0524      2.5918      0.1181    120.9190
  1644.6000      8.0851      6.6726     23.6901      2.5399      0.0492    123.5893
  1644.7000      8.0851     10.8189     24.1181      2.4715     -0.0224    125.7840
  1644.8000      8.0682     13.2074     25.2083      2.4321     -0.0585    133.0609
  1644.9000      8.0682     12.5177     25.7236      2.4435      0.0143    141.8237
  1645.0000      8.1350      9.6564     25.7263      2.4907      0.0480    145.2269
  1645.1000      8.1350      6.7023     25.7976      2.5394      0.0812    143.9355
  1645.2000      8.1350      4.7937     25.6390      2.5709      0.0505    142.9241
  1645.3000      8.1760      3.0298     25.0837      2.6000      0.0947    142.2254
  1645.4000      8.1760      0.8788     24.1297      2.6355      0.2354    138.1956
  1645.5000      8.1820     -0.8608     23.0324      2.6642      0.1697    131.8626
  1645.6000      8.1820     -1.6791     22.6658      2.6777      0.2060    125.8945
  1645.7000      8.1820     -1.2155     23.3180      2.6701      0.2254    120.5051
  1645.8000      8.0321     -0.1540     23.9134      2.6525      0.0875    113.8978
  1645.9000      8.0321      0.2823     23.1432      2.6453      0.0923    106.0839
  1646.0000      8.0606      0.4691     21.4089      2.6423      0.0441    100.2669
  1646.1000      8.0606      1.3510     19.9868      2.6277      0.1143     96.1720
  1646.2000      8.0606      2.8464     19.4416      2.6030      0.0368     91.7442
  1646.3000      8.1033      3.7850     19.8447      2.5875      0.0229     86.8077
  1646.4000      8.1033      4.0018     20.7225      2.5840      0.0017     83.5793
  1646.5000      8.0430      4.6206     21.3921      2.5738      0.0153     83.4354
  1646.6000      8.0430      5.7369     21.7488      2.5553     -0.0036     84.3780
  1646.7000      8.0430      6.2235     21.8376      2.5473      0.0078     85.1727
  1646.8000      8.0652      5.9676     21.5113      2.5515      0.0461     86.7438
  1646.9000      8.0652      5.8754     21.2169      2.5531      0.0557     89.8088
  1647.0000      8.1198      6.0222     21.5886      2.5506      0.0667     94.7717
  1647.1000      8.1198      6.0819     22.3282      2.5496      0.1039    100.3473
  1647.2000      8.1198      6.1270     23.1557      2.5489      0.0838    104.4098
  1647.3000      8.1085      6.1236     24.0601      2.5490      0.1049    107.3069
  1647.4000      8.1085      5.7108     24.6314      2.5558      0.0927    112.9539
  1647.5000      8.0751      4.4541     24.6844      2.5765      0.2015    117.8477
  1647.6000      8.0751      2.5847     24.6414      2.6074      0.2508    114.9444
  1647.7000      8.0751      0.9336     25.0594      2.6346      0.2825    110.7453
  1647.8000      8.0330      0.2917     25.6245      2.6452      0.2311    116.0832
  1647.9000      8.0330      0.8761     25.5767      2.6355      0.1748    126.9325
  1648.0000      7.9819      1.7337     24.9298      2.6214      0.0768    131.0891
  1648.1000      7.9819      1.3295     24.1534      2.6281      0.1522    125.6658
  1648.2000      7.9819     -0.2790     23.4247      2.6546      0.2413    117.9184
  1648.3000      8.0151     -1.7237     22.9040      2.6784      0.2398    112.9747
  1648.4000      8.0151     -2.5059     22.7256      2.6913      0.2434    114.4686
  1648.5000      8.0555     -3.3620     22.7205      2.7055      0.1888    123.5374
  1648.6000      8.0555     -4.7931     22.6469      2.7291      0.2076    131.7977
  1648.7000      8.0555     -4.9737     22.7367      2.7321      0.2057    128.5565
  1648.8000      8.0413     -2.1304     23.3834      2.6852      0.0815    115.4821
  1648.9000      8.0413      2.0634     24.0758      2.6160      0.0213    106.1856
  1649.0000      8.0458      4.6990     24.1059      2.5725      0.0438    106.6907
  1649.1000      8.0458      4.9331     23.5625      2.5686      0.0510    111.4663
  1649.2000      8.0458      4.2935     22.9225      2.5792      0.0339    119.4601
  1649.3000      8.0691      4.7191     22.6016      2.5721      0.0860    133.0068
  1649.4000      8.0691      6.7521     22.8923      2.5386      0.0384    144.7340
  1649.5000      8.0897      9.1767     23.7830      2.4986     -0.0276    147.7795
  1649.6000      8.0897      9.8168     24.6212      2.4880     -0.0508    146.9711
  1649.7000      8.0897      8.5812     24.8334      2.5084      0.1091    147.2843
  1649.8000      8.1270      8.2567     24.8214      2.5138      0.0480    145.2005
  1649.9000      8.1270     10.0908     25.1002      2.4835      0.0474    139.7432
  1650.0000      8.1429     12.4923     25.6791      2.4439     -0.0216    136.2959
  1650.1000      8.1429     13.6672     26.3293      2.4245      0.0490    138.7478
  1650.2000      8.1429     12.8785     26.6386      2.4375     -0.0768    148.1661
  1650.3000      8.1481     10.6341     26.4754      2.4745      0.0420    161.8847
  1650.4000      8.1481      8.6271     26.1900      2.5077      0.0943    175.0361
  1650.5000      8.1369      7.8703     25.9851      2.5201      0.1476    180.6887
  1650.6000      8.1369      7.9189     26.0557      2.5193      0.0928    177.7366
  1650.7000      8.1369      7.6830     26.6761      2.5232      0.0496    173.9447
  1650.8000      8.1747      6.4250     27.8477      2.5440      0.0896    172.1297
  1650.9000      8.1747      4.3668     29.1351      2.5779      0.1734    173.4233
  1651.0000      8.1870      2.6455     29.7583      2.6063      0.2313    179.3628
  1651.1000      8.1870      2.3611     29.5212      2.6110      0.1543    183.9526
  1651.2000      8.1870      3.3050     29.0478      2.5955      0.1046    183.5596
  1651.3000      8.2365      4.3498     28.7367      2.5782      0.0441    181.6120
  1651.4000      8.2365      5.0476     28.3821      2.5667      0.1050    178.2306
  1651.5000      8.2322      6.2035     27.7571      2.5476      0.0621    170.6252
  1651.6000      8.2322      8.3039     27.1922      2.5130      0.0464    162.2196
  1651.7000      8.2322     10.8270     27.1181      2.4714      0.0312    154.7383
  1651.8000      8.2090     12.9795     26.9242      2.4358      0.0162    146.6225
  1651.9000      8.2090     14.3634     25.7741      2.4130      0.0082    141.2699
  1652.0000      8.1774     15.3353     24.2329      2.3970      0.0558    143.4677
  1652.1000      8.1774     16.5583     23.3390      2.3768      0.0874    154.4421
  1652.2000      8.1774     17.5613     23.2163      2.3602     -0.0175    168.9234
  1652.3000      8.2064     17.2448     23.5658      2.3655      0.0788    174.8996
  1652.4000      8.2064     16.2057     24.1329      2.3826      0.0965    167.4438
  1652.5000      8.1967     15.8787     24.6489      2.3880      0.1809    156.3780
  1652.6000      8.1967     16.9353     24.8496      2.3706      0.2533    151.6296
  1652.7000      8.1967     19.0364     24.6020      2.3359      0.2507    151.9514
  1652.8000      8.2105     20.9402     24.1562      2.3045      0.1703    153.6316
  1652.9000      8.2105     20.8920     23.9587      2.3053      0.2465    159.0838
  1653.0000      8.2166     16.9965     24.2075      2.3696      0.2437    168.0255
  1653.1000      8.2166      9.2152     24.6883      2.4979      0.4213    173.9748
