~Version Information
VERS.                      2.0: CWLS Log ASCII Standard - VERSION 2.0
WRAP.                       NO: One line per depth step
~Well Information Block
STRT.FT               360.0000: 
STOP.FT              2515.2000: 
STEP.FT                 0.1000: 
NULL.                -999.2500: 
COMP.          Pioneer Natural Resources: COMPANY
WELL.            Rancher 12-35: WELL
FLD.           Purgatoire River: FIELD
LOC.           2131' FNL & 297' FWL: LOCATION
PROV.                 Colorado: PROVINCE
CNTY.               Las Animas: COUNTRY
SRVC.                Patterson: SERVICE COMPANY
DATE.          Tue Oct 12 09:11:02 2004: LOG DATE
UWI.           05 071 08179 00: UNIQUE WELL ID
~Curve Information Block
DEPT.FT            0 000 00 00: Depth
DCAL.in                       : CDL Caliper
RHOB.g/cc                     : CDL Bulk Density
RHOC.g/cc                     : CDL Density Correction
DPOR.pu                       : CDL Density Porosity
NPOR.pu                       : Neutron Porosity
GR.GAPI                       : Gamma Ray
~Parameter Information Block
~A  Depth       DCAL        RHOB        RHOC        DPOR        NPOR         GR     
# ...
  1348.8000      8.4504      2.4538     -0.0029     11.8894     23.1392    140.1591
  1348.9000      8.4504      2.4661      0.0285     11.1430     23.1038    138.4503
  1349.0000      8.4333      2.4811      0.0190     10.2364     23.2927    132.1169
  1349.1000      8.4333      2.4951      0.0130      9.3897     23.3219    126.2427
  1349.2000      8.4333      2.5085      0.0192      8.5787     23.2725    130.5397
  1349.3000      8.3845      2.5214      0.0624      7.7914     23.6483    140.2349
  1349.4000      8.3845      2.5260      0.0554      7.5161     24.3691    145.4964
  1349.5000      8.3388      2.5183      0.0316      7.9814     24.7131    146.7826
  1349.6000      8.3388      2.5067      0.0584      8.6868     24.5236    146.6349
  1349.7000      8.3388      2.4990      0.0240      9.1525     24.4694    144.9899
  1349.8000      8.3197      2.4949      0.0594      9.3982     25.0412    142.1994
  1349.9000      8.3197      2.4888     -0.0011      9.7670     25.8160    139.2582
  1350.0000      8.3125      2.4748      0.0306     10.6184     26.1272    137.7609
  1350.1000      8.3125      2.4448      0.0361     12.4385     25.7906    136.1606
  1350.2000      8.3125      2.4027      0.0016     14.9869     25.1838    133.4722
  1350.3000      8.3098      2.3647     -0.0283     17.2938     24.8011    132.9678
  1350.4000      8.3098      2.3351     -0.0277     19.0845     24.4369    136.6275
  1350.5000      8.3197      2.2973      0.0013     21.3775     23.4986    141.7327
  1350.6000      8.3197      2.2349     -0.0346     25.1558     22.2467    145.6629
  1350.7000      8.3197      2.1642     -0.1051     29.4442     21.6828    145.9541
  1350.8000      8.3598      2.1096     -0.0425     32.7499     21.8191    140.5444
  1350.9000      8.3598      2.0726     -0.0149     34.9944     21.7852    134.4125
  1351.0000      8.4301      2.0541     -0.0127     36.1174     21.5991    133.1203
  1351.1000      8.4301      2.0538      0.0481     36.1320     21.7183    136.5475
  1351.2000      8.4301      2.0565      0.1213     35.9693     21.8486    141.6241
  1351.3000      8.5039      2.0683      0.1597     35.2526     21.8590    146.3434
  1351.4000      8.5039      2.1237      0.2103     31.8970     22.2516    145.0057
  1351.5000      8.6168      2.2216      0.3620     25.9611     23.0005    135.2791
  1351.6000      8.6168      2.3132      0.4121     20.4122     23.7803    127.0859
  1351.7000      8.6168      2.3620      0.3792     17.4551     24.6325    126.7194
  1351.8000      8.7788      2.3576      0.4040     17.7217     25.4735    129.7887
  1351.9000      8.7788      2.2952      0.2930     21.5054     25.6431    133.7808
  1352.0000      8.8734      2.1865      0.2085     28.0901     24.7201    140.1475
  1352.1000      8.8734      2.0530      0.1683     36.1822     22.9138    144.8631
  1352.2000      8.8734      1.9134      0.0905     44.6414     20.3519    144.1138
  1352.3000      8.8588      1.7842      0.0656     52.4750     17.1795    141.2180
  1352.4000      8.8588      1.6512      0.0528     60.5357     14.0571    140.0919
  1352.5000      8.8309      1.4779     -0.0956     71.0392     11.3236    139.0650
  1352.6000      8.8309      1.2778     -0.1854     83.1665      8.8920    134.7919
  1352.7000      8.8309      1.1507     -0.3060     90.8689      7.0927    128.1236
  1352.8000      8.8316      1.1913     -0.3165     88.4040      6.2819    122.8811
  1352.9000      8.8316      1.3046     -0.1104     81.5424      6.3193    122.6557
  1353.0000      8.8865      1.2826     -0.0320     82.8698      6.7925    127.7937
  1353.1000      8.8865      1.1934     -0.1874     88.2804      7.4415    133.7361
  1353.2000      8.8865      1.2957      0.2711     82.0812      8.3753    136.4260
  1353.3000      9.0795      1.5738      0.5266     65.2232      9.8504    135.3775
  1353.4000      9.0795      1.8352      0.5931     49.3822     11.7500    131.9916
  1353.5000      9.3857      2.0088      0.6690     38.8590     13.5165    128.0081
  1353.6000      9.3857      2.1092      0.6996     32.7780     15.0929    123.5826
  1353.7000      9.3857      2.1660      0.6456     29.3303     17.0524    119.0893
  1353.8000      9.6106      2.2430      0.5196     24.6678     19.2089    117.0833
  1353.9000      9.6106      2.3850      0.5097     16.0614     20.7444    119.1037
  1354.0000      9.4726      2.5426      0.5885      6.5117     21.5636    121.1189
  1354.1000      9.4726      2.6346      0.4845      0.9317     22.2320    119.5743
  1354.2000      9.4726      2.6655      0.3348     -0.9399     23.0137    115.3274
  1354.3000      9.0062      2.7004      0.3498     -3.0574     23.6733    110.4778
  1354.4000      9.0062      2.7584      0.4713     -6.5683     24.2067    106.5760
  1354.5000      8.6641      2.7929      0.5791     -8.6612     24.9208    104.7298
  1354.6000      8.6641      2.7611      0.4156     -6.7331     25.3234    105.5187
  1354.7000      8.6641      2.6562      0.2945     -0.3748     24.6432    108.1181
  1354.8000      8.5681      2.4692      0.1089     10.9599     23.2567    111.2756
  1354.9000      8.5681      2.1875     -0.0996     28.0305     21.8445    115.0799
  1355.0000      8.5748      1.8592     -0.3094     47.9259     20.5145    116.6194
  1355.1000      8.5748      1.5985     -0.4494     63.7283     19.1944    115.4142
  1355.2000      8.5748      1.4901     -0.3563     70.2945     17.7038    118.7565
  1355.3000      8.6631      1.5355     -0.1241     67.5470     16.0295    127.4299
  1355.4000      8.6631      1.6950      0.0366     57.8785     14.6224    132.6326
  1355.5000      8.8459      1.9203      0.3173     44.2228     13.9755    131.9241
  1355.6000      8.8459      2.1526      0.5444     30.1450     14.1042    131.8824
  1355.7000      8.8459      2.3437      0.6059     18.5663     14.8680    135.9595
  1355.8000      9.0307      2.4744      0.6301     10.6448     16.3117    139.9188
  1355.9000      9.0307      2.5500      0.5836      6.0601     18.1419    140.0276
  1356.0000      9.1348      2.5968      0.5050      3.2219     19.6880    138.7568
  1356.1000      9.1348      2.6379      0.4738      0.7338     20.8598    137.2918
  1356.2000      9.1348      2.6676      0.4953     -1.0647     22.0222    133.2342
  1356.3000      9.0995      2.6738      0.4537     -1.4427     23.2451    128.4173
  1356.4000      9.0995      2.6647      0.3546     -0.8909     24.2352    128.2866
  1356.5000      8.8692      2.6582      0.2663     -0.4948     24.3810    130.9601
  1356.6000      8.8692      2.6600      0.2388     -0.6087     23.7138    129.3532
  1356.7000      8.8692      2.6556      0.2188     -0.3371     22.9839    123.4996
  1356.8000      8.5560      2.6276      0.1672      1.3583     22.5089    119.4734
  1356.9000      8.5560      2.5741      0.1132      4.5994     22.0977    119.4102
  1357.0000      8.3598      2.5128      0.0242      8.3161     21.3669    120.7194
  1357.1000      8.3598      2.4723     -0.0306     10.7680     20.3021    120.7079
  1357.2000      8.3598      2.4597     -0.0032     11.5341     19.2966    119.8234
  1357.3000      8.2992      2.4531      0.0076     11.9338     18.5096    119.9672
  1357.4000      8.2992      2.4375      0.0104     12.8784     17.9862    121.6216
  1357.5000      8.2907      2.4157      0.0057     14.2024     17.6970    121.9687
  1357.6000      8.2907      2.4058     -0.0234     14.7975     17.3807    118.9880
  1357.7000      8.2907      2.4238      0.0149     13.7068     16.9379    116.1518
  1357.8000      8.3068      2.4493      0.0682     12.1638     16.6317    114.4231
  1357.9000      8.3068      2.4507      0.0405     12.0769     16.5735    113.4332
  1358.0000      8.3585      2.4322     -0.0010     13.2026     16.6730    117.5133
  1358.1000      8.3585      2.4212     -0.0042     13.8667     17.1363    123.5051
  1358.2000      8.3585      2.4335     -0.0063     13.1198     17.9541    123.6577
  1358.3000      8.3737      2.4638      0.0303     11.2877     18.5804    121.9460
