~Version Information
VERS.                      2.0: CWLS Log ASCII Standard - VERSION 2.0
WRAP.                       NO: One line per depth step
~Well Information Block
STRT.FT                -1.5000: 
STOP.FT              1317.0000: 
STEP.FT                 0.2500: 
NULL.                -999.2500: 
COMP.          Pioneer Natural Resources: COMPANY
WELL.              Border 21-3: WELL
FLD.           Purgatoire River: FIELD
LOC.           865' FNL & 1415' FWL: LOCATION
PROV.                 Colorado: PROVINCE
CNTY.               Las Animas: COUNTRY
SRVC.                Patterson: SERVICE COMPANY
DATE.          Tue Dec 14 14:08:05 2004: LOG DATE
UWI.           05 071 08169 00: UNIQUE WELL ID
~Curve Information Block
DEPT.FT            0 000 00 00: Depth
GR.GAPI                       : Gamma Ray
CCL.                          : Casing Collar Locator
TT3.usec                      : CBL 3' Travel Time
AMP3.mV                       : CBL 3' Amplitude
~Parameter Information Block
~A  Depth        GR         CCL         TT3         AMP3    
# ...
  1003.5000    143.2781      0.0000    687.1147      6.7589
  1003.7500    140.5295      0.0000    703.8041      6.7744
  1004.0000    135.8500      0.0000    734.5485      6.7591
  1004.2500    128.5416      0.0000    771.7789      6.6907
  1004.5000    119.3038      0.0000    801.1672      6.5933
  1004.7500    110.5649      0.0000    812.0873      6.5094
  1005.0000    105.1463      2.0000    805.1396      6.4516
  1005.2500    104.4388     -2.0000    789.1682      6.4008
  1005.5000    107.7193     -2.0000    772.7765      6.3395
  1005.7500    113.0153      0.0000    759.2686      6.2845
  1006.0000    118.6114      0.0000    747.7346      6.2913
  1006.2500    123.8792      0.0000    737.1316      6.4115
  1006.5000    128.9029      0.0000    728.5192      6.6293
  1006.7500    133.5414      0.0000    723.4865      6.8525
  1007.0000    136.7564      0.0000    721.8405      6.9917
  1007.2500    136.8383      0.0000    721.7399      7.0360
  1007.5000    132.7467      0.0000    721.5334      7.0370
  1007.7500    125.4335      0.0000    720.9884      7.0434
  1008.0000    117.5496      0.0000    721.2578      7.0703
  1008.2500    111.6729      0.0000    723.8677      7.1091
  1008.5000    108.9463      0.0000    729.2276      7.1438
  1008.7500    109.1583      0.0000    735.8840      7.1629
  1009.0000    111.5559      0.0000    741.2762      7.1626
  1009.2500    115.3066      0.0000    743.2310      7.1437
  1009.5000    119.6326      0.0000    741.1284      7.1050
  1009.7500    123.9625      0.0000    736.2475      7.0448
  1010.0000    127.8324      0.0000    730.9551      6.9679
  1010.2500    130.5216      0.0000    727.1697      6.8894
  1010.5000    131.1631      0.0000    725.5043      6.8289
  1010.7500    129.4297      0.0000    725.7713      6.8003
  1011.0000    125.8022      0.0000    727.8648      6.8048
  1011.2500    121.0778      0.0000    731.9056      6.8315
  1011.5000    115.7761      0.0000    737.6716      6.8653
  1011.7500    109.9653      0.0000    744.1364      6.8968
  1012.0000    103.5978      0.0000    749.6811      6.9276
  1012.2500     96.9926      0.0000    752.8270      6.9646
  1012.5000     90.9044      0.0000    752.8478      7.0077
  1012.7500     86.1199      0.0000    749.8370      7.0451
  1013.0000     83.1714      0.0000    744.5206      7.0610
  1013.2500     82.3936      0.0000    738.2427      7.0479
  1013.5000     84.0218      0.0000    732.8011      7.0085
  1013.7500     88.0248      0.0000    729.8018      6.9487
  1014.0000     93.8910      0.0000    730.0337      6.8736
  1014.2500    100.7787      0.0000    733.1909      6.7933
  1014.5000    108.0033      0.0000    737.6614      6.7241
  1014.7500    115.2715      0.0000    740.7523      6.6758
  1015.0000    122.4102      0.0000    740.0381      6.6322
  1015.2500    128.9475      0.0000    735.1042      6.5480
  1015.5000    134.0257      0.0000    728.0339      6.3729
  1015.7500    136.7903      0.0000    722.3989      6.0885
  1016.0000    136.9863      0.0000    721.5787      5.7264
  1016.2500    135.0376      0.0000    726.8693      5.3518
  1016.5000    131.3130      0.0000    736.3345      5.0281
  1016.7500    125.5841      0.0000    745.8994      4.7933
  1017.0000    117.7881      0.0000    752.0879      4.6563
  1017.2500    109.2855      0.0000    753.7612      4.6055
  1017.5000    102.7857      0.0000    751.8699      4.6179
  1017.7500    100.7671      0.0000    748.7026      4.6649
  1018.0000    104.0947      0.0000    747.3950      4.7200
  1018.2500    111.8726      0.0000    750.8317      4.7713
  1018.5000    121.9772      0.0000    759.7971      4.8337
  1018.7500    131.5812      0.0000    771.8772      4.9450
  1019.0000    138.0107      0.0000    782.4354      5.1434
  1019.2500    140.1430      0.0000    787.4001      5.4407
  1019.5000    139.3081      0.0000    785.9530      5.8081
  1019.7500    138.3139      0.0000    780.6995      6.1875
  1020.0000    139.1984      0.0000    775.1564      6.5186
  1020.2500    141.9465      0.0000    771.2818      6.7612
  1020.5000    145.2688      0.0000    769.1719      6.9009
  1020.7500    148.0775      0.0000    768.1750      6.9480
  1021.0000    149.9590      0.0000    767.7137      6.9328
  1021.2500    150.7055      0.0000    767.3353      6.8948
  1021.5000    150.0513      0.0000    766.4453      6.8642
  1021.7500    148.0065      0.0000    764.1682      6.8488
  1022.0000    145.2454      0.0000    759.5972      6.8359
  1022.2500    142.8373      0.0000    752.4236      6.8087
  1022.5000    141.2153      0.0000    743.4619      6.7634
  1022.7500    139.4063      0.0000    734.5192      6.7133
  1023.0000    135.7016      0.0000    727.6238      6.6765
  1023.2500    129.3607      0.0000    724.0751      6.6609
  1023.5000    121.6218      0.0000    723.7867      6.6614
  1023.7500    114.9777      0.0000    725.4106      6.6700
  1024.0000    111.3490      0.0000    727.2975      6.6839
  1024.2500    110.7014      0.0000    728.4659      6.7024
  1024.5000    111.1852      0.0000    728.7973      6.7208
  1024.7500    110.5691      0.0000    728.6290      6.7315
  1025.0000    107.8523      0.0000    728.3330      6.7307
  1025.2500    103.9372      0.0000    728.1340      6.7201
  1025.5000    100.8249      0.0000    728.0952      6.7013
  1025.7500     99.8777      0.0000    728.1680      6.6719
  1026.0000    100.6766      0.0000    728.2606      6.6309
  1026.2500    101.6090      0.0000    728.2984      6.5868
  1026.5000    101.4570      0.0000    728.2646      6.5529
  1026.7500    100.2200      0.0000    728.2007      6.5342
  1027.0000     98.4892      0.0000    728.1764      6.5235
  1027.2500     96.4480      0.0000    728.2544      6.5122
  1027.5000     93.7988      0.0000    728.4608      6.5019
  1027.7500     90.5342      0.0000    728.7697      6.5031
  1028.0000     87.2935      0.0000    729.0833      6.5242
  1028.2500     84.7785      0.0000    729.1802      6.5638
  1028.5000     83.1640      0.0000    728.6598      6.6114
  1028.7500     82.3838      0.0000    727.0710      6.6537
  1029.0000     82.7793      0.0000    724.5205      6.6798
  1029.2500     85.0537      0.0000    722.4814      6.6829
  1029.5000     89.4056      0.0000    723.5721      6.6590
  1029.7500     94.8807      0.0000    729.5873      6.6077
  1030.0000     99.8782      0.0000    739.4658      6.5362
  1030.2500    103.4081      0.0000    749.7082      6.4608
  1030.5000    105.6085      0.0000    756.8655      6.4008
  1030.7500    106.9459      0.0000    759.3147      6.3678
  1031.0000    107.2895      0.0000    757.1871      6.3595
  1031.2500    106.2262      0.0000    751.7229      6.3621
  1031.5000    104.1914      0.0000    744.8671      6.3611
  1031.7500    102.7935      0.0000    738.5793      6.3483
  1032.0000    103.6391      0.0000    733.8177      6.3241
  1032.2500    106.8303      0.0000    730.0913      6.2957
  1032.5000    110.8531      0.0000    725.9868      6.2754
  1032.7500    113.9029      0.0000    720.1861      6.2767
  1033.0000    115.0989      0.0000    712.4052      6.3059
  1033.2500    114.5896      0.0000    703.7371      6.3580
  1033.5000    113.0180      0.0000    696.0014      6.4211
  1033.7500    111.0939      0.0000    690.5273      6.4836
  1034.0000    109.4329      0.0000    687.4706      6.5354
  1034.2500    108.4500      0.0000    686.1345      6.5671
  1034.5000    108.1358      0.0000    685.6978      6.5720
  1034.7500    108.0239      0.0000    685.6514      6.5498
  1035.0000    107.6087      0.0000    685.8134      6.5055
  1035.2500    106.6619      0.0000    686.1558      6.4480
  1035.5000    104.8865      0.0000    686.6502      6.3883
  1035.7500    101.6023      0.0000    687.1981      6.3374
  1036.0000     96.2612      0.0000    687.6546      6.2998
  1036.2500     89.2271      0.0000    687.9061      6.2715
  1036.5000     81.8227      0.0000    687.9304      6.2445
  1036.7500     75.6898      0.0000    687.7855      6.2141
