~Version Information
VERS.                      2.0: CWLS Log ASCII Standard - VERSION 2.0
WRAP.                       NO: One line per depth step
~Well Information Block
STRT.FT               451.7500: 
STOP.FT              1387.0000: 
STEP.FT                 0.2500: 
NULL.                -999.2500: 
COMP.          Petrogulf Corporation: COMPANY
WELL.          Great Plains 22-22R: WELL
FLD.           Purgatoire River: FIELD
LOC.           2042' FNL & 1657' FWL--: LOCATION
PROV.                 Colorado: PROVINCE
CNTY.               Las Animas: COUNTRY
SRVC.                Patterson: SERVICE COMPANY
DATE.          Fri Sep 09 10:42:01 2005: LOG DATE
UWI.           05 071 08028 00: UNIQUE WELL ID
~Curve Information Block
DEPT.FT            0 000 00 00: Depth
SP.mV                         : DIL Spontaneous Potential
RILD.Ohm-m                    : DIL Deep Resistivity
RILM.Ohm-m                    : DIL Medium Resistivity
RLL3.Ohm-m                    : DIL Shallow Resistivity
GR.GAPI                       : Gamma Ray
~Parameter Information Block
~A  Depth        SP         RILD        RILM        RLL3         GR     
# ...
   927.7500     83.4079      6.9975      6.6971      7.8577    132.1970
   928.0000     83.2182      7.2868      6.9824      8.6452    129.9824
   928.2500     82.9396      7.6461      7.3500      9.7456    127.5334
   928.5000     82.5635      8.0844      7.8133     11.1051    121.8647
   928.7500     82.0893      8.6111      8.3924     12.5912    117.2282
   929.0000     81.5273      9.2349      9.1172     14.2642    110.1254
   929.2500     80.8979      9.9649     10.0305     16.8230    105.2893
   929.5000     80.2287     10.8130     11.1914     21.8779     96.8391
   929.7500     79.5516     11.7962     12.6766     31.6614     90.0592
   930.0000     78.8978     12.9367     14.5784     48.1060     79.0239
   930.2500     78.2921     14.2548     16.9954     71.7152     72.1189
   930.5000     77.7476     15.7599     20.0149    100.9742     63.7800
   930.7500     77.2641     17.4421     23.6866    132.7603     59.6946
   931.0000     76.8316     19.2710     27.9955    163.3628     55.2231
   931.2500     76.4367     21.1995     32.8466    189.3224     53.0240
   931.5000     76.0712     23.1605     38.0648    208.0369     50.7309
   931.7500     75.7369     25.0538     43.3956    218.5912     49.8910
   932.0000     75.4488     26.7352     48.4872    222.2094     49.7340
   932.2500     75.2302     28.0373     52.8578    220.9724     50.5175
   932.5000     75.1067     28.8252     55.9037    215.2922     53.6213
   932.7500     75.0985     29.0513     57.0553    202.9181     57.3607
   933.0000     75.2132     28.7602     56.0886    181.1566     65.4402
   933.2500     75.4417     28.0474     53.3468    150.4066     71.7459
   933.5000     75.7597     27.0113     49.5858    115.4409     80.6507
   933.7500     76.1379     25.7310     45.5600     83.0762     85.3876
   934.0000     76.5521     24.2687     41.7228     58.4261     90.2274
   934.2500     76.9889     22.6828     38.1940     42.9861     91.8217
   934.5000     77.4445     21.0402     34.8869     35.4949     91.5144
   934.7500     77.9237     19.4154     31.6614     33.7709     89.8953
   935.0000     78.4381     17.8785     28.4384     35.5199     87.6596
   935.2500     79.0015     16.4824     25.2452     38.1337     88.0129
   935.5000     79.6215     15.2562     22.1954     38.9169     92.8851
   935.7500     80.2919     14.2082     19.4287     36.2791     98.7432
   936.0000     80.9912     13.3310     17.0521     30.6690    109.7331
   936.2500     81.6893     12.6068     15.1110     24.0139    117.3825
   936.5000     82.3601     12.0094     13.5933     18.1959    127.3678
   936.7500     82.9895     11.5070     12.4502     14.0634    131.8994
   937.0000     83.5759     11.0658     11.6174     11.5427    134.3083
   937.2500     84.1259     10.6560     11.0287     10.2353    133.2220
   937.5000     84.6484     10.2584     10.6209      9.8275    129.6285
   937.7500     85.1505      9.8688     10.3348     10.1704    127.5456
   938.0000     85.6354      9.4963     10.1148     11.1691    126.8743
   938.2500     86.1024      9.1573      9.9128     12.5931    128.2198
   938.5000     86.5460      8.8682      9.6953     13.9515    131.8139
   938.7500     86.9545      8.6414      9.4501     14.6212    134.5273
   939.0000     87.3102      8.4832      9.1875     14.2327    138.4653
   939.2500     87.5954      8.3939      8.9337     12.9674    140.7301
   939.5000     87.8001      8.3672      8.7204     11.4244    142.6100
   939.7500     87.9254      8.3891      8.5731     10.1812    142.3077
   940.0000     87.9840      8.4395      8.5061      9.4840    139.7426
   940.2500     87.9962      8.4947      8.5201      9.2793    137.4316
   940.5000     87.9856      8.5340      8.6037      9.4243    134.4037
   940.7500     87.9742      8.5453      8.7356      9.8371    132.8400
   941.0000     87.9777      8.5291      8.8868     10.4958    130.4742
   941.2500     88.0026      8.4971      9.0248     11.3242    128.3971
   941.5000     88.0480      8.4666      9.1201     12.0855    124.4050
   941.7500     88.1083      8.4542      9.1565     12.4292    121.6506
   942.0000     88.1767      8.4712      9.1374     12.1144    118.7985
   942.2500     88.2453      8.5221      9.0855     11.2154    118.3883
   942.5000     88.3062      8.6054      9.0340     10.0928    119.9851
   942.7500     88.3533      8.7132      9.0154      9.1675    122.0593
   943.0000     88.3848      8.8332      9.0517      8.7130    126.0149
   943.2500     88.4021      8.9511      9.1491      8.7835    128.8906
   943.5000     88.4090      9.0542      9.2988      9.2525    132.4344
   943.7500     88.4077      9.1358      9.4809      9.9054    133.4142
   944.0000     88.3956      9.1972      9.6719     10.5430    132.1345
   944.2500     88.3640      9.2477      9.8526     11.0450    129.8267
   944.5000     88.3008      9.3015     10.0132     11.3679    125.4840
   944.7500     88.1966      9.3731     10.1547     11.5162    122.7028
   945.0000     88.0483      9.4738     10.2861     11.5268    119.5148
   945.2500     87.8569      9.6099     10.4193     11.4641    118.2592
   945.5000     87.6231      9.7823     10.5640     11.3989    117.5817
   945.7500     87.3441      9.9858     10.7252     11.3702    117.6792
   946.0000     87.0126     10.2103     10.9039     11.3645    118.1079
   946.2500     86.6183     10.4430     11.0998     11.3432    118.3468
   946.5000     86.1510     10.6718     11.3129     11.3014    118.5026
   946.7500     85.6050     10.8878     11.5438     11.3011    118.4115
   947.0000     84.9814     11.0864     11.7922     11.4456    117.5755
   947.2500     84.2879     11.2659     12.0542     11.8164    116.3402
   947.5000     83.5367     11.4269     12.3216     12.4200    113.8341
   947.7500     82.7435     11.5735     12.5833     13.1718    112.2677
   948.0000     81.9254     11.7151     12.8292     13.9203    110.6058
   948.2500     81.1007     11.8659     13.0536     16.6030    109.8747
   948.5000     80.2889     12.0394     13.2561     16.9770    109.2781
   948.7500     79.5102     12.2420     13.4411     17.0449    109.4956
   949.0000     78.7820     12.4677     13.6180     16.8367    111.2051
   949.2500     78.1138     12.6996     13.8000     16.4348    113.0502
   949.5000     77.5039     12.9157     14.0009     16.0327    115.7041
   949.7500     76.9442     13.0974     14.2304     15.9275    116.7006
   950.0000     76.4266     13.2352     14.4884     16.3620    116.5835
   950.2500     75.9497     13.3295     14.7624     17.3238    115.6773
   950.5000     75.5190     13.3886     15.0277     18.4984    113.9755
   950.7500     75.1448     13.4239     15.2529     19.4458    113.0368
   951.0000     74.8387     13.4467     15.4096     19.8678    112.0453
   951.2500     74.6104     13.4655     15.4847     19.7475    111.5546
   951.5000     74.4660     13.4853     15.4870     19.2702    111.1956
   951.7500     74.4077     13.5076     15.4443     18.6465    111.4567
   952.0000     74.4345     13.5301     15.3903     18.0174    112.7172
   952.2500     74.5426     13.5483     15.3499     17.4747    113.8848
   952.5000     74.7256     13.5559     15.3285     17.0995    115.6281
   952.7500     74.9768     13.5470     15.3123     16.9490    116.7289
   953.0000     75.2891     13.5187     15.2754     17.0149    118.3713
   953.2500     75.6527     13.4730     15.1929     17.2090    119.2617
   953.5000     76.0523     13.4161     15.0517     17.3955    119.4092
   953.7500     76.4673     13.3556     14.8562     17.4510    118.3682
   954.0000     76.8760     13.2981     14.6271     17.3183    115.8240
   954.2500     77.2571     13.2489     14.3948     17.0231    114.5908
   954.5000     77.5910     13.2128     14.1920     16.6514    114.9496
   954.7500     77.8625     13.1942     14.0440     16.3177    116.4344
   955.0000     78.0659     13.1959     13.9635     16.1408    118.3547
   955.2500     78.2061     13.2174     13.9491     16.2074    118.1375
   955.5000     78.2967     13.2555     13.9887     16.5166    115.2103
