~Version Information
VERS.                      2.0: CWLS Log ASCII Standard - VERSION 2.0
WRAP.                       NO: One line per depth step
~Well Information Block
STRT.FT                -3.0000: 
STOP.FT              1828.0000: 
STEP.FT                 0.2500: 
NULL.                -999.2500: 
COMP.          Pioneer Natural Resources: COMPANY
WELL.           Guajardo 24-16: WELL
FLD.           Purgatorie River: FIELD
LOC.           883' FSL & 2147' FWL--: LOCATION
PROV.                       CO: PROVINCE
CNTY.               Las Animas: COUNTRY
SRVC.          Patterson Wireline: SERVICE COMPANY
DATE.          Wed Aug 10 11:02:25 2005: LOG DATE
UWI.           05 071 08377 00: UNIQUE WELL ID
~Curve Information Block
DEPT.FT            0 000 00 00: Depth
CCL.                          : Casing Collar Locator
TT3.usec                      : CBL 3' Travel Time
AMP3.mV                       : CBL 3' Amplitude
GR.GAPI                       : Gamma Ray
~Parameter Information Block
~A  Depth       CCL         TT3         AMP3         GR     
    -3.0000   -999.2500   -999.2500   -999.2500     64.8187
    -2.7500   -999.2500   -999.2500   -999.2500     69.1863
    -2.5000   -999.2500   -999.2500   -999.2500     72.0192
    -2.2500   -999.2500   -999.2500   -999.2500     72.4608
    -2.0000   -999.2500   -999.2500   -999.2500     71.2317
    -1.7500   -999.2500   -999.2500   -999.2500     69.6080
    -1.5000   -999.2500   -999.2500   -999.2500     68.8725
    -1.2500   -999.2500   -999.2500   -999.2500     70.1303
    -1.0000   -999.2500   -999.2500   -999.2500     73.5875
    -0.7500   -999.2500   -999.2500   -999.2500     78.0371
    -0.5000   -999.2500   -999.2500   -999.2500     81.6862
    -0.2500   -999.2500   -999.2500   -999.2500     83.4623
     0.0000   -999.2500   -999.2500   -999.2500     83.3348
     0.2500   -999.2500   -999.2500   -999.2500     80.4013
     0.5000   -999.2500   -999.2500   -999.2500     79.7458
     0.7500   -999.2500   -999.2500   -999.2500     80.1304
     1.0000   -999.2500   -999.2500   -999.2500     80.5734
     1.2500   -999.2500   -999.2500   -999.2500     80.1527
     1.5000   -999.2500   -999.2500   -999.2500     79.2890
     1.7500   -999.2500   1149.0000      1.8648     79.3817
     2.0000   -999.2500   1149.0000      1.8586     81.1736
     2.2500   -999.2500   1149.0000      1.8567     83.9031
     2.5000   -999.2500   1149.0000      1.8566     86.1151
     2.7500   -999.2500   1149.0000      1.8558     86.8162
     3.0000   -999.2500   1149.0000      1.8548     85.5755
     3.2500   -999.2500   1149.0000      1.8563     82.0170
     3.5000   -999.2500   1149.0000      1.8615     75.9800
     3.7500   -999.2500   1149.0000      1.8674     68.2568
     4.0000   -999.2500   1149.0000      1.8690     60.6526
     4.2500   -999.2500   1149.0000      1.8645     54.9030
     4.5000   -999.2500   1149.0000      1.8575     51.4259
     4.7500   -999.2500   1149.0000      1.8535     49.1358
     5.0000   -999.2500   1149.0000      1.8541     46.4886
     5.2500   -999.2500   1149.0000      1.8564     42.7236
     5.5000   -999.2500   1149.0000      1.8575     38.2824
     5.7500   -999.2500   1149.0000      1.8569     34.3753
     6.0000   -999.2500   1149.0000      1.8562     32.2186
     6.2500   -999.2500   1149.0000      1.8565     32.3964
     6.5000   -999.2500   1149.0000      1.8582     34.7670
     6.7500   -999.2500   1149.0000      1.8612     38.8340
     7.0000   -999.2500   1149.0000      1.8651     43.8244
     7.2500   -999.2500   1149.0000      1.8692     48.5313
     7.5000      0.0000   1149.0000      1.8726     51.8669
     7.7500      0.0000   1149.0000      1.8733     53.7682
     8.0000      0.0000   1149.0000      1.8692     55.0234
     8.2500      0.0000   1149.0000      1.8612     56.1420
     8.5000      0.0000   1149.0000      1.8542     56.7649
     8.7500      0.0000   1149.0000      1.8527     56.1552
     9.0000      0.0000   1149.0000      1.8575     54.0308
     9.2500      0.0000   1149.0000      1.8648     50.9310
     9.5000      0.0000   1149.0000      1.8704     47.8742
     9.7500      0.0000   1149.0000      1.8723     45.7577
    10.0000      0.0000   1149.0000      1.8717     45.1165
    10.2500      0.0000   1149.0000      1.8719     46.1534
    10.5000      0.0000   1149.0000      1.8759     48.5438
    10.7500      0.0000   1149.0000      1.8830     51.2232
    11.0000      0.0000   1149.0000      1.8885     52.9492
    11.2500      0.0000   1149.0000      1.8881     53.3448
    11.5000      0.0000   1149.0000      1.8819     53.0784
    11.7500      0.0000   1149.0000      1.8734     52.8911
    12.0000      0.0000   1149.0000      1.8649     52.7947
    12.2500      0.0000   1149.0000      1.8564     52.3307
    12.5000      1.1896   1148.9429      1.8498     51.1280
    12.7500      0.0000   1148.5682      1.8587     48.9519
    13.0000      2.0000   1146.6624      1.9435     45.7376
    13.2500      0.0000   1139.1080      2.3074     42.0841
    13.5000      0.0000   1115.7734      3.4544     39.4688
    13.7500      0.0000   1059.5952      6.2640     39.4232
    14.0000      0.0000    954.1571     11.6652     42.2925
    14.2500      0.0000    799.8424     19.8310     46.8636
    14.5000      0.0000    623.6671     29.5511     51.2115
    14.7500      0.0000    466.7040     38.6712     53.9244
    15.0000      0.0000    357.5106     45.4302     54.8245
    15.2500      0.0000    298.1581     49.4068     54.8409
    15.5000      0.0000    272.9270     51.2953     55.1335
    15.7500      0.0000    264.5248     52.0611     56.0514
    16.0000      0.0000    262.3241     52.3697     56.8685
    16.2500      0.0000    261.8648     52.5198     56.6542
    16.5000      0.0000    261.7854     52.6026     55.2870
    16.7500      0.0000    261.7819     52.6383     53.4129
    17.0000      0.0000    261.7878     52.6348     51.5692
    17.2500      0.0000    261.8012     52.5992     49.7323
    17.5000      0.0000    261.8213     52.5383     47.7688
    17.7500      0.0000    261.8468     52.4578     46.0567
    18.0000      0.0000    261.8757     52.3647     45.4675
    18.2500      0.0000    261.9060     52.2669     46.6388
    18.5000      0.0000    261.9348     52.1721     49.1974
    18.7500      0.0000    261.9586     52.0861     51.7644
    19.0000      0.0000    261.9748     52.0159     52.8020
    19.2500      0.0000    261.9822     51.9701     51.4921
    19.5000      0.0000    261.9823     51.9524     48.0367
    19.7500      0.0000    261.9792     51.9544     43.4570
    20.0000      0.0000    261.9781     51.9582     39.0482
    20.2500      0.0000    261.9822     51.9509     35.6720
    20.5000      0.0000    261.9903     51.9358     33.3744
    20.7500      0.0000    261.9978     51.9285     31.7560
    21.0000      0.0000    262.0005     51.9416     30.6862
    21.2500      0.0000    261.9981     51.9726     30.4032
    21.5000      0.0000    261.9938     52.0066     30.8831
    21.7500      0.0000    261.9915     52.0268     31.4293
    22.0000      0.0000    261.9933     52.0212     31.1349
    22.2500      0.0000    261.9994     51.9854     29.6664
    22.5000      0.0000    262.0078     51.9265     27.5130
    22.7500      0.0000    262.0160     51.8611     25.6279
    23.0000      0.0000    262.0226     51.8076     24.9479
    23.2500      0.0000    262.0258     51.7837     26.0694
    23.5000      0.0000    262.0231     51.8075     28.9719
    23.7500      0.0000    262.0113     51.8920     32.9539
    24.0000      0.0000    261.9911     52.0311     37.2712
    24.2500      0.0000    261.9683     52.1921     42.0883
    24.5000      0.0000    261.9501     52.3323     48.3237
    24.7500      0.0000    261.9399     52.4281     56.1613
    25.0000      0.0000    261.9348     52.4892     64.2531
    25.2500      0.0000    261.9289     52.5420     70.9559
    25.5000      0.0000    261.9185     52.6014     75.9413
    25.7500      0.0000    261.9050     52.6626     80.0707
    26.0000      0.0000    261.8918     52.7162     84.0511
    26.2500      0.0000    261.8803     52.7616     87.8643
    26.5000      0.0000    261.8712     52.8022     91.4461
    26.7500      0.0000    261.8663     52.8326     95.2480
    27.0000      0.0000    261.8689     52.8388     99.6181
    27.2500      0.0000    261.8799     52.8097    103.8452
    27.5000      0.0000    261.8976     52.7446    106.4531
    27.7500      0.0000    261.9182     52.6527    106.6018
    28.0000      0.0000    261.9376     52.5498    104.7881
    28.2500      0.0000    261.9524     52.4535    102.0985
    28.5000      0.0000    261.9624     52.3740     99.2940
    28.7500      0.0000    261.9707     52.3076     96.7014
    29.0000      0.0000    261.9824     52.2405     94.3467
    29.2500      0.0000    262.0022     52.1600     91.8100
    29.5000      0.0000    262.0335     52.0632     88.4254
    29.7500      0.0000    262.0779     51.9559     84.1551
    30.0000      0.0000    262.1358     51.8498     80.2594
    30.2500      0.0000    262.2048     51.7612     78.7151
