~Version Information
VERS.                      2.0: CWLS Log ASCII Standard - VERSION 2.0
WRAP.                       NO: One line per depth step
~Well Information Block
STRT.FT               742.0000: 
STOP.FT              2582.0000: 
STEP.FT                 0.2500: 
NULL.                -999.2500: 
COMP.          Petrogulf Corporation: COMPANY
WELL.            Montoya 7-12V: WELL
FLD.           Purgatorie River: FIELD
LOC.           728' FWL & 1764' FNL: LOCATION
CNTY.               Las Animas: COUNTY
SRVC.                         : SERVICE COMPANY
DATE.          Thu Feb 19 20:58:32 2004: LOG DATE
UWI.           05-071-07887-00: UNIQUE WELL ID
STAT.                 Colorado: STATE
~Curve Information Block
DEPT.FT            0 000 00 00: Depth
SP.mV                         : DIL Spontaneous Potential
RILD.Ohm-m                    : DIL Deep Resistivity
RILM.Ohm-m                    : DIL Medium Resistivity
RLL3.Ohm-m                    : DIL Shallow Resistivity
GR.GAPI                       : Gamma Ray
~Parameter Information Block
~A  Depth        SP         RILD        RILM        RLL3         GR     
# ...
  1246.0000   -172.9613     39.2130     27.1300     38.6046    141.6127
  1246.2500   -172.7370     38.4127     26.7872     40.0377    142.2250
  1246.5000   -172.6408     37.9908     26.7529     41.4168    140.9709
  1246.7500   -172.6208     37.9750     27.0632     43.7110    139.7439
  1247.0000   -172.6503     38.4183     27.7716     48.4219    137.7841
  1247.2500   -172.7153     39.3672     28.9225     56.8859    135.8500
  1247.5000   -172.8040     40.8340     30.5379     69.3592    130.4122
  1247.7500   -172.9056     42.7878     32.6188     84.3821    124.6222
  1248.0000   -173.0182     45.1691     35.1507     99.1607    113.6553
  1248.2500   -173.1620     47.9271     38.1062    110.9638    106.0329
  1248.5000   -173.3863     51.0629     41.4410    118.4823     95.9620
  1248.7500   -173.7640     54.6540     45.0890    122.1069     90.8821
  1249.0000   -174.3725     58.8358     48.9702    123.1738     86.6396
  1249.2500   -175.2745     63.7352     53.0105    123.1029     86.1255
  1249.5000   -176.5074     69.3739     57.1588    123.2242     87.3277
  1249.7500   -178.0824     75.5766     61.3773    125.1753     87.9804
  1250.0000   -179.9865     81.9440     65.5926    130.8766     86.8634
  1250.2500   -182.1795     87.9500     69.6222    141.2504     84.3529
  1250.5000   -184.5829     93.1313     73.1416    154.3866     78.1284
  1250.7500   -187.0725     97.2406     75.7706    165.3116     72.8583
  1251.0000   -189.4938    100.2677     77.2882    168.7245     65.0387
  1251.2500   -191.7050    102.3788     77.8162    163.0251     61.1804
  1251.5000   -193.6216    103.8581     77.7798    151.8839     58.9618
  1251.7500   -195.2266    105.0443     77.6813    141.5153     59.8930
  1252.0000   -196.5453    106.2321     77.8923    136.1323     63.5833
  1252.2500   -197.6094    107.5801     78.5995    135.8139     66.4688
  1252.5000   -198.4389    109.0905     79.8685    138.2838     69.8115
  1252.7500   -199.0395    110.6527     81.7207    142.3224     70.8521
  1253.0000   -199.4082    112.1120     84.1442    149.5921     70.6546
  1253.2500   -199.5380    113.3278     87.0359    163.5304     69.8392
  1253.5000   -199.4212    114.1992     90.1373    186.2997     68.5786
  1253.7500   -199.0542    114.6442     93.0464    216.0305     67.8832
  1254.0000   -198.4431    114.5473     95.3196    246.5050     66.3024
  1254.2500   -197.6094    113.7528     96.6005    269.8196     64.3018
  1254.5000   -196.5932    112.1636     96.7045    280.0647     60.0665
  1254.7500   -195.4526    109.8822     95.6584    275.2010     57.4326
  1255.0000   -194.2546    107.2170     93.7067    256.5582     55.8216
  1255.2500   -193.0624    104.4996     91.2571    227.8626     56.9188
  1255.5000   -191.9248    101.8707     88.7613    194.9103     61.5855
  1255.7500   -190.8717     99.2112     86.5958    164.5860     66.0403
  1256.0000   -189.9129     96.2571     85.0060    142.1915     73.0686
  1256.2500   -189.0380     92.7813     84.1004    128.9413     77.0331
  1256.5000   -188.2226     88.7190     83.8488    122.4978     81.1471
  1256.7500   -187.4347     84.1790     84.0697    120.5741     82.8317
  1257.0000   -186.6379     79.3844     84.4174    124.2643     84.2518
  1257.2500   -185.7887     74.5856     84.3981    137.6860     84.4350
  1257.5000   -184.8395     69.9916     83.4319    163.4262     83.1998
  1257.7500   -183.7512     65.7427     80.9915    196.8641     81.3525
  1258.0000   -182.5119     61.9174     76.8264    224.8409     77.6836
  1258.2500   -181.1474     58.5454     71.1664    232.2675     75.3940
  1258.5000   -179.7157     55.6177     64.6845    212.7643     74.0848
  1258.7500   -178.2879     53.0958     58.1881    173.5708     75.7996
  1259.0000   -176.9285     50.9254     52.2838    129.8297     83.0881
  1259.2500   -175.6839     49.0444     47.2533     94.2330     90.3205
  1259.5000   -174.5802     47.3744     43.1229     71.2647    101.7923
  1259.7500   -173.6259     45.8112     39.7941     58.5509    108.3182
  1260.0000   -172.8176     44.2402     37.1414     51.4083    115.8136
  1260.2500   -172.1482     42.5830     35.0528     46.4133    119.9359
  1260.5000   -171.6121     40.8415     33.4353     42.4928    125.7801
  1260.7500   -171.2056     39.0960     32.2064     40.0527    129.2918
  1261.0000   -170.9235     37.4597     31.2897     39.5402    133.1895
  1261.2500   -170.7574     36.0251     30.6156     40.6729    134.9279
  1261.5000   -170.6929     34.8421     30.1224     42.5815    137.5345
  1261.7500   -170.7066     33.9272     29.7587     44.3315    140.0152
  1262.0000   -170.7675     33.2870     29.4863     45.3099    144.7712
  1262.2500   -170.8420     32.9277     29.2910     45.3310    147.8839
  1262.5000   -170.9015     32.8365     29.1960     44.5142    151.2661
  1262.7500   -170.9261     32.9441     29.2655     43.1082    152.4053
  1263.0000   -170.9040     33.0926     29.5831     41.5509    152.5514
  1263.2500   -170.8278     33.0471     30.2066     40.8480    151.8488
  1263.5000   -170.6938     32.5658     31.1085     42.8223    150.0019
  1263.7500   -170.5017     31.5036     32.1210     49.5758    148.0979
  1264.0000   -170.2555     29.8758     32.9052     61.9389    143.1678
  1264.2500   -169.9605     27.8384     33.0030     77.6800    138.0075
  1264.5000   -169.6211     25.6106     32.0187     91.2905    128.1420
  1264.7500   -169.2383     23.3974     29.8662     96.6693    121.4464
  1265.0000   -168.8105     21.3462     26.8615     91.1680    113.6819
  1265.2500   -168.3397     19.5351     23.5398     77.2251    110.8762
  1265.5000   -167.8402     17.9831     20.3763     60.0415    110.5050
  1265.7500   -167.3434     16.6695     17.6415     44.0293    112.6695
  1266.0000   -166.8913     15.5544     15.4179     31.2859    119.0148
  1266.2500   -166.5205     14.5946     13.6772     22.1787    124.6057
  1266.5000   -166.2470     13.7529     12.3462     16.2917    132.9628
  1266.7500   -166.0634     13.0017     11.3440     12.9021    137.1786
  1267.0000   -165.9467     12.3241     10.5978     11.2133    140.0677
  1267.2500   -165.8732     11.7124     10.0478     10.5469    139.7777
  1267.5000   -165.8293     11.1653      9.6469     10.4417    137.5793
  1267.7500   -165.8151     10.6840      9.3584     10.6457    136.3387
  1268.0000   -165.8384     10.2687      9.1530     11.0454    137.0939
  1268.2500   -165.9079      9.9185      9.0060     11.5806    140.0052
  1268.5000   -166.0286      9.6318      8.8975     12.1772    147.3777
  1268.7500   -166.2016      9.4077      8.8130     12.7272    153.1637
  1269.0000   -166.4219      9.2462      8.7447     13.1201    160.7818
  1269.2500   -166.6762      9.1464      8.6899     13.2952    163.8961
  1269.5000   -166.9431      9.1050      8.6488     13.2715    164.4982
  1269.7500   -167.2003      9.1157      8.6222     13.1355    162.6607
  1270.0000   -167.4366      9.1693      8.6104     12.9877    159.0869
  1270.2500   -167.6615      9.2558      8.6133     12.8798    157.6355
  1270.5000   -167.9064      9.3660      8.6304     12.7850    157.6479
  1270.7500   -168.2157      9.4925      8.6631     12.6312    158.6197
  1271.0000   -168.6344      9.6291      8.7145     12.3726    160.3744
  1271.2500   -169.1968      9.7686      8.7906     12.0403    161.4221
  1271.5000   -169.9190      9.9028      8.8988     11.7420    162.7578
  1271.7500   -170.7969     10.0229      9.0462     11.6268    163.4314
  1272.0000   -171.8071     10.1228      9.2357     11.8416    163.5381
  1272.2500   -172.9102     10.2022      9.4633     12.4741    162.4289
  1272.5000   -174.0555     10.2676      9.7157     13.4876    158.2872
  1272.7500   -175.1899     10.3303      9.9722     14.6824    154.2257
  1273.0000   -176.2687     10.4027     10.2103     15.7449    148.4143
  1273.2500   -177.2667     10.4949     10.4127     16.3997    146.2868
  1273.5000   -178.1848     10.6136     10.5737     16.5711    147.1169
  1273.7500   -179.0460     10.7625     10.7007     16.4136    150.1803
