~Version Information
VERS.                      2.0: CWLS Log ASCII Standard - VERSION 2.0
WRAP.                       NO: One line per depth step
~Well Information Block
STRT.FT               750.0000: 
STOP.FT              2431.5000: 
STEP.FT                 0.1000: 
NULL.                -999.2500: 
COMP.          Petrogulf Corporation: COMPANY
WELL.           McDaniel 9-34V: WELL
FLD.           Purgatorie River: FIELD
LOC.           620' FSL & 1800' FEL: LOCATION
PROV.                 Colorado: PROVINCE
CNTY.               Las Animas: COUNTRY
SRVC.                Patterson: SERVICE COMPANY
DATE.          Wed Sep 28 07:18:04 2005: LOG DATE
UWI.                          : UNIQUE WELL ID
~Curve Information Block
DEPT.FT            0 000 00 00: Depth
DCAL.in                       : CDL Caliper
RHOB.g/cc                     : CDL Bulk Density
RHOC.g/cc                     : CDL Density Correction
DPOR.pu                       : CDL Density Porosity
GR.GAPI                       : Gamma Ray
NPOR.pu                       : Neutron Porosity
~Parameter Information Block
~A  Depth       DCAL        RHOB        RHOC        DPOR         GR         NPOR    
   750.0000      8.1845      1.9769     -0.5441     40.7911    107.8502     33.8856
   750.1000      8.1845      1.9776     -0.6008     40.7543    105.6552     33.3333
   750.2000      8.1845      1.9820     -0.6465     40.4837     99.8051     32.9648
   750.3000      8.1871      2.0003     -0.6294     39.3739     94.0673     33.1479
   750.4000      8.1871      2.0178     -0.5517     38.3135     89.4017     33.7010
   750.5000      8.1950      2.0065     -0.5818     38.9995     85.9208     34.1898
   750.6000      8.1950      1.9550     -0.5996     42.1227     84.7600     34.3871
   750.7000      8.1950      1.8745     -0.6699     47.0006     82.3764     34.3511
   750.8000      8.2064      1.7800     -0.6562     52.7266     76.6911     34.2979
   750.9000      8.2064      1.6867     -0.7378     58.3845     70.7741     34.0855
   751.0000      8.2032      1.6125     -0.7841     62.8772     64.4637     33.6786
   751.1000      8.2032      1.5653     -0.7886     65.7400     56.5278     33.5416
   751.2000      8.2032      1.5449     -0.7948     66.9761     50.1361     33.7870
   751.3000      8.2134      1.5458     -0.7748     66.9226     47.5553     34.2100
   751.4000      8.2134      1.5539     -0.7510     66.4275     47.1422     34.7621
   751.5000      8.2117      1.5606     -0.7895     66.0238     47.5294     35.2435
   751.6000      8.2117      1.5573     -0.7247     66.2215     48.7304     35.3322
   751.7000      8.2117      1.5380     -0.8095     67.3942     48.8944     34.9255
   751.8000      8.2095      1.5211     -0.8549     68.4209     46.5177     34.1120
   751.9000      8.2095      1.5310     -0.8174     67.8153     43.9200     33.2121
   752.0000      8.2039      1.5710     -0.8110     65.3948     43.8800     32.8016
   752.1000      8.2039      1.6251     -0.6970     62.1130     46.5402     33.1956
   752.2000      8.2039      1.6730     -0.7371     59.2098     49.9029     34.0048
   752.3000      8.2007      1.7011     -0.6696     57.5071     53.5412     34.6736
   752.4000      8.2007      1.7086     -0.7362     57.0558     58.0952     34.9577
   752.5000      8.1965      1.7138     -0.7677     56.7392     61.1227     34.7732
   752.6000      8.1965      1.7283     -0.7302     55.8590     61.2718     34.1978
   752.7000      8.1965      1.7402     -0.7338     55.1383     60.6299     33.6978
   752.8000      8.1878      1.7428     -0.7337     54.9832     62.6883     33.8119
   752.9000      8.1878      1.7482     -0.7916     54.6559     69.2482     34.3064
   753.0000      8.1715      1.7682     -0.7171     53.4396     77.0284     34.4221
   753.1000      8.1715      1.7992     -0.7396     51.5661     79.6154     34.0217
   753.2000      8.1715      1.8402     -0.6904     49.0803     76.0060     33.7497
   753.3000      8.1701      1.8944     -0.6876     45.7953     73.5821     34.0231
   753.4000      8.1701      1.9400     -0.5540     43.0291     77.6064     34.3289
   753.5000      8.1668      1.9489     -0.6104     42.4927     84.4218     34.1151
   753.6000      8.1668      1.9333     -0.6322     43.4390     88.4883     33.5395
   753.7000      8.1668      1.9256     -0.6074     43.9030     89.8367     33.0203
   753.8000      8.1636      1.9314     -0.5254     43.5492     91.6325     32.8717
   753.9000      8.1636      1.9335     -0.5616     43.4242     95.0046     33.1276
   754.0000      8.1587      1.9258     -0.6100     43.8914     99.1932     33.6084
   754.1000      8.1587      1.9205     -0.5668     44.2143    103.3530     34.2888
   754.2000      8.1587      1.9319     -0.6175     43.5187    105.1049     35.0124
   754.3000      8.1629      1.9645     -0.5400     41.5468    103.7872     35.3925
   754.4000      8.1629      1.9992     -0.5467     39.4444    103.5199     35.4102
   754.5000      8.1683      2.0084     -0.4880     38.8834    104.8590     35.1100
   754.6000      8.1683      1.9881     -0.5679     40.1147    104.4089     34.6398
   754.7000      8.1683      1.9755     -0.6300     40.8760    101.7841     34.4635
   754.8000      8.1679      2.0038     -0.5449     39.1656     99.8858     34.5579
   754.9000      8.1679      2.0437     -0.4417     36.7480    101.3950     34.3414
   755.0000      8.1740      2.0564     -0.5241     35.9754    103.5653     33.6046
   755.1000      8.1740      2.0533     -0.5292     36.1648    101.1420     32.9527
   755.2000      8.1740      2.0484     -0.4892     36.4598     95.0019     33.0025
   755.3000      8.1695      2.0329     -0.4897     37.4030     92.1361     33.5878
   755.4000      8.1695      2.0048     -0.5150     39.1057     94.8608     34.0814
   755.5000      8.1737      1.9737     -0.5145     40.9887     97.0435     33.9765
   755.6000      8.1737      1.9498     -0.5884     42.4357     95.9316     33.3958
   755.7000      8.1737      1.9403     -0.6535     43.0149     95.3232     33.1072
   755.8000      8.1734      1.9468     -0.6266     42.6193     97.3349     33.5369
   755.9000      8.1734      1.9600     -0.5529     41.8160    100.2745     34.3309
   756.0000      8.1738      1.9639     -0.5896     41.5819     99.8810     34.8925
   756.1000      8.1738      1.9454     -0.5017     42.7021     94.9755     34.8020
   756.2000      8.1738      1.9045     -0.6009     45.1848     89.1873     34.2916
   756.3000      8.1788      1.8606     -0.6455     47.8396     84.8574     33.7978
   756.4000      8.1788      1.8198     -0.6362     50.3157     81.2281     33.6261
   756.5000      8.1855      1.7663     -0.6910     53.5582     78.7437     33.8724
   756.6000      8.1855      1.7034     -0.6853     57.3669     77.9583     34.1555
   756.7000      8.1855      1.6661     -0.7913     59.6321     78.3810     34.2980
   756.8000      8.1868      1.6894     -0.7642     58.2179     80.6749     34.4279
   756.9000      8.1868      1.7735     -0.7281     53.1242     82.8728     34.7165
   757.0000      8.1902      1.8860     -0.6676     46.3036     82.3925     34.9812
   757.1000      8.1902      1.9882     -0.5628     40.1104     81.3808     34.8287
   757.2000      8.1902      2.0600     -0.6177     35.7581     82.3094     34.4350
   757.3000      8.1932      2.1061     -0.5655     32.9631     83.6890     34.2469
   757.4000      8.1932      2.1297     -0.5682     31.5340     83.6804     34.2842
   757.5000      8.1974      2.1158     -0.5015     32.3746     83.0645     34.1838
   757.6000      8.1974      2.0532     -0.5859     36.1723     83.0999     33.8758
   757.7000      8.1974      1.9620     -0.6151     41.6950     83.5239     33.7561
   757.8000      8.1964      1.8723     -0.6623     47.1333     83.5797     33.9906
   757.9000      8.1964      1.7960     -0.6982     51.7549     82.9548     34.1801
   758.0000      8.1999      1.7349     -0.6871     55.4595     80.1787     34.0198
   758.1000      8.1999      1.6989     -0.7853     57.6397     75.2707     33.7452
   758.2000      8.1999      1.6974     -0.7595     57.7332     72.0698     33.6731
   758.3000      8.1963      1.7100     -0.6726     56.9679     72.2516     33.8159
   758.4000      8.1963      1.7178     -0.7911     56.4990     73.7026     34.0786
   758.5000      8.1888      1.7317     -0.7424     55.6563     75.6087     34.3520
   758.6000      8.1888      1.7510     -0.7046     54.4861     78.2818     34.4977
   758.7000      8.1888      1.7515     -0.6579     54.4560     81.0957     34.4744
   758.8000      8.1883      1.7332     -0.7747     55.5625     84.4585     34.1583
   758.9000      8.1883      1.7252     -0.7463     56.0497     88.0280     33.4937
   759.0000      8.1845      1.7266     -0.6876     55.9666     88.9278     33.1621
   759.1000      8.1845      1.7165     -0.7390     56.5767     86.0968     33.5957
   759.2000      8.1845      1.7045     -0.7297     57.3019     83.1891     34.1323
   759.3000      8.1849      1.7098     -0.7196     56.9841     84.0734     34.3534
   759.4000      8.1849      1.7334     -0.6742     55.5516     86.9831     34.3195
   759.5000      8.1833      1.7664     -0.6968     53.5493     87.3326     34.1096
