~Version Information
VERS.                      2.0: CWLS Log ASCII Standard - VERSION 2.0
WRAP.                       NO: One line per depth step
~Well Information Block
STRT.FT                 0.0000: 
STOP.FT              1390.5000: 
STEP.FT                 0.2500: 
NULL.                -999.2500: 
COMP.          Petrogulf Corporation: COMPANY
WELL.             Leier 17-42R: WELL
FLD.           Purgatorie River: FIELD
LOC.           2398' FNL & 1109' FEL: LOCATION
PROV.                 Colorado: PROVINCE
CNTY.               Las Animas: COUNTRY
SRVC.                Patterson: SERVICE COMPANY
DATE.          Thu Nov 10 14:34:29 2005: LOG DATE
UWI.                          : UNIQUE WELL ID
~Curve Information Block
DEPT.FT            0 000 00 00: Depth
CCL.                          : Casing Collar Locator
TT3.usec                      : CBL 3' Travel Time
AMP3.mV                       : CBL 3' Amplitude
GR.GAPI                       : Gamma Ray
~Parameter Information Block
~A  Depth       CCL         TT3         AMP3         GR     
# ...
   469.0000      0.0000    583.5463     14.6058     95.6375
   469.2500      0.0000    591.0011     14.2980     99.6618
   469.5000      0.0000    605.7177     13.9761    105.8691
   469.7500      0.0000    616.4190     13.6935    111.1286
   470.0000      0.0000    620.8074     13.4304    113.4117
   470.2500      0.0000    621.9695     13.1414    113.0995
   470.5000      0.0000    622.2363     12.8219    112.1333
   470.7500      0.0000    622.6238     12.5169    112.0886
   471.0000      0.0000    624.4545     12.2762    113.2433
   471.2500      0.0000    630.0605     12.1091    115.1769
   471.5000      0.0000    640.8557     11.9839    117.5220
   471.7500      0.0000    654.2320     11.8662    119.8512
   472.0000      0.0000    664.9577     11.7543    121.2861
   472.2500      0.0000    670.5665     11.6647    120.8809
   472.5000      0.0000    672.5627     11.5996    118.7058
   472.7500      0.0000    673.1650     11.5551    116.3109
   473.0000      0.0000    673.4104     11.5285    115.4379
   473.2500      0.0000    673.5519     11.5078    115.9422
   473.5000      0.0000    673.7899     11.4872    115.5865
   473.7500      0.0000    674.3657     11.4844    112.4651
   474.0000      0.0000    675.2333     11.5101    107.1703
   474.2500      0.0000    676.0472     11.5445    102.0902
   474.5000      0.0000    676.4694     11.5617     99.1507
   474.7500      0.0000    676.1164     11.5426     98.7932
   475.0000      0.0000    673.9071     11.4836    100.4714
   475.2500      0.0000    667.7141     11.4296    103.3014
   475.5000      0.0000    656.2350     11.4510    106.4050
   475.7500      0.0000    642.2212     11.5637    109.0833
   476.0000      0.0000    631.1837     11.7149    110.7320
   476.2500      0.0000    625.8948     11.8567    110.8036
   476.5000      0.0000    625.4711     11.9838    109.2654
   476.7500      0.0000    628.7197     12.0857    107.0621
   477.0000      0.0000    633.8339     12.1216    105.6539
   477.2500      0.0000    636.4514     12.0630    105.8731
   477.5000      0.0000    633.7065     11.9049    107.2823
   477.7500      0.0000    628.3405     11.6339    108.6055
   478.0000      0.0000    624.4406     11.2762    108.6783
   478.2500      0.0000    623.2864     10.9713    107.1241
   478.5000      0.0000    625.4464     10.8505    104.5388
   478.7500      0.0000    632.6840     10.8162    102.1859
   479.0000      0.0000    644.0070     10.6010    101.1965
   479.2500      0.0000    649.3397     10.1427    101.7633
   479.5000      0.0000    635.1073      9.7865    103.0191
   479.7500      0.0000    606.3707      9.8270    103.5733
   480.0000      0.0000    593.3199      9.9572    102.1614
   480.2500      0.0000    613.8420      9.7624     98.0592
   480.5000      0.0000    646.4810      9.4004     91.2658
   480.7500      0.0000    664.7375      9.1747     82.5533
   481.0000      2.0000    670.4413      9.0736     73.3469
   481.2500     -2.0000    677.9081      9.0167     65.2642
   481.5000      0.0000    687.5685      9.0087     59.4164
   481.7500      0.0000    690.7912      9.0051     56.0184
   482.0000      0.0000    686.5385      8.9310     54.6152
   482.2500      0.0000    671.1818      8.8659     54.6285
   482.5000      0.0000    637.1478      8.9156     55.6618
   482.7500      0.0000    601.4296      8.8589     57.3014
   483.0000      0.0000    593.3533      8.5055     58.7792
   483.2500      0.0000    609.4940      8.1962     59.2543
   483.5000      0.0000    623.7933      8.2714     58.6963
   483.7500      0.0000    627.6129      8.6326     58.1087
   484.0000      0.0000    630.7255      9.0742     58.4806
   484.2500      0.0000    637.9126      9.5174     59.6253
   484.5000      0.0000    643.0158      9.9678     60.1962
   484.7500      0.0000    638.6669     10.4411     58.8376
   485.0000      0.0000    622.2593     10.8982     55.3982
   485.2500      0.0000    599.6921     11.2754     51.1806
   485.5000      0.0000    582.9298     11.5846     47.9982
   485.7500      0.0000    573.2072     11.9155     46.8685
   486.0000      0.0000    556.6846     12.3414     47.4764
   486.2500      0.0000    529.6396     12.8483     48.7601
   486.5000      0.0000    510.6891     13.3429     49.9142
   486.7500      0.0000    521.6360     13.7061     50.9436
   487.0000      0.0000    567.4793     13.8299     52.5401
   487.2500      0.0000    627.9938     13.6527     55.6696
   487.5000      0.0000    670.1500     13.2222     61.1208
   487.7500      0.0000    679.3801     12.7151     68.9608
   488.0000      0.0000    671.0930     12.2968     78.1997
   488.2500      0.0000    667.5209     11.9487     87.1687
   488.5000      0.0000    672.4373     11.5480     94.4805
   488.7500      0.0000    675.1950     11.0636     99.8355
   489.0000      0.0000    669.4323     10.5576    103.9479
   489.2500      0.0000    657.0016     10.0858    107.6276
   489.5000      0.0000    642.8733      9.6715    110.9393
   489.7500      0.0000    632.1005      9.3114    113.2956
   490.0000      0.0000    626.6544      8.9941    114.1681
   490.2500      0.0000    625.0424      8.7183    113.6525
   490.5000      0.0000    625.3107      8.4680    112.5433
   490.7500      0.0000    627.1362      8.2113    111.8076
   491.0000      0.0000    631.4426      7.9219    111.7058
   491.2500      0.0000    636.2779      7.5874    111.5309
   491.5000      0.0000    632.0402      7.2447    110.4145
   491.7500      0.0000    608.2586      6.9734    108.3006
   492.0000      0.0000    569.5195      6.8271    106.0666
   492.2500      0.0000    534.5199      6.8136    105.0370
   492.5000      0.0000    516.6193      6.8992    106.4700
   492.7500      0.0000    514.2411      7.0231    110.9860
   493.0000      0.0000    518.6707      7.1436    117.8943
   493.2500      0.0000    525.4151      7.2429    125.1670
   493.5000      0.0000    537.9955      7.3110    130.6191
   493.7500      0.0000    561.6478      7.3471    133.4276
   494.0000      0.0000    594.4559      7.3595    134.1986
   494.2500      0.0000    628.2692      7.3802    133.3639
   494.5000      0.0000    657.3834      7.4535    130.0247
   494.7500      0.0000    680.8273      7.5829    122.9818
   495.0000      0.0000    697.4136      7.7458    112.8174
   495.2500      0.0000    704.5753      7.9447    102.3873
   495.5000      0.0000    704.7836      8.1756     94.8936
   495.7500      0.0000    705.2904      8.3698     91.7032
   496.0000      0.0000    707.0313      8.4348     92.2872
   496.2500      0.0000    705.2318      8.3704     95.7435
   496.5000      0.0000    700.7034      8.2670    101.4192
   496.7500      0.0000    698.0910      8.1882    108.1419
   497.0000      0.0000    696.5628      8.1359    114.0567
   497.2500      0.0000    691.0522      8.0995    117.9358
   497.5000      0.0000    681.8032      8.0870    120.1233
   497.7500      0.0000    675.0688      8.1198    121.7317
   498.0000      0.0000    672.4357      8.2129    123.2843
   498.2500      0.0000    668.4506      8.3706    124.5970
   498.5000      0.0000    659.1064      8.5735    125.7061
   498.7500      0.0000    647.4077      8.7858    127.1470
   499.0000      0.0000    640.2007      9.0066    129.0414
   499.2500      0.0000    639.5808      9.2698    130.5722
   499.5000      0.0000    640.0394      9.5897    130.9658
   499.7500      0.0000    636.5212      9.9162    130.4444
   500.0000      0.0000    630.8242     10.1600    129.6725
   500.2500      0.0000    626.7988     10.2832    128.8650
   500.5000      0.0000    624.4518     10.3293    127.8429
   500.7500      0.0000    620.2036     10.3569    126.2802
   501.0000      0.0000    610.1846     10.3768    123.5305
   501.2500      0.0000    597.6080     10.3735    118.9399
   501.5000      0.0000    597.1627     10.3510    112.9001
   501.7500      0.0000    620.4219     10.2977    107.0505
   502.0000      0.0000    659.3356     10.1745    102.8688
   502.2500      0.0000    695.6000      9.9841    100.4469
