~Version Information
VERS.                      2.0: CWLS Log ASCII Standard - VERSION 2.0
WRAP.                       NO: One line per depth step
~Well Information Block
STRT.FT               418.4000: 
STOP.FT              1170.0000: 
STEP.FT                 0.1000: 
NULL.                -999.2500: 
COMP.          Evergreen Operating Corporation: COMPANY
WELL.             Bernice 21-3: WELL
FLD.           Purgatoire River: FIELD
LOC.           201' FNL & 2575' FWL: LOCATION
PROV.                 Colorado: PROVINCE
CNTY.               Las Animas: COUNTRY
SRVC.                Patterson: SERVICE COMPANY
DATE.          Mon Jan 26 14:55:16 2004: LOG DATE
UWI.             05 071 07912 : UNIQUE WELL ID
~Curve Information Block
DEPT.FT            0 000 00 00: Depth
DCAL.in                       : CDL Caliper
RHOB.g/cc                     : CDL Bulk Density
RHOC.g/cc                     : CDL Density Correction
DPOR.pu                       : CDL Density Porosity
NPOR.pu                       : Neutron Porosity
GR.GAPI                       : Gamma Ray
~Parameter Information Block
~A  Depth       DCAL        RHOB        RHOC        DPOR        NPOR         GR     
# ...
   802.4000      7.9897      2.3252      0.0008     19.6842     15.0111    127.8439
   802.5000      7.9833      2.2713     -0.0125     22.9537     14.3645    123.4570
   802.6000      7.9833      2.2166     -0.0380     26.2637     14.2588    123.3876
   802.7000      7.9833      2.1603     -0.0366     29.6769     13.8406    131.1914
   802.8000      7.9756      2.0910     -0.0228     33.8812     13.3006    139.3949
   802.9000      7.9756      2.0158     -0.0819     38.4348     14.2501    138.1838
   803.0000      7.9667      1.9724     -0.0469     41.0645     17.0222    130.7184
   803.1000      7.9667      1.9903      0.0344     39.9814     19.8567    124.9572
   803.2000      7.9667      2.0738      0.0805     34.9212     21.2309    122.4595
   803.3000      7.9222      2.2080      0.2467     26.7871     21.2205    122.0252
   803.4000      7.9222      2.3487      0.3873     18.2593     21.0739    122.6854
   803.5000      7.9055      2.4429      0.4563     12.5534     21.6558    121.9233
   803.6000      7.9055      2.4685      0.4015     11.0003     22.2164    121.3881
   803.7000      7.9055      2.4416      0.3043     12.6290     21.0545    121.6992
   803.8000      7.9246      2.3911      0.2388     15.6881     18.6484    116.2111
   803.9000      7.9246      2.3382      0.1057     18.8960     16.9170    106.6576
   804.0000      8.0057      2.2910      0.0636     21.7565     16.1559    101.9979
   804.1000      8.0057      2.2544     -0.0412     23.9772     15.8837    101.7475
   804.2000      8.0057      2.2413     -0.0727     24.7706     15.5673    104.2602
   804.3000      8.0672      2.2542     -0.0417     23.9887     15.3754    108.3509
   804.4000      8.0672      2.2806     -0.0800     22.3877     16.4411    110.4305
   804.5000      8.0716      2.3158     -0.0600     20.2566     18.6401    109.2391
   804.6000      8.0716      2.3577     -0.0397     17.7164     20.6878    105.3496
   804.7000      8.0716      2.3920      0.0013     15.6366     22.1499    100.8653
   804.8000      8.0735      2.4039     -0.0150     14.9160     23.4701     99.6840
   804.9000      8.0735      2.3978     -0.0435     15.2825     24.6108    103.4473
   805.0000      8.0748      2.3912     -0.0495     15.6825     25.1178    108.1943
   805.1000      8.0748      2.3963     -0.0424     15.3756     25.0010    110.4673
   805.2000      8.0748      2.4169     -0.0428     14.1286     24.7712    110.4040
   805.3000      8.0739      2.4497     -0.0237     12.1385     24.2570    107.2780
   805.4000      8.0739      2.4827      0.0151     10.1387     22.7383    103.7309
   805.5000      8.0568      2.5005      0.0291      9.0614     20.7510    105.0541
   805.6000      8.0568      2.5039     -0.0022      8.8524     19.4766    108.4921
   805.7000      8.0568      2.5106     -0.0039      8.4486     18.9211    107.4181
   805.8000      8.0628      2.5176      0.0563      8.0214     18.6899    101.3737
   805.9000      8.0628      2.5074     -0.0140      8.6424     19.1403     96.5310
   806.0000      8.0672      2.4882      0.0168      9.8072     20.2169     95.4447
   806.1000      8.0672      2.4773     -0.0202     10.4684     21.2983     96.2551
   806.2000      8.0672      2.4761     -0.0011     10.5381     22.4566     96.2886
   806.3000      8.0683      2.4822     -0.0190     10.1688     23.5989     95.1977
   806.4000      8.0683      2.4941      0.0474      9.4480     24.0179     94.2544
   806.5000      8.0520      2.4998      0.0380      9.1053     23.4323     93.1127
   806.6000      8.0520      2.4902      0.0455      9.6858     21.6937     92.3754
   806.7000      8.0520      2.4767     -0.0112     10.5001     18.4803     91.7795
   806.8000      8.0514      2.4809     -0.0045     10.2474     15.2372     89.4495
   806.9000      8.0514      2.5007      0.0743      9.0493     13.7967     84.0963
   807.0000      8.0530      2.5076      0.1272      8.6305     13.4988     75.6956
   807.1000      8.0530      2.4919      0.0432      9.5789     13.3055     69.8518
   807.2000      8.0530      2.4735      0.0443     10.6993     13.3344     71.4087
   807.3000      8.0529      2.4596      0.0517     11.5369     13.5396     72.6982
   807.4000      8.0529      2.4489     -0.0327     12.1889     13.6581     67.2526
   807.5000      8.0508      2.4517     -0.0091     12.0211     13.5429     60.6586
   807.6000      8.0508      2.4667      0.0141     11.1118     13.2898     57.3649
   807.7000      8.0508      2.4810      0.0113     10.2444     13.2344     54.8045
   807.8000      8.0515      2.4926      0.0142      9.5413     12.9844     50.2998
   807.9000      8.0515      2.5067      0.0249      8.6830     12.4702     45.8836
   808.0000      8.0542      2.5203      0.0544      7.8588     12.1463     46.1802
   808.1000      8.0542      2.5220      0.0475      7.7576     11.5697     50.7238
   808.2000      8.0542      2.5069      0.0461      8.6729     10.8261     57.1978
   808.3000      8.0613      2.4839      0.0099     10.0653     10.4953     61.9466
   808.4000      8.0613      2.4644      0.0389     11.2500     10.5043     60.9204
   808.5000      8.0487      2.4519      0.0136     12.0075     10.8007     56.6551
   808.6000      8.0487      2.4524      0.0273     11.9777     11.7374     53.4613
   808.7000      8.0487      2.4718     -0.0061     10.7999     12.9604     53.3797
   808.8000      8.0479      2.4995      0.0763      9.1235     14.2499     57.2337
   808.9000      8.0479      2.5204      0.0775      7.8534     16.5918     63.7180
   809.0000      8.0505      2.5393      0.1345      6.7101     19.8480     69.5765
   809.1000      8.0505      2.5614      0.1499      5.3680     22.3319     73.3285
   809.2000      8.0505      2.5779      0.1988      4.3699     23.4937     77.4394
   809.3000      8.0544      2.5799      0.2302      4.2486     23.8855     83.4058
   809.4000      8.0544      2.5721      0.1520      4.7192     24.5987     89.5666
   809.5000      8.0621      2.5649      0.1408      5.1579     26.2672     95.0635
   809.6000      8.0621      2.5625      0.0818      5.3035     28.0879     98.2901
   809.7000      8.0621      2.5650      0.0930      5.1500     29.5775     93.8802
   809.8000      8.0869      2.5661      0.0951      5.0871     30.4224     85.5130
   809.9000      8.0869      2.5613      0.0713      5.3748     17.9909     84.2729
   810.0000      8.1115      2.5568      0.0458      5.6509     17.9746     89.2668
   810.1000      8.1115      2.5560      0.0492      5.6955     18.2438     94.0842
   810.2000      8.1115      2.5553      0.0140      5.7365     18.4679     99.3524
   810.3000      8.1117      2.5528      0.0426      5.8897     18.4043    105.4186
   810.4000      8.1117      2.5511      0.0330      5.9948     18.3069    106.3285
   810.5000      8.1032      2.5539      0.0211      5.8259     18.5091    103.2917
   810.6000      8.1032      2.5545      0.0484      5.7860     18.5803    103.4160
   810.7000      8.1032      2.5453      0.0375      6.3482     18.1548    104.3237
   810.8000      8.1163      2.5354      0.0146      6.9426     17.4254    100.4358
   810.9000      8.1163      2.5380      0.0175      6.7907     16.7882     93.0629
   811.0000      8.1167      2.5464      0.0719      6.2765     16.5451     85.8171
   811.1000      8.1167      2.5473      0.0291      6.2232     16.7078     81.5835
   811.2000      8.1167      2.5397      0.0198      6.6871     17.0022     81.5270
   811.3000      8.1161      2.5284      0.0059      7.3708     17.1752     82.7269
   811.4000      8.1161      2.5202      0.0102      7.8643     17.4309     84.1641
   811.5000      8.1184      2.5211      0.0111      7.8129     17.7194     86.7537
   811.6000      8.1184      2.5298      0.0181      7.2875     17.7718     88.3382
   811.7000      8.1184      2.5368      0.0448      6.8583     17.7345     88.3402
   811.8000      8.1204      2.5353      0.0077      6.9540     17.4498     90.0297
   811.9000      8.1204      2.5290      0.0403      7.3360     16.7102     94.7036
