~Version Information
VERS.                      2.0: CWLS Log ASCII Standard - VERSION 2.0
WRAP.                       NO: One line per depth step
~Well Information Block
STRT.FT               720.0000: 
STOP.FT              2265.7000: 
STEP.FT                 0.1000: 
NULL.                -999.2500: 
COMP.          Pioneer Natural Resources: COMPANY
WELL.          Casablanca 11-28 Tr: WELL
FLD.           Purgatoire River: FIELD
LOC.           422' FNL & 215' FWL----: LOCATION
PROV.                 Colorado: PROVINCE
CNTY.               Las Animas: COUNTRY
SRVC.                Patterson: SERVICE COMPANY
DATE.          Mon Mar 07 07:16:34 2005: LOG DATE
UWI.           05 071 08314 00: UNIQUE WELL ID
~Curve Information Block
DEPT.FT            0 000 00 00: Depth
DCAL.in                       : CDL Caliper
RHOB.g/cc                     : CDL Bulk Density
RHOC.g/cc                     : CDL Density Correction
DPOR.pu                       : CDL Density Porosity
NPOR.pu                       : Neutron Porosity
GR.GAPI                       : Gamma Ray
~Parameter Information Block
~A  Depth       DCAL        RHOB        RHOC        DPOR        NPOR         GR     
# ...
  2131.2000      8.1361      2.5242      0.1794      7.6230     25.9669    134.7915
  2131.3000      8.1201      2.5149      0.0603      8.1884     25.8868    136.2806
  2131.4000      8.1201      2.5197      0.0744      7.8991     25.5722    131.5107
  2131.5000      8.0780      2.5377      0.0992      6.8073     25.1852    126.2048
  2131.6000      8.0780      2.5470      0.0851      6.2440     24.5252    124.3594
  2131.7000      8.0780      2.5419      0.0332      6.5537     23.8722    127.0832
  2131.8000      8.0441      2.5327      0.0448      7.1066     23.9309    134.8753
  2131.9000      8.0441      2.5203      0.0500      7.8614     24.5797    142.5238
  2132.0000      8.0247      2.5049      0.0279      8.7959     25.2175    143.9050
  2132.1000      8.0247      2.4936      0.0444      9.4773     25.3391    142.1560
  2132.2000      8.0247      2.4897      0.0187      9.7149     25.0032    144.4429
  2132.3000      8.0129      2.4927      0.0372      9.5350     24.6419    149.3717
  2132.4000      8.0129      2.4957      0.0757      9.3540     24.2820    152.2091
  2132.5000      8.0082      2.4883      0.0631      9.8004     23.9861    153.1165
  2132.6000      8.0082      2.4720      0.0578     10.7861     24.0391    152.1959
  2132.7000      8.0082      2.4632      0.0059     11.3228     24.5914    148.7659
  2132.8000      8.0071      2.4721      0.0455     10.7829     25.4130    144.3669
  2132.9000      8.0071      2.4825      0.0316     10.1539     25.6192    140.9370
  2133.0000      8.0067      2.4745      0.0560     10.6359     24.9630    137.7996
  2133.1000      8.0067      2.4504      0.0212     12.0986     24.2722    135.1394
  2133.2000      8.0067      2.4217      0.0501     13.8378     23.8435    135.3136
  2133.3000      8.0071      2.3969      0.0027     15.3380     23.3281    139.2187
  2133.4000      8.0071      2.3833      0.0147     16.1636     22.9063    142.3522
  2133.5000      8.0073      2.3840      0.0101     16.1186     22.9744    137.9660
  2133.6000      8.0073      2.3987      0.0176     15.2275     23.0563    128.8343
  2133.7000      8.0073      2.4178      0.0487     14.0726     22.4195    125.9033
  2133.8000      8.0047      2.4278      0.0550     13.4691     21.3572    128.8483
  2133.9000      8.0047      2.4328      0.0405     13.1652     20.4609    126.5300
  2134.0000      7.9907      2.4529      0.0554     11.9462     19.7944    119.8371
  2134.1000      7.9907      2.4945      0.0765      9.4234     19.3388    117.1702
  2134.2000      7.9907      2.5425      0.0920      6.5144     19.3194    117.7117
  2134.3000      7.9657      2.5840      0.1151      4.0010     19.6772    117.7236
  2134.4000      7.9657      2.6175      0.1119      1.9667     20.0087    115.8550
  2134.5000      7.9411      2.6438      0.1052      0.3764     20.1110    113.4706
  2134.6000      7.9411      2.6609      0.0930     -0.6602     20.2225    113.5045
  2134.7000      7.9411      2.6642      0.1003     -0.8600     20.6231    117.1183
  2134.8000      7.9285      2.6502      0.0472     -0.0102     21.1344    120.0430
  2134.9000      7.9285      2.6220      0.0418      1.6980     21.5656    119.0919
  2135.0000      7.9280      2.5928     -0.0500      3.4657     22.1373    117.6691
  2135.1000      7.9280      2.5765      0.0196      4.4548     22.7597    118.5725
  2135.2000      7.9280      2.5732      0.0017      4.6539     22.8921    119.9520
  2135.3000      7.9294      2.5822     -0.0026      4.1112     22.6228    119.9224
  2135.4000      7.9294      2.5966      0.0177      3.2389     22.6925    119.4827
  2135.5000      7.9287      2.5987      0.0742      3.1085     23.1058    120.9166
  2135.6000      7.9287      2.5889      0.0011      3.7035     23.2714    126.6854
  2135.7000      7.9287      2.5850      0.0542      3.9379     22.8340    136.0162
  2135.8000      7.9263      2.5824      0.0636      4.0960     21.8370    144.0659
  2135.9000      7.9263      2.5708      0.0348      4.8001     20.7797    146.6633
  2136.0000      7.9238      2.5628      0.0363      5.2874     20.2267    145.3201
  2136.1000      7.9238      2.5642      0.0698      5.1997     20.2814    141.4786
  2136.2000      7.9238      2.5585      0.0638      5.5451     20.7443    134.0871
  2136.3000      7.9224      2.5367      0.0166      6.8678     21.2794    128.1624
  2136.4000      7.9224      2.5128      0.0060      8.3123     21.5001    126.5308
  2136.5000      7.9221      2.5086      0.0255      8.5697     21.4837    124.8527
  2136.6000      7.9221      2.5289      0.0809      7.3404     21.5338    122.0490
  2136.7000      7.9221      2.5564      0.0731      5.6725     21.6278    121.9041
  2136.8000      7.9235      2.5713      0.0599      4.7667     21.6554    125.3700
  2136.9000      7.9235      2.5669      0.0795      5.0389     21.7735    128.5923
  2137.0000      7.9255      2.5575      0.0346      5.6069     22.1803    127.6029
  2137.1000      7.9255      2.5592      0.0670      5.5018     22.6141    123.0639
  2137.2000      7.9255      2.5659      0.0217      5.0986     22.5227    120.0238
  2137.3000      7.9273      2.5716      0.0279      4.7520     22.0274    119.5211
  2137.4000      7.9273      2.5808      0.0683      4.1914     21.7262    119.5417
  2137.5000      7.9274      2.5959      0.0504      3.2781     21.7408    120.9424
  2137.6000      7.9274      2.6134      0.0493      2.2187     21.8420    122.8226
  2137.7000      7.9274      2.6202      0.1431      1.8031     21.8878    125.0568
  2137.8000      7.9274      2.6128      0.0724      2.2532     22.0184    130.1029
  2137.9000      7.9274      2.6036      0.0885      2.8093     22.4505    139.1580
  2138.0000      7.9276      2.5916      0.0962      3.5378     23.0330    146.5082
  2138.1000      7.9276      2.5721      0.0550      4.7213     23.4901    142.7425
  2138.2000      7.9276      2.5570      0.0465      5.6359     23.5521    134.7153
  2138.3000      7.9281      2.5459      0.0772      6.3064     23.2293    133.4325
  2138.4000      7.9281      2.5226      0.0379      7.7229     23.1053    135.0654
  2138.5000      7.9273      2.4884     -0.0030      9.7970     23.6238    132.3701
  2138.6000      7.9273      2.4504      0.0123     12.0940     24.6527    125.9722
  2138.7000      7.9273      2.3982      0.0273     15.2631     25.6275    121.8913
  2138.8000      7.9240      2.3224     -0.0300     19.8569     26.0276    122.8337
  2138.9000      7.9240      2.2337     -0.0826     25.2332     26.0991    125.4724
  2139.0000      7.9208      2.1454     -0.0631     30.5804     26.2704    126.9667
  2139.1000      7.9208      2.0517     -0.0783     36.2635     26.7424    125.5456
  2139.2000      7.9208      1.9410     -0.0847     42.9703     27.4788    121.3204
  2139.3000      7.9184      1.8293     -0.1100     49.7379     28.0763    118.2210
  2139.4000      7.9184      1.7527     -0.1028     54.3808     28.0766    115.5413
  2139.5000      7.9258      1.7287     -0.0901     55.8339     27.5071    110.9878
  2139.6000      7.9258      1.7471     -0.0321     54.7222     26.8370    105.2382
  2139.7000      7.9258      1.7933      0.0044     51.9220     26.3758     99.2890
  2139.8000      7.9648      1.8678      0.0350     47.4080     25.7992     95.2232
  2139.9000      7.9648      1.9708      0.1378     41.1630     25.0970     96.0919
  2140.0000      8.0489      2.0794      0.2614     34.5812     24.6605    105.0918
  2140.1000      8.0489      2.1767      0.2356     28.6843     24.2297    117.0617
  2140.2000      8.0489      2.2782      0.2428     22.5363     23.3091    121.2129
  2140.3000      8.1327      2.3840      0.2889     16.1199     22.2095    118.8091
  2140.4000      8.1327      2.4569      0.2036     11.7017     21.5677    118.3797
  2140.5000      8.1215      2.4747      0.1286     10.6237     21.5963    122.4996
  2140.6000      8.1215      2.4611      0.0459     11.4463     22.1800    129.3349
  2140.7000      8.1215      2.4471      0.0215     12.2970     22.9414    132.0950
