~Version Information
VERS.                      2.0: CWLS Log ASCII Standard - VERSION 2.0
WRAP.                       NO: One line per depth step
~Well Information Block
STRT.FT                15.0000: 
STOP.FT              2265.2500: 
STEP.FT                 0.2500: 
NULL.                -999.2500: 
COMP.          Pioneer Natural Resources: COMPANY
WELL.             Vector 33-23: WELL
FLD.           Purgatoire River: FIELD
LOC.           1988' FSL & 1560' FEL: LOCATION
PROV.                 Colorado: PROVINCE
CNTY.               Las Animas: COUNTRY
SRVC.                Patterson: SERVICE COMPANY
DATE.          Fri Apr 01 13:14:24 2005: LOG DATE
UWI.           05 071 08336 00: UNIQUE WELL ID
~Curve Information Block
DEPT.FT            0 000 00 00: Depth
GR.GAPI                       : Gamma Ray
CCL.                          : Casing Collar Locator
TT3.usec                      : CBL 3' Travel Time
AMP3.mV                       : CBL 3' Amplitude
AMP5.mV                       : CBL 5' Amplitude
~Parameter Information Block
~A  Depth        GR         CCL         TT3         AMP3        AMP5    
# ...
  1051.0000     90.8281      0.0000    969.4032     12.0258      1.6714
  1051.2500     90.3385      0.0000    987.1188     12.1039      1.6814
  1051.5000     91.9845      0.0000   1008.6995     12.1834      1.6844
  1051.7500     93.9532      0.0000   1027.9181     12.2441      1.6801
  1052.0000     95.5448      0.0000   1028.7139     12.2506      1.6716
  1052.2500     97.9362      0.0000   1001.0527     12.1734      1.6619
  1052.5000    102.8803      0.0000    953.1057     12.0088      1.6508
  1052.7500    110.6810      0.0000    904.4704     11.7801      1.6372
  1053.0000    119.4177      0.0000    869.8005     11.5274      1.6207
  1053.2500    126.0222      0.0000    851.4180     11.2961      1.6030
  1053.5000    128.2438      0.0000    844.0490     11.1231      1.5871
  1053.7500    125.8998      0.0000    841.9401     11.0226      1.5768
  1054.0000    120.4923      0.0000    841.9659     10.9888      1.5736
  1054.2500    113.9403      0.0000    843.6920     11.0146      1.5758
  1054.5000    107.8934      0.0000    848.8636     11.0970      1.5787
  1054.7500    103.7443      0.0000    860.4865     11.2235      1.5801
  1055.0000    102.4041      0.0000    880.2681     11.3627      1.5819
  1055.2500    103.7979      0.0000    905.1796     11.4758      1.5860
  1055.5000    106.7734      0.0000    927.7983     11.5394      1.5915
  1055.7500    109.7193      0.0000    942.6619     11.5623      1.5958
  1056.0000    111.6281      0.0000    951.1262     11.5818      1.5992
  1056.2500    112.6582      0.0000    956.4233     11.6314      1.6051
  1056.5000    113.3231      0.0000    955.6649     11.7068      1.6165
  1056.7500    113.2853      0.0000    942.5415     11.7762      1.6321
  1057.0000    111.6871      0.0000    918.0337     11.8217      1.6473
  1057.2500    108.6759      0.0000    893.4730     11.8568      1.6563
  1057.5000    105.7358      0.0000    882.0882     11.9020      1.6567
  1057.7500    104.3328      0.0000    889.5810     11.9581      1.6523
  1058.0000    104.8003      0.0000    911.5001     12.0141      1.6523
  1058.2500    106.4849      0.0000    937.2522     12.0729      1.6659
  1058.5000    108.3336      0.0000    957.4839     12.1585      1.6967
  1058.7500    109.3761      0.0000    969.3024     12.2935      1.7416
  1059.0000    109.3166      0.0000    975.2338     12.4746      1.7928
  1059.2500    108.8237      0.0000    978.9526     12.6810      1.8429
  1059.5000    108.8310      0.0000    982.3729     12.9019      1.8897
  1059.7500    109.4884      0.0000    984.0455     13.1391      1.9355
  1060.0000    110.1341      0.0000    980.0032     13.3890      1.9810
  1060.2500    110.3242      0.0000    968.5734     13.6344      2.0211
  1060.5000    110.5277      0.0000    953.2948     13.8587      2.0466
  1060.7500    111.6410      0.0000    938.2471     14.0543      2.0485
  1061.0000    113.9765      0.0000    922.8289     14.2150      2.0232
  1061.2500    116.8159      0.0000    905.5162     14.3229      1.9786
  1061.5000    118.8140      0.0000    891.6782     14.3529      1.9315
  1061.7500    118.8272      0.0000    894.2974     14.2848      1.8846
  1062.0000    116.5696      0.0000    926.7363     14.1073      1.8133
  1062.2500    112.7977      0.0000    993.7792     13.8059      1.6934
  1062.5000    109.0399      0.0000   1085.7611     13.3380      1.5404
  1062.7500    106.9209      0.0000   1180.6019     12.6237      1.4010
  1063.0000    107.3811      0.0000   1255.0427     11.6177      1.3091
  1063.2500    110.1756      0.0000   1297.1720     10.4379      1.2636
  1063.5000    113.8927      0.0000   1310.2637      9.3619      1.2453
  1063.7500    116.6815      0.0000   1306.9817      8.6244      1.2389
  1064.0000    117.5576      0.0000   1299.4053      8.2496      1.2376
  1064.2500    117.1727     -2.6819   1290.6450      8.1129      1.2392
  1064.5000    117.0168     -3.0000   1273.9492      8.1074      1.2428
  1064.7500    117.9736      0.0000   1240.6703      8.2345      1.2481
  1065.0000    119.9291      0.0000   1188.8600      8.5944      1.2546
  1065.2500    122.4402      0.0000   1123.8419      9.2961      1.2612
  1065.5000    125.1756      0.0000   1053.2631     10.3131      1.2699
  1065.7500    127.7013      0.0000    984.5615     11.4254      1.2909
  1066.0000    129.1933      0.0000    925.4409     12.3756      1.3439
  1066.2500    128.7697      0.0000    882.3439     13.0634      1.4474
  1066.5000    126.4525      0.0000    856.8739     13.5341      1.5935
  1066.7500    123.7030      0.0000    845.1500     13.8365      1.7409
  1067.0000    122.4202      0.0000    841.1829     13.9707      1.8439
  1067.2500    123.0794      0.0000    840.3760     13.9351      1.8885
  1067.5000    124.2369      0.0000    840.4107     13.7562      1.8910
  1067.7500    124.1800      0.0000    840.4539     13.4813      1.8727
  1068.0000    122.8744      0.0000    840.3034     13.1648      1.8437
  1068.2500    121.9689      0.0000    840.0002     12.8524      1.8053
  1068.5000    122.8262      0.0000    839.6606     12.5642      1.7563
  1068.7500    124.8177      0.0000    839.3951     12.2968      1.6983
  1069.0000    125.9973      0.0000    839.2527     12.0390      1.6392
  1069.2500    125.3375      0.0000    839.2302     11.7844      1.5889
  1069.5000    123.6167      0.0000    839.2994     11.5336      1.5510
  1069.7500    122.1073      0.0000    839.4292     11.2969      1.5201
  1070.0000    121.2114      0.0000    839.5927     11.0963      1.4885
  1070.2500    120.6936      0.0000    839.7711     10.9524      1.4544
  1070.5000    120.5929      0.0000    839.9564     10.8638      1.4236
  1070.7500    121.2341      0.0000    840.1539     10.8046      1.4031
  1071.0000    122.3727      0.0000    840.3800     10.7495      1.3943
  1071.2500    122.9057      0.0000    840.6423     10.6940      1.3917
  1071.5000    121.7950      0.0000    840.9123     10.6518      1.3876
  1071.7500    119.1356      0.0000    841.0961     10.6351      1.3779
  1072.0000    116.1072      0.0000    841.0118     10.6381      1.3652
  1072.2500    113.9192      0.0000    840.3632     10.6374      1.3537
  1072.5000    112.9135      0.0000    838.8362     10.6122      1.3456
  1072.7500    112.6337      0.0000    836.4716     10.5671      1.3398
  1073.0000    112.7436      0.0000    834.0650     10.5285      1.3346
  1073.2500    113.6759      0.0000    832.8820     10.5153      1.3298
  1073.5000    115.9764      0.0000    833.6036     10.5207      1.3262
  1073.7500    119.2298      0.0000    835.6570     10.5281      1.3220
  1074.0000    122.3820      0.0000    837.8017     10.5368      1.3125
  1074.2500    125.0050      0.0000    839.1896     10.5597      1.2941
  1074.5000    127.3436      0.0000    839.7234     10.5961      1.2710
  1074.7500    129.1454      0.0000    839.7116     10.6139      1.2541
  1075.0000    129.4980      0.0000    839.4830     10.5677      1.2494
  1075.2500    128.0776      0.0000    839.2448     10.4382      1.2524
  1075.5000    125.7829      0.0000    839.0800     10.2507      1.2543
  1075.7500    123.8857      0.0000    838.9840     10.0550      1.2515
  1076.0000    122.9408      0.0000    838.9263      9.8893      1.2461
  1076.2500    122.5790      0.0000    838.8970      9.7651      1.2397
  1076.5000    122.0456      0.0000    838.9089      9.6790      1.2315
  1076.7500    120.8677      0.0000    838.9609      9.6290      1.2207
  1077.0000    119.1980      0.0000    839.0283      9.6150      1.2095
  1077.2500    117.5741      0.0000    839.0943      9.6303      1.2021
  1077.5000    116.2583      0.0000    839.1714      9.6601      1.2004
  1077.7500    114.8391      0.0000    839.2457      9.6902      1.2020
  1078.0000    112.6122      0.0000    839.1745      9.7180      1.2028
  1078.2500    109.3722      0.0000    838.6283      9.7479      1.2020
  1078.5000    105.7730      0.0000    837.2367      9.7774      1.2017
  1078.7500    102.9597      0.0000    835.0218      9.7939      1.2028
