~Version Information
 VERS.                                  2.0 : CWLS LAS VERSION
 WRAP.                                   NO : WRAPING MODE
 SWARE .                 MController 2.5.0J : SOFTWARE VERSION
~Well Information
 WELL.                       Montoya 07-21R : WELL
 COMP.                Petrogulf Corporation : COMPANY
 FLD.                      Purgatoire River : FIELD
 LOC.                 NE/NW Sec 7 T33S R67W : LOCATION
 DATE.                           9/13-15/05 : DATE(S) LOGGED
 SRVC.       BLANCO Geological Services LLC : SERVICE COMPANY
 STAT.                                   CO : STATE
 CNTY.                           Las Animas : COUNTY
 CTRY.                                  USA : COUNTRY
 API.                       05-071-08435-00 : API NUMBER
 STRT.FT                             374.00 : START DEPTH
 STOP.FT                            1830.00 : STOP DEPTH
 STEP.FT                               1.00 : DEPTH INCREMENT
 NULL.                                -9999 : NULL VALUE
~Curve information
 DEPTH.FT                                   :
 ROP.MIN/FT                                 :
 GAS.UNITS                                  :
~ASCII Log data
       374.0       786.98        139.2 
       375.0        24.67          9.0 
       376.0         0.50          6.1 
       377.0         0.30          6.3 
       378.0         0.27          6.5 
       379.0         0.27         10.9 
       380.0         0.27        100.0 
       381.0         0.20        136.3 
       382.0         0.20        135.9 
       383.0         0.23        117.3 
       384.0         0.30         82.1 
       385.0         0.32         48.4 
       386.0         1.73         29.0 
       387.0         0.23          5.3 
       388.0         0.20          5.6 
       389.0         0.13          5.9 
       390.0         0.10          5.9 
       391.0         0.10          6.5 
       392.0         0.17          7.2 
       393.0         0.17          7.2 
       394.0         0.18          7.7 
       395.0         0.10          8.1 
       396.0         0.10          9.2 
       397.0         0.10         11.0 
       398.0         0.20         15.3 
       399.0         0.23         18.2 
       400.0         0.13         19.3 
       401.0         0.17         20.1 
       402.0         0.13         20.4 
       403.0         0.17         21.5 
       404.0         0.13         22.1 
       405.0         0.17         22.2 
       406.0         0.13         22.1 
       407.0         0.10         22.1 
       408.0         0.13         23.1 
       409.0         0.10         24.6 
       410.0         0.17         27.4 
       411.0         0.17         29.2 
       412.0         0.20         30.4 
       413.0         0.17         30.9 
       414.0         0.13         30.7 
       415.0         0.23         31.0 
       416.0         0.85        107.6 
       417.0         0.23        117.1 
       418.0         0.27        112.8 
       419.0         0.23         88.9 
       420.0         0.17         68.3 
       421.0         0.20         56.8 
       422.0         0.17         47.2 
       423.0         0.13         41.0 
       424.0         0.13         38.5 
       425.0         0.17         35.6 
       426.0         0.13         32.2 
       427.0         0.17         31.5 
       428.0         0.17         30.4 
       429.0         0.18         29.4 
       430.0         0.17         28.9 
       431.0         0.17         28.6 
       432.0         0.17         28.3 
       433.0         0.20         28.1 
       434.0         0.17         27.8 
       435.0         0.23         27.5 
       436.0         0.20         27.4 
       437.0         0.27         27.3 
       438.0         0.30         27.3 
       439.0         0.27         27.0 
       440.0         0.20         27.0 
       441.0         0.23         26.5 
       442.0         0.27         26.7 
       443.0         0.13         26.2 
       444.0         0.15         26.2 
       445.0         0.17         26.1 
       446.0         1.17         73.0 
       447.0         0.20         81.6 
       448.0         0.13         81.6 
       449.0         0.17         77.7 
       450.0         0.10         67.9 
       451.0         0.17         61.9 
       452.0         0.20         53.0 
       453.0         0.13         44.8 
       454.0         0.23         39.7 
       455.0         0.20         34.6 
       456.0         0.13         31.8 
       457.0         0.17         30.8 
       458.0         0.15         29.2 
       459.0         0.17         28.3 
       460.0         0.13         27.4 
       461.0         0.20         26.7 
       462.0         0.17         26.4 
       463.0         0.17         26.1 
       464.0         0.13         25.1 
       465.0         0.17         25.8 
       466.0         0.10         25.6 
       467.0         0.13         25.2 
       468.0         0.17         25.0 
       469.0         0.17         25.2 
       470.0         0.13         24.8 
       471.0         0.13         24.1 
       472.0         0.13         24.7 
       473.0         0.17         24.6 
       474.0         0.13         24.8 
       475.0         0.20         24.7 
       476.0         1.85        114.3 
       477.0         0.27        113.1 
       478.0         0.17         96.6 
       479.0         0.20         82.1 
       480.0         0.20         64.8 
       481.0         0.17         50.2 
       482.0         0.20         43.0 
       483.0         0.17         36.7 
       484.0         0.17         32.7 
       485.0         0.10         30.7 
       486.0         0.13         29.3 
       487.0         0.17         27.7 
       488.0         0.18         26.5 
       489.0         0.17         25.7 
       490.0         0.13         25.5 
       491.0         0.20         24.9 
       492.0         0.17         24.5 
       493.0         0.17         24.2 
       494.0         0.17         24.1 
       495.0         0.20         23.1 
       496.0         0.33         23.7 
       497.0         0.20         23.6 
       498.0         0.17         23.5 
       499.0         0.17         23.1 
       500.0         0.17         22.2 
       501.0         0.10         21.4 
       502.0         0.13         21.8 
       503.0         0.17         22.1 
       504.0         0.20         22.7 
       505.0         0.20         23.0 
       506.0         2.02        264.1 
       507.0         0.23        312.8 
       508.0         0.30        313.1 
       509.0         0.23        278.0 
       510.0         0.37        223.2 
       511.0         0.23        148.3 
       512.0         0.18        113.4 
       513.0         0.13         91.4 
       514.0         0.20         76.1 
       515.0         0.17         58.7 
       516.0         0.20         46.9 
       517.0         0.20         37.4 
       518.0         0.17         31.7 
       519.0         0.17         28.0 
       520.0         0.13         25.7 
       521.0         0.17         24.3 
       522.0         0.17         23.4 
       523.0         0.17         22.2 
       524.0         0.17         21.7 
       525.0         0.20         21.6 
       526.0         0.17         21.5 
       527.0         0.17         21.4 
       528.0         0.20         21.2 
       529.0         0.23         21.0 
       530.0         0.25         21.2 
       531.0         0.23         21.1 
       532.0         0.20         21.4 
       533.0         0.13         21.0 
       534.0         0.17         20.9 
       535.0         0.17         20.7 
       536.0         2.00        291.6 
       537.0         0.25        285.0 
       538.0         0.20        231.4 
       539.0         0.13        151.2 
       540.0         0.20        116.2 
       541.0         0.17         84.0 
       542.0         0.17         64.4 
       543.0         0.10         49.9 
       544.0         0.13         44.4 
       545.0         0.20         40.2 
       546.0         0.17         37.4 
       547.0         0.20         34.7 
       548.0         0.13         29.2 
       549.0         0.17         25.8 
       550.0         0.13         23.1 
       551.0         0.13         22.5 
       552.0         0.17         21.8 
       553.0         0.20         21.9 
       554.0         0.23         21.2 
       555.0         0.22         20.0 
       556.0         0.23         20.0 
       557.0         0.17         19.9 
       558.0         0.17         20.0 
       559.0         0.17         19.6 
       560.0         0.17         19.2 
       561.0         0.17         18.7 
       562.0         0.17         18.8 
       563.0         0.13         18.3 
       564.0         0.13         18.8 
       565.0         0.13         18.2 
       566.0         1.58        147.8 
       567.0         0.17        257.9 
       568.0         0.17        325.0 
       569.0         0.23        339.0 
       570.0         0.17        325.7 
       571.0         0.20        285.7 
       572.0         0.23        221.3 
       573.0         0.20        150.9 
