~Version Information
VERS.                      2.0: CWLS Log ASCII Standard - VERSION 2.0
WRAP.                       NO: One line per depth step
~Well Information Block
STRT.FT                 0.0000: 
STOP.FT              2025.0000: 
STEP.FT                 0.2500: 
NULL.                -999.2500: 
COMP.          Petrogulf Corporation: COMPANY
WELL.          Robinson 15-12V: WELL
FLD.           Purgatorie River: FIELD
LOC.           1788' FNL & 466' FWL: LOCATION
PROV.                 Colorado: PROVINCE
CNTY.               Las Animas: COUNTRY
SRVC.                Patterson: SERVICE COMPANY
DATE.          Tue Oct 04 11:57:31 2005: LOG DATE
UWI.                          : UNIQUE WELL ID
~Curve Information Block
DEPT.FT            0 000 00 00: Depth
GR.GAPI                       : Gamma Ray
CCL.                          : Casing Collar Locator
TT3.usec                      : CBL 3' Travel Time
AMP3.mV                       : CBL 3' Amplitude
~Parameter Information Block
~A  Depth        GR         CCL         TT3         AMP3    
# ...
   134.0000     78.4391      0.0000    264.8142     82.0669
   134.2500     80.4739      0.0000    264.7912     82.0401
   134.5000     82.0763      0.0000    264.7769     81.9953
   134.7500     83.3511      0.0000    264.7621     81.9269
   135.0000     84.0435      0.0000    264.7358     81.8452
   135.2500     83.9100      0.0000    264.7023     81.7810
   135.5000     83.3323      0.0000    264.6756     81.7676
   135.7500     83.0679      0.0000    264.6590     81.7836
   136.0000     83.2966      0.0000    264.6470     81.7795
   136.2500     83.4063      0.0000    264.6310     81.7364
   136.5000     82.8255      0.0000    264.5940     81.6398
   136.7500     81.5502      0.0000    264.5261     81.4644
   137.0000     79.7437      0.0000    264.4415     81.2060
   137.2500     77.4118      0.0000    264.3830     80.8340
   137.5000     74.7409      0.0000    264.4925     80.1576
   137.7500     72.3153      0.0000    265.5241     78.6998
   138.0000     70.6718      0.0000    270.0066     75.5818
   138.2500     69.7880      0.0000    281.7098     69.9878
   138.5000     69.2317      0.0000    299.1827     63.0466
   138.7500     68.7891      0.0000    311.2292     58.2073
   139.0000     68.7854      0.0000    308.8605     57.1998
   139.2500     69.7171      0.0000    297.0337     58.0560
   139.5000     71.6972      0.0000    285.4920     58.7860
   139.7500     74.3173      0.0000    278.2466     59.2558
   140.0000     76.8707      0.0000    274.7826     59.7463
   140.2500     78.6425     -2.0000    273.4632     60.3128
   140.5000     79.3383      0.0000    273.1864     61.0112
   140.7500     79.4562      0.0000    274.0117     61.9477
   141.0000     79.9401      0.0000    276.6759     63.1728
   141.2500     81.2000      0.0000    280.4338     64.7658
   141.5000     82.6371      0.0000    281.6652     66.9015
   141.7500     83.2291      0.0000    277.8621     69.4169
   142.0000     82.5049      0.0000    271.5934     72.0503
   142.2500     81.0729      0.0000    266.8584     74.8849
   142.5000     80.2840      0.0000    264.6767     77.5220
   142.7500     81.1777      0.0000    264.0085     79.2094
   143.0000     83.6218      0.0000    263.8781     79.8978
   143.2500     86.4777      0.0000    263.8653     80.0805
   143.5000     88.4619      0.0000    263.8545     80.1466
   143.7500     88.8696      0.0000    263.8294     80.2504
   144.0000     87.9423      0.0000    263.7992     80.4182
   144.2500     86.7966      0.0000    263.7772     80.5971
   144.5000     86.6683      0.0000    263.7714     80.7081
   144.7500     88.0080      0.0000    263.7724     80.7483
   145.0000     90.4418      0.0000    263.7622     80.7969
   145.2500     93.4428      0.0000    263.7408     80.8972
   145.5000     96.6529      0.0000    263.7271     80.9983
   145.7500     99.6833      0.0000    263.7305     81.0418
   146.0000    102.1601      0.0000    263.7385     81.0531
   146.2500    103.9504      0.0000    263.7330     81.0950
   146.5000    104.8751      0.0000    263.7139     81.1613
   146.7500    104.3043      0.0000    263.6967     81.1854
   147.0000    101.5255      0.0000    263.6909     81.1549
   147.2500     96.5517      0.0000    263.6927     81.1242
   147.5000     90.2251      0.0000    263.6958     81.1074
   147.7500     83.6172      0.0000    263.6999     81.0628
   148.0000     77.6675      0.0000    263.7088     80.9804
   148.2500     73.1417      0.0000    263.7253     80.8986
   148.5000     70.3538      0.0000    263.7451     80.8528
   148.7500     68.9370      0.0000    263.7569     80.8536
   149.0000     68.2155      0.0000    263.7533     80.8900
   149.2500     67.7031      0.0000    263.7372     80.9322
   149.5000     67.1712      0.0000    263.7186     80.9546
   149.7500     66.6841      0.0000    263.7042     80.9768
   150.0000     66.7129      0.0000    263.6906     81.0478
   150.2500     67.7207      0.0000    263.6774     81.1550
   150.5000     69.4978      0.0000    263.6798     81.2005
   150.7500     71.3937      0.0000    263.7065     81.1223
   151.0000     73.2799      0.0000    263.7382     80.9836
   151.2500     75.7873      0.0000    263.7498     80.8952
   151.5000     79.3939      0.0000    263.7388     80.9047
   151.7500     83.6908      0.0000    263.7175     80.9922
   152.0000     87.6645      0.0000    263.6950     81.1198
   152.2500     90.4094      0.0000    263.6793     81.2399
   152.5000     91.5468      0.0000    263.6786     81.3029
   152.7500     91.2856      0.0000    263.6927     81.2987
   153.0000     90.2229      0.0000    263.7135     81.2486
   153.2500     88.9776      0.0000    263.7307     81.1781
   153.5000     87.9841      0.0000    263.7318     81.1271
   153.7500     87.5347      0.0000    263.7115     81.1309
   154.0000     87.6369      0.0000    263.6786     81.1878
   154.2500     87.6578      0.0000    263.6415     81.2842
   154.5000     86.4712      0.0000    263.6068     81.3981
   154.7500     83.3802      0.0000    263.5884     81.4662
   155.0000     78.8521      0.0000    263.5940     81.4424
   155.2500     74.1127      0.0000    263.6146     81.3619
   155.5000     70.1173      0.0000    263.6417     81.2726
   155.7500     67.1242      0.0000    263.6714     81.1892
   156.0000     65.0597      0.0000    263.6910     81.1381
   156.2500     63.9626      0.0000    263.6863     81.1425
   156.5000     64.0040      0.0000    263.6637     81.1723
   156.7500     65.2830      0.0000    263.6445     81.1757
   157.0000     67.7992      0.0000    263.6421     81.1398
   157.2500     71.5838      0.0000    263.6535     81.0836
   157.5000     76.5026      0.0000    263.6689     81.0217
   157.7500     81.8402      0.0000    263.6828     80.9701
   158.0000     86.5311      0.0000    263.6953     80.9520
   158.2500     90.0385      0.0000    263.7107     80.9560
   158.5000     92.6837      0.0000    263.7349     80.9361
   158.7500     95.0699      0.0000    263.7651     80.8820
   159.0000     97.6651      0.0000    263.7901     80.8357
   159.2500    100.9911      0.0000    263.8018     80.8394
   159.5000    105.4838      0.0000    263.7993     80.9036
   159.7500    110.6851      0.0000    263.7893     80.9791
   160.0000    114.9979      0.0000    263.7791     80.9964
   160.2500    116.7388      0.0000    263.7705     80.9663
   160.5000    115.3660      0.0000    263.7608     80.9665
   160.7500    111.5007      0.0000    263.7447     81.0361
   161.0000    106.0226      0.0000    263.7227     81.1280
   161.2500     99.6670      0.0000    263.7053     81.1654
   161.5000     93.5731      0.0000    263.7001     81.1327
   161.7500     89.5989      0.0000    263.7048     81.0845
   162.0000     89.3720      0.0000    263.7148     81.0796
   162.2500     92.8997      0.0000    263.7276     81.1306
   162.5000     98.3359      0.0000    263.7381     81.1908
   162.7500    103.1879      0.0000    263.7421     81.1896
   163.0000    105.8572      0.0000    263.7408     81.1149
   163.2500    106.3846      0.0000    263.7400     81.0312
   163.5000    106.0226      0.0000    263.7457     80.9911
   163.7500    106.0815      0.0000    263.7592     80.9787
   164.0000    106.9822      0.0000    263.7790     80.9434
   164.2500    108.2239      0.0000    263.8018     80.8636
   164.5000    109.0282      0.0000    263.8148     80.7805
   164.7500    108.9562      0.0000    263.8039     80.7616
   165.0000    108.1710      0.0000    263.7697     80.8335
   165.2500    107.3017      0.0000    263.7295     80.9471
   165.5000    106.9061      0.0000    263.7008     81.0208
   165.7500    107.0533      0.0000    263.6851     81.0436
   166.0000    107.7028      0.0000    263.6841     81.0790
   166.2500    109.3743      0.0000    263.7432     81.1523
   166.5000    112.9334      0.0000    263.9412     81.2204
   166.7500    118.5598      0.0000    264.2426     81.2529
   167.0000    125.1122      0.0000    264.4118     81.2430
   167.2500    130.3516      0.0000    264.2852     81.1746
