~Version Information
VERS.                      2.0: CWLS Log ASCII Standard - VERSION 2.0
WRAP.                       NO: One line per depth step
~Well Information Block
STRT.FT                 0.0000: 
STOP.FT              2384.7500: 
STEP.FT                 0.2500: 
NULL.                -999.2500: 
COMP.          Petrogulf Corporation: COMPANY
WELL.           McDaniel 9-34V: WELL
FLD.           Purgatorie River: FIELD
LOC.           620' FSL & 1800' FEL: LOCATION
STAT.                 Colorado: State
CNTY.               Las Animas: COUNTY
CTRY. USA : Country
SECT. 9 : Section
TOWN. 33S : Township
RANG. 67W : Range
SRVC.                Patterson: SERVICE COMPANY
DATE.          Thu Nov 10 12:28:18 2005: LOG DATE
API. 05-071-08333                         : UNIQUE WELL ID
~Curve Information Block
DEPT.FT            0 000 00 00: Depth
AMP3.mV                       : CBL 3' Amplitude
CCL.                          : Casing Collar Locator
GR.GAPI                       : Gamma Ray
TT3.usec                      : CBL 3' Travel Time
~Parameter Information Block
~A  Depth       AMP3        CCL          GR         TT3     
# ...
   167.5000      8.6046      0.0000     77.1455    379.4003
   167.7500      8.6780      0.0000     80.8636    377.7127
   168.0000      8.7686      0.0000     83.6751    372.9436
   168.2500      8.9257      0.0000     85.2563    363.9812
   168.5000      9.1555      0.0000     86.5721    352.7986
   168.7500      9.3981      0.0000     88.3834    343.5523
   169.0000      9.5783      0.0000     90.2825    338.3943
   169.2500      9.6696      0.0000     91.2307    336.3701
   169.5000      9.6957      0.0000     90.5482    335.8291
   169.7500      9.6932      0.0000     88.2311    335.9215
   170.0000      9.6782      0.0000     84.7928    336.5350
   170.2500      9.6468      0.0000     81.1310    338.1237
   170.5000      9.6083      0.0000     78.3655    341.3664
   170.7500      9.5963      0.0000     77.4994    345.5131
   171.0000      9.6360      0.0000     79.1177    347.4477
   171.2500      9.7088      0.0000     83.2268    345.4477
   171.5000      9.7535      0.0000     89.0049    342.7844
   171.7500      9.7097      0.0000     94.7391    344.4509
   172.0000      9.5676      0.0000     98.6328    352.0538
   172.2500      9.3840      0.0000    100.1230    362.5465
   172.5000      9.2419      0.0000    100.1756    371.1745
   172.7500      9.1774      0.0000    100.0288    375.8811
   173.0000      9.1552      0.0000     99.8177    377.7936
   173.2500      9.1311      0.0000     98.5623    378.4484
   173.5000      9.1123      0.0000     95.3658    378.5125
   173.7500      9.1358      0.0000     90.5899    378.2677
   174.0000      9.2145      0.0000     85.9252    377.9386
   174.2500      9.3070      0.0000     83.3933    377.6673
   174.5000      9.3449      0.0000     84.2219    377.5312
   174.7500      9.3070      0.0000     88.2286    377.4970
   175.0000      9.2373      0.0000     93.8341    377.3656
   175.2500      9.1845      0.0000     98.7840    376.9208
   175.5000      9.1649      0.0000    101.3476    375.9750
   175.7500      9.1821      0.0000    101.2609    373.8405
   176.0000      9.2379      0.0000     99.6288    368.8802
   176.2500      9.3265      0.0000     97.8586    360.0195
   176.5000      9.4252      0.0000     96.6402    349.5543
   176.7500      9.4893      0.0000     95.8740    342.5829
   177.0000      9.4841      0.0000     95.3082    342.9332
   177.2500      9.4254      0.0000     94.9559    350.6268
   177.5000      9.3516      0.0000     94.8389    361.7294
   177.7500      9.2757      0.0000     94.4260    370.8760
   178.0000      9.2017      0.0000     92.5068    375.6578
   178.2500      9.1533      0.0000     88.0012    377.2766
   178.5000      9.1439      0.0000     81.1563    377.5757
   178.7500      9.1543      0.0000     73.8249    377.4517
   179.0000      9.1532      0.0000     68.4236    377.2905
   179.2500      9.1165      0.0000     66.5447    377.9154
   179.5000      9.0473      0.0000     68.2546    381.6673
   179.7500      8.9756      0.0000     72.4080    391.7062
   180.0000      8.9036      0.0000     77.6058    405.8707
   180.2500      8.7896      0.0000     82.8779    412.7784
   180.5000      8.6245      0.0000     87.6533    404.5768
   180.7500      8.4645      0.0000     91.6679    389.0137
   181.0000      8.3683      0.0000     95.0544    377.6722
   181.2500      8.3561      0.0000     97.9843    372.7198
   181.5000      8.4121      0.0000    100.0292    370.4043
   181.7500      8.4986      0.0000    100.3294    367.5478
   182.0000      8.5731      0.0000     98.6048    363.8514
   182.2500      8.6038      0.0000     95.8173    361.9776
   182.5000      8.5822      0.0000     93.6860    363.8872
   182.7500      8.5259      0.0000     93.4606    367.6713
   183.0000      8.4660      0.0000     95.1802    370.4599
   183.2500      8.4401      0.0000     98.1534    371.5050
   183.5000      8.4957      0.0000    101.8248    370.9235
   183.7500      8.6643      0.0000    105.8089    368.3834
   184.0000      8.9331      0.0000    109.3165    364.6607
   184.2500      9.2497      0.0000    111.1712    362.8971
   184.5000      9.5360      0.0000    110.7024    365.2338
   184.7500      9.7145      0.0000    108.4785    369.6379
   185.0000      9.7572      0.0000    106.0053    373.0479
   185.2500      9.7133      0.0000    104.6276    374.8095
   185.5000      9.6673      0.0000    104.5460    375.6889
   185.7500      9.6629      0.0000    104.7204    376.2644
   186.0000      9.6877      0.0000    103.7196    376.7402
   186.2500      9.7238      0.0000    100.7129    377.1512
   186.5000      9.7625      0.0000     95.7189    377.6153
   186.7500      9.7798      0.0000     89.1617    379.0207
   187.0000      9.7588      0.0000     81.5130    384.4952
   187.2500      9.7085      0.0000     73.4633    400.1669
   187.5000      9.6277      0.0000     66.1966    430.3565
   187.7500      9.5019      0.0000     61.0759    469.8652
   188.0000      9.3473      0.0000     58.7494    508.3083
   188.2500      9.2145      0.0000     58.5865    541.7239
   188.5000      9.1480      0.0000     59.1252    569.9591
   188.7500      9.1558      0.0000     59.1319    589.8620
   189.0000      9.2059      0.0000     58.2457    600.0342
   189.2500      9.2436      0.0000     56.7785    604.3181
   189.5000      9.2208      0.0000     55.1834    607.5231
   189.7500      9.1305      0.0000     53.6914    611.7016
   190.0000      9.0182      0.0000     52.1548    616.3044
   190.2500      8.9452      0.0000     50.1668    620.6475
   190.5000      8.9353      0.0000     47.4874    624.6661
   190.7500      8.9649      0.0000     44.3752    627.2927
   191.0000      9.0011      0.0000     41.5924    627.1322
   191.2500      9.0259      0.0000     40.1893    624.7836
   191.5000      9.0237      0.0000     41.0548    622.6395
   191.7500      8.9792      0.0000     44.2641    621.8860
   192.0000      8.9004      0.0000     48.8038    621.5825
   192.2500      8.8088      0.0000     53.1113    621.5781
   192.5000      8.6976      0.0000     55.9732    621.7404
   192.7500      8.5330      0.0000     57.1029    617.2447
   193.0000      8.2666      0.0000     57.0554    600.5773
   193.2500      7.8082      0.0000     56.5057    574.6431
   193.5000      7.1107      0.0000     55.6023    559.6923
   193.7500      6.4030      0.0000     54.2125    571.2421
   194.0000      6.0805      0.0000     52.6915    599.3384
   194.2500      6.1656      0.0000     51.9541    625.9416
   194.5000      6.3019      0.0000     52.6486    645.6619
   194.7500      6.3233      0.0000     54.4750    662.6540
   195.0000      6.3158      0.0000     56.4068    679.4432
   195.2500      6.3282      2.0000     57.4538    692.8760
   195.5000      6.3502     -2.0000     57.2696    700.0462
   195.7500      6.3664      0.0000     56.2406    701.7767
   196.0000      6.3473      0.0000     55.1420    698.9348
   196.2500      6.3253      0.0000     54.6622    691.4866
   196.5000      6.4928      0.0000     55.0160    681.1627
   196.7500      6.9827      0.0000     55.7316    670.4263
   197.0000      7.5259      0.0000     55.8339    660.1492
   197.2500      7.7875      0.0000     54.6129    651.9731
   197.5000      7.8614      0.0000     52.3894    648.1118
   197.7500      7.9594      0.0000     50.3088    645.7384
   198.0000      8.0896      0.0000     49.3771    636.4641
   198.2500      8.2117      0.0000     49.9034    608.8578
   198.5000      8.3344      0.0000     51.7894    554.2898
   198.7500      8.4706      0.0000     55.1172    483.5381
   199.0000      8.6161      0.0000     60.3930    425.8016
   199.2500      8.7587      0.0000     67.9954    400.2846
   199.5000      8.8861      0.0000     77.1877    405.9279
   199.7500      8.9868      0.0000     86.0357    432.2033
   200.0000      9.0597      0.0000     92.7375    461.4415
   200.2500      9.1303      0.0000     96.9302    473.2593
   200.5000      9.2279      0.0000     99.5597    457.9615
   200.7500      9.3377      0.0000    101.6902    422.8368
