~Version Information
VERS.                      2.0: CWLS Log ASCII Standard - VERSION 2.0
WRAP.                       NO: One line per depth step
~Well Information Block
STRT.FT                -7.2500: 
STOP.FT              2827.7500: 
STEP.FT                 0.2500: 
NULL.                -999.2500: 
COMP.          Pioneer Natural Resources: COMPANY
WELL.           Ei-ei-oh 31-24: WELL
FLD.           Purgatorie River: FIELD
LOC.           235' FNL & 2001' FEL--: LOCATION
PROV.                       CO: PROVINCE
CNTY.               Las Animas: COUNTRY
SRVC.          Patterson Wireline: SERVICE COMPANY
DATE.          Tue Aug 23 12:06:00 2005: LOG DATE
UWI.           05 071 08403 00: UNIQUE WELL ID
~Curve Information Block
DEPT.FT            0 000 00 00: Depth
CCL.                          : Casing Collar Locator
TT3.usec                      : CBL 3' Travel Time
AMP3.mV                       : CBL 3' Amplitude
GR.GAPI                       : Gamma Ray
~Parameter Information Block
~A  Depth       CCL         TT3         AMP3         GR     
# ...
  1868.7500      0.0000    712.3741      5.0954    101.7391
  1869.0000      0.0000    719.5113      5.0735    106.6949
  1869.2500      0.0000    724.6161      5.0462    109.6943
  1869.5000      0.0000    726.8344      4.9950    112.2477
  1869.7500      0.0000    725.6973      4.9090    115.7362
  1870.0000      0.0000    721.0495      4.7938    120.5821
  1870.2500      0.0000    713.1379      4.6656    125.9018
  1870.5000      0.0000    702.8930      4.5447    129.9397
  1870.7500      0.0000    691.7598      4.4559    131.2005
  1871.0000      0.0000    681.2239      4.4286    129.3161
  1871.2500      0.0000    672.8740      4.4789    125.0701
  1871.5000      0.0000    668.6240      4.5844    119.7105
  1871.7500      0.0000    669.7565      4.6971    113.9303
  1872.0000      0.0000    675.3967      4.7924    107.3737
  1872.2500      0.0000    682.6209      4.8934     99.4290
  1872.5000      0.0000    688.4885      5.0413     90.5553
  1872.7500     -2.0000    691.8550      5.2596     82.4883
  1873.0000      2.0000    692.9597      5.5467     77.0599
  1873.2500      0.0000    691.3058      5.8836     74.9624
  1873.5000      0.0000    685.0239      6.2448     75.6146
  1873.7500      0.0000    673.6313      6.6097     77.8652
  1874.0000      0.0000    660.7842      6.9486     80.7006
  1874.2500      0.0000    652.3875      7.1844     83.6452
  1874.5000      0.0000    651.5963      7.2080     86.7891
  1874.7500      0.0000    656.6971      6.9736     90.2956
  1875.0000      0.0000    663.6153      6.5579     93.7454
  1875.2500      0.0000    669.2258      6.0918     96.2071
  1875.5000      0.0000    672.2632      5.6574     97.1295
  1875.7500      0.0000    672.2762      5.2726     97.0305
  1876.0000      0.0000    668.7818      4.9422     97.3044
  1876.2500      0.0000    661.6468      4.6848     99.3929
  1876.5000      0.0000    651.7495      4.5141    103.8512
  1876.7500      0.0000    640.9398      4.4165    109.7937
  1877.0000      0.0000    631.5295      4.3590    115.1307
  1877.2500      0.0000    625.6797      4.3146    117.6911
  1877.5000      0.0000    624.5743      4.2763    116.6668
  1877.7500      0.0000    627.5518      4.2489    113.0844
  1878.0000      0.0000    631.8394      4.2354    108.6993
  1878.2500      0.0000    633.8656      4.2328    104.5234
  1878.5000      0.0000    631.9626      4.2360    100.5917
  1878.7500      0.0000    627.7612      4.2422     96.9410
  1879.0000      0.0000    624.3901      4.2495     94.3820
  1879.2500      0.0000    623.6495      4.2542     94.0687
  1879.5000      0.0000    625.1782      4.2518     96.3307
  1879.7500      0.0000    627.5497      4.2407    100.1523
  1880.0000      0.0000    629.5584      4.2230    104.0939
  1880.2500      0.0000    630.7540      4.1998    107.6973
  1880.5000      0.0000    631.2716      4.1693    111.6260
  1880.7500      0.0000    631.4162      4.1304    116.2055
  1881.0000      0.0000    631.3981      4.0877    120.2500
  1881.2500      0.0000    631.3290      4.0518    121.9165
  1881.5000      0.0000    631.2860      4.0325    120.5929
  1881.7500      0.0000    631.3210      4.0327    117.5339
  1882.0000      0.0000    631.4348      4.0466    114.7179
  1882.2500      0.0000    631.5818      4.0643    113.2364
  1882.5000      0.0000    631.7291      4.0789    112.4674
  1882.7500      0.0000    631.9401      4.0909    110.6785
  1883.0000      0.0000    632.4821      4.1054    106.7515
  1883.2500      0.0000    633.9751      4.1267    101.5121
  1883.5000      0.0000    637.4203      4.1567     97.3546
  1883.7500      0.0000    643.7573      4.1943     96.5108
  1884.0000      0.0000    652.9456      4.2347     99.3228
  1884.2500      0.0000    663.4232      4.2699    103.7387
  1884.5000      0.0000    672.8609      4.2926    106.7286
  1884.7500      0.0000    679.6667      4.3023    106.7905
  1885.0000      0.0000    683.6896      4.3053    105.2120
  1885.2500      0.0000    685.5610      4.3097    104.6316
  1885.5000      0.0000    685.6693      4.3187    106.4647
  1885.7500      0.0000    683.8432      4.3304    109.9653
  1886.0000      0.0000    679.8434      4.3411    113.4936
  1886.2500      0.0000    674.0974      4.3500    116.2328
  1886.5000      0.0000    668.0254      4.3589    118.7099
  1886.7500      0.0000    663.3560      4.3664    121.9659
  1887.0000      0.0000    660.4325      4.3662    126.2950
  1887.2500      0.0000    657.1928      4.3536    130.7237
  1887.5000      0.0000    650.8737      4.3352    133.8059
  1887.7500      0.0000    641.2785      4.3318    134.8999
  1888.0000      0.0000    631.7307      4.3650    134.4025
  1888.2500      0.0000    626.6357      4.4412    132.6676
  1888.5000      0.0000    628.6470      4.5421    129.1834
  1888.7500      0.0000    637.7386      4.6318    123.1887
  1889.0000      0.0000    651.6677      4.6727    114.9849
  1889.2500      0.0000    667.0949      4.6429    106.2299
  1889.5000      0.0000    681.1182      4.5450     98.8315
  1889.7500      0.0000    691.9611      4.4063     93.9511
  1890.0000      0.0000    698.4626      4.2704     92.2030
  1890.2500      0.0000    700.2629      4.1806     94.0136
  1890.5000      0.0000    699.0768      4.1568     98.9536
  1890.7500      0.0000    698.3533      4.1813    105.0107
  1891.0000      0.0000    700.4240      4.2087    109.5517
  1891.2500      0.0000    704.4174      4.1927    111.5204
  1891.5000      0.0000    707.5803      4.1109    112.2906
  1891.7500      0.0000    708.1368      3.9749    113.9776
  1892.0000      0.0000    706.5383      3.8178    117.1961
  1892.2500      0.0000    704.7508      3.6693    120.7157
  1892.5000      0.0000    704.8102      3.5413    123.0914
  1892.7500      0.0000    707.2807      3.4340    124.3161
  1893.0000      0.0000    710.4298      3.3503    125.7767
  1893.2500      0.0000    711.3871      3.2986    128.6580
  1893.5000      0.0000    708.8802      3.2880    132.5160
  1893.7500      0.0000    704.8865      3.3302    135.4722
  1894.0000      0.0000    703.2125      3.4517    135.6226
  1894.2500      0.0000    706.2756      3.7012    132.1618
  1894.5000      0.0000    713.3066      4.1385    125.4602
  1894.7500      0.0000    721.5136      4.8160    116.8147
  1895.0000      0.0000    728.3253      5.7738    108.5626
  1895.2500      0.0000    731.7403      7.0575    103.7354
  1895.5000      0.0000    727.8711      8.7460    104.3083
  1895.7500      0.0000    708.5934     10.9729    109.4870
  1896.0000      0.0000    664.4522     13.9116    116.2084
  1896.2500      0.0000    593.7085     17.6920    121.2855
  1896.5000      0.0000    508.7848     22.2602    123.0080
  1896.7500      0.0000    430.2548     27.2878    121.5569
  1897.0000      0.0000    372.8308     32.2232    118.6800
  1897.2500      0.0000    338.1754     36.4652    116.3923
  1897.5000      0.0000    319.6609     39.5545    115.2230
  1897.7500      0.0000    310.2926     41.3124    114.0320
  1898.0000      0.0000    305.9172     41.9058    111.8340
  1898.2500      0.0000    304.4921     41.7908    109.3449
  1898.5000      0.0000    305.1000     41.4776    108.4101
  1898.7500      0.0000    308.1790     41.1837    110.2059
  1899.0000      0.0000    316.5305     40.6476    114.1169
  1899.2500      0.0000    336.7537     39.3332    118.1599
  1899.5000      0.0000    379.5251     36.8647    120.3067
  1899.7500      0.0000    455.2267     33.2831    119.4620
  1900.0000      0.0000    563.3470     28.9589    115.6661
  1900.2500      0.0000    683.8453     24.3674    109.9365
  1900.5000      0.0000    783.9583     19.9402    103.8805
  1900.7500      0.0000    840.0581     16.0047     99.0577
  1901.0000      0.0000    853.7206     12.7548     96.5192
  1901.2500      0.0000    844.5914     10.2476     96.6205
  1901.5000      0.0000    829.8777      8.4344     98.8240
  1901.7500      0.0000    814.4308      7.2103    101.6905
  1902.0000      0.0000    797.4522      6.4659    103.7984
