~Version Information
 VERS.                                  2.0 : CWLS LAS VERSION
 WRAP.                                   NO : WRAPING MODE
 SWARE .                 MController 2.5.0J : SOFTWARE VERSION
~Well Information
 WELL.                        Harlee L 34-9 : WELL
 COMP.    Pioneer natural Resources USA Inc : COMPANY
 FLD.                      Purgatoire River : FIELD
 LOC.                 SW/SE Sec 9 T32S R65W : LOCATION
 DATE.                              1/25/05 : DATE(S) LOGGED
 SRVC.       Blanco Geological Services LLC : SERVICE COMPANY
 STAT.                                   CO : STATE
 CNTY.                           Las Animas : COUNTY
 CTRY.                                  USA : COUNTRY
 API.                       05-071-08009-00 : API NUMBER
 STRT.FT                             404.00 : START DEPTH
 STOP.FT                            1773.00 : STOP DEPTH
 STEP.FT                               1.00 : DEPTH INCREMENT
 NULL.                                -9999 : NULL VALUE
~Curve information
 DEPTH.FT                                   :
 ROP.MIN/FT                                 :
 GAS.UNITS                                  :
~ASCII Log data
# ...
      1404.0         0.30       1554.1 
      1405.0         0.27        992.4 
      1406.0         0.30        601.5 
      1407.0         0.33        548.7 
      1408.0         0.33        507.7 
      1409.0         0.37        453.6 
      1410.0         0.43        189.7 
      1411.0         0.40        151.7 
      1412.0         0.37        131.9 
      1413.0         0.40        121.3 
      1414.0         0.37        105.1 
      1415.0         0.38        126.2 
      1416.0         0.37        169.9 
      1417.0         0.33        188.4 
      1418.0         0.23        199.5 
      1419.0         0.23        208.0 
      1420.0         0.23        215.0 
      1421.0         0.30        206.3 
      1422.0         0.30        194.2 
      1423.0         0.30        190.1 
      1424.0         0.27        196.5 
      1425.0         0.20        207.8 
      1426.0         0.17        207.8 
      1427.0         0.20        213.5 
      1428.0         0.22        271.7 
      1429.0         0.27        325.8 
      1430.0         0.27        365.8 
      1431.0         0.27        454.8 
      1432.0         0.23        997.2 
      1433.0         0.27       1105.5 
      1434.0         0.27       1177.1 
      1435.0         0.37       1220.6 
      1436.0         0.27       1202.2 
      1437.0         0.33       1076.5 
      1438.0         0.33       1015.9 
      1439.0         0.30        764.9 
      1440.0         0.27        735.9 
      1441.0         0.30        640.8 
      1442.0         0.27        635.7 
      1443.0         0.28        638.6 
      1444.0         0.20        638.6 
      1445.0         0.27        632.4 
      1446.0         0.23        628.9 
      1447.0         0.27        600.2 
      1448.0         0.33        580.6 
      1449.0         0.33        539.3 
      1450.0         0.33        503.2 
      1451.0         0.30        490.6 
      1452.0         0.27        469.4 
      1453.0         0.30        449.4 
      1454.0         0.23        440.0 
      1455.0         0.38        440.0 
      1456.0         0.27        318.7 
      1457.0         0.30        370.8 
      1458.0         0.27        462.1 
      1459.0         0.17        462.1 
      1460.0         0.13        971.1 
      1461.0         0.13        971.1 
      1462.0         0.13       1047.2 
      1463.0         0.20       1072.3 
      1464.0         0.23       1140.0 
      1465.0         0.27       1160.0 
      1466.0         0.13       1160.0 
      1467.0         0.27       1100.4 
      1468.0         0.27       1007.9 
      1469.0         0.27        953.4 
      1470.0         0.28        850.9 
      1471.0         0.27        797.4 
      1472.0         0.30        791.3 
      1473.0         0.33        781.0 
      1474.0         0.37        764.6 
      1475.0         0.27        701.7 
      1476.0         0.40        684.6 
      1477.0         0.40        613.4 
      1478.0         0.37        565.4 
      1479.0         0.37        539.6 
      1480.0         0.45        509.0 
      1481.0         0.37        497.1 
      1482.0         0.37        482.6 
      1483.0         0.33        468.1 
      1484.0         0.33        450.0 
      1485.0         0.30        440.0 
      1486.0         0.27        204.8 
      1487.0         0.33        201.8 
      1488.0         0.33        200.2 
      1489.0         0.30       1121.6 
      1490.0         0.32       1121.6 
      1491.0         0.33       1112.6 
      1492.0         0.33       1004.3 
      1493.0         0.33        840.9 
      1494.0         0.33        802.6 
      1495.0         0.30        602.8 
      1496.0         0.20        548.3 
      1497.0         0.28        532.9 
      1498.0         0.40        564.4 
      1499.0         0.43        591.2 
      1500.0         0.43        590.9 
      1501.0         0.43        585.7 
      1502.0         0.43        568.0 
      1503.0         0.43        507.4 
      1504.0         0.40        457.1 
      1505.0         0.32        196.1 
      1506.0         0.27        187.9 
      1507.0         0.30        187.8 
      1508.0         0.30        185.2 
      1509.0         0.27        185.0 
      1510.0         0.30        186.9 
      1511.0         0.27        188.3 
      1512.0         0.27        193.0 
      1513.0         0.30        197.6 
      1514.0         0.27        200.2 
      1515.0         0.30        205.9 
      1516.0         0.27        219.0 
      1517.0         0.32        234.9 
      1518.0         0.30        266.0 
      1519.0         0.37        337.8 
      1520.0         0.37        424.3 
      1521.0         0.30        456.2 
      1522.0         0.23        458.3 
      1523.0         0.27        471.9 
      1524.0         0.27        480.7 
      1525.0         0.20        899.6 
      1526.0         0.27        895.1 
      1527.0         0.30        848.0 
      1528.0         0.30        768.8 
      1529.0         0.27        711.4 
      1530.0         0.30        701.1 
      1531.0         0.33        688.5 
      1532.0         0.42        642.4 
      1533.0         0.33        591.2 
      1534.0         0.30        543.8 
      1535.0         0.23        452.3 
      1536.0         0.10        470.3 
      1537.0         0.23        488.1 
      1538.0         0.33        481.0 
      1539.0         0.33        457.8 
      1540.0         0.27        445.5 
      1541.0         0.17        440.4 
      1542.0         0.23        440.0 
      1543.0         0.17        231.4 
      1544.0         0.17        218.7 
      1545.0         0.17        218.7 
      1546.0         0.22        210.9 
      1547.0         0.20        199.3 
      1548.0         0.20       1482.9 
      1549.0         0.27       1482.9 
      1550.0         0.27       1476.8 
      1551.0         0.27       1419.7 
      1552.0         0.23       1267.6 
      1553.0         0.23       1246.0 
      1554.0         0.23        953.4 
      1555.0         0.20        917.6 
      1556.0         0.13        787.4 
      1557.0         0.07        787.4 
      1558.0         0.27        725.3 
      1559.0         0.23        596.0 
      1560.0         0.30        586.7 
      1561.0         0.40        617.0 
      1562.0         0.42        634.7 
      1563.0         0.37        637.0 
      1564.0         0.47        635.0 
      1565.0         0.40        650.2 
      1566.0         0.40        706.6 
      1567.0         0.40        852.2 
      1568.0         0.43       1029.8 
      1569.0         0.40       1081.4 
      1570.0         0.28        974.4 
      1571.0         0.27        952.8 
      1572.0         0.30        694.0 
      1573.0         0.37        526.7 
      1574.0         0.37        186.8 
      1575.0         0.37        159.5 
      1576.0         0.33        138.7 
      1577.0         0.30        199.4 
      1578.0         0.30        219.7 
      1579.0         0.30        349.1 
      1580.0         0.25        412.0 
      1581.0         0.27        444.1 
      1582.0         0.23        893.5 
      1583.0         0.23        893.5 
      1584.0         0.27        904.1 
      1585.0         0.27        857.1 
      1586.0         0.17        797.8 
      1587.0         0.28        764.6 
      1588.0         0.27        724.9 
      1589.0         0.27        715.3 
      1590.0         0.27        687.5 
      1591.0         0.27        640.8 
      1592.0         0.40        592.5 
      1593.0         0.47        487.4 
      1594.0         0.37        440.0 
      1595.0         0.33        188.2 
      1596.0         0.40        167.6 
      1597.0         0.38        150.6 
      1598.0         0.33        135.3 
      1599.0         0.40        125.7 
      1600.0         0.40        121.7 
      1601.0         0.40        121.1 
      1602.0         0.40        119.0 
      1603.0         0.43        117.0 
