~Version Information
VERS.                      2.0: CWLS Log ASCII Standard - VERSION 2.0
WRAP.                       NO: One line per depth step
~Well Information Block
STRT.FT                -9.7500: 
STOP.FT              2612.5000: 
STEP.FT                 0.2500: 
NULL.                -999.2500: 
COMP.                         : COMPANY
WELL.                         : WELL
FLD.                          : FIELD
LOC.                          : LOCATION
CNTY.                         : COUNTY
SRVC.                         : SERVICE COMPANY
DATE.          Mon Nov 17 14:56:03 2003: LOG DATE
UWI.                          : UNIQUE WELL ID
STAT.                         : STATE
~Curve Information Block
DEPT.FT            0 000 00 00: Depth
CCL.                          : Casing Collar Locator
TT3.usec                      : CBL 3' Travel Time
AMP3.mV                       : CBL 3' Amplitude
GR.GAPI                       : Gamma Ray
~Parameter Information Block
~A  Depth       CCL         TT3         AMP3         GR     
# ...
  2067.2500      0.0000    262.5563     71.6191    154.4932
  2067.5000      0.0000    262.5783     71.4999    149.4850
  2067.7500      0.0000    262.5954     71.3958    147.8071
  2068.0000      0.0000    262.6141     71.2821    149.0447
  2068.2500      0.0000    262.6427     71.1314    150.9196
  2068.5000      0.0000    262.6804     70.9548    150.2480
  2068.7500      0.0000    262.7169     70.8050    144.7577
  2069.0000      0.0000    262.7418     70.7329    134.7400
  2069.2500      0.0000    262.7515     70.7430    122.9259
  2069.5000      0.0000    262.7472     70.8009    112.5124
  2069.7500      0.0000    262.7294     70.8843    105.1691
  2070.0000      0.0000    262.6980     71.0053    100.6972
  2070.2500      0.0000    262.6601     71.1686     98.0368
  2070.5000      0.0000    262.6288     71.3371     96.1935
  2070.7500      0.0000    262.6116     71.4677     94.3794
  2071.0000      0.0000    262.6015     71.5587     91.7248
  2071.2500      0.0000    262.5852     71.6349     87.3537
  2071.5000      0.0000    262.5574     71.7081     81.0111
  2071.7500      0.0000    262.5226     71.7805     73.4530
  2072.0000      0.0000    262.4869     71.8633     65.9253
  2072.2500      0.0000    262.4557     71.9574     59.3943
  2072.5000      0.0000    262.4359     72.0217     54.2929
  2072.7500      0.0000    262.4319     72.0033     50.6570
  2073.0000      0.0000    262.4383     71.9062     48.3150
  2073.2500      0.0000    262.4435     71.8010     47.1255
  2073.5000      0.0000    262.4421     71.7572     47.2133
  2073.7500      0.0000    262.4388     71.7851     49.0991
  2074.0000      0.0000    262.4396     71.8415     53.5730
  2074.2500      0.0000    262.4443     71.8769     61.1175
  2074.5000      0.0000    262.4475     71.8754     71.1204
  2074.7500      0.0000    262.4471     71.8527     81.7229
  2075.0000      0.0000    262.4499     71.8242     90.7494
  2075.2500      0.0000    262.4674     71.7778     97.0107
  2075.5000      0.0000    262.5061     71.6783    100.9390
  2075.7500      0.0000    262.5595     71.5112    104.2196
  2076.0000      0.0000    262.6075     71.3263    108.7109
  2076.2500      0.0000    262.6278     71.2197    115.3148
  2076.5000      0.0000    262.6129     71.2530    123.7215
  2076.7500      0.0000    262.5788     71.3928    133.1112
  2077.0000      0.0000    262.5508     71.5501    142.6624
  2077.2500      0.0000    262.5423     71.6585    151.3085
  2077.5000      0.0000    262.5509     71.6985    158.0003
  2077.7500      0.0000    262.5687     71.6827    163.0406
  2078.0000      0.0000    262.5855     71.6556    168.3955
  2078.2500      0.0000    262.5906     71.6791    175.4901
  2078.5000      0.0000    262.5789     71.7865    182.8744
  2078.7500      0.0000    262.5527     71.9598    187.1308
  2079.0000      0.0000    262.5160     72.1513    186.2064
  2079.2500      0.0000    262.4758     72.3069    181.1715
  2079.5000      0.0000    262.4437     72.3831    174.7920
  2079.7500      0.0000    262.4302     72.3697    169.2348
  2080.0000      0.0000    262.4364     72.2966    165.4090
  2080.2500      0.0000    262.4543     72.2118    163.7636
  2080.5000      0.0000    262.4755     72.1556    164.8397
  2080.7500      0.0000    262.4958     72.1476    168.9171
  2081.0000      0.0000    262.5149     72.1811    175.3809
  2081.2500      0.0000    262.5320     72.2270    182.4191
  2081.5000      0.0000    262.5454     72.2553    187.4823
  2081.7500      0.0000    262.5577     72.2595    188.7123
  2082.0000      0.0000    262.6104     72.2374    186.3889
  2082.2500      0.0000    262.8516     72.1133    182.4840
  2082.5000      0.0000    263.6071     71.6545    178.3412
  2082.7500      0.0000    265.3188     70.5139    173.2563
  2083.0000      0.0000    268.2428     68.4557    165.7446
  2083.2500      0.0000    272.1876     65.5350    155.8067
  2083.5000      0.0000    276.7910     61.9576    145.5312
  2083.7500      0.0000    282.0880     57.8564    137.6457
  2084.0000      0.0000    288.3391     53.4855    133.7194
  2084.2500      0.0000    295.1280     49.5571    133.5104
  2084.5000      0.0000    301.1805     46.9262    135.6444
  2084.7500      0.0000    305.3788     45.8398    138.8383
  2085.0000      0.0000    307.6079     45.7693    142.4561
  2085.2500      0.0000    308.4838     45.9870    145.7386
  2085.5000     -2.0000    308.5795     46.1005    146.7984
  2085.7500     -2.0000    307.9829     46.1642    143.3070
  2086.0000      0.0000    306.3759     46.5724    134.6553
  2086.2500      0.0000    303.4720     47.8193    123.0221
  2086.5000      0.0000    299.4329     50.0976    112.2387
  2086.7500      0.0000    294.7029     53.1315    105.9326
  2087.0000      0.0000    289.4036     56.5603    106.1540
  2087.2500      0.0000    283.3284     60.2605    112.5997
  2087.5000      0.0000    276.7565     64.0402    122.8925
  2087.7500      0.0000    270.7856     67.3396    133.9729
  2088.0000      0.0000    266.5078     69.5928    143.4122
  2088.2500      0.0000    264.1454     70.7215    149.8773
  2088.5000      0.0000    263.1464     71.0972    153.1977
  2088.7500      0.0000    262.8190     71.1567    154.2831
  2089.0000      0.0000    262.7283     71.1427    154.4748
  2089.2500      0.0000    262.7021     71.1066    154.3852
  2089.5000      0.0000    262.6989     71.0310    153.2419
  2089.7500      0.0000    262.7054     70.9336    149.5945
  2090.0000      0.0000    262.7065     70.8694    142.7693
  2090.2500      0.0000    262.6949     70.8662    133.5056
  2090.5000      0.0000    262.6784     70.8918    123.4016
  2090.7500      0.0000    262.6723     70.8887    114.0739
  2091.0000      0.0000    262.6866     70.8283    106.5077
  2091.2500      0.0000    262.7199     70.7264    100.6787
  2091.5000      0.0000    262.7621     70.6171     95.7629
  2091.7500      0.0000    262.7993     70.5298     90.8716
  2092.0000      0.0000    262.8183     70.4876     85.5692
  2092.2500      0.0000    262.8132     70.5014     79.9519
  2092.5000      0.0000    262.7903     70.5499     74.7036
  2092.7500      0.0000    262.7663     70.5783     70.9355
  2093.0000      0.0000    262.7556     70.5434     69.4602
  2093.2500      0.0000    262.7570     70.4729     70.2927
  2093.5000      0.0000    262.7548     70.4608     73.1919
  2093.7500      0.0000    262.7351     70.5831     78.3900
  2094.0000      0.0000    262.7006     70.8090     86.3401
  2094.2500      0.0000    262.6680     71.0192     96.8333
  2094.5000      0.0000    262.6507     71.1217    108.7122
  2094.7500      0.0000    262.6463     71.1328    120.3729
  2095.0000      0.0000    262.6416     71.1331    130.3753
  2095.2500      0.0000    262.6302     71.1604    137.9424
  2095.5000      0.0000    262.6208     71.1695    143.3156
  2095.7500      0.0000    262.6278     71.1005    147.3021
  2096.0000      0.0000    262.6534     70.9664    149.8918
  2096.2500      0.0000    262.6831     70.8510    149.5562
  2096.5000      0.0000    262.7002     70.8213    144.8067
  2096.7500      0.0000    262.7018     70.8615    136.7527
  2097.0000      0.0000    262.6998     70.9001    129.4500
  2097.2500      0.0000    262.7068     70.8851    127.2129
  2097.5000      0.0000    262.7245     70.8228    131.7411
  2097.7500      0.0000    262.7447     70.7478    141.6104
  2098.0000      0.0000    262.7593     70.6768    153.6385
  2098.2500      0.0000    262.7669     70.6097    164.4014
  2098.5000      0.0000    262.7693     70.5602    171.3365
  2098.7500      0.0000    262.7684     70.5548    173.3475
  2099.0000      0.0000    262.7684     70.5927    170.7901
  2099.2500      0.0000    262.7766     70.6333    165.3005
  2099.5000      0.0000    262.7970     70.6374    159.7953
  2099.7500      0.0000    262.8240     70.6042    157.6971
  2100.0000      0.0000    262.8469     70.5633    160.7468
  2100.2500      0.0000    262.8560     70.5452    167.1881
  2100.5000      0.0000    262.8475     70.5628    172.8828
