~Version Information
VERS.                      2.0: CWLS Log ASCII Standard - VERSION 2.0
WRAP.                       NO: One line per depth step
~Well Information Block
STRT.FT               732.2500: 
STOP.FT              2476.0000: 
STEP.FT                 0.2500: 
NULL.                -999.2500: 
COMP.          Petrogulf Corporation: COMPANY
WELL.            Montoya 7-14V: WELL
FLD.           Purgatorie River: FIELD
LOC.           535' FSL & 491' FWL: LOCATION
CNTY.               Las Animas: COUNTY
SRVC.                         : SERVICE COMPANY
DATE.          Mon Aug 23 05:51:43 2004: LOG DATE
UWI.           05 071 08019 00: UNIQUE WELL ID
STAT.                 Colorado: STATE
~Curve Information Block
DEPT.FT            0 000 00 00: Depth
SP.mV                         : DIL Spontaneous Potential
RILD.Ohm-m                    : DIL Deep Resistivity
RILM.Ohm-m                    : DIL Medium Resistivity
RLL3.Ohm-m                    : DIL Shallow Resistivity
GR.GAPI                       : Gamma Ray
~Parameter Information Block
~A  Depth        SP         RILD        RILM        RLL3         GR     
# ...
   872.2500    -75.0484     18.9322     24.5950     26.5768    105.3774
   872.5000    -74.8040     19.1016     24.9470     26.8900    103.2311
   872.7500    -74.5449     19.2611     25.2092     26.9387    103.1514
   873.0000    -74.3939     19.3885     25.3776     26.8501    105.1872
   873.2500    -74.4905     19.4571     25.4615     26.7828    107.3271
   873.5000    -74.9458     19.4574     25.4831     26.8125    110.5213
   873.7500    -75.8102     19.4066     25.4690     26.9051    112.1798
   874.0000    -77.0590     19.3366     25.4433     26.9992    113.4228
   874.2500    -78.6060     19.2772     25.4196     27.0978    113.2177
   874.5000    -80.3288     19.2447     25.3976     27.2584    111.4244
   874.7500    -82.0946     19.2444     25.3632     27.4896    109.6571
   875.0000    -83.7783     19.2765     25.2926     27.6728    107.4982
   875.2500    -85.2741     19.3396     25.1586     27.6053    107.2683
   875.5000    -86.5015     19.4291     24.9376     27.1397    109.5995
   875.7500    -87.4101     19.5321     24.6169     26.3107    112.6430
   876.0000    -87.9869     19.6273     24.2003     25.3482    117.3762
   876.2500    -88.2608     19.6907     23.7094     24.5608    119.1116
   876.5000    -88.3045     19.7037     23.1818     24.1591    118.3890
   876.7500    -88.2271     19.6591     22.6635     24.1332    116.3931
   877.0000    -88.1600     19.5625     22.2015     24.2643    113.7148
   877.2500    -88.2333     19.4346     21.8354     24.2642    113.4975
   877.5000    -88.5441     19.3158     21.5923     23.9467    116.4622
   877.7500    -89.1258     19.2691     21.4850     23.3231    120.0755
   878.0000    -89.9316     19.3735     21.5144     22.5677    125.3929
   878.2500    -90.8406     19.7056     21.6718     21.9000    127.3495
   878.5000    -91.6913     20.3159     21.9466     21.4826    127.2276
   878.7500    -92.3299     21.2030     22.3314     21.4055    125.9594
   879.0000    -92.6532     22.2938     22.8275     21.7470    124.1773
   879.2500    -92.6288     23.4458     23.4461     22.6286    123.5135
   879.5000    -92.2920     24.4883     24.2085     24.1995    122.7053
   879.7500    -91.7213     25.3021     25.1407     26.5531    121.6971
   880.0000    -91.0133     25.8776     26.2699     29.6307    118.9961
   880.2500    -90.2659     26.3051     27.6178     33.1680    116.5140
   880.5000    -89.5653     26.7069     29.1983     36.7192    112.2172
   880.7500    -88.9771     27.1786     31.0142     39.7842    109.1733
   881.0000    -88.5326     27.7735     33.0566     42.0147    104.5414
   881.2500    -88.2178     28.5215     35.3033     43.4009    101.5965
   881.5000    -87.9701     29.4539     37.7179     44.3016     98.0413
   881.7500    -87.6895     30.6051     40.2497     45.2657     96.6250
   882.0000    -87.2681     31.9895     42.8321     46.7565     95.9219
   882.2500    -86.6242     33.5644     45.3792     48.9647     95.9764
   882.5000    -85.7348     35.2015     47.7868     51.7982     96.2040
   882.7500    -84.6489     36.6926     49.9299     54.9790     96.4991
   883.0000    -83.4798     37.7971     51.6609     58.1252     97.5281
   883.2500    -82.3711     38.3115     52.8095     60.7929     98.4212
   883.5000    -81.4559     38.1229     53.1934     62.5408     98.8817
   883.7500    -80.8212     37.2283     52.6533     63.0477     97.9624
   884.0000    -80.4858     35.7237     51.1044     62.2109     94.8024
   884.2500    -80.4094     33.7809     48.6012     60.1485     92.2865
   884.5000    -80.5123     31.6119     45.3502     57.1251     89.8484
   884.7500    -80.7056     29.4231     41.6666     53.4721     90.0477
   885.0000    -80.9082     27.3769     37.8861     49.5199     93.3868
   885.2500    -81.0568     25.5738     34.2831     45.5076     97.0294
   885.5000    -81.1015     24.0539     31.0343     41.5013    103.2011
   885.7500    -81.0051     22.8103     28.2218     37.4231    107.2957
   886.0000    -80.7360     21.8010     25.8604     33.2224    113.3510
   886.2500    -80.2703     20.9660     23.9259     29.0513    117.5124
   886.5000    -79.5903     20.2440     22.3792     25.2629    123.9804
   886.7500    -78.6915     19.5919     21.1788     22.2126    128.0340
   887.0000    -77.5923     18.9974     20.2886     20.0433    132.4276
   887.2500    -76.3428     18.4794     19.6798     18.6407    133.7186
   887.5000    -75.0203     18.0747     19.3307     17.7850    133.8045
   887.7500    -73.7139     17.8197     19.2237     17.3608    133.6409
   888.0000    -72.5002     17.7342     19.3424     17.4723    134.1627
   888.2500    -71.4242     17.8166     19.6670     18.3935    134.6310
   888.5000    -70.4989     18.0452     20.1712     20.3883    133.9205
   888.7500    -69.7256     18.3891     20.8189     23.4958    132.0941
   889.0000    -69.1210     18.8193     21.5636     27.3872    128.1252
   889.2500    -68.7315     19.3146     22.3525     31.3758    125.2878
   889.5000    -68.6253     19.8628     23.1322     34.5947    121.0587
   889.7500    -68.8587     20.4532     23.8573     36.2877    118.5212
   890.0000    -69.4370     21.0694     24.4954     36.0962    116.7780
   890.2500    -70.2956     21.6846     25.0285     34.2133    117.9246
   890.5000    -71.3159     22.2570     25.4487     31.3228    122.2433
   890.7500    -72.3600     22.7318     25.7535     28.3413    124.9456
   891.0000    -73.3226     23.0514     25.9420     26.0800    125.8571
   891.2500    -74.1597     23.1783     26.0150     24.9779    124.1142
   891.5000    -74.8825     23.1169     25.9770     25.0071    119.4728
   891.7500    -75.5318     22.9210     25.8401     25.7636    116.1010
   892.0000    -76.1417     22.6708     25.6244     26.6830    111.9494
   892.2500    -76.7183     22.4414     25.3576     27.2828    110.3248
   892.5000    -77.2448     22.2769     25.0704     27.3250    110.3196
   892.7500    -77.6986     22.1845     24.7932     26.8316    112.1420
   893.0000    -78.0654     22.1449     24.5517     25.9769    117.1813
   893.2500    -78.3489     22.1292     24.3641     24.9616    121.2410
   893.5000    -78.5668     22.1126     24.2414     23.9580    126.4941
   893.7500    -78.7394     22.0794     24.1861     23.1245    128.7533
   894.0000    -78.8787     22.0240     24.1940     22.6111    130.5889
   894.2500    -78.9771     21.9483     24.2539     22.5118    131.4262
   894.5000    -79.0056     21.8596     24.3494     22.8014    132.5688
   894.7500    -78.9271     21.7658     24.4587     23.3266    132.9157
   895.0000    -78.7171     21.6712     24.5557     23.8786    132.1194
   895.2500    -78.3914     21.5758     24.6144     24.2983    130.6947
   895.5000    -78.0173     21.4823     24.6145     24.5356    127.6440
   895.7500    -77.7029     21.4036     24.5485     24.6191    125.2690
   896.0000    -77.5574     21.3678     24.4297     24.5736    121.8939
   896.2500    -77.6498     21.4097     24.2944     24.3738    120.4814
   896.5000    -77.9814     21.5593     24.1965     23.9915    120.8853
   896.7500    -78.4964     21.8295     24.1992     23.5006    123.1001
   897.0000    -79.1231     22.2100     24.3638     23.1413    128.4853
   897.2500    -79.8210     22.6695     24.7410     23.2808    132.3422
   897.5000    -80.6078     23.1626     25.3639     24.2849    136.4187
   897.7500    -81.5437     23.6441     26.2449     26.3705    137.1156
   898.0000    -82.6829     24.0851     27.3738     29.5032    134.6130
   898.2500    -84.0140     24.4870     28.7188     33.3877    130.8134
   898.5000    -85.4244     24.8803     30.2317     37.5587    123.0884
   898.7500    -86.7157     25.3053     31.8567     41.5432    117.5827
   899.0000    -87.6591     25.7822     33.5380     45.0203    110.4357
   899.2500    -88.0756     26.2828     35.2202     47.9063    106.9485
   899.5000    -87.8977     26.7263     36.8376     50.3283    103.6019
   899.7500    -87.1864     27.0073     38.2917     52.5007    102.2368
   900.0000    -86.1021     27.0544     39.4323     54.5569    100.5630
