~Version Information
VERS.                      2.0: CWLS Log ASCII Standard - VERSION 2.0
WRAP.                       NO: One line per depth step
~Well Information Block
STRT.FT               450.0000: 
STOP.FT              1739.2000: 
STEP.FT                 0.1000: 
NULL.                -999.2500: 
COMP.          Pioneer Natural Resources: COMPANY
WELL.            Harlee L 34-9: WELL
FLD.           Purgatoire River: FIELD
LOC.           600' FSL & 2125' FEL: LOCATION
PROV.                 Colorado: PROVINCE
CNTY.               Las Animas: COUNTRY
SRVC.                Patterson: SERVICE COMPANY
DATE.          Wed Jan 26 13:57:24 2005: LOG DATE
UWI.           05 071 08009 00: UNIQUE WELL ID
~Curve Information Block
DEPT.FT            0 000 00 00: Depth
DCAL.in                       : CDL Caliper
RHOB.g/cc                     : CDL Bulk Density
RHOC.g/cc                     : CDL Density Correction
DPOR.pu                       : CDL Density Porosity
NPOR.pu                       : Neutron Porosity
GR.GAPI                       : Gamma Ray
~Parameter Information Block
~A  Depth       DCAL        RHOB        RHOC        DPOR        NPOR         GR     
# ...
   949.2000      8.6752      2.4734      0.0407     10.7035     25.5632    129.3801
   949.3000      8.6719      2.4892      0.0270      9.7426     25.3803    128.6767
   949.4000      8.6719      2.5148      0.0440      8.1931     25.0546    127.9484
   949.5000      8.6723      2.5413      0.0674      6.5880     24.8879    129.9869
   949.6000      8.6723      2.5520      0.1139      5.9407     25.0130    132.8115
   949.7000      8.6723      2.5435      0.1162      6.4526     25.1854    131.4269
   949.8000      8.6736      2.5362      0.1057      6.8969     25.2180    124.8818
   949.9000      8.6736      2.5399      0.1562      6.6706     25.0344    119.3622
   950.0000      8.6754      2.5433      0.1273      6.4644     24.6922    120.3851
   950.1000      8.6754      2.5486      0.0653      6.1439     24.4137    124.0449
   950.2000      8.6754      2.5618      0.1245      5.3436     24.2565    122.5104
   950.3000      8.6756      2.5672      0.1235      5.0189     24.2148    115.6812
   950.4000      8.6756      2.5558      0.0927      5.7090     24.4044    109.5901
   950.5000      8.6737      2.5407      0.0017      6.6254     24.8737    108.5811
   950.6000      8.6737      2.5314      0.0637      7.1907     25.3154    113.7592
   950.7000      8.6737      2.5199      0.0804      7.8857     25.5765    120.3077
   950.8000      8.6730      2.5061     -0.0203      8.7197     25.8553    122.5474
   950.9000      8.6730      2.5033      0.0454      8.8929     26.0675    121.2281
   951.0000      8.6740      2.5066      0.0348      8.6883     26.1140    119.3901
   951.1000      8.6740      2.4993      0.0528      9.1348     26.0971    118.2165
   951.2000      8.6740      2.4798      0.0125     10.3163     25.9313    117.9482
   951.3000      8.6743      2.4679      0.0146     11.0364     25.7156    117.6882
   951.4000      8.6743      2.4784      0.0106     10.3973     25.6994    118.0586
   951.5000      8.6736      2.5080      0.0242      8.6037     25.7818    120.7302
   951.6000      8.6736      2.5376      0.0907      6.8111     25.8382    121.8574
   951.7000      8.6736      2.5419      0.1339      6.5541     25.7466    119.0500
   951.8000      8.6748      2.5236      0.0735      7.6597     25.3388    118.6762
   951.9000      8.6748      2.5109      0.0959      8.4287     24.7814    122.4691
   952.0000      8.6791      2.5089      0.1317      8.5495     24.2709    122.6930
   952.1000      8.6791      2.5022      0.1430      8.9580     23.7655    118.2017
   952.2000      8.6791      2.4908      0.1255      9.6484     23.4934    116.5984
   952.3000      8.6934      2.4913      0.1200      9.6211     23.7755    120.5295
   952.4000      8.6934      2.5089      0.1401      8.5537     24.3175    129.1288
   952.5000      8.7246      2.5293      0.1052      7.3151     24.6984    142.1131
   952.6000      8.7246      2.5384      0.1202      6.7618     24.9709    153.5985
   952.7000      8.7246      2.5357      0.0840      6.9295     25.1003    157.1017
   952.8000      8.7572      2.5321      0.1125      7.1466     25.0823    154.0198
   952.9000      8.7572      2.5343      0.1269      7.0101     25.1878    150.9979
   953.0000      8.7739      2.5381      0.1405      6.7827     25.1960    152.8312
   953.1000      8.7739      2.5437      0.1106      6.4400     24.7388    158.1453
   953.2000      8.7739      2.5555      0.1153      5.7286     24.1978    161.4454
   953.3000      8.7779      2.5639      0.1265      5.2205     24.1461    159.2064
   953.4000      8.7779      2.5577      0.1111      5.5912     24.4399    153.0100
   953.5000      8.7770      2.5392      0.0679      6.7147     24.6305    144.3685
   953.6000      8.7770      2.5143      0.0550      8.2267     24.6292    135.7298
   953.7000      8.7770      2.4911      0.0366      9.6318     24.5435    134.4679
   953.8000      8.7764      2.4863      0.0231      9.9216     24.4306    143.3608
   953.9000      8.7764      2.5052      0.0581      8.7753     24.2564    154.1318
   954.0000      8.7776      2.5339      0.0650      7.0386     23.9298    156.0600
   954.1000      8.7776      2.5536      0.0775      5.8425     23.4808    150.3652
   954.2000      8.7776      2.5502      0.0871      6.0485     23.1135    147.9881
   954.3000      8.7782      2.5338      0.0290      7.0453     23.0836    150.8912
   954.4000      8.7782      2.5260      0.0713      7.5152     23.4307    149.6518
   954.5000      8.7792      2.5216      0.1021      7.7802     23.8613    143.0497
   954.6000      8.7792      2.5084      0.0545      8.5835     24.0315    141.2364
   954.7000      8.7792      2.5022      0.0255      8.9593     23.9126    147.1577
   954.8000      8.7808      2.5199      0.0668      7.8832     23.7025    153.2115
   954.9000      8.7808      2.5426      0.1224      6.5074     23.6413    153.5128
   955.0000      8.7816      2.5406      0.0912      6.6300     23.9013    148.4159
   955.1000      8.7816      2.5162      0.0779      8.1093     24.1410    142.0070
   955.2000      8.7816      2.4951      0.0614      9.3859     24.0292    139.3951
   955.3000      8.7814      2.4931      0.0701      9.5066     23.7358    142.2640
   955.4000      8.7814      2.5024      0.0904      8.9485     23.2899    145.7692
   955.5000      8.7796      2.5098      0.0840      8.4993     22.7358    146.5178
   955.6000      8.7796      2.5215      0.0376      7.7895     22.3885    144.3237
   955.7000      8.7796      2.5501      0.0865      6.0548     22.4397    139.2455
   955.8000      8.7787      2.5816      0.1395      4.1462     22.5854    132.8352
   955.9000      8.7787      2.5885      0.1133      3.7293     22.4515    128.2697
   956.0000      8.7803      2.5676      0.1378      4.9934     22.2905    128.5321
   956.1000      8.7803      2.5388      0.0990      6.7396     22.5600    134.0877
   956.2000      8.7803      2.5217      0.0591      7.7735     23.1571    142.8059
   956.3000      8.7807      2.5136      0.0673      8.2671     23.5705    150.3578
   956.4000      8.7807      2.4997      0.0354      9.1099     23.6481    155.8066
   956.5000      8.7788      2.4859      0.0144      9.9434     23.6753    163.0357
   956.6000      8.7788      2.4882      0.0285      9.8033     23.8065    169.6229
   956.7000      8.7788      2.5081      0.0471      8.5975     23.8991    170.4855
   956.8000      8.7755      2.5349      0.0423      6.9765     23.6770    169.1179
   956.9000      8.7755      2.5528      0.0871      5.8929     23.1925    166.3172
   957.0000      8.7725      2.5564      0.0708      5.6704     22.6637    156.6209
   957.1000      8.7725      2.5550      0.1015      5.7574     21.9825    143.5578
   957.2000      8.7725      2.5463      0.1119      6.2868     21.2625    135.7743
   957.3000      8.7724      2.5247      0.0372      7.5921     21.0547    133.5927
   957.4000      8.7724      2.5013      0.0486      9.0134     21.2717    131.1331
   957.5000      8.7727      2.4848      0.0042     10.0100     21.1915    122.7698
   957.6000      8.7727      2.4755      0.0360     10.5742     20.6228    110.0749
   957.7000      8.7727      2.4791     -0.0168     10.3584     19.8338    100.0134
   957.8000      8.7759      2.5010      0.0573      9.0275     19.1024     94.9898
   957.9000      8.7759      2.5278      0.0655      7.4033     18.6662     94.7210
   958.0000      8.7802      2.5423      0.0748      6.5250     18.6294     98.5111
   958.1000      8.7802      2.5444      0.0747      6.4026     18.8867    101.8761
   958.2000      8.7802      2.5441      0.0409      6.4160     19.1867    102.9339
   958.3000      8.7814      2.5459      0.0900      6.3066     19.4244    104.7602
   958.4000      8.7814      2.5399      0.0990      6.6754     19.6906    107.3484
   958.5000      8.7800      2.5225      0.0425      7.7280     19.9993    108.9000
   958.6000      8.7800      2.5082      0.0390      8.5921     20.1804    108.4679
   958.7000      8.7800      2.5072      0.0396      8.6553     20.0708    104.4364
