~Version Information
VERS.                      2.0: CWLS Log ASCII Standard - VERSION 2.0
WRAP.                       NO: One line per depth step
~Well Information Block
STRT.FT               998.8000: 
STOP.FT              2235.5000: 
STEP.FT                 0.1000: 
NULL.                -999.2500: 
COMP.          Petrogulf Corporation: COMPANY
WELL.          Latiluppe 8-13R: WELL
FLD.           Purgatorie River: FIELD
LOC.           1495' FSL & 946' FWL: LOCATION
CNTY.               Las Animas: COUNTY
SRVC.                         : SERVICE COMPANY
DATE.          Wed Apr 21 10:46:16 2004: LOG DATE
UWI.           05 071 08035 00: UNIQUE WELL ID
STAT.                 Colorado: STATE
~Curve Information Block
DEPT.FT            0 000 00 00: Depth
DCAL.in                       : CDL Caliper
RHOB.g/cc                     : CDL Bulk Density
RHOC.g/cc                     : CDL Density Correction
DPOR.pu                       : CDL Density Porosity
NPOR.pu                       : Neutron Porosity
GR.GAPI                       : Gamma Ray
~Parameter Information Block
~A  Depth       DCAL        RHOB        RHOC        DPOR        NPOR         GR     
# ...
  1958.8000      7.7562      2.4990      0.0735      9.1491     16.9062     49.1949
  1958.9000      7.7562      2.4923      0.0800      9.5589     17.3799     49.0821
  1959.0000      7.7572      2.4770      0.0460     10.4835     17.5633     48.5951
  1959.1000      7.7572      2.4733      0.0368     10.7079     17.5500     50.2289
  1959.2000      7.7572      2.4859      0.0372      9.9431     17.4957     53.9857
  1959.3000      7.7585      2.4987      0.0760      9.1676     17.4145     58.4200
  1959.4000      7.7585      2.4980      0.0230      9.2112     17.5292     64.1222
  1959.5000      7.7583      2.4895      0.0328      9.7245     17.9202     70.8715
  1959.6000      7.7583      2.4878      0.0346      9.8324     18.4239     73.5423
  1959.7000      7.7583      2.5062      0.0050      8.7180     18.8679     68.9985
  1959.8000      7.7591      2.5432      0.0785      6.4754     19.1311     61.0377
  1959.9000      7.7591      2.5722      0.1434      4.7142     19.2140     54.5278
  1960.0000      7.7522      2.5742      0.1003      4.5959     19.4162     52.4670
  1960.1000      7.7522      2.5609      0.1052      5.4008     20.0755     54.0700
  1960.2000      7.7522      2.5575      0.0627      5.6078     21.0876     54.6704
  1960.3000      7.7555      2.5775      0.0914      4.3947     22.1262     51.5056
  1960.4000      7.7555      2.6067      0.1007      2.6229     22.9342     46.9777
  1960.5000      7.7599      2.6243      0.0671      1.5582     23.4931     44.9453
  1960.6000      7.7599      2.6289      0.0776      1.2781     24.0473     47.2104
  1960.7000      7.7599      2.6292      0.0669      1.2634     24.7231     52.8763
  1960.8000      7.7603      2.6267      0.0657      1.4135     25.5941     60.2909
  1960.9000      7.7603      2.6217      0.0299      1.7128     26.7415     68.0905
  1961.0000      7.7600      2.6222      0.0304      1.6837     27.7877     73.9959
  1961.1000      7.7600      2.6204      0.0911      1.7925     28.3977     77.4178
  1961.2000      7.7600      2.6004      0.0265      3.0034     28.4798     82.2777
  1961.3000      7.7623      2.5662      0.0223      5.0807     28.2141     91.2879
  1961.4000      7.7623      2.5319     -0.0193      7.1606     28.1138     98.7348
  1961.5000      7.7620      2.5160     -0.0123      8.1216     28.1246     99.8870
  1961.6000      7.7620      2.5281      0.0226      7.3897     27.8408    100.8305
  1961.7000      7.7620      2.5564      0.0631      5.6755     27.5351    106.7988
  1961.8000      7.7625      2.5802      0.0921      4.2294     27.7738    113.0985
  1961.9000      7.7625      2.5858      0.1258      3.8906     28.4054    116.9833
  1962.0000      7.7385      2.5757      0.1332      4.5021     28.7648    121.4325
  1962.1000      7.7385      2.5664      0.1011      5.0668     28.8270    126.8394
  1962.2000      7.7385      2.5726      0.0706      4.6919     28.9167    130.8948
  1962.3000      7.7604      2.5921      0.0546      3.5079     29.0364    131.6065
  1962.4000      7.7604      2.6048      0.1056      2.7416     29.2079    129.2481
  1962.5000      7.7593      2.5997      0.0473      3.0461     29.3119    129.3067
  1962.6000      7.7593      2.5922      0.0726      3.5042     29.2294    134.5490
  1962.7000      7.7593      2.5919      0.0630      3.5212     29.0538    136.7547
  1962.8000      7.7554      2.5927      0.1060      3.4702     28.8073    132.9537
  1962.9000      7.7554      2.5935      0.1350      3.4235     28.4603    129.5600
  1963.0000      7.7699      2.5984      0.1736      3.1280     28.2356    128.9498
  1963.1000      7.7699      2.6008      0.1669      2.9797     28.4382    129.1332
  1963.2000      7.7699      2.5862      0.1157      3.8688     28.8673    129.1861
  1963.3000      7.7578      2.5516      0.0594      5.9653     29.0592    129.6094
  1963.4000      7.7578      2.5148      0.0371      8.1919     29.0494    130.0778
  1963.5000      7.7595      2.4977      0.0026      9.2283     29.0667    131.0945
  1963.6000      7.7595      2.5074      0.0302      8.6443     28.8744    133.0993
  1963.7000      7.7595      2.5298      0.0906      7.2858     28.4615    134.9143
  1963.8000      7.7714      2.5461      0.0864      6.2953     28.3937    136.9450
  1963.9000      7.7714      2.5611      0.0872      5.3859     28.7738    139.6344
  1964.0000      7.7605      2.5830      0.1240      4.0594     29.1317    139.9901
  1964.1000      7.7605      2.5882      0.1529      3.7436     29.3232    138.0786
  1964.2000      7.7605      2.5589      0.0832      5.5203     29.5071    137.4783
  1964.3000      7.7636      2.5254      0.0346      7.5500     29.6484    136.7550
  1964.4000      7.7636      2.5202      0.0785      7.8662     29.5535    132.9338
  1964.5000      7.7626      2.5347      0.0700      6.9888     29.2482    127.5145
  1964.6000      7.7626      2.5478      0.0999      6.1918     28.9062    124.0633
  1964.7000      7.7626      2.5590      0.0598      5.5137     28.6143    124.5145
  1964.8000      7.7582      2.5751      0.0997      4.5415     28.4648    127.7738
  1964.9000      7.7582      2.5903      0.0814      3.6168     28.6028    129.5243
  1965.0000      7.7509      2.5972      0.1077      3.2026     28.9849    127.1850
  1965.1000      7.7509      2.5869      0.0782      3.8246     29.4241    124.5428
  1965.2000      7.7509      2.5599      0.0579      5.4635     29.6951    126.9107
  1965.3000      7.7561      2.5414      0.0020      6.5807     29.7667    133.6324
  1965.4000      7.7561      2.5532      0.0334      5.8694     29.8501    136.5027
  1965.5000      7.7557      2.5816      0.0789      4.1467     29.9106    132.3340
  1965.6000      7.7557      2.6002      0.0858      3.0157     29.6994    128.9067
  1965.7000      7.7557      2.5986      0.0878      3.1174     29.2773    128.6375
  1965.8000      7.7560      2.5874      0.0609      3.7927     28.9910    126.2909
  1965.9000      7.7560      2.5856      0.0446      3.9003     28.9112    122.8232
  1966.0000      7.7588      2.5892      0.0740      3.6867     28.7582    123.8770
  1966.1000      7.7588      2.5843      0.0581      3.9809     28.4801    129.1469
  1966.2000      7.7588      2.5749      0.0647      4.5486     28.2188    135.0779
  1966.3000      7.7523      2.5648      0.0762      5.1609     28.0555    140.6840
  1966.4000      7.7523      2.5495      0.0848      6.0883     28.0139    145.1844
  1966.5000      7.7526      2.5304      0.0277      7.2487     28.1311    145.8732
  1966.6000      7.7526      2.5176      0.0488      8.0250     28.4633    142.3516
  1966.7000      7.7526      2.5222      0.0139      7.7433     28.8102    139.4231
  1966.8000      7.7338      2.5427      0.0862      6.5038     28.9410    140.6544
  1966.9000      7.7338      2.5604      0.0999      5.4288     28.8451    146.0278
  1967.0000      7.7571      2.5664      0.0704      5.0676     28.6053    153.0608
  1967.1000      7.7571      2.5671      0.0754      5.0265     28.2947    157.5128
  1967.2000      7.7571      2.5593      0.1383      5.4959     27.9076    159.3961
  1967.3000      7.7577      2.5378      0.0883      6.8010     27.6300    160.5638
  1967.4000      7.7577      2.5123      0.0921      8.3446     27.5590    159.2640
  1967.5000      7.7585      2.4892      0.1056      9.7427     27.3152    155.1980
  1967.6000      7.7585      2.4617      0.0923     11.4137     26.6302    152.6191
  1967.7000      7.7585      2.4251      0.0858     13.6329     25.8254    153.8907
  1967.8000      7.7584      2.3922     -0.0123     15.6246     25.3246    156.1626
  1967.9000      7.7584      2.3817      0.0474     16.2636     25.1471    154.4878
  1968.0000      7.7603      2.3905      0.0781     15.7301     25.3136    148.0950
  1968.1000      7.7603      2.4080      0.0695     14.6676     25.5498    142.5460
  1968.2000      7.7603      2.4303      0.1130     13.3164     25.2959    140.9565
  1968.3000      7.7584      2.4537      0.1115     11.8954     24.7870    138.8587
