~Version Information
VERS.                      2.0: CWLS Log ASCII Standard - VERSION 2.0
WRAP.                       NO: One line per depth step
~Well Information Block
STRT.FT               298.0000: 
STOP.FT              1325.5000: 
STEP.FT                 0.2500: 
NULL.                -999.2500: 
COMP.          Pioneer Natural Resources: COMPANY
WELL.          Santa Fe 43-27 Tr: WELL
FLD.           Purgatoire River: FIELD
LOC.           2018' FSL & 534' FEL: LOCATION
PROV.                 Colorado: PROVINCE
CNTY.               Las Animas: COUNTRY
SRVC.                Patterson: SERVICE COMPANY
DATE.          Tue Mar 08 10:44:11 2005: LOG DATE
UWI.           05 071 08303 00: UNIQUE WELL ID
~Curve Information Block
DEPT.FT            0 000 00 00: Depth
SN.Ohm-m                      : IEL Short Normal
SP.mV                         : IEL Spontaneous Potential
DIR.Ohm-m                     : IEL Induction Resistivity
GR.GAPI                       : Gamma Ray
~Parameter Information Block
~A  Depth        SN          SP         DIR          GR     
# ...
   566.0000   2000.0000   2000.0000     12.9827     54.3015
   566.2500   2000.0000   2000.0000     12.6299     55.8923
   566.5000   2000.0000   2000.0000     12.2033     63.7993
   566.7500   2000.0000   2000.0000     11.6828     72.7308
   567.0000   2000.0000   2000.0000     11.0745     89.7289
   567.2500   2000.0000   2000.0000     10.4149    101.5151
   567.5000   2000.0000   2000.0000      9.7519    116.9817
   567.7500   2000.0000   2000.0000      9.1253    125.1798
   568.0000   2000.0000   2000.0000      8.5606    134.5371
   568.2500   2000.0000   2000.0000      8.0709    138.9775
   568.5000   2000.0000   2000.0000      7.6592    142.9374
   568.7500   2000.0000   2000.0000      7.3191    144.0097
   569.0000   2000.0000   2000.0000      7.0384    144.4666
   569.2500   2000.0000   2000.0000      6.8045    144.8777
   569.5000   2000.0000   2000.0000      6.6087    146.5815
   569.7500   2000.0000   2000.0000      6.4476    148.3979
   570.0000   2000.0000   2000.0000      6.3220    151.2210
   570.2500   2000.0000   2000.0000      6.2335    152.4835
   570.5000   2000.0000   2000.0000      6.1821    152.7994
   570.7500   2000.0000   2000.0000      6.1644    152.1453
   571.0000   2000.0000   2000.0000      6.1736    150.9937
   571.2500   2000.0000   2000.0000      6.2016    150.8008
   571.5000   2000.0000   2000.0000      6.2408    151.5631
   571.7500   2000.0000   2000.0000      6.2852    152.1540
   572.0000   2000.0000   2000.0000      6.3296    151.9646
   572.2500   2000.0000   2000.0000      6.3692    151.1603
   572.5000   2000.0000   2000.0000      6.4007    150.3524
   572.7500   2000.0000   2000.0000      6.4238    150.8869
   573.0000   2000.0000   2000.0000      6.4419    153.4393
   573.2500   2000.0000   2000.0000      6.4601    155.8241
   573.5000   2000.0000   2000.0000      6.4835    159.5727
   573.7500   2000.0000   2000.0000      6.5161    161.7865
   574.0000   2000.0000   2000.0000      6.5612    163.6592
   574.2500   2000.0000   2000.0000      6.6208    163.1549
   574.5000   2000.0000   2000.0000      6.6942    159.1392
   574.7500   2000.0000   2000.0000      6.7763    154.8370
   575.0000   2000.0000   2000.0000      6.8578    147.9454
   575.2500   2000.0000   2000.0000      6.9275    144.0879
   575.5000   2000.0000   2000.0000      6.9765    140.1541
   575.7500   2000.0000   2000.0000      7.0007    138.7824
   576.0000   2000.0000   2000.0000      7.0022    138.4411
   576.2500   2000.0000   2000.0000      6.9875    139.1362
   576.5000   2000.0000   2000.0000      6.9642    140.7236
   576.7500   2000.0000   2000.0000      6.9395    141.5489
   577.0000   2000.0000   2000.0000      6.9179    141.8863
   577.2500   2000.0000   2000.0000      6.9019    141.5841
   577.5000   2000.0000   2000.0000      6.8919    140.7900
   577.7500   2000.0000   2000.0000      6.8867    140.3209
   578.0000   2000.0000   2000.0000      6.8840    140.1785
   578.2500   2000.0000   2000.0000      6.8807    140.5816
   578.5000   2000.0000   2000.0000      6.8745    141.4564
   578.7500   2000.0000   2000.0000      6.8647    141.6757
   579.0000   2000.0000   2000.0000      6.8529    141.1994
   579.2500   2000.0000   2000.0000      6.8418    140.8804
   579.5000   2000.0000   2000.0000      6.8339    141.5199
   579.7500   2000.0000   2000.0000      6.8304    142.7944
   580.0000   2000.0000   2000.0000      6.8325    145.2796
   580.2500   2000.0000   2000.0000      6.8414    146.8943
   580.5000   2000.0000   2000.0000      6.8595    148.9445
   580.7500   2000.0000   2000.0000      6.8893    149.9647
   581.0000   2000.0000   2000.0000      6.9320    150.5026
   581.2500   2000.0000   2000.0000      6.9846    149.8081
   581.5000   2000.0000   2000.0000      7.0391    146.9470
   581.7500   2000.0000   2000.0000      7.0840    144.1234
   582.0000   2000.0000   2000.0000      7.1102    139.5232
   582.2500   2000.0000   2000.0000      7.1165    136.9465
   582.5000   2000.0000   2000.0000      7.1110    135.1555
   582.7500   2000.0000   2000.0000      7.1075    135.9352
   583.0000   2000.0000   2000.0000      7.1177    140.1350
   583.2500   2000.0000   2000.0000      7.1460    144.2817
   583.5000   2000.0000   2000.0000      7.1887    150.5012
   583.7500   2000.0000   2000.0000      7.2374    153.4201
   584.0000   2000.0000   2000.0000      7.2834    154.6193
   584.2500   2000.0000   2000.0000      7.3216    153.2396
   584.5000   2000.0000   2000.0000      7.3511    149.1576
   584.7500   2000.0000   2000.0000      7.3761    146.3616
   585.0000   2000.0000   2000.0000      7.4045    143.8296
   585.2500   2000.0000   2000.0000      7.4467    143.3694
   585.5000   2000.0000   2000.0000      7.5119    143.2994
   585.7500   2000.0000   2000.0000      7.6064    142.9202
   586.0000   2000.0000   2000.0000      7.7321    141.5885
   586.2500   2000.0000   2000.0000      7.8887    140.4057
   586.5000   2000.0000   2000.0000      8.0753    138.3334
   586.7500   2000.0000   2000.0000      8.2905    136.7271
   587.0000   2000.0000   2000.0000      8.5304    134.1177
   587.2500   2000.0000   2000.0000      8.7849    132.2150
   587.5000   2000.0000   2000.0000      9.0370    128.4114
   587.7500   2000.0000   2000.0000      9.2698    124.8577
   588.0000   2000.0000   2000.0000      9.4764    118.6092
   588.2500   2000.0000   2000.0000      9.6658    114.9664
   588.5000   2000.0000   2000.0000      9.8559    112.3793
   588.7500   2000.0000   2000.0000     10.0611    113.1623
   589.0000   2000.0000   2000.0000     10.2836    117.3957
   589.2500   2000.0000   2000.0000     10.5160    120.9787
   589.5000   2000.0000   2000.0000     10.7497    124.8613
   589.7500   2000.0000   2000.0000     10.9825    125.4027
   590.0000   2000.0000   2000.0000     11.2176    123.0897
   590.2500   2000.0000   2000.0000     11.4557    120.4188
   590.5000   2000.0000   2000.0000     11.6853    117.1485
   590.7500   2000.0000   2000.0000     11.8799    116.6099
   591.0000   2000.0000   2000.0000     12.0115    118.6199
   591.2500   2000.0000   2000.0000     12.0720    121.0753
   591.5000   2000.0000   2000.0000     12.0832    124.7120
   591.7500   2000.0000   2000.0000     12.0840    126.5116
   592.0000   2000.0000   2000.0000     12.1043    127.8748
   592.2500   2000.0000   2000.0000     12.1480    127.7075
   592.5000   2000.0000   2000.0000     12.1964    125.8234
   592.7500   2000.0000   2000.0000     12.2265    123.9644
   593.0000   2000.0000   2000.0000     12.2323    121.7111
   593.2500   2000.0000   2000.0000     12.2325    121.2180
   593.5000   2000.0000   2000.0000     12.2601    122.1291
   593.7500   2000.0000   2000.0000     12.3411    123.4639
   594.0000   2000.0000   2000.0000     12.4799    125.7651
   594.2500   2000.0000   2000.0000     12.6589    127.2136
   594.5000   2000.0000   2000.0000     12.8533    129.1816
   594.7500   2000.0000   2000.0000     13.0489    130.3810
   595.0000   2000.0000   2000.0000     13.2493    131.7307
   595.2500   2000.0000   2000.0000     13.4718    132.0300
   595.5000   2000.0000   2000.0000     13.7376    131.4745
   595.7500   2000.0000   2000.0000     14.0656    130.7539
   596.0000   2000.0000   2000.0000     14.4702    129.7102
   596.2500   2000.0000   2000.0000     14.9598    128.9947
   596.5000   2000.0000   2000.0000     15.5343    127.3699
   596.7500   2000.0000   2000.0000     16.1873    125.7977
   597.0000   2000.0000   2000.0000     16.9127    123.2406
   597.2500   2000.0000   2000.0000     17.7132    121.8802
   597.5000   2000.0000   2000.0000     18.6030    120.5960
   597.7500   2000.0000   2000.0000     19.6016    119.8574
   598.0000   2000.0000   2000.0000     20.7192    117.9207
   598.2500   2000.0000   2000.0000     21.9419    115.7478
   598.5000   2000.0000   2000.0000     23.2220    111.1691
   598.7500   2000.0000   2000.0000     24.4870    107.1549
   599.0000   2000.0000   2000.0000     25.6719     98.9146
   599.2500   2000.0000   2000.0000     26.7584     91.5448
