~Version Information
VERS.                      2.0: CWLS Log ASCII Standard - VERSION 2.0
WRAP.                       NO: One line per depth step
~Well Information Block
STRT.FT               481.5000: 
STOP.FT              2033.5000: 
STEP.FT                 0.2500: 
NULL.                -999.2500: 
COMP.          Petrogulf Corporation: COMPANY
WELL.            Montoya 7-12R: WELL
FLD.           Purgatorie River: FIELD
LOC.           1769' FNL & 658' FWL: LOCATION
CNTY.               Las Animas: COUNTY
SRVC.                         : SERVICE COMPANY
DATE.          Sat Nov 20 02:31:05 2004: LOG DATE
UWI.           05 071 08240 00: UNIQUE WELL ID
STAT.                 Colorado: STATE
~Curve Information Block
DEPT.FT            0 000 00 00: Depth
SP.mV                         : DIL Spontaneous Potential
RILD.Ohm-m                    : DIL Deep Resistivity
RILM.Ohm-m                    : DIL Medium Resistivity
RLL3.Ohm-m                    : DIL Shallow Resistivity
GR.GAPI                       : Gamma Ray
~Parameter Information Block
~A  Depth        SP         RILD        RILM        RLL3         GR     
# ...
  1993.5000     -3.2951     23.7008     26.4816     24.8040     74.4515
  1993.7500     -3.2698     23.6886     26.3904     24.7374     70.5465
  1994.0000     -3.2997     23.6790     26.3153     24.7073     62.7290
  1994.2500     -3.3880     23.6791     26.2624     24.7262     57.3142
  1994.5000     -3.5355     23.6965     26.2368     24.7965     50.4230
  1994.7500     -3.7405     23.7380     26.2428     24.9114     47.0606
  1995.0000     -3.9989     23.8084     26.2845     25.0616     43.8278
  1995.2500     -4.3049     23.9105     26.3659     25.2427     42.6775
  1995.5000     -4.6508     24.0445     26.4914     25.4619     42.0366
  1995.7500     -5.0278     24.2090     26.6655     25.7383     41.9697
  1996.0000     -5.4263     24.4011     26.8927     26.0975     41.6562
  1996.2500     -5.8357     24.6175     27.1764     26.5631     41.0422
  1996.5000     -6.2451     24.8547     27.5187     27.1478     39.6668
  1996.7500     -6.6437     25.1094     27.9192     27.8482     38.7144
  1997.0000     -7.0208     25.3783     28.3743     28.6441     37.4732
  1997.2500     -7.3673     25.6573     28.8770     29.5018     36.7055
  1997.5000     -7.6754     25.9416     29.4161     30.3782     35.3955
  1997.7500     -7.9397     26.2248     29.9771     31.2265     34.3506
  1998.0000     -8.1570     26.5000     30.5427     32.0012     32.7381
  1998.2500     -8.3261     26.7595     31.0943     32.6645     31.8956
  1998.5000     -8.4471     26.9964     31.6132     33.1931     31.2762
  1998.7500     -8.5207     27.2052     32.0830     33.5835     31.1875
  1999.0000     -8.5470     27.3820     32.4909     33.8537     31.0382
  1999.2500     -8.5255     27.5244     32.8280     34.0382     30.7320
  1999.5000     -8.4544     27.6316     33.0896     34.1770     30.0840
  1999.7500     -8.3319     27.7030     33.2738     34.3028     29.7450
  2000.0000     -8.1565     27.7389     33.3798     34.4303     29.6588
  2000.2500     -7.9286     27.7394     33.4073     34.5505     29.9492
  2000.5000     -7.6520     27.7052     33.3557     34.6328     30.9115
  2000.7500     -7.3344     27.6378     33.2248     34.6318     31.8297
  2001.0000     -6.9881     27.5400     33.0159     34.4984     33.4222
  2001.2500     -6.6294     27.4157     32.7341     34.1933     34.6351
  2001.5000     -6.2778     27.2704     32.3887     33.6997     37.1296
  2001.7500     -5.9541     27.1102     31.9938     33.0326     39.5681
  2002.0000     -5.6783     26.9419     31.5674     32.2403     44.3132
  2002.2500     -5.4674     26.7722     31.1290     31.3956     47.5912
  2002.5000     -5.3332     26.6071     30.6981     30.5806     51.1245
  2002.7500     -5.2803     26.4521     30.2918     29.8680     51.8283
  2003.0000     -5.3061     26.3114     29.9235     29.3074     50.0940
  2003.2500     -5.4005     26.1883     29.6028     28.9180     47.4984
  2003.5000     -5.5479     26.0853     29.3354     28.6914     42.7780
  2003.7500     -5.7291     26.0037     29.1239     28.6004     39.8238
  2004.0000     -5.9238     25.9440     28.9683     28.6115     36.3696
  2004.2500     -6.1130     25.9058     28.8666     28.6960     34.7764
  2004.5000     -6.2808     25.8874     28.8154     28.8371     33.2716
  2004.7500     -6.4147     25.8863     28.8092     29.0313     32.6681
  2005.0000     -6.5060     25.8990     28.8412     29.2820     31.8058
  2005.2500     -6.5496     25.9217     28.9026     29.5904     30.7760
  2005.5000     -6.5434     25.9501     28.9831     29.9442     27.6347
  2005.7500     -6.4884     25.9805     29.0713     30.3117     24.1384
  2006.0000     -6.3888     26.0094     29.1558     30.6433     17.1320
  2006.2500     -6.2523     26.0345     29.2263     30.8820     12.1158
  2006.5000     -6.0897     26.0540     29.2746     30.9794      5.8305
  2006.7500     -5.9138     26.0670     29.2962     30.9110      3.0612
  2007.0000     -5.7379     26.0735     29.2902     30.6852      0.9034
  2007.2500     -5.5730     26.0740     29.2591     30.3404      0.3352
  2007.5000     -5.4261     26.0700     29.2088     29.9331      0.0571
  2007.7500     -5.2985     26.0631     29.1467     29.5224      0.0143
  2008.0000     -5.1862     26.0552     29.0814     29.1571      0.0007
  2008.2500     -5.0811     26.0479     29.0216     28.8709   -999.2500
  2008.5000     -4.9737     26.0424     28.9756     28.6842   -999.2500
  2008.7500     -4.8560     26.0391     28.9509     28.6090   -999.2500
  2009.0000     -4.7234     26.0374     28.9545     28.6523   -999.2500
  2009.2500     -4.5763     26.0361     28.9926     28.8159   -999.2500
  2009.5000     -4.4192     26.0332     29.0702     29.0940   -999.2500
  2009.7500     -4.2596     26.0270     29.1916     29.4720   -999.2500
  2010.0000     -4.1061     26.0156     29.3594     29.9267   -999.2500
  2010.2500     -3.9666     25.9980     29.5749     30.4311   -999.2500
  2010.5000     -3.8475     25.9740     29.8376     30.9600   -999.2500
  2010.7500     -3.7527     25.9447     30.1455     31.4944   -999.2500
  2011.0000     -3.6840     25.9122     30.4946     32.0236   -999.2500
  2011.2500     -3.6408     25.8795     30.8789     32.5428   -999.2500
  2011.5000     -3.6205     25.8500     31.2903     33.0475   -999.2500
  2011.7500     -3.6181     25.8271     31.7184     33.5270   -999.2500
  2012.0000     -3.6272     25.8132     32.1500     33.9594   -999.2500
  2012.2500     -3.6399     25.8098     32.5699     34.3125   -999.2500
  2012.5000     -3.6483     25.8173     32.9611     34.5491   -999.2500
  2012.7500     -3.6451     25.8350     33.3067     34.6382   -999.2500
  2013.0000     -3.6256     25.8620     33.5911     34.5662   -999.2500
  2013.2500     -3.5879     25.8972     33.8026     34.3444   -999.2500
  2013.5000     -3.5335     25.9406     33.9349     34.0103   -999.2500
  2013.7500     -3.4664     25.9918     33.9888     33.6214   -999.2500
  2014.0000     -3.3928     26.0511     33.9716     33.2431   -999.2500
  2014.2500     -3.3192     26.1186     33.8962     32.9353   -999.2500
  2014.5000     -3.2512     26.1955     33.7787     32.7409   -999.2500
  2014.7500     -3.1925     26.2838     33.6359     32.6792   -999.2500
  2015.0000     -3.1441     26.3888     33.4826     32.7443   -999.2500
  2015.2500     -3.1035     26.5209     33.3296     32.9104   -999.2500
  2015.5000     -3.0653     26.6987     33.1836     33.1396   -999.2500
  2015.7500     -3.0211     26.6076     33.0466     33.3916   -999.2500
  2016.0000     -2.9604     26.6215     32.9167     33.6312   -999.2500
  2016.2500     -2.8718     27.1288     32.7898     33.8314   -999.2500
  2016.5000     -2.7453     27.8567     32.6604     33.9704   -999.2500
  2016.7500     -2.5739     28.8778     32.5236     34.0255   -999.2500
  2017.0000     -2.3558     30.2746     32.3758     33.9692   -999.2500
  2017.2500     -2.0957     32.1377     32.2169     33.7718   -999.2500
  2017.5000     -1.8048     34.5617     32.0493     33.4129   -999.2500
  2017.7500     -1.4993     37.6374     31.8795     32.8968   -999.2500
  2018.0000     -1.1975     41.4353     31.7170     32.2636   -999.2500
  2018.2500     -0.9171     45.9811     31.5743     31.5896   -999.2500
  2018.5000     -0.6718     51.2217     31.4659     30.9731   -999.2500
  2018.7500     -0.4697     56.9947     31.4087     30.5116   -999.2500
  2019.0000     -0.3128     63.0213     31.4229     30.2758   -999.2500
  2019.2500     -0.1981     68.9439     31.5331     30.2916   -999.2500
  2019.5000     -0.1192     77.5989     31.7713     30.5338   -999.2500
  2019.7500     -0.0680     82.7813     32.1789     30.9336   -999.2500
  2020.0000     -0.0368     87.1112     32.8088     31.3948   -999.2500
  2020.2500     -0.0188     90.6359     33.7274     31.8138   -999.2500
  2020.5000     -0.0091     93.5014     35.0147     32.0959   -999.2500
  2020.7500     -0.0041     95.8773     36.7648     32.1654   -999.2500
  2021.0000     -0.0017     97.9030     39.0838     31.9712   -999.2500
  2021.2500     -0.0007     99.6665     42.0850     31.4910   -999.2500
