~Version Information
VERS.                      2.0: CWLS Log ASCII Standard - VERSION 2.0
WRAP.                       NO: One line per depth step
~Well Information Block
STRT.FT               -12.5000: 
STOP.FT              2200.2500: 
STEP.FT                 0.2500: 
NULL.                -999.2500: 
COMP.          Pioneer Natural Resources: COMPANY
WELL.           Ogallela 44-12: WELL
FLD.           Purgatorie River: FIELD
LOC.           610' FSL & 671' FEL------: LOCATION
PROV.                       CO: PROVINCE
CNTY.               Las Animas: COUNTRY
SRVC.          Patterson Wireline: SERVICE COMPANY
DATE.          Tue Mar 22 17:18:22 2005: LOG DATE
UWI.           05 071 08283 00: UNIQUE WELL ID
~Curve Information Block
DEPT.FT            0 000 00 00: Depth
CCL.                          : Casing Collar Locator
TT3.usec                      : CBL 3' Travel Time
AMP3.mV                       : CBL 3' Amplitude
GR.GAPI                       : Gamma Ray
~Parameter Information Block
~A  Depth       CCL         TT3         AMP3         GR     
# ...
   289.0000      0.0000    268.0742     81.6894    108.8590
   289.2500      0.0000    268.0746     81.6972    100.7490
   289.5000      0.0000    268.0786     81.6794     96.1286
   289.7500      0.0000    268.0842     81.6437     95.5600
   290.0000      0.0000    268.0918     81.5741     97.9392
   290.2500      0.0000    268.1011     81.4613    101.5400
   290.5000      0.0000    268.1094     81.3258    104.8317
   290.7500      0.0000    268.1129     81.2085    106.8948
   291.0000      0.0000    268.1115     81.1449    107.2783
   291.2500      0.0000    268.1080     81.1371    105.7250
   291.5000      0.0000    268.1048     81.1468    102.4393
   291.7500      0.0000    268.1007     81.1293     98.4742
   292.0000      0.0000    268.0927     81.0801     95.2963
   292.2500      0.0000    268.0797     81.0348     93.8522
   292.5000      0.0000    268.0631     81.0230     94.2599
   292.7500      0.0000    268.0444     81.0342     96.2176
   293.0000      0.0000    268.0241     81.0369     99.1115
   293.2500      0.0000    268.0035     81.0235    101.7172
   293.5000      0.0000    267.9850     81.0281    102.4903
   293.7500      0.0000    267.9717     81.0837    100.6382
   294.0000      0.0000    267.9673     81.1734     96.7910
   294.2500      0.0000    267.9729     81.2472     92.5309
   294.5000      0.0000    267.9869     81.2785     89.3347
   294.7500      0.0000    268.0200     81.2442     87.8446
   295.0000      0.0000    268.1268     80.9863     87.8279
   295.2500      0.0000    268.4361     80.0471     88.6566
   295.5000      0.0000    269.1276     77.7512     89.8138
   295.7500      0.0000    270.3163     73.7086     91.1633
   296.0000      0.0000    271.9064     68.3778     92.9487
   296.2500      0.0000    273.5762     62.9692     95.4627
   296.5000      0.0000    274.9633     58.6370     98.6271
   296.7500      0.0000    275.8799     55.8208    101.9849
   297.0000      0.0000    276.3621     54.3032    105.0701
   297.2500      0.0000    276.5641     53.6299    107.7377
   297.5000      0.0000    276.6685     53.4003    110.3575
   297.7500     -2.0000    276.8914     53.3797    113.7185
   298.0000      2.0000    277.5359     53.5294    118.2261
   298.2500      0.0000    278.8875     54.0550    123.0333
   298.5000      0.0000    280.8041     55.4536    126.4488
   298.7500      0.0000    282.3461     58.3147    127.2862
   299.0000      0.0000    282.1860     62.7468    125.3809
   299.2500      0.0000    279.7775     67.9671    121.1655
   299.5000      0.0000    275.9928     72.7534    115.6828
   299.7500      0.0000    272.3669     76.3420    110.9084
   300.0000      0.0000    269.8804     78.7059    108.9649
   300.2500      0.0000    268.5862     80.1328    110.5651
   300.5000      0.0000    268.0621     80.8815    114.5844
   300.7500      0.0000    267.9021     81.1728    119.1029
   301.0000      0.0000    267.8740     81.2041    122.5850
   301.2500      0.0000    267.8773     81.0964    124.4950
   301.5000      0.0000    267.8810     80.9165    125.4539
   301.7500      0.0000    267.8815     80.7606    126.7457
   302.0000      0.0000    267.8822     80.7369    129.0597
   302.2500      0.0000    267.8819     80.8677    131.5058
   302.5000      0.0000    267.8776     81.0617    132.3039
   302.7500      0.0000    267.8697     81.2211    130.6990
   303.0000      0.0000    267.8607     81.3426    127.7609
   303.2500      0.0000    267.8514     81.4863    124.9856
   303.5000      0.0000    267.8416     81.6658    122.5779
   303.7500      0.0000    267.8341     81.8125    119.5683
   304.0000      0.0000    267.8346     81.8556    115.3219
   304.2500      0.0000    267.8454     81.8012    110.4090
   304.5000      0.0000    267.8610     81.7047    106.0052
   304.7500      0.0000    267.8708     81.5953    102.9827
   305.0000      0.0000    267.8681     81.4612    101.7628
   305.2500      0.0000    267.8557     81.2923    102.4922
   305.5000      0.0000    267.8424     81.0993    104.9372
   305.7500      0.0000    267.8333     80.9007    108.4857
   306.0000      0.0000    267.8265     80.7200    112.4734
   306.2500      0.0000    267.8208     80.5943    116.3063
   306.5000      0.0000    267.8204     80.5615    119.1638
   306.7500      0.0000    267.8290     80.6356    119.8957
   307.0000      0.0000    267.8417     80.7938    117.6682
   307.2500      0.0000    267.8465     80.9799    112.8943
   307.5000      0.0000    267.8361     81.1337    107.3572
   307.7500      0.0000    267.8154     81.2378    103.1244
   308.0000      0.0000    267.7965     81.3277    101.3790
   308.2500      0.0000    267.7868     81.4431    102.2916
   308.5000      0.0000    267.7832     81.5796    105.5048
   308.7500      0.0000    267.7802     81.6920    110.2487
   309.0000      0.0000    267.7794     81.7308    115.1808
   309.2500      0.0000    267.7863     81.6762    118.6041
   309.5000      0.0000    267.7995     81.5550    119.2051
   309.7500      0.0000    267.8075     81.4285    117.0410
   310.0000      0.0000    267.8002     81.3553    113.8763
   310.2500      0.0000    267.7809     81.3614    111.9291
   310.5000      0.0000    267.7662     81.4415    111.9315
   310.7500      0.0000    267.7709     81.5773    112.7374
   311.0000      0.0000    267.7926     81.7398    112.8118
   311.2500      0.0000    267.8145     81.8839    111.5288
   311.5000      0.0000    267.8233     81.9690    109.0721
   311.7500      0.0000    267.8228     81.9913    105.9184
   312.0000      0.0000    267.8261     81.9845    102.7640
   312.2500      0.0000    267.8390     81.9834    100.3486
   312.5000      0.0000    267.8540     81.9976     98.9401
   312.7500      0.0000    267.8603     82.0218     98.1290
   313.0000      0.0000    267.8565     82.0587     97.1700
   313.2500      0.0000    267.8524     82.1181     95.3385
   313.5000      0.0000    267.8575     82.1942     92.0917
   313.7500      0.0000    267.8706     82.2549     87.2695
   314.0000      0.0000    267.8807     82.2544     81.4017
   314.2500      0.0000    267.8790     82.1613     75.8567
   314.5000      0.0000    267.8679     81.9882     72.3627
   314.7500      0.0000    267.8586     81.7976     71.8104
   315.0000      0.0000    267.8591     81.6574     73.3403
   315.2500      0.0000    267.8667     81.5833     74.9684
   315.5000      0.0000    267.8712     81.5276     75.3035
   315.7500      0.0000    267.8662     81.4240     74.4500
   316.0000      0.0000    267.8552     81.2346     73.3177
   316.2500      0.0000    267.8466     80.9661     72.6843
   316.5000      0.0000    267.8449     80.6608     73.1031
   316.7500      0.0000    267.8456     80.3770     74.9451
   317.0000      0.0000    267.8421     80.1650     77.9114
   317.2500      0.0000    267.8361     80.0446     80.7824
   317.5000      0.0000    267.8374     80.0033     81.9612
   317.7500      0.0000    267.8520     80.0195     80.3059
   318.0000      0.0000    267.8702     80.0831     75.8684
   318.2500      0.0000    267.8745     80.1905     70.2435
   318.5000      0.0000    267.8598     80.3293     65.8246
   318.7500      0.0000    267.8418     80.4818     64.2080
   319.0000      0.0000    267.8420     80.6339     65.3663
   319.2500      0.0000    267.8662     80.7766     68.2597
   319.5000      0.0000    267.8981     80.9104     71.6998
   319.7500      0.0000    267.9145     81.0495     74.5176
   320.0000      0.0000    267.9051     81.2071     75.5745
   320.2500      0.0000    267.8805     81.3823     74.3376
   320.5000      0.0000    267.8596     81.5737     71.5093
   320.7500      0.0000    267.8534     81.7864     68.6895
   321.0000      0.0000    267.8577     82.0070     67.0264
   321.2500      0.0000    267.8603     82.1855     66.2475
   321.5000      0.0000    267.8537     82.2685     65.2848
   321.7500      0.0000    267.8419     82.2538     63.7302
   322.0000      0.0000    267.8336     82.2057     62.3827
   322.2500      0.0000    267.8313     82.2017     62.5634
