~Version Information
VERS.                      2.0: CWLS Log ASCII Standard - VERSION 2.0
WRAP.                       NO: One line per depth step
~Well Information Block
STRT.FT               647.0000: 
STOP.FT              1167.5000: 
STEP.FT                 0.2500: 
NULL.                -999.2500: 
COMP.          Pioneer Natural Resources: COMPANY
WELL.             Linda T 32-3: WELL
FLD.           Purgatoire River: FIELD
LOC.           1350' FNL & 2290' FEL: LOCATION
PROV.                 Colorado: PROVINCE
CNTY.               Las Animas: COUNTRY
SRVC.                Patterson: SERVICE COMPANY
DATE.          Sat Feb 05 06:41:02 2005: LOG DATE
UWI.           05 071 08215 00: UNIQUE WELL ID
~Curve Information Block
DEPT.FT            0 000 00 00: Depth
SN.Ohm-m                      : IEL Short Normal
SP.mV                         : IEL Spontaneous Potential
DIR.Ohm-m                     : IEL Induction Resistivity
GR.GAPI                       : Gamma Ray
~Parameter Information Block
~A  Depth        SN          SP         DIR          GR     
# ...
   781.0000     19.9622     34.8045     19.7916     57.2743
   781.2500     20.4191     34.8770     19.0639     51.2101
   781.5000     21.2154     34.9317     18.1302     46.3965
   781.7500     22.1439     34.9455     17.1856     47.4929
   782.0000     22.7352     34.9065     16.3641     55.6043
   782.2500     22.5907     34.8240     15.7188     64.0650
   782.5000     21.6775     34.7282     15.2383     78.2129
   782.7500     20.2998     34.6604     14.8764     86.9501
   783.0000     18.8405     34.6581     14.5825     97.1395
   783.2500     17.5519     34.7413     14.3250    101.4302
   783.5000     16.5336     34.9043     14.0980    103.9691
   783.7500     15.7997     35.1150     13.9116    103.6027
   784.0000     15.3187     35.3242     13.7724    101.8805
   784.2500     15.0412     35.4796     13.6691    101.0305
   784.5000     14.9319     35.5409     13.5730    100.7381
   784.7500     14.9700     35.4928     13.4572    100.7685
   785.0000     15.1324     35.3518     13.3211    100.3442
   785.2500     15.3978     35.1606     13.1984     99.7324
   785.5000     15.7649     34.9668     13.1405     98.8427
   785.7500     16.2600     34.7988     13.1919     98.3604
   786.0000     16.9274     34.6551     13.3770     97.0850
   786.2500     17.7941     34.5137     13.7027     95.3061
   786.5000     18.8357     34.3534     14.1654     91.1207
   786.7500     19.9826     34.1662     14.7580     87.7810
   787.0000     21.1537     33.9578     15.4713     82.7626
   787.2500     22.2923     33.7428     16.2920     79.6418
   787.5000     23.3732     33.5371     17.1995     75.6496
   787.7500     24.3735     33.3470     18.1636     73.7361
   788.0000     25.2712     33.1631     19.1485     72.1111
   788.2500     26.0711     32.9689     20.1197     71.5093
   788.5000     26.7950     32.7641     21.0479     70.4037
   788.7500     27.4665     32.5798     21.9066     69.1481
   789.0000     28.1115     32.4695     22.6729     66.3646
   789.2500     28.7363     32.4822     23.3366     64.1488
   789.5000     29.2946     32.6365     23.9088     61.1338
   789.7500     29.7040     32.9116     24.4186     59.9812
   790.0000     29.9030     33.2588     24.8939     60.6464
   790.2500     29.8798     33.6270     25.3450     63.0970
   790.5000     29.6542     33.9867     25.7623     69.4375
   790.7500     29.2638     34.3366     26.1303     74.4477
   791.0000     28.7881     34.6934     26.4405     80.8689
   791.2500     28.3556     35.0750     26.6943     83.5792
   791.5000     28.0871     35.4878     26.8979     85.3289
   791.7500     28.0460     35.9239     27.0607     85.3974
   792.0000     28.2454     36.3665     27.2041     84.2214
   792.2500     28.6629     36.7950     27.3696     82.4679
   792.5000     29.2453     37.1828     27.6171     78.1287
   792.7500     29.9360     37.4955     28.0067     74.1409
   793.0000     30.7139     37.6971     28.5723     67.1489
   793.2500     31.5852     37.7646     29.3035     62.5677
   793.5000     32.5247     37.6988     30.1453     57.2878
   793.7500     33.4516     37.5231     31.0157     55.2643
   794.0000     34.2729     37.2726     31.8248     53.9268
   794.2500     34.9305     36.9858     32.4796     53.3414
   794.5000     35.4099     36.7020     32.8847     51.7176
   794.7500     35.7244     36.4581     32.9544     50.0088
   795.0000     35.8994     36.2798     32.6455     47.2857
   795.2500     35.9539     36.1708     31.9875     46.0139
   795.5000     35.8748     36.1092     31.0778     45.5251
   795.7500     35.6139     36.0535     30.0312     45.9864
   796.0000     35.1102     35.9528     28.9186     47.1057
   796.2500     34.2958     35.7589     27.7453     47.9113
   796.5000     33.1112     35.4393     26.4917     49.8660
   796.7500     31.5630     34.9918     25.1746     52.5112
   797.0000     29.7640     34.4515     23.8665     59.6692
   797.2500     27.8909     33.8826     22.6509     66.5405
   797.5000     26.0833     33.3549     21.5676     78.4535
   797.7500     24.3843     32.9170     20.5991     86.0044
   798.0000     22.7747     32.5845     19.6972     94.3539
   798.2500     21.2407     32.3454     18.8197     97.1550
   798.5000     19.8024     32.1762     17.9526     97.2432
   798.7500     18.4948     32.0547     17.1097     95.2194
   799.0000     17.3564     31.9647     16.3204     90.9889
   799.2500     16.4451     31.8982     15.6157     88.7740
   799.5000     15.8217     31.8560     15.0179     88.2899
   799.7500     15.4952     31.8444     14.5333     90.0666
   800.0000     15.3796     31.8702     14.1493     94.3976
   800.2500     15.3099     31.9416     13.8397     97.0842
   800.5000     15.1479     32.0733     13.5767     99.3544
   800.7500     14.8891     32.2779     13.3430     99.6133
   801.0000     14.6315     32.5432     13.1351     98.6483
   801.2500     14.4555     32.8220     12.9557     97.4350
   801.5000     14.3792     33.0548     12.8044     95.4584
   801.7500     14.3814     33.2068     12.6751     94.5636
   802.0000     14.4134     33.2830     12.5615     94.4307
   802.2500     14.4210     33.3134     12.4629     95.0515
   802.5000     14.3770     33.3275     12.3832     96.4008
   802.7500     14.2857     33.3377     12.3256     97.1727
   803.0000     14.1612     33.3371     12.2853     97.6167
   803.2500     14.0130     33.3091     12.2479     97.3310
   803.5000     13.8437     33.2370     12.1938     96.3644
   803.7500     13.6416     33.1072     12.1103     95.7774
   804.0000     13.3836     32.9063     12.0008     95.5860
   804.2500     13.0717     32.6153     11.8829     95.9818
   804.5000     12.7629     32.2073     11.7788     97.0951
   804.7500     12.5476     31.6545     11.7055     98.0199
   805.0000     12.4902     30.9459     11.6722     99.4679
   805.2500     12.5895     30.1083     11.6836    100.2816
   805.5000     12.7935     29.2120     11.7423    100.9382
   805.7500     13.0333     28.3534     11.8475    101.0444
   806.0000     13.2547     27.6201     11.9928    101.1589
   806.2500     13.4461     27.0615     12.1660    101.3461
   806.5000     13.6382     26.6776     12.3536    101.4745
   806.7500     13.8660     26.4289     12.5461    101.1991
   807.0000     14.1465     26.2578     12.7414    100.2984
   807.2500     14.4855     26.1123     12.9421     99.6196
   807.5000     14.8722     25.9665     13.1495     98.5782
   807.7500     15.2756     25.8315     13.3578     97.5854
   808.0000     15.6604     25.7502     13.5549     95.1703
   808.2500     16.0056     25.7724     13.7307     93.0101
   808.5000     16.3007     25.9224     13.8856     89.5315
   808.7500     16.5293     26.1826     14.0333     87.4197
   809.0000     16.6700     26.5018     14.1939     85.1530
   809.2500     16.7134     26.8168     14.3807     84.6046
   809.5000     16.6722     27.0697     14.5900     85.5732
   809.7500     16.5847     27.2189     14.8011     87.1868
   810.0000     16.5025     27.2456     14.9889     89.9543
   810.2500     16.4642     27.1533     15.1428     91.2917
   810.5000     16.4925     26.9583     15.2766     91.7828
   810.7500     16.6175     26.6731     15.4219     91.0960
   811.0000     16.8683     26.2950     15.6071     89.0392
   811.2500     17.2330     25.8077     15.8417     87.2700
   811.5000     17.6639     25.1987     16.1146     84.0627
   811.7500     18.1227     24.4754     16.4066     81.4651
   812.0000     18.5893     23.6689     16.7049     77.3041
   812.2500     19.0262     22.8201     17.0053     75.0129
   812.5000     19.3728     21.9602     17.3020     73.1847
   812.7500     19.6248     21.0969     17.5798     73.0117
   813.0000     19.8767     20.2117     17.8190     73.9317
   813.2500     20.2139     19.2723     18.0099     75.3172
   813.5000     20.6182     18.2581     18.1618     78.4414
   813.7500     21.0097     17.1833     18.2954     80.6758
   814.0000     21.3386     16.0963     18.4296     82.9014
   814.2500     21.6243     15.0527     18.5756     83.2082
