~Version Information
VERS.                      2.0: CWLS Log ASCII Standard - VERSION 2.0
WRAP.                       NO: One line per depth step
~Well Information Block
STRT.FT               259.0000: 
STOP.FT              2382.0000: 
STEP.FT                 0.2500: 
NULL.                -999.2500: 
COMP.          Pioneer Natural Resources: COMPANY
WELL.          Foothills 12-36: WELL
FLD.           Purgatoire River: FIELD
LOC.           2450' FNL & 201' FWL: LOCATION
PROV.                 Colorado: PROVINCE
CNTY.               Las Animas: COUNTRY
SRVC.                Patterson: SERVICE COMPANY
DATE.          Thu Apr 21 03:00:58 2005: LOG DATE
UWI.           05 071 08339 00: UNIQUE WELL ID
~Curve Information Block
DEPT.FT            0 000 00 00: Depth
SN.Ohm-m                      : IEL Short Normal
SP.mV                         : IEL Spontaneous Potential
DIR.Ohm-m                     : IEL Induction Resistivity
GR.GAPI                       : Gamma Ray
~Parameter Information Block
~A  Depth        SN          SP         DIR          GR     
# ...
   527.0000   2000.0000   2000.0000     30.2215    101.6490
   527.2500   2000.0000   2000.0000     30.7876     99.1777
   527.5000   2000.0000   2000.0000     31.0406     94.6327
   527.7500   2000.0000   2000.0000     31.1437     91.8269
   528.0000   2000.0000   2000.0000     31.3096     88.6548
   528.2500   2000.0000   2000.0000     31.6839     87.1649
   528.5000   2000.0000   2000.0000     32.2902     85.4470
   528.7500   2000.0000   2000.0000     33.0539     84.4002
   529.0000   2000.0000   2000.0000     33.8643     82.5688
   529.2500   2000.0000   2000.0000     34.6382     81.0986
   529.5000   2000.0000   2000.0000     35.3421     79.1153
   529.7500   2000.0000   2000.0000     35.9672     78.6037
   530.0000   2000.0000   2000.0000     36.4823     79.7840
   530.2500   2000.0000   2000.0000     36.8114     81.7271
   530.5000   2000.0000   2000.0000     36.8708     85.6061
   530.7500   2000.0000   2000.0000     36.6467     88.5908
   531.0000   2000.0000   2000.0000     36.2392     93.8024
   531.2500   2000.0000   2000.0000     35.8227     97.7181
   531.5000   2000.0000   2000.0000     35.5546    103.1535
   531.7500   2000.0000   2000.0000     35.5112    105.4563
   532.0000   2000.0000   2000.0000     35.6801    105.8239
   532.2500   2000.0000   2000.0000     35.9851    104.2241
   532.5000   2000.0000   2000.0000     36.3254    100.4665
   532.7500   2000.0000   2000.0000     36.6168     97.8364
   533.0000   2000.0000   2000.0000     36.8301     94.2124
   533.2500   2000.0000   2000.0000     36.9993     91.8955
   533.5000   2000.0000   2000.0000     37.1903     88.2516
   533.7500   2000.0000   2000.0000     37.4408     85.7268
   534.0000   2000.0000   2000.0000     37.7282     82.3704
   534.2500   2000.0000   2000.0000     37.9972     80.9679
   534.5000   2000.0000   2000.0000     38.2274     80.9159
   534.7500   2000.0000   2000.0000     38.4718     82.3823
   535.0000   2000.0000   2000.0000     38.8231     86.3252
   535.2500   2000.0000   2000.0000     39.3437     89.4799
   535.5000   2000.0000   2000.0000     40.0251     93.9148
   535.7500   2000.0000   2000.0000     40.7891     96.5082
   536.0000   2000.0000   2000.0000     41.5042    100.6644
   536.2500   2000.0000   2000.0000     42.0117    104.2368
   536.5000   2000.0000   2000.0000     42.1862    110.7759
   536.7500   2000.0000   2000.0000     42.0183    115.0680
   537.0000   2000.0000   2000.0000     41.6426    119.5238
   537.2500   2000.0000   2000.0000     41.2588    120.6447
   537.5000   2000.0000   2000.0000     41.0255    120.3179
   537.7500   2000.0000   2000.0000     40.9935    119.8305
   538.0000   2000.0000   2000.0000     41.0954    120.1558
   538.2500   2000.0000   2000.0000     41.1667    121.1466
   538.5000   2000.0000   2000.0000     41.0054    122.7226
   538.7500   2000.0000   2000.0000     40.4856    122.9865
   539.0000   2000.0000   2000.0000     39.6746    121.1608
   539.2500   2000.0000   2000.0000     38.8469    118.2798
   539.5000   2000.0000   2000.0000     38.3661    111.8555
   539.7500   2000.0000   2000.0000     38.5231    106.6453
   540.0000   2000.0000   2000.0000     39.4178     98.4793
   540.2500   2000.0000   2000.0000     40.9065     93.5731
   540.5000   2000.0000   2000.0000     42.6244     88.4685
   540.7500   2000.0000   2000.0000     44.1161     87.0693
   541.0000   2000.0000   2000.0000     45.0339     87.4642
   541.2500   2000.0000   2000.0000     45.2606     88.4148
   541.5000   2000.0000   2000.0000     44.8732     89.4246
   541.7500   2000.0000   2000.0000     44.0348     89.8173
   542.0000   2000.0000   2000.0000     42.9134     91.2899
   542.2500   2000.0000   2000.0000     41.6432     93.5960
   542.5000   2000.0000   2000.0000     40.3120     98.9922
   542.7500   2000.0000   2000.0000     38.9711    103.1280
   543.0000   2000.0000   2000.0000     37.6689    108.6986
   543.2500   2000.0000   2000.0000     36.4757    111.6026
   543.5000   2000.0000   2000.0000     35.4824    115.0148
   543.7500   2000.0000   2000.0000     34.7663    117.0716
   544.0000   2000.0000   2000.0000     34.3481    120.2730
   544.2500   2000.0000   2000.0000     34.1724    122.3733
   544.5000   2000.0000   2000.0000     34.1255    124.6053
   544.7500   2000.0000   2000.0000     34.0818    124.7953
   545.0000   2000.0000   2000.0000     33.9484    122.5305
   545.2500   2000.0000   2000.0000     33.6840    119.7541
   545.5000   2000.0000   2000.0000     33.2944    115.5259
   545.7500   2000.0000   2000.0000     32.8243    113.6152
   546.0000   2000.0000   2000.0000     32.3427    112.3434
   546.2500   2000.0000   2000.0000     31.9185    111.9974
   546.5000   2000.0000   2000.0000     31.5917    111.1931
   546.7500   2000.0000   2000.0000     31.3626    110.2377
   547.0000   2000.0000   2000.0000     31.2090    108.4720
   547.2500   2000.0000   2000.0000     31.1149    107.5255
   547.5000   2000.0000   2000.0000     31.0854    107.4167
   547.7500   2000.0000   2000.0000     31.1361    108.6355
   548.0000   2000.0000   2000.0000     31.2723    112.4654
   548.2500   2000.0000   2000.0000     31.4767    116.0346
   548.5000   2000.0000   2000.0000     31.7148    122.0371
   548.7500   2000.0000   2000.0000     31.9606    125.8482
   549.0000   2000.0000   2000.0000     32.2283    130.0245
   549.2500   2000.0000   2000.0000     32.5793    130.9757
   549.5000   2000.0000   2000.0000     33.0903    128.3005
   549.7500   2000.0000   2000.0000     33.8097    123.2016
   550.0000   2000.0000   2000.0000     34.7374    110.6272
   550.2500   2000.0000   2000.0000     35.8355     99.9209
   550.5000   2000.0000   2000.0000     37.0473     83.3420
   550.7500   2000.0000   2000.0000     38.3045     73.7820
   551.0000   2000.0000   2000.0000     39.5438     63.7169
   551.2500   2000.0000   2000.0000     40.7452     60.0494
   551.5000   2000.0000   2000.0000     41.9631     57.8663
   551.7500   2000.0000   2000.0000     43.3020     57.4236
   552.0000   2000.0000   2000.0000     44.8447     56.7115
   552.2500   2000.0000   2000.0000     46.5901     56.0365
   552.5000   2000.0000   2000.0000     48.4532     55.3227
   552.7500   2000.0000   2000.0000     50.3232     55.3009
   553.0000   2000.0000   2000.0000     52.1232     55.7798
   553.2500   2000.0000   2000.0000     53.8043     56.2387
   553.5000   2000.0000   2000.0000     55.2663     57.0159
   553.7500   2000.0000   2000.0000     56.2835     57.5627
   554.0000   2000.0000   2000.0000     56.5569     58.2773
   554.2500   2000.0000   2000.0000     55.9135     58.6598
   554.5000   2000.0000   2000.0000     54.4745     59.3400
   554.7500   2000.0000   2000.0000     52.6214     60.0565
   555.0000   2000.0000   2000.0000     50.8087     61.6587
   555.2500   2000.0000   2000.0000     49.4017     63.0036
   555.5000   2000.0000   2000.0000     48.5988     65.0197
   555.7500   2000.0000   2000.0000     48.4024     65.9714
   556.0000   2000.0000   2000.0000     48.6126     66.2100
   556.2500   2000.0000   2000.0000     48.8813     65.4857
   556.5000   2000.0000   2000.0000     48.8616     63.3476
   556.7500   2000.0000   2000.0000     48.3999     61.4630
   557.0000   2000.0000   2000.0000     47.6002     58.4576
   557.2500   2000.0000   2000.0000     46.7095     56.8162
   557.5000   2000.0000   2000.0000     45.9436     55.8110
   557.7500   2000.0000   2000.0000     45.4046     56.2072
   558.0000   2000.0000   2000.0000     45.1143     57.3351
   558.2500   2000.0000   2000.0000     45.0912     57.6207
   558.5000   2000.0000   2000.0000     45.3711     56.9907
   558.7500   2000.0000   2000.0000     45.9455     56.3035
   559.0000   2000.0000   2000.0000     46.6897     55.5636
   559.2500   2000.0000   2000.0000     47.3816     55.2456
   559.5000   2000.0000   2000.0000     47.8185     54.7508
   559.7500   2000.0000   2000.0000     47.9383     54.4438
   560.0000   2000.0000   2000.0000     47.8362     54.3360
   560.2500   2000.0000   2000.0000     47.6850     54.5876
