~Version Information
VERS.                      2.0: CWLS Log ASCII Standard - VERSION 2.0
WRAP.                       NO: One line per depth step
~Well Information Block
STRT.FT               650.0000: 
STOP.FT              2000.5000: 
STEP.FT                 0.1000: 
NULL.                -999.2500: 
COMP.          Pioneer Natural Resources: COMPANY
WELL.           Firehawk 34-26: WELL
FLD.           Purgatoire River: FIELD
LOC.           1196' FSL & 1595' FEL--: LOCATION
STAT.                 Colorado: State
CNTY.               Las Animas: COUNTY
CTRY. USA : Country
SECT. 26 : Section
TOWN. 32S : Township
RANG. 66W : Range
SRVC.                Patterson: SERVICE COMPANY
DATE.          Mon Oct 17 07:23:34 2005: LOG DATE
API.           05 071 08389 00: UNIQUE WELL ID
~Curve Information Block
DEPT.FT            0 000 00 00: Depth
DCAL.in                       : CDL Caliper
RHOB.g/cc                     : CDL Bulk Density
RHOC.g/cc                     : CDL Density Correction
DPOR.pu                       : CDL Density Porosity
NPOR.pu                       : Neutron Porosity
GR.GAPI                       : Gamma Ray
~Parameter Information Block
~A  Depth       DCAL        RHOB        RHOC        DPOR        NPOR         GR     
# ...
  1706.0000      8.0717      2.5383      0.0394      6.7680     22.9731    138.1151
  1706.1000      8.0717      2.5205      0.0332      7.8503     23.2010    144.1523
  1706.2000      8.0717      2.5024      0.0440      8.9448     23.5539    150.4026
  1706.3000      8.0745      2.4936      0.0273      9.4764     23.4817    151.8681
  1706.4000      8.0745      2.4938      0.0517      9.4642     23.3862    148.1874
  1706.5000      8.0754      2.4918      0.0416      9.5887     24.1790    148.3089
  1706.6000      8.0754      2.4844      0.0218     10.0363     25.2197    154.0731
  1706.7000      8.0754      2.4847      0.0083     10.0198     25.4003    155.7646
  1706.8000      8.0739      2.4942      0.0571      9.4402     25.1531    152.0969
  1706.9000      8.0739      2.4955      0.0437      9.3653     25.0772    148.7608
  1707.0000      8.0711      2.4871      0.0328      9.8742     24.7321    144.9299
  1707.1000      8.0711      2.4862      0.0304      9.9264     23.9582    138.2911
  1707.2000      8.0711      2.4963      0.0503      9.3136     23.5036    133.7571
  1707.3000      8.0703      2.5068      0.0482      8.6797     23.7435    137.5246
  1707.4000      8.0703      2.5084      0.0620      8.5823     24.3306    147.1265
  1707.5000      8.0715      2.4942      0.0600      9.4406     24.9973    152.3244
  1707.6000      8.0715      2.4736      0.0212     10.6938     25.6871    148.7252
  1707.7000      8.0715      2.4682      0.0453     11.0192     26.4224    142.1858
  1707.8000      8.0716      2.4763      0.0772     10.5298     26.9860    138.4752
  1707.9000      8.0716      2.4806      0.0622     10.2649     27.0082    138.4844
  1708.0000      8.0728      2.4836      0.0287     10.0853     26.8532    139.6645
  1708.1000      8.0728      2.4961      0.0654      9.3243     27.2480    135.1122
  1708.2000      8.0728      2.5065      0.1005      8.6960     28.4169    122.9947
  1708.3000      8.0808      2.4921      0.0550      9.5695     29.8398    115.4551
  1708.4000      8.0808      2.4509      0.0296     12.0695     30.6464    118.4884
  1708.5000      8.0950      2.3958      0.0235     15.4060     30.6671    124.5487
  1708.6000      8.0950      2.3357      0.0308     19.0500     30.6751    128.2897
  1708.7000      8.0950      2.2818     -0.0141     22.3155     30.9723    128.6056
  1708.8000      8.1048      2.2522     -0.0024     24.1092     31.2445    123.8812
  1708.9000      8.1048      2.2566     -0.0161     23.8442     31.3871    117.3030
  1709.0000      8.1159      2.2916      0.0097     21.7200     31.2913    115.8269
  1709.1000      8.1159      2.3421      0.0756     18.6604     30.6085    122.8579
  1709.2000      8.1159      2.3857      0.1687     16.0201     29.3616    133.8412
  1709.3000      8.1395      2.4107      0.1840     14.5021     27.9373    139.1574
  1709.4000      8.1395      2.4219      0.1865     13.8216     26.5962    135.0236
  1709.5000      8.1292      2.4231      0.2352     13.7542     25.7708    128.3480
  1709.6000      8.1292      2.4175      0.2088     14.0895     25.6986    130.2755
  1709.7000      8.1292      2.4238      0.1054     13.7091     25.6917    139.1212
  1709.8000      8.0521      2.4574      0.0760     11.6729     25.3497    143.2279
  1709.9000      8.0521      2.5040      0.0835      8.8458     25.1931    142.1049
  1710.0000      7.9874      2.5376      0.0887      6.8140     25.4325    144.9032
  1710.1000      7.9874      2.5499      0.1142      6.0645     26.0404    152.9966
  1710.2000      7.9874      2.5460      0.1339      6.3027     26.5530    155.8141
  1710.3000      7.9620      2.5355      0.0607      6.9395     25.9728    147.9986
  1710.4000      7.9620      2.5299      0.0588      7.2810     24.3570    136.7145
  1710.5000      7.9549      2.5269      0.0565      7.4599     22.6247    132.2966
  1710.6000      7.9549      2.5252     -0.0004      7.5659     21.6097    136.4343
  1710.7000      7.9549      2.5349      0.0664      6.9787     21.6951    142.9356
  1710.8000      7.9558      2.5497      0.0625      6.0770     22.2075    146.6952
  1710.9000      7.9558      2.5520      0.0635      5.9391     22.2340    144.7050
  1711.0000      7.9559      2.5435     -0.0076      6.4525     21.9240    137.2660
  1711.1000      7.9559      2.5395      0.0190      6.6972     21.4911    131.3209
  1711.2000      7.9559      2.5371      0.0584      6.8438     20.8328    133.8901
  1711.3000      7.9546      2.5219      0.0280      7.7644     20.4723    143.7377
  1711.4000      7.9546      2.4960      0.0233      9.3321     20.9107    152.1817
  1711.5000      7.9550      2.4825     -0.0374     10.1514     21.6822    152.3504
  1711.6000      7.9550      2.4980      0.0150      9.2116     21.8826    150.0617
  1711.7000      7.9550      2.5259      0.0660      7.5229     21.1658    152.8447
  1711.8000      7.9559      2.5378      0.0741      6.8025     20.1334    156.6024
  1711.9000      7.9559      2.5270      0.0841      7.4559     19.7350    158.5090
  1712.0000      7.9562      2.5110      0.0344      8.4254     20.1052    157.3610
  1712.1000      7.9562      2.5099      0.0297      8.4910     20.1763    149.3530
  1712.2000      7.9562      2.5244      0.0418      7.6108     19.4172    139.7905
  1712.3000      7.9561      2.5435      0.0739      6.4527     18.7027    139.8843
  1712.4000      7.9561      2.5611      0.0748      5.3873     18.7333    148.0487
  1712.5000      7.9539      2.5738      0.0705      4.6209     19.3552    152.6804
  1712.6000      7.9539      2.5754      0.0670      4.5200     19.9302    150.0001
  1712.7000      7.9539      2.5621      0.0439      5.3266     19.9811    142.4278
  1712.8000      7.9507      2.5374      0.0368      6.8235     19.8621    133.5657
  1712.9000      7.9507      2.5152      0.0075      8.1713     20.3374    125.8878
  1713.0000      7.9492      2.5083      0.0153      8.5856     21.6271    117.5649
  1713.1000      7.9492      2.5095      0.0480      8.5147     22.9527    110.0815
  1713.2000      7.9492      2.5068      0.0244      8.6763     23.4413    111.3661
  1713.3000      7.9492      2.5077      0.0193      8.6273     23.2931    120.2499
  1713.4000      7.9492      2.5187      0.0778      7.9552     23.0353    130.0188
  1713.5000      7.9508      2.5307      0.0635      7.2284     22.8024    139.7160
  1713.6000      7.9508      2.5308      0.0907      7.2238     22.6712    145.4103
  1713.7000      7.9508      2.5179      0.0740      8.0069     22.8147    141.6916
  1713.8000      7.9501      2.5073      0.0868      8.6477     23.3817    132.2094
  1713.9000      7.9501      2.5128      0.0831      8.3163     24.0732    125.4741
  1714.0000      7.9426      2.5269      0.0839      7.4577     24.3408    124.5736
  1714.1000      7.9426      2.5320      0.0895      7.1537     24.2752    128.1238
  1714.2000      7.9426      2.5267      0.0700      7.4703     24.4035    132.5373
  1714.3000      7.9364      2.5193      0.0871      7.9218     24.9487    131.7256
  1714.4000      7.9364      2.5021      0.0954      8.9607     25.7070    123.3488
  1714.5000      7.9395      2.4713      0.0569     10.8312     25.9464    114.5130
  1714.6000      7.9395      2.4456      0.0407     12.3890     25.4013    113.8469
  1714.7000      7.9395      2.4373      0.0324     12.8898     24.7931    121.7074
  1714.8000      7.9466      2.4329      0.0559     13.1582     24.5814    130.9890
  1714.9000      7.9466      2.4205      0.0047     13.9093     24.4997    138.0388
  1715.0000      7.9510      2.4070      0.0208     14.7261     24.2248    143.3219
  1715.1000      7.9510      2.4059      0.0024     14.7963     23.8093    144.2090
  1715.2000      7.9510      2.4249      0.0398     13.6450     23.5695    137.7648
  1715.3000      7.9549      2.4507      0.0868     12.0780     23.5641    129.6422
  1715.4000      7.9549      2.4648      0.0775     11.2272     23.5433    126.5438
  1715.5000      7.9573      2.4711      0.0829     10.8421     23.3284    125.5090
