~Version Information
VERS.                      2.0: CWLS Log ASCII Standard - VERSION 2.0
WRAP.                       NO: One line per depth step
~Well Information Block
STRT.FT               780.0000: 
STOP.FT              2866.2000: 
STEP.FT                 0.1000: 
NULL.                -999.2500: 
COMP.          Pioneer Natural Resources: COMPANY
WELL.            Sebring 42-29: WELL
FLD.           Purgatoire River: FIELD
LOC.           1751' FNL & 584' FEL--: LOCATION
PROV.                 Colorado: PROVINCE
CNTY.               Las Animas: COUNTRY
SRVC.                Patterson: SERVICE COMPANY
DATE.          Mon Aug 15 07:11:37 2005: LOG DATE
UWI.           05 071 08293 00: UNIQUE WELL ID
~Curve Information Block
DEPT.FT            0 000 00 00: Depth
DCAL.in                       : CDL Caliper
RHOB.g/cc                     : CDL Bulk Density
RHOC.g/cc                     : CDL Density Correction
DPOR.pu                       : CDL Density Porosity
NPOR.pu                       : Neutron Porosity
GR.GAPI                       : Gamma Ray
~Parameter Information Block
~A  Depth       DCAL        RHOB        RHOC        DPOR        NPOR         GR     
# ...
  2421.6000      8.1519      2.6277      0.0969      1.3499     21.9466    101.9785
  2421.7000      8.1519      2.6448      0.0258      0.3125     22.2832     94.7612
  2421.8000      8.1586      2.6637      0.0940     -0.8318     22.3192     90.5808
  2421.9000      8.1586      2.6723      0.1051     -1.3492     22.1169     90.5284
  2422.0000      8.1638      2.6603      0.0843     -0.6245     22.4256     91.7637
  2422.1000      8.1638      2.6375      0.0651      0.7575     23.2021     90.3970
  2422.2000      8.1638      2.6144      0.0404      2.1559     23.6545     88.2729
  2422.3000      8.1722      2.5917      0.0563      3.5317     23.5653     93.2409
  2422.4000      8.1722      2.5744     -0.0292      4.5798     23.2081    104.3593
  2422.5000      8.1815      2.5748      0.0282      4.5604     22.6939    111.7969
  2422.6000      8.1815      2.5906      0.0105      3.6014     22.1639    113.2290
  2422.7000      8.1815      2.6087      0.0592      2.5005     21.9279    114.0379
  2422.8000      8.1871      2.6137      0.0587      2.1989     22.1598    116.8239
  2422.9000      8.1871      2.6008      0.0348      2.9816     22.7926    119.1922
  2423.0000      8.1875      2.5863      0.0044      3.8633     23.5372    121.3287
  2423.1000      8.1875      2.5833      0.0680      4.0396     23.8650    124.7857
  2423.2000      8.1875      2.5838      0.0478      4.0148     23.8788    127.5537
  2423.3000      8.1843      2.5821      0.0552      4.1169     24.1193    128.7357
  2423.4000      8.1843      2.5793      0.0527      4.2858     24.4993    129.6328
  2423.5000      8.1816      2.5678      0.0391      4.9819     24.7730    130.9543
  2423.6000      8.1816      2.5477      0.0086      6.1970     25.0220    132.4521
  2423.7000      8.1816      2.5330      0.0056      7.0893     25.2104    132.5901
  2423.8000      8.1820      2.5324      0.0213      7.1294     25.2319    132.5310
  2423.9000      8.1820      2.5407      0.0394      6.6264     25.3015    133.5375
  2424.0000      8.1827      2.5462      0.0088      6.2892     25.4544    133.6275
  2424.1000      8.1827      2.5467      0.0024      6.2606     25.3739    133.7353
  2424.2000      8.1827      2.5519      0.0238      5.9452     25.4338    134.8916
  2424.3000      8.1820      2.5682      0.0168      4.9580     26.0431    134.5525
  2424.4000      8.1820      2.5876      0.0540      3.7841     26.4753    131.2792
  2424.5000      8.1812      2.5983      0.0868      3.1361     26.0599    124.6914
  2424.6000      8.1812      2.6042      0.0473      2.7772     25.2203    115.7816
  2424.7000      8.1812      2.6164      0.0421      2.0374     24.9033    111.6342
  2424.8000      8.1816      2.6254      0.0479      1.4917     25.4782    113.9744
  2424.9000      8.1816      2.6139      0.0536      2.1871     26.1448    116.8954
  2425.0000      8.1824      2.5900      0.0197      3.6379     26.1771    117.0515
  2425.1000      8.1824      2.5726      0.0354      4.6884     25.8888    113.3084
  2425.2000      8.1824      2.5653      0.0103      5.1332     25.8750    110.5650
  2425.3000      8.1818      2.5643      0.0153      5.1929     26.3764    114.5283
  2425.4000      8.1818      2.5710      0.0148      4.7889     26.8322    121.4923
  2425.5000      8.1807      2.5796      0.0399      4.2670     26.5903    127.9691
  2425.6000      8.1807      2.5747      0.0436      4.5635     25.7164    133.8810
  2425.7000      8.1807      2.5585      0.0241      5.5469     24.9560    134.5702
  2425.8000      8.1804      2.5505      0.0122      6.0297     24.9703    130.0238
  2425.9000      8.1804      2.5593      0.0155      5.4947     25.5086    126.8990
  2426.0000      8.1818      2.5766      0.0503      4.4482     25.9749    127.2285
  2426.1000      8.1818      2.5891      0.0637      3.6911     26.2283    128.9387
  2426.2000      8.1818      2.5924      0.0685      3.4890     26.2724    130.7557
  2426.3000      8.1846      2.5901      0.0571      3.6320     26.2035    131.8927
  2426.4000      8.1846      2.5827      0.0670      4.0810     26.0285    135.0412
  2426.5000      8.1859      2.5668      0.0252      5.0410     25.5516    138.3308
  2426.6000      8.1859      2.5455      0.0231      6.3304     25.0041    137.4517
  2426.7000      8.1859      2.5308     -0.0072      7.2270     24.9023    134.4686
  2426.8000      8.1844      2.5253      0.0210      7.5588     25.3934    133.9568
  2426.9000      8.1844      2.5188      0.0338      7.9515     26.4784    137.8862
  2427.0000      8.1816      2.5096      0.0063      8.5081     27.8829    142.1554
  2427.1000      8.1816      2.4986      0.0507      9.1744     28.7739    143.0340
  2427.2000      8.1816      2.4846      0.0192     10.0258     28.9567    143.3845
  2427.3000      8.1803      2.4776      0.0040     10.4479     28.7294    148.4591
  2427.4000      8.1803      2.4855      0.0357      9.9678     28.1951    157.0788
  2427.5000      8.1794      2.5038      0.0456      8.8601     27.8378    162.7888
  2427.6000      8.1794      2.5157      0.1061      8.1379     27.8731    165.1788
  2427.7000      8.1794      2.5042      0.0719      8.8385     27.5589    169.7201
  2427.8000      8.1791      2.4780      0.0209     10.4223     26.7248    177.0517
  2427.9000      8.1791      2.4596      0.0122     11.5406     26.2145    178.4679
  2428.0000      8.1804      2.4593      0.0105     11.5566     26.2156    165.0722
  2428.1000      8.1804      2.4721      0.0753     10.7790     26.1381    144.7372
  2428.2000      8.1804      2.4861      0.0542      9.9315     26.0107    135.3960
  2428.3000      8.1823      2.4985      0.0412      9.1841     26.2166    138.1500
  2428.4000      8.1823      2.5110      0.0634      8.4240     26.5009    137.5625
  2428.5000      8.1847      2.5224      0.0314      7.7333     26.2845    130.2548
  2428.6000      8.1847      2.5272      0.0853      7.4399     25.6508    125.0272
  2428.7000      8.1847      2.5209      0.0561      7.8249     25.6165    121.8184
  2428.8000      8.1845      2.5146      0.0483      8.2083     26.3158    116.8889
  2428.9000      8.1845      2.5198      0.0556      7.8900     26.8203    112.7028
  2429.0000      8.1830      2.5384      0.0574      6.7646     26.7598    110.1932
  2429.1000      8.1830      2.5674      0.0933      5.0078     26.4021    110.8030
  2429.2000      8.1830      2.5903      0.0985      3.6186     26.0941    116.7005
  2429.3000      8.1843      2.5977      0.0756      3.1676     26.0729    123.6380
  2429.4000      8.1843      2.5980      0.1069      3.1510     26.2890    127.3536
  2429.5000      8.1851      2.5948      0.0466      3.3468     26.5111    127.0706
  2429.6000      8.1851      2.5831      0.0752      4.0558     26.7321    122.1123
  2429.7000      8.1851      2.5636      0.0078      5.2390     26.9849    115.1567
  2429.8000      8.1797      2.5500      0.0565      6.0576     26.9945    110.5443
  2429.9000      8.1797      2.5540      0.0054      5.8183     26.7453    109.0069
  2430.0000      8.1614      2.5695      0.0594      4.8818     26.4289    110.9272
  2430.1000      8.1614      2.5798      0.0517      4.2558     25.9192    116.0082
  2430.2000      8.1614      2.5815      0.0326      4.1523     25.3220    121.4781
  2430.3000      8.1337      2.5773      0.0556      4.4085     25.0748    124.1952
  2430.4000      8.1337      2.5686      0.0461      4.9344     25.3063    122.5796
  2430.5000      8.1141      2.5695      0.0040      4.8797     25.6656    119.2712
  2430.6000      8.1141      2.5859      0.0679      3.8858     25.7780    116.5187
  2430.7000      8.1141      2.6017      0.0464      2.9250     25.8094    114.8427
  2430.8000      8.1067      2.6028      0.0611      2.8596     26.0136    115.4494
  2430.9000      8.1067      2.5843      0.0468      3.9804     26.3879    117.9449
  2431.0000      8.1041      2.5456      0.0554      6.3295     26.6869    123.5129
  2431.1000      8.1041      2.4984     -0.0325      9.1863     26.6630    129.9735
