~Version Information
VERS.                      2.0: CWLS Log ASCII Standard - VERSION 2.0
WRAP.                       NO: One line per depth step
~Well Information Block
STRT.FT               830.0000: 
STOP.FT              3122.7000: 
STEP.FT                 0.1000: 
NULL.                -999.2500: 
COMP.          Pioneer Natural Resources: COMPANY
WELL.              Stones 24-8: WELL
FLD.           Purgatoire River: FIELD
LOC.           648' FSL & 2264' FWL: LOCATION
PROV.                 Colorado: PROVINCE
CNTY.               Las Animas: COUNTRY
SRVC.                Patterson: SERVICE COMPANY
DATE.          Wed Jan 19 15:33:00 2005: LOG DATE
UWI.           05 071 07945 00: UNIQUE WELL ID
~Curve Information Block
DEPT.FT            0 000 00 00: Depth
DCAL.in                       : CDL Caliper
RHOB.g/cc                     : CDL Bulk Density
RHOC.g/cc                     : CDL Density Correction
DPOR.pu                       : CDL Density Porosity
NPOR.pu                       : Neutron Porosity
GR.GAPI                       : Gamma Ray
~Parameter Information Block
~A  Depth       DCAL        RHOB        RHOC        DPOR        NPOR         GR     
# ...
  2942.0000      8.1903      2.4822      0.0223     10.1670     26.9482    172.3102
  2942.1000      8.1903      2.5099      0.0174      8.4913     28.1534    170.0835
  2942.2000      8.1903      2.5184      0.0982      7.9783     28.9660    171.9986
  2942.3000      8.1925      2.5063      0.0377      8.7095     28.8671    171.6235
  2942.4000      8.1925      2.4955      0.0376      9.3614     29.0691    167.2848
  2942.5000      8.1985      2.4958      0.0849      9.3458     30.1737    162.1792
  2942.6000      8.1985      2.4812      0.1184     10.2303     31.1924    156.6162
  2942.7000      8.1985      2.4182      0.0970     14.0472     31.6471    149.9019
  2942.8000      8.2105      2.3090     -0.0096     20.6669     32.0762    145.0024
  2942.9000      8.2105      2.1904     -0.0552     27.8546     33.0757    143.1985
  2943.0000      8.2155      2.0883     -0.0808     34.0419     34.4105    142.7177
  2943.1000      8.2155      1.9936     -0.0895     39.7808     35.5401    140.6247
  2943.2000      8.2155      1.8827     -0.1191     46.5006     36.2673    132.9840
  2943.3000      8.2134      1.7550     -0.1639     54.2413     36.2949    121.6127
  2943.4000      8.2134      1.6396     -0.1648     61.2388     35.7971    113.9158
  2943.5000      8.2130      1.5684     -0.1759     65.5532     35.2937    108.7660
  2943.6000      8.2130      1.5564     -0.1187     66.2809     34.7485     98.2774
  2943.7000      8.2130      1.5986     -0.0810     63.7230     34.1353     86.7181
  2943.8000      8.2215      1.6737      0.0374     59.1669     33.8406     82.7222
  2943.9000      8.2215      1.7491      0.1174     54.5976     34.0422     83.5514
  2944.0000      8.2685      1.8002      0.1603     51.5029     34.4282     84.0401
  2944.1000      8.2685      1.8206      0.2037     50.2639     34.5314     87.1329
  2944.2000      8.2685      1.8148      0.1712     50.6156     34.2865     92.6352
  2944.3000      8.3865      1.7990      0.1242     51.5740     33.7716     94.0835
  2944.4000      8.3865      1.7976      0.0605     51.6597     32.9246     92.8779
  2944.5000      8.4906      1.8255      0.0254     49.9694     31.7362     94.2112
  2944.6000      8.4906      1.8731      0.0240     47.0846     30.3830     95.6807
  2944.7000      8.4906      1.9149      0.0776     44.5502     29.4093     95.9227
  2944.8000      8.4174      1.9430      0.0542     42.8511     29.0268     97.8569
  2944.9000      8.4174      1.9846      0.0688     40.3271     28.8181    101.7235
  2945.0000      8.3193      2.0762      0.1013     34.7778     28.4457    105.8981
  2945.1000      8.3193      2.2158      0.2309     26.3144     27.5510    110.2491
  2945.2000      8.3193      2.3490      0.2851     18.2401     25.9227    114.2512
  2945.3000      8.2032      2.4293      0.2027     13.3728     24.2109    116.4377
  2945.4000      8.2032      2.4666      0.1916     11.1143     23.1707    118.7010
  2945.5000      8.1797      2.4884      0.1740      9.7947     22.7719    122.6708
  2945.6000      8.1797      2.5065      0.1125      8.6977     22.5108    128.0282
  2945.7000      8.1797      2.5251      0.0695      7.5713     22.2017    133.6603
  2945.8000      8.1795      2.5433      0.0606      6.4690     22.0989    134.2528
  2945.9000      8.1795      2.5556      0.0568      5.7235     21.9526    127.6516
  2946.0000      8.1803      2.5554      0.0803      5.7357     21.1853    119.2924
  2946.1000      8.1803      2.5454      0.0364      6.3373     20.2104    114.4122
  2946.2000      8.1803      2.5443      0.0294      6.4082     19.7311    114.1162
  2946.3000      8.1800      2.5587      0.0608      5.5336     19.8763    115.6805
  2946.4000      8.1800      2.5721      0.0527      4.7189     20.6050    117.4279
  2946.5000      8.1786      2.5710      0.0669      4.7902     21.3301    118.8314
  2946.6000      8.1786      2.5571      0.0458      5.6305     21.5076    118.7815
  2946.7000      8.1786      2.5436      0.0152      6.4459     21.2799    117.9727
  2946.8000      8.1782      2.5396      0.0524      6.6931     20.6717    115.8381
  2946.9000      8.1782      2.5453     -0.0021      6.3454     19.8248    112.0897
  2947.0000      8.1778      2.5627      0.0276      5.2895     19.0901    109.4128
  2947.1000      8.1778      2.5793      0.0909      4.2839     18.6864    108.4584
  2947.2000      8.1778      2.5762      0.0450      4.4755     18.6974    110.5736
  2947.3000      8.1772      2.5551      0.0615      5.7545     19.1503    117.0389
  2947.4000      8.1772      2.5328      0.0071      7.1002     19.7967    119.1842
  2947.5000      8.1780      2.5264     -0.0063      7.4911     19.9182    111.6449
  2947.6000      8.1780      2.5315      0.0454      7.1845     19.4812    103.4025
  2947.7000      8.1780      2.5312      0.0197      7.1975     19.1894    100.8304
  2947.8000      8.1803      2.5278      0.0060      7.4048     19.0527    101.0710
  2947.9000      8.1803      2.5332     -0.0014      7.0800     19.0517    102.3634
  2948.0000      8.1806      2.5483      0.0319      6.1661     19.3691    104.5891
  2948.1000      8.1806      2.5615      0.0510      5.3637     19.4814    102.7430
  2948.2000      8.1806      2.5652      0.0327      5.1424     19.1066     97.4685
  2948.3000      8.1725      2.5586      0.0648      5.5408     19.0920     99.7526
  2948.4000      8.1725      2.5379      0.0747      6.7960     20.0885    113.0410
  2948.5000      8.1601      2.5146     -0.0192      8.2079     21.6654    129.6926
  2948.6000      8.1601      2.5118      0.0168      8.3753     22.9728    141.4558
  2948.7000      8.1601      2.5224      0.0353      7.7362     23.4627    143.3148
  2948.8000      8.1545      2.5235      0.0298      7.6696     23.5040    139.3477
  2948.9000      8.1545      2.5146      0.0078      8.2047     23.7937    135.6230
  2949.0000      8.1559      2.5095      0.0007      8.5133     24.1667    131.3998
  2949.1000      8.1559      2.5170      0.0245      8.0610     24.1141    128.7383
  2949.2000      8.1559      2.5389      0.0135      6.7323     23.8180    129.9435
  2949.3000      8.1579      2.5628      0.0954      5.2845     23.4451    130.7268
  2949.4000      8.1579      2.5629      0.0814      5.2775     22.7128    127.3725
  2949.5000      8.1572      2.5348      0.0813      6.9817     21.9585    122.3637
  2949.6000      8.1572      2.5042      0.0132      8.8380     21.9150    121.9130
  2949.7000      8.1572      2.4951      0.0194      9.3882     22.5295    128.5265
  2949.8000      8.1563      2.5005      0.0730      9.0585     22.9050    136.7438
  2949.9000      8.1563      2.5034      0.0344      8.8821     22.5657    139.5320
  2950.0000      8.1561      2.5105      0.0106      8.4527     22.5524    137.1155
  2950.1000      8.1561      2.5314      0.0615      7.1849     23.3940    135.4215
  2950.2000      8.1561      2.5561      0.0929      5.6905     23.7809    136.6780
  2950.3000      8.1557      2.5640      0.1163      5.2139     23.3749    138.5834
  2950.4000      8.1557      2.5513      0.0643      5.9848     23.3250    138.5250
  2950.5000      8.1552      2.5392      0.0674      6.7127     23.8331    134.9799
  2950.6000      8.1552      2.5378      0.0933      6.8023     24.3585    130.5461
  2950.7000      8.1552      2.5416      0.0543      6.5685     24.6737    127.3923
  2950.8000      8.1545      2.5547      0.0429      5.7759     24.6898    125.3835
  2950.9000      8.1545      2.5742      0.0955      4.5959     24.4232    127.6903
  2951.0000      8.1529      2.5892      0.0651      3.6874     24.1355    133.5271
  2951.1000      8.1529      2.5963      0.0712      3.2535     23.6531    133.5566
  2951.2000      8.1529      2.5891      0.0810      3.6886     23.1424    124.1768
  2951.3000      8.1466      2.5603      0.0925      5.4345     23.3790    113.5515
  2951.4000      8.1466      2.5290      0.0386      7.3343     24.3496    108.4945
  2951.5000      8.1343      2.5224      0.0604      7.7346     25.3890    111.8442
