~Version Information
VERS.                      2.0: CWLS Log ASCII Standard - VERSION 2.0
WRAP.                       NO: One line per depth step
~Well Information Block
STRT.FT                -8.0000: 
STOP.FT              1540.2500: 
STEP.FT                 0.2500: 
NULL.                -999.2500: 
COMP.          Pioneer Natural Resources: COMPANY
WELL.           Telna 24-22 Tr: WELL
FLD.           Purgatorie River: FIELD
LOC.           748' FSL & 1931' FWL--: LOCATION
PROV.                       CO: PROVINCE
CNTY.               Las Animas: COUNTRY
SRVC.          Patterson Wireline: SERVICE COMPANY
DATE.          Fri May 06 12:29:21 2005: LOG DATE
UWI.           05 071 08304 00: UNIQUE WELL ID
~Curve Information Block
DEPT.FT            0 000 00 00: Depth
CCL.                          : Casing Collar Locator
TT3.usec                      : CBL 3' Travel Time
AMP3.mV                       : CBL 3' Amplitude
GR.GAPI                       : Gamma Ray
~Parameter Information Block
~A  Depth       CCL         TT3         AMP3         GR     
# ...
  1198.0000      0.0000    827.7919      5.5920    134.6816
  1198.2500      0.0000    822.7368      5.4901    139.3876
  1198.5000      0.0000    812.1431      5.3508    144.8588
  1198.7500      0.0000    796.6206      5.2011    149.0660
  1199.0000      0.0000    774.1237      5.0866    149.6564
  1199.2500      0.0000    743.0118      5.0475    145.3463
  1199.5000      0.0000    707.4677      5.0790    137.2853
  1199.7500      0.0000    679.0662      5.1228    129.0247
  1200.0000      0.0000    669.9880      5.1262    124.1452
  1200.2500      0.0000    683.2324      5.1173    123.4332
  1200.5000      0.0000    709.7822      5.1888    124.8989
  1200.7500      0.0000    735.1281      5.3864    126.4947
  1201.0000      0.0000    748.3970      5.6387    127.7252
  1201.2500      0.0000    747.3132      5.8172    128.4958
  1201.5000      0.0000    737.4124      5.8420    127.9088
  1201.7500      0.0000    727.3435      5.7109    125.0334
  1202.0000      0.0000    723.8309      5.4606    120.0286
  1202.2500      0.0000    729.6694      5.1464    113.8261
  1202.5000      0.0000    744.3967      4.8541    107.2574
  1202.7500      0.0000    764.4436      4.6780    100.8624
  1203.0000      0.0000    782.8089      4.6581     94.9503
  1203.2500      0.0000    791.7645      4.7566     89.3403
  1203.5000      0.0000    788.0365      4.9086     83.4905
  1203.7500      0.0000    774.3666      5.0626     77.3974
  1204.0000      0.0000    755.0609      5.1636     72.0235
  1204.2500      0.0000    732.1313      5.1467     68.4606
  1204.5000      0.0000    707.6177      4.9990     67.0244
  1204.7500      0.0000    687.0232      4.8095     67.5445
  1205.0000      0.0000    676.8472      4.7103     70.1643
  1205.2500      0.0000    679.1074      4.7618     75.1710
  1205.5000      0.0000    689.6436      4.9182     81.7636
  1205.7500      0.0000    700.6609      5.0851     87.3509
  1206.0000      0.0000    704.7427      5.1847     88.8957
  1206.2500      0.0000    699.0255      5.1889     85.3755
  1206.5000      0.0000    687.0618      5.1221     78.5587
  1206.7500      0.0000    676.3449      5.0219     71.0958
  1207.0000      0.0000    673.6614      4.8890     64.3314
  1207.2500      0.0000    681.5807      4.6949     58.1790
  1207.5000      0.0000    696.6384      4.4410     52.5398
  1207.7500      0.0000    709.4389      4.1932     48.2155
  1208.0000      0.0000    707.9302      4.0464     46.3059
  1208.2500      2.0000    684.0889      4.0450     46.8882
  1208.5000      2.0000    641.0011      4.1425     48.5954
  1208.7500      0.0000    593.9570      4.2545     49.6853
  1209.0000      0.0000    561.4667      4.3399     49.4258
  1209.2500      0.0000    551.8719      4.4017     48.3733
  1209.5000      0.0000    557.1422      4.4311     47.5489
  1209.7500      0.0000    558.9985      4.4117     47.5924
  1210.0000      0.0000    542.7745      4.3847     48.6587
  1210.2500      0.0000    508.4850      4.4431     50.7903
  1210.5000      0.0000    469.2577      4.6240     54.0550
  1210.7500      0.0000    439.5350      4.8413     58.3010
  1211.0000      0.0000    426.4615      4.9540     62.9983
  1211.2500      0.0000    431.9876      4.8832     67.5802
  1211.5000      0.0000    458.9157      4.6696     72.2115
  1211.7500      0.0000    510.4954      4.4488     78.3953
  1212.0000      0.0000    582.1923      4.3559     88.5069
  1212.2500      0.0000    655.2955      4.4154    103.7927
  1212.5000      0.0000    703.1194      4.5253    122.1846
  1212.7500      0.0000    708.2596      4.5701    138.6266
  1213.0000      0.0000    676.9516      4.5366    148.7067
  1213.2500      0.0000    637.6851      4.4959    152.0882
  1213.5000      0.0000    623.2304      4.4917    151.7564
  1213.7500      0.0000    648.6360      4.4863    150.1512
  1214.0000      0.0000    703.0649      4.4310    147.0228
  1214.2500      0.0000    761.9014      4.3602    140.9584
  1214.5000      0.0000    806.0729      4.3752    131.7236
  1214.7500      0.0000    830.9395      4.5330    120.6348
  1215.0000      0.0000    841.6771      4.7827    109.6096
  1215.2500      0.0000    845.1141      5.0222    100.7037
  1215.5000      0.0000    845.7134      5.1864     95.9947
  1215.7500      0.0000    845.5131      5.2655     96.7663
  1216.0000      0.0000    845.1184      5.2673    102.3737
  1216.2500      0.0000    844.3043      5.1925    110.2279
  1216.5000      0.0000    842.3784      5.0447    117.3013
  1216.7500      0.0000    838.7293      4.8421    121.9569
  1217.0000      0.0000    833.5676      4.6104    124.5703
  1217.2500      0.0000    828.0213      4.3772    126.4427
  1217.5000      0.0000    823.2437      4.1847    128.3074
  1217.7500      0.0000    819.7125      4.0938    130.1335
  1218.0000      0.0000    817.7434      4.1374    132.0696
  1218.2500      0.0000    818.0420      4.2630    134.6643
  1218.5000      0.0000    820.7630      4.3610    137.9357
  1218.7500      0.0000    824.1955      4.3771    141.1119
  1219.0000      0.0000    825.4346      4.3699    143.6242
  1219.2500      0.0000    822.9058      4.4284    145.4931
  1219.5000      0.0000    818.0535      4.5567    146.5142
  1219.7500      0.0000    814.3607      4.6769    146.0448
  1220.0000      0.0000    814.6802      4.7272    143.9085
  1220.2500      0.0000    819.1273      4.7111    140.7570
  1220.5000      0.0000    824.7412      4.6531    137.4002
  1220.7500      0.0000    826.6196      4.5559    134.3902
  1221.0000      0.0000    819.6760      4.4203    132.2605
  1221.2500      0.0000    800.7286      4.2715    131.4736
  1221.5000      0.0000    770.7729      4.1288    131.8432
  1221.7500      0.0000    735.8160      3.9683    132.2233
  1222.0000      0.0000    704.0342      3.7661    130.9380
  1222.2500      0.0000    680.4530      3.5850    126.7604
  1222.5000      0.0000    664.3105      3.5598    119.8711
  1222.7500      0.0000    652.2215      3.7573    111.9392
  1223.0000      0.0000    643.8920      4.0842    105.1280
  1223.2500      2.0000    643.7563      4.3624    100.9819
  1223.5000      0.0000    656.2373      4.4708    100.0966
  1223.7500     -2.0000    680.0740      4.4119    102.3775
  1224.0000      0.0000    708.6490      4.2857    107.3904
  1224.2500      0.0000    734.8674      4.2247    114.6007
  1224.5000      0.0000    754.2360      4.3098    123.3578
  1224.7500      0.0000    765.4101      4.5152    132.6656
  1225.0000      0.0000    770.5295      4.7509    141.2376
  1225.2500      0.0000    772.7972      4.9574    147.9056
  1225.5000      0.0000    770.6186      5.1227    151.9048
  1225.7500      0.0000    756.5452      5.2231    152.9767
  1226.0000      0.0000    725.8436      5.2174    151.5689
  1226.2500      0.0000    684.8749      5.1199    148.9331
  1226.5000      0.0000    648.1261      5.0227    146.6024
  1226.7500      0.0000    627.8707      5.0018    145.2142
  1227.0000      0.0000    627.7880      5.0353    143.9066
  1227.2500      0.0000    643.6998      5.0613    141.5080
  1227.5000      0.0000    668.5676      5.0923    138.3293
  1227.7500      0.0000    698.9391      5.2037    136.2040
  1228.0000      0.0000    737.0342      5.4077    136.7632
  1228.2500      0.0000    784.5132      5.5997    140.0176
  1228.5000      0.0000    835.7715      5.6617    144.3994
  1228.7500      0.0000    880.0779      5.5812    147.7093
  1229.0000      0.0000    909.2408      5.4292    147.9979
  1229.2500      0.0000    921.6714      5.2485    144.0561
  1229.5000      0.0000    920.7155      5.0172    135.6353
  1229.7500      0.0000    910.9072      4.7260    123.3657
  1230.0000      0.0000    895.5441      4.4351    108.3508
  1230.2500      0.0000    877.0886      4.2197     91.8284
  1230.5000      0.0000    859.3181      4.0883     75.2214
  1230.7500      0.0000    847.4087      3.9869     60.1518
  1231.0000      0.0000    844.4319      3.8670     47.9895
  1231.2500      0.0000    848.6875      3.7190     39.4270
