~Version Information
 VERS.                                  2.0 : CWLS LAS VERSION
 WRAP.                                   NO : WRAPING MODE
 SWARE .                 MController 2.5.0J : SOFTWARE VERSION
~Well Information
 WELL.                  Great Plains 22-21V : WELL
 COMP.                Petrogulf Corporation : COMPANY
 FLD.                      Purgatoire River : FIELD
 LOC.                NE/NW Sec 22 T33S R67W : LOCATION
 DATE.                          08/29-30/05 : DATE(S) LOGGED
 SRVC.       Blanco Geological Services LLC : SERVICE COMPANY
 STAT.                                   CO : STATE
 CNTY.                           Las Animas : COUNTY
 CTRY.                                  USA : COUNTRY
 API.                       05-071-08346-00 : API NUMBER
 STRT.FT                              -2.00 : START DEPTH
 STOP.FT                            2090.00 : STOP DEPTH
 STEP.FT                               1.00 : DEPTH INCREMENT
 NULL.                                -9999 : NULL VALUE
~Curve information
 DEPTH.FT                                   :
 ROP.MIN/FT                                 :
 GAS.UNITS                                  :
~ASCII Log data
# ...
       998.0         0.20         16.3 
       999.0         0.30         16.1 
      1000.0         0.33         16.0 
      1001.0         0.30         15.1 
      1002.0         0.20         15.5 
      1003.0         0.20         15.7 
      1004.0         0.33         15.9 
      1005.0         0.27         15.8 
      1006.0         0.33         15.7 
      1007.0         0.28         15.7 
      1008.0         0.27         15.1 
      1009.0         0.27         15.3 
      1010.0         0.30         15.5 
      1011.0         0.20         15.4 
      1012.0         0.17         15.0 
      1013.0         0.20         14.5 
      1014.0         0.20         14.1 
      1015.0         0.27         16.7 
      1016.0         0.20         20.7 
      1017.0         0.17         23.4 
      1018.0         2.22         41.9 
      1019.0         0.27         20.8 
      1020.0         0.23         20.0 
      1021.0         0.23         19.9 
      1022.0         0.17         18.6 
      1023.0         0.13         18.4 
      1024.0         0.20         17.9 
      1025.0         0.17         18.5 
      1026.0         0.23         19.4 
      1027.0         0.13         20.0 
      1028.0         0.18         19.9 
      1029.0         0.27         19.8 
      1030.0         0.20         18.9 
      1031.0         0.20         18.2 
      1032.0         0.10         17.3 
      1033.0         0.10         16.4 
      1034.0         0.10         17.0 
      1035.0         0.17         17.0 
      1036.0         0.20         15.6 
      1037.0         0.20         16.0 
      1038.0         0.17         16.0 
      1039.0         0.17         15.6 
      1040.0         0.23         14.6 
      1041.0         0.17         14.2 
      1042.0         0.20         14.9 
      1043.0         0.17         16.5 
      1044.0         0.13         18.8 
      1045.0         0.13         21.7 
      1046.0         0.17         24.2 
      1047.0         0.13         27.0 
      1048.0         2.18         44.8 
      1049.0         0.27         20.3 
      1050.0         0.27         17.6 
      1051.0         0.30         16.6 
      1052.0         0.42         15.7 
      1053.0         0.27         14.7 
      1054.0         0.23         13.8 
      1055.0         0.20         13.5 
      1056.0         0.20         14.2 
      1057.0         0.23         13.9 
      1058.0         0.23         13.8 
      1059.0         0.20         13.9 
      1060.0         0.20         14.3 
      1061.0         0.23         14.8 
      1062.0         0.20         15.0 
      1063.0         0.23         15.1 
      1064.0         0.20         15.1 
      1065.0         0.20         14.8 
      1066.0         0.18         15.1 
      1067.0         0.20         14.8 
      1068.0         0.20         14.7 
      1069.0         0.17         14.4 
      1070.0         0.20         14.2 
      1071.0         0.17         13.3 
      1072.0         0.20         13.1 
      1073.0         0.23         14.3 
      1074.0         0.23         18.3 
      1075.0         0.23         22.9 
      1076.0         0.17         26.8 
      1077.0         0.13         29.7 
      1078.0         2.25         49.5 
      1079.0         0.23         19.3 
      1080.0         0.30         17.5 
      1081.0         0.27         16.1 
      1082.0         0.27         15.6 
      1083.0         0.27         15.3 
      1084.0         0.28         15.2 
      1085.0         0.20         14.6 
      1086.0         0.20         14.9 
      1087.0         0.23         16.8 
      1088.0         0.20         20.2 
      1089.0         0.23         23.8 
      1090.0         0.23         29.3 
      1091.0         0.30         42.5 
      1092.0         0.13         48.2 
      1093.0         0.10         51.8 
      1094.0         0.10         54.4 
      1095.0         0.20         57.3 
      1096.0         0.17         57.7 
      1097.0         0.20         57.4 
      1098.0         0.20         55.7 
      1099.0         0.38         52.9 
      1100.0         0.43         48.6 
      1101.0         0.37         49.6 
      1102.0         0.30         49.5 
      1103.0         0.20         51.9 
      1104.0         0.20         55.7 
      1105.0         0.30         66.8 
      1106.0         0.43         68.0 
      1107.0         0.47         55.1 
      1108.0         4.20        310.1 
      1109.0         0.73        373.4 
      1110.0         1.77        164.8 
      1111.0         0.95        107.2 
      1112.0         1.07         68.1 
      1113.0         1.00         62.4 
      1114.0         0.37         62.5 
      1115.0         0.20         56.3 
      1116.0         0.22         53.9 
      1117.0         0.17         53.9 
      1118.0         0.27         53.9 
      1119.0         0.27         53.6 
      1120.0         0.33         61.9 
      1121.0         0.47         70.6 
      1122.0         0.53         70.0 
      1123.0         0.80         60.6 
      1124.0         0.72         59.7 
      1125.0         0.43         54.9 
      1126.0         0.47         53.1 
      1127.0         0.57         48.1 
      1128.0         0.43         47.8 
      1129.0         0.23         48.8 
      1130.0         0.27         52.8 
      1131.0         0.23         57.6 
      1132.0         0.23         58.7 
      1133.0         0.32         58.3 
      1134.0         0.33         56.1 
      1135.0         0.33         56.6 
      1136.0         0.43         57.4 
      1137.0         0.57         57.5 
      1138.0         5.87        364.9 
      1139.0         0.53         63.5 
      1140.0         0.50         62.2 
      1141.0         0.40         55.3 
      1142.0         0.62         54.7 
      1143.0         0.37         56.3 
      1144.0         0.30         65.9 
      1145.0         0.27         71.4 
      1146.0         0.27         71.5 
      1147.0         0.67         66.5 
      1148.0         0.87         52.2 
      1149.0         0.62         49.5 
      1150.0         0.50         49.6 
      1151.0         0.43         50.0 
      1152.0         0.30         49.9 
      1153.0         0.33         49.1 
      1154.0         0.33         47.6 
      1155.0         0.37         46.6 
      1156.0         0.40         46.4 
      1157.0         0.30         47.7 
      1158.0         0.45         53.3 
      1159.0         0.33         53.3 
      1160.0         0.23         53.3 
      1161.0         0.13         57.2 
      1162.0         0.30         69.4 
      1163.0         0.40         71.2 
      1164.0         0.57         66.2 
      1165.0         0.73         43.8 
      1166.0         0.52         40.3 
      1167.0         0.57         88.7 
      1168.0         3.78        437.3 
      1169.0         0.70         67.5 
      1170.0         0.72         74.1 
      1171.0         0.60         73.8 
      1172.0         0.47         63.8 
      1173.0         0.43         92.9 
      1174.0         0.40         94.6 
      1175.0         0.40         76.8 
      1176.0         0.88         58.7 
      1177.0         0.40         47.6 
      1178.0         0.33         51.0 
      1179.0         0.40         53.5 
      1180.0         0.53         54.8 
      1181.0         0.50         54.6 
      1182.0         0.50         53.2 
      1183.0         0.58         53.4 
      1184.0         0.47         60.1 
      1185.0         0.43         61.6 
      1186.0         0.37         57.2 
      1187.0         0.40         49.4 
      1188.0         0.60         60.7 
      1189.0         0.53         59.9 
      1190.0         0.45         69.9 
      1191.0         0.60         71.7 
      1192.0         0.37         59.2 
      1193.0         0.50         53.0 
      1194.0         0.57         30.9 
      1195.0         0.40         42.9 
      1196.0         0.33         75.7 
      1197.0         0.23        106.1 
