~Version Information
VERS.                      2.0: CWLS Log ASCII Standard - VERSION 2.0
WRAP.                       NO: One line per depth step
~Well Information Block
STRT.FT               250.0000: 
STOP.FT              1687.7000: 
STEP.FT                 0.1000: 
NULL.                -999.2500: 
COMP.          Pioneer Natural Resources: COMPANY
WELL.          Moneypenny 31-36: WELL
FLD.           Purgatoire River: FIELD
LOC.           280' FNL & 1976' FEL: LOCATION
PROV.                 Colorado: PROVINCE
CNTY.               Las Animas: COUNTRY
SRVC.                Patterson: SERVICE COMPANY
DATE.          Fri Oct 01 13:54:40 2004: LOG DATE
UWI.           05 071 08183 00: UNIQUE WELL ID
~Curve Information Block
DEPT.FT            0 000 00 00: Depth
DCAL.in                       : CDL Caliper
RHOB.g/cc                     : CDL Bulk Density
RHOC.g/cc                     : CDL Density Correction
DPOR.pu                       : CDL Density Porosity
NPOR.pu                       : Neutron Porosity
GR.GAPI                       : Gamma Ray
~Parameter Information Block
~A  Depth       DCAL        RHOB        RHOC        DPOR        NPOR         GR     
# ...
  1286.8000      8.0784      2.4352      0.0135     13.0204     21.4800    152.1016
  1286.9000      8.0784      2.4233      0.0119     13.7418     21.5323    160.9825
  1287.0000      8.0873      2.4190      0.0010     13.9990     21.5477    170.5716
  1287.1000      8.0873      2.4092      0.0075     14.5961     21.1525    176.3284
  1287.2000      8.0873      2.3653      0.0402     17.2530     20.4463    169.1194
  1287.3000      8.0992      2.2734     -0.0178     22.8219     19.5445    150.5364
  1287.4000      8.0992      2.1625     -0.0457     29.5430     18.5177    135.6239
  1287.5000      8.1127      2.0527     -0.0546     36.1988     17.6082    133.2573
  1287.6000      8.1127      1.9349     -0.1035     43.3422     16.5964    136.4987
  1287.7000      8.1127      1.8193     -0.2173     50.3455     15.0077    138.0827
  1287.8000      8.1250      1.7242     -0.1719     56.1067     12.8244    140.3481
  1287.9000      8.1250      1.6395     -0.1519     61.2449     10.3934    141.6078
  1288.0000      8.1325      1.5606     -0.1258     66.0240      8.1832    135.0633
  1288.1000      8.1325      1.5041     -0.0947     69.4513      6.5524    123.6053
  1288.2000      8.1325      1.4810     -0.0585     70.8503      5.5799    116.4104
  1288.3000      8.1341      1.4990      0.0158     69.7547      5.1502    111.5182
  1288.4000      8.1341      1.5651      0.0479     65.7520      5.0462    102.5479
  1288.5000      8.1393      1.6786      0.1156     58.8745      5.0674     95.6230
  1288.6000      8.1393      1.8248      0.2256     50.0129      5.2724     97.2406
  1288.7000      8.1393      1.9690      0.3009     41.2733      5.7661    101.9455
  1288.8000      8.1516      2.0830      0.3363     34.3619      6.4544    106.2313
  1288.9000      8.1516      2.1781      0.3129     28.5977      7.2225    112.5621
  1289.0000      8.1564      2.2747      0.4019     22.7469      8.1967    118.7147
  1289.1000      8.1564      2.3593      0.4447     17.6193      9.4306    119.9070
  1289.2000      8.1564      2.4127      0.3776     14.3800     10.6049    117.5801
  1289.3000      8.1286      2.4442      0.1961     12.4744     11.5203    115.3118
  1289.4000      8.1286      2.4687      0.1709     10.9857     12.2832    112.4914
  1289.5000      8.0725      2.4892      0.1220      9.7481     12.9942    109.8826
  1289.6000      8.0725      2.5110      0.0969      8.4213     13.7319    111.1465
  1289.7000      8.0725      2.5349      0.1288      6.9778     14.5221    115.4363
  1289.8000      8.0355      2.5454      0.1369      6.3367     15.1598    119.0539
  1289.9000      8.0355      2.5394      0.0777      6.7028     15.4562    121.7361
  1290.0000      8.0265      2.5346      0.0957      6.9912     15.6124    125.1432
  1290.1000      8.0265      2.5365      0.0872      6.8801     15.6204    126.9149
  1290.2000      8.0265      2.5374      0.0470      6.8245     15.3548    125.6631
  1290.3000      8.0297      2.5389      0.0292      6.7361     15.3145    123.6657
  1290.4000      8.0297      2.5400      0.0780      6.6657     15.7566    121.9836
  1290.5000      8.0338      2.5298      0.0244      7.2839     16.2457    119.1686
  1290.6000      8.0338      2.5131     -0.0141      8.2953     16.5996    115.1641
  1290.7000      8.0338      2.5081     -0.0091      8.6026     16.9850    111.9241
  1290.8000      8.0330      2.5145      0.0151      8.2096     17.3429    108.1437
  1290.9000      8.0330      2.5250     -0.0201      7.5787     17.5327    103.4130
  1291.0000      8.0299      2.5374      0.0145      6.8239     17.7912    102.5426
  1291.1000      8.0299      2.5470     -0.0223      6.2432     18.3609    105.1407
  1291.2000      8.0299      2.5544      0.0099      5.7963     18.8525    104.3315
  1291.3000      8.0260      2.5627      0.0331      5.2904     18.7735     98.7759
  1291.4000      8.0260      2.5719      0.0520      4.7310     18.4117     93.1299
  1291.5000      8.0189      2.5708      0.0698      4.7972     18.3321     91.6774
  1291.6000      8.0189      2.5433      0.0118      6.4675     18.6051     92.0907
  1291.7000      8.0189      2.5091     -0.0363      8.5416     18.9384     91.2121
  1291.8000      8.0157      2.5098     -0.0468      8.4955     19.0914     91.8389
  1291.9000      8.0157      2.5470      0.0496      6.2413     19.2210     93.3813
  1292.0000      8.0235      2.5804      0.0847      4.2170     19.4724     92.5993
  1292.1000      8.0235      2.5813      0.0602      4.1651     19.5975     92.1881
  1292.2000      8.0235      2.5594      0.0295      5.4895     19.5691     94.2188
  1292.3000      8.0296      2.5424      0.0237      6.5241     19.5497     94.9161
  1292.4000      8.0296      2.5439      0.0443      6.4313     19.5856     93.3528
  1292.5000      8.0267      2.5580      0.0215      5.5766     19.7734     91.9295
  1292.6000      8.0267      2.5724      0.0838      4.7017     19.9114     91.8567
  1292.7000      8.0267      2.5778      0.0545      4.3777     19.8327     92.9571
  1292.8000      8.0236      2.5727      0.0610      4.6842     19.7189     91.2520
  1292.9000      8.0236      2.5634      0.0287      5.2479     19.6108     87.8633
  1293.0000      8.0258      2.5548      0.0360      5.7695     19.4193     89.8595
  1293.1000      8.0258      2.5510      0.0033      5.9992     19.1683     95.0797
  1293.2000      8.0258      2.5571      0.0184      5.6310     19.0751     97.6691
  1293.3000      8.0269      2.5639      0.0304      5.2152     19.1906    101.0309
  1293.4000      8.0269      2.5600      0.0133      5.4564     19.1275    105.8350
  1293.5000      8.0286      2.5494      0.0771      6.0958     18.7900    108.4373
  1293.6000      8.0286      2.5396      0.0381      6.6932     18.6184    111.1275
  1293.7000      8.0286      2.5368      0.0212      6.8611     18.7776    113.1083
  1293.8000      8.0318      2.5403      0.0576      6.6488     18.8833    109.8851
  1293.9000      8.0318      2.5410      0.0210      6.6059     18.7776    105.4019
  1294.0000      8.0326      2.5406      0.0551      6.6299     18.5717    104.6994
  1294.1000      8.0326      2.5478      0.0524      6.1915     18.4363    104.7241
  1294.2000      8.0326      2.5649      0.0539      5.1562     18.5607    102.5061
  1294.3000      8.0287      2.5836      0.0602      4.0272     18.8284     99.4139
  1294.4000      8.0287      2.5949      0.0488      3.3417     19.1999     95.4307
  1294.5000      8.0228      2.5934      0.0651      3.4295     19.6808     89.9815
  1294.6000      8.0228      2.5714      0.0832      4.7608     19.9475     86.0765
  1294.7000      8.0228      2.5385      0.0096      6.7546     19.9548     83.8598
  1294.8000      8.0244      2.5225      0.0352      7.7255     19.9821     81.4101
  1294.9000      8.0244      2.5306      0.0280      7.2347     20.1577     79.4925
  1295.0000      8.0308      2.5452      0.0288      6.3492     20.6070     80.6883
  1295.1000      8.0308      2.5510      0.0215      6.0009     21.1060     84.0410
  1295.2000      8.0308      2.5497      0.0224      6.0788     21.1215     83.9662
  1295.3000      8.0340      2.5537      0.0111      5.8360     20.6192     80.3030
  1295.4000      8.0340      2.5648      0.0706      5.1624     20.0764     79.0213
  1295.5000      8.0346      2.5732      0.0032      4.6542     19.8086     86.8305
  1295.6000      8.0346      2.5738      0.0588      4.6182     19.7339    101.4373
  1295.7000      8.0346      2.5641      0.0183      5.2034     19.5019    109.5510
  1295.8000      8.0375      2.5484      0.0421      6.1592     19.0525    105.0964
  1295.9000      8.0375      2.5396      0.0126      6.6936     18.6701     95.5458
  1296.0000      8.0414      2.5443      0.0144      6.4045     18.3907     89.1733
  1296.1000      8.0414      2.5488      0.0553      6.1350     18.1457     85.3336
  1296.2000      8.0414      2.5412      0.0265      6.5926     18.0490     81.1588
  1296.3000      8.0387      2.5359      0.0110      6.9158     18.3390     80.1628
