~Version Information
VERS.                      2.0: CWLS Log ASCII Standard - VERSION 2.0
WRAP.                       NO: One line per depth step
~Well Information Block
STRT.FT               710.0000: 
STOP.FT              2921.0000: 
STEP.FT                 0.1000: 
NULL.                -999.2500: 
COMP.          Petrogulf Corporation: COMPANY
WELL.            Montoya 1-41V: WELL
FLD.           Purgatorie River: FIELD
LOC.           610' FNL & 1205' FEL: LOCATION
PROV.                 Colorado: PROVINCE
CNTY.               Las Animas: COUNTRY
SRVC.                Patterson: SERVICE COMPANY
DATE.          Mon Aug 22 07:54:27 2005: LOG DATE
UWI.                          : UNIQUE WELL ID
~Curve Information Block
DEPT.FT            0 000 00 00: Depth
DCAL.in                       : CDL Caliper
RHOB.g/cc                     : CDL Bulk Density
RHOC.g/cc                     : CDL Density Correction
DPOR.pu                       : CDL Density Porosity
GR.GAPI                       : Gamma Ray
NPOR.pu                       : Neutron Porosity
~Parameter Information Block
~A  Depth       DCAL        RHOB        RHOC        DPOR         GR         NPOR    
# ...
  1295.6000      8.3369      2.2724      0.0949     22.8848    159.2175     26.8785
  1295.7000      8.3369      2.2091      0.0318     26.7235    162.3633     26.3046
  1295.8000      8.3180      2.1868      0.0740     28.0714    164.5837     26.1046
  1295.9000      8.3180      2.2209      0.2069     26.0078    161.7654     25.9798
  1296.0000      8.2866      2.2860      0.2201     22.0577    155.1091     25.7431
  1296.1000      8.2866      2.3672      0.2378     17.1367    149.6501     25.5376
  1296.2000      8.2866      2.4741      0.2870     10.6630    147.5351     25.4213
  1296.3000      8.2968      2.5944      0.5685      3.3710    147.8196     25.2552
  1296.4000      8.2968      2.6739      0.6581     -1.4483    149.0042     24.8773
  1296.5000      8.4752      2.6667      0.6479     -1.0106    149.8398     24.0649
  1296.6000      8.4752      2.5761      0.4367      4.4800    150.1426     22.9103
  1296.7000      8.4752      2.4497      0.2925     12.1420    151.4855     21.8427
  1296.8000      8.6248      2.3392      0.2295     18.8347    154.0862     21.0247
  1296.9000      8.6248      2.2737      0.2166     22.8031    156.7245     20.3416
  1297.0000      8.6579      2.2670      0.1886     23.2124    158.4117     19.6228
  1297.1000      8.6579      2.3171      0.2973     20.1776    158.2501     18.9264
  1297.2000      8.6579      2.3920      0.3822     15.6341    158.4669     18.5167
  1297.3000      8.6534      2.4539      0.4048     11.8851    160.5961     18.5780
  1297.4000      8.6534      2.4921      0.4686      9.5704    162.2385     19.0981
  1297.5000      8.9413      2.5197      0.4902      7.8996    162.4531     19.7924
  1297.6000      8.9413      2.5569      0.5004      5.6404    162.6387     20.4265
  1297.7000      8.9413      2.6061      0.4882      2.6627    163.2337     21.1110
  1297.8000      8.9794      2.6510      0.4128     -0.0579    163.8613     22.1325
  1297.9000      8.9794      2.6885      0.3419     -2.3310    163.6799     23.5326
  1298.0000      8.4012      2.7166      0.3798     -4.0385    159.5082     24.9154
  1298.1000      8.4012      2.7253      0.2946     -4.5612    150.9487     25.9773
  1298.2000      8.4012      2.7184      0.3414     -4.1434    144.8699     26.7763
  1298.3000      8.3914      2.7094      0.2968     -3.5979    145.4229     27.3522
  1298.4000      8.3914      2.7193      0.2474     -4.1993    149.6775     27.6544
  1298.5000      8.2384      2.7509      0.3068     -6.1135    153.8044     27.6477
  1298.6000      8.2384      2.7618      0.2993     -6.7738    155.1862     27.4517
  1298.7000      8.2384      2.7260      0.0398     -4.6075    154.3981     27.3881
  1298.8000      8.1683      2.6756     -0.0257     -1.5540    153.8015     27.5499
  1298.9000      8.1683      2.6457     -0.0410      0.2588    153.2305     27.7536
  1299.0000      8.1697      2.6394      0.0257      0.6443    152.2945     27.9061
  1299.1000      8.1697      2.6365      0.0609      0.8183    152.4743     28.0394
  1299.2000      8.1697      2.6192      0.0374      1.8640    152.8932     28.1397
  1299.3000      8.1660      2.5920      0.0185      3.5140    151.9401     28.1694
  1299.4000      8.1660      2.5659      0.0232      5.0967    150.0386     28.0707
  1299.5000      8.1880      2.5432      0.0032      6.4702    148.0562     27.7979
  1299.6000      8.1880      2.5317     -0.0214      7.1688    145.9161     27.5123
  1299.7000      8.1880      2.5366      0.0207      6.8701    144.6402     27.3996
  1299.8000      8.1984      2.5406      0.0731      6.6327    146.9557     27.2706
  1299.9000      8.1984      2.5352      0.0572      6.9574    151.3865     26.9199
  1300.0000      8.2163      2.5388      0.0617      6.7424    151.9928     26.5276
  1300.1000      8.2163      2.5548      0.1410      5.7718    148.8139     26.2872
  1300.2000      8.2163      2.5632      0.1661      5.2615    148.3744     26.0356
  1300.3000      8.2289      2.5604      0.1500      5.4330    151.7323     25.5696
  1300.4000      8.2289      2.5656      0.1407      5.1148    154.1620     25.1639
  1300.5000      8.2303      2.5910      0.1936      3.5745    154.1620     25.1984
  1300.6000      8.2303      2.6290      0.2378      1.2755    152.2722     25.5430
  1300.7000      8.2303      2.6639      0.2429     -0.8419    148.1957     25.8678
  1300.8000      8.2364      2.6896      0.2291     -2.4030    144.5770     26.0837
  1300.9000      8.2364      2.7132      0.2046     -3.8301    144.5790     26.3372
  1301.0000      8.2811      2.7375      0.2228     -5.3048    147.4508     26.7264
  1301.1000      8.2811      2.7571      0.1901     -6.4891    151.2711     26.9662
  1301.2000      8.2811      2.7739      0.1982     -7.5113    152.7777     26.9917
  1301.3000      8.2842      2.7965      0.1504     -8.8799    149.1843     27.1333
  1301.4000      8.2842      2.8240      0.1049    -10.5437    142.0420     27.3865
  1301.5000      8.2465      2.8392      0.1313    -11.4673    137.1419     27.4471
  1301.6000      8.2465      2.8270      0.1041    -10.7288    136.9502     27.2109
  1301.7000      8.2465      2.7947      0.1068     -8.7693    137.8754     26.9828
  1301.8000      8.1950      2.7567      0.0561     -6.4667    139.7063     27.0170
  1301.9000      8.1950      2.7165      0.0346     -4.0304    144.9913     27.2159
  1302.0000      8.1899      2.6760     -0.0137     -1.5769    152.1876     27.3468
  1302.1000      8.1899      2.6388     -0.0751      0.6777    156.8865     27.2069
  1302.2000      8.1899      2.6008     -0.0582      2.9810    156.6204     26.8216
  1302.3000      8.1996      2.5675     -0.0722      4.9971    152.4828     26.3628
  1302.4000      8.1996      2.5538     -0.0443      5.8298    147.9438     25.9869
  1302.5000      8.2066      2.5512      0.0061      5.9864    147.0477     25.7527
  1302.6000      8.2066      2.5442      0.0308      6.4116    147.8394     25.6381
  1302.7000      8.2066      2.5460     -0.0125      6.3042    147.3388     25.6061
  1302.8000      8.2232      2.5666      0.0747      5.0537    148.1877     25.5777
  1302.9000      8.2232      2.5807      0.1210      4.1970    151.4162     25.4179
  1303.0000      8.2473      2.5741      0.0459      4.6005    154.9264     25.1490
  1303.1000      8.2473      2.5732      0.0197      4.6531    157.7121     25.1319
  1303.2000      8.2473      2.5969      0.0791      3.2169    159.2220     25.5882
  1303.3000      8.2505      2.6239      0.0901      1.5822    157.9186     26.1710
  1303.4000      8.2505      2.6296      0.1072      1.2382    153.9955     26.4288
  1303.5000      8.2484      2.6205      0.0757      1.7863    149.4476     26.3684
  1303.6000      8.2484      2.6135      0.0743      2.2104    146.0078     26.2112
  1303.7000      8.2484      2.6044      0.0784      2.7615    143.8520     26.0792
  1303.8000      8.2214      2.5853      0.0204      3.9186    142.9501     25.9373
  1303.9000      8.2214      2.5620      0.0527      5.3307    143.6534     25.6565
  1304.0000      8.2031      2.5454     -0.0226      6.3421    144.7579     25.3337
  1304.1000      8.2031      2.5453     -0.0105      6.3464    146.5416     25.2157
  1304.2000      8.2031      2.5569      0.0344      5.6418    148.4734     25.3273
  1304.3000      8.2213      2.5654      0.0562      5.1243    147.1481     25.5109
  1304.4000      8.2213      2.5631      0.0791      5.2671    143.7828     25.5611
  1304.5000      8.2588      2.5536      0.0622      5.8397    142.8102     25.4541
  1304.6000      8.2588      2.5467      0.0249      6.2602    143.2878     25.4221
  1304.7000      8.2588      2.5447      0.0628      6.3801    143.7422     25.5624
  1304.8000      8.2645      2.5437      0.0192      6.4442    145.1269     25.7839
  1304.9000      8.2645      2.5418      0.0637      6.5561    145.7210     25.8604
  1305.0000      8.2709      2.5402      0.0639      6.6574    145.0999     25.6268
  1305.1000      8.2709      2.5456      0.0348      6.3267    144.5369     25.3476
