~Version Information
VERS.                      2.0: CWLS Log ASCII Standard - VERSION 2.0
WRAP.                       NO: One line per depth step
~Well Information Block
STRT.FT                -7.5000: 
STOP.FT              1877.2500: 
STEP.FT                 0.2500: 
NULL.                -999.2500: 
COMP.          Pioneer Natural Resources: COMPANY
WELL.            Nova 11-14 Tr: WELL
FLD.           Purgatorie River: FIELD
LOC.           706' FNL & 1109' FWL--: LOCATION
PROV.                       CO: PROVINCE
CNTY.               Las Animas: COUNTRY
SRVC.          Patterson Wireline: SERVICE COMPANY
DATE.          Tue Jul 26 15:08:01 2005: LOG DATE
UWI.           05 071 08434 00: UNIQUE WELL ID
~Curve Information Block
DEPT.FT            0 000 00 00: Depth
CCL.                          : Casing Collar Locator
TT3.usec                      : CBL 3' Travel Time
AMP3.mV                       : CBL 3' Amplitude
GR.GAPI                       : Gamma Ray
~Parameter Information Block
~A  Depth       CCL         TT3         AMP3         GR     
# ...
   863.5000      0.0000    866.5414      9.5275    105.2076
   863.7500      0.0000    851.9673     10.3231     99.6485
   864.0000      0.0000    838.8339     10.9835     93.0526
   864.2500      0.0000    827.3860     11.4601     86.2408
   864.5000      0.0000    818.5159     11.7550     80.9934
   864.7500      0.0000    812.5071     11.8992     78.6643
   865.0000      0.0000    807.9237     11.9309     79.3347
   865.2500      0.0000    802.6375     11.8824     82.3436
   865.5000      0.0000    796.4281     11.7747     87.1396
   865.7500      0.0000    791.8159     11.6125     93.3510
   866.0000      0.0000    791.8314     11.3940    100.5429
   866.2500      0.0000    797.6005     11.1327    108.4712
   866.5000      0.0000    807.9832     10.8681    117.1350
   866.7500      0.0000    820.3618     10.6489    125.7554
   867.0000      0.0000    831.6493     10.5095    131.9138
   867.2500      0.0000    839.6713     10.4571    132.7417
   867.5000      0.0000    844.0714     10.4692    127.3166
   867.7500      0.0000    845.7842     10.5018    117.6037
   868.0000      0.0000    845.8107     10.5100    107.2699
   868.2500      0.0000    844.4718     10.4698     99.8790
   868.5000      0.0000    841.5934     10.3833     97.5070
   868.7500      0.0000    837.3568     10.2719    100.0124
   869.0000      0.0000    833.0734     10.1675    105.3242
   869.2500      0.0000    830.6432     10.1037    110.7552
   869.5000      0.0000    830.6591     10.1043    114.5670
   869.7500      0.0000    831.3857     10.1723    116.6582
   870.0000      0.0000    830.3425     10.2890    117.9345
   870.2500      0.0000    826.8109     10.4218    119.2732
   870.5000      0.0000    822.3484     10.5371    121.3201
   870.7500      0.0000    819.1102     10.6134    124.6005
   871.0000      0.0000    818.2783     10.6479    128.8318
   871.2500      0.0000    819.9214     10.6540    132.4119
   871.5000      0.0000    823.5555     10.6509    133.5764
   871.7500      0.0000    828.4745     10.6546    132.0840
   872.0000      0.0000    833.7884     10.6748    129.3902
   872.2500      0.0000    838.4955     10.7143    127.4572
   872.5000      0.0000    841.8369     10.7695    127.5398
   872.7500      0.0000    843.6009     10.8342    129.5508
   873.0000      0.0000    843.9468     10.9048    132.2561
   873.2500      0.0000    842.9208     10.9769    134.3407
   873.5000      0.0000    840.3365     11.0379    135.4761
   873.7500      0.0000    836.4216     11.0685    136.2178
   874.0000      0.0000    832.5746     11.0566    136.9239
   874.2500      0.0000    830.9050     11.0084    137.2594
   874.5000      0.0000    832.4701     10.9425    136.9220
   874.7500      0.0000    836.1732     10.8758    136.1807
   875.0000      0.0000    839.7607     10.8156    135.3478
   875.2500      0.0000    841.5622     10.7669    134.2231
   875.5000      0.0000    841.1503     10.7394    132.4929
   875.7500      0.0000    839.1038     10.7425    130.3712
   876.0000      0.0000    836.7485     10.7741    128.5557
   876.2500      0.0000    835.6434     10.8183    127.6224
   876.5000      0.0000    836.5489     10.8601    127.4886
   876.7500      0.0000    838.8494     10.9015    127.4052
   877.0000      0.0000    841.2526     10.9625    126.5928
   877.2500      0.0000    842.9049     11.0622    124.9781
   877.5000      0.0000    843.7003     11.1980    123.4827
   877.7500      0.0000    843.7692     11.3407    123.6282
   878.0000      0.0000    842.9243     11.4513    126.2898
   878.2500      0.0000    840.6093     11.5067    130.4540
   878.5000      0.0000    836.5371     11.5117    133.8174
   878.7500      0.0000    831.6373     11.4874    135.0885
   879.0000      0.0000    828.1579     11.4525    135.1584
   879.2500      0.0000    828.1493     11.4123    135.6620
   879.5000      0.0000    831.6277     11.3630    137.2436
   879.7500      0.0000    836.5854     11.3020    139.5953
   880.0000      0.0000    840.8241     11.2337    142.1608
   880.2500      0.0000    843.4302     11.1658    144.1001
   880.5000      0.0000    844.6672     11.1022    144.4012
   880.7500      0.0000    845.1183     11.0396    142.9568
   881.0000      0.0000    845.1852     10.9699    141.2196
   881.2500      0.0000    845.0789     10.8887    140.9085
   881.5000      0.0000    844.9247     10.8015    141.9190
   881.7500      0.0000    844.7864     10.7230    142.0855
   882.0000      0.0000    844.6571     10.6696    139.2014
   882.2500      0.0000    844.4890     10.6506    132.8648
   882.5000      0.0000    844.1867     10.6622    124.4219
   882.7500      0.0000    843.4586     10.6862    115.9100
   883.0000      0.0000    841.5962     10.6984    109.3380
   883.2500      0.0000    837.5552     10.6818    106.3698
   883.5000      0.0000    830.7878     10.6310    107.8613
   883.7500      0.0000    822.4584     10.5434    113.1648
   884.0000      0.0000    815.3569     10.4110    119.8727
   884.2500      0.0000    811.6054     10.2298    124.7698
   884.5000      0.0000    810.6585     10.0159    125.7211
   884.7500      0.0000    810.7459      9.8071    122.8726
   885.0000      0.0000    811.9600      9.6427    117.8897
   885.2500      0.0000    816.2090      9.5380    112.3432
   885.5000      0.0000    824.1368      9.4781    107.2544
   885.7500      0.0000    833.8871      9.4355    103.6297
   886.0000      0.0000    843.4083      9.4002    102.2124
   886.2500      0.0000    852.6172      9.3985    102.5254
   886.5000      0.0000    862.3338      9.4834    102.9506
   886.7500      0.0000    871.5404      9.7047    102.0791
   887.0000      0.0000    876.8470     10.0799     99.7518
   887.2500      0.0000    875.4291     10.5855     96.8726
   887.5000      0.0000    868.0427     11.1674     94.6503
   887.7500      0.0000    858.2400     11.7551     94.0083
   888.0000      0.0000    848.9386     12.2661     95.0834
   888.2500      0.0000    840.5706     12.6086     96.7708
   888.5000      0.0000    832.1834     12.7046     97.0477
   888.7500      0.0000    823.4104     12.5291     94.5584
   889.0000      0.0000    815.4685     12.1309     90.1152
   889.2500      0.0000    811.2742     11.6144     86.0873
   889.5000      0.0000    814.9960     11.1003     84.2516
   889.7500      0.0000    831.0660     10.6856     84.6128
   890.0000      0.0000    862.8025     10.4126     85.8301
   890.2500      0.0000    910.4930     10.2632     85.9545
   890.5000      0.0000    968.9061     10.1876     83.2563
   890.7500      0.0000   1026.1189     10.1437     77.5367
   891.0000      0.0000   1066.8374     10.1225     70.8240
   891.2500      0.0000   1079.6643     10.1616     66.4442
   891.5000      0.0000   1062.6901     10.3458     67.4148
   891.7500      0.0000   1023.1537     10.7797     75.1075
   892.0000      0.0000    972.6050     11.5427     88.3604
   892.2500      0.0000    921.5644     12.6621    103.7473
   892.5000      0.0000    875.8073     14.1017    117.4702
   892.7500      0.0000    835.6211     15.7374    127.4567
   893.0000      0.0000    799.5875     17.3367    133.7041
   893.2500      0.0000    770.4423     18.6061    136.7480
   893.5000      0.0000    755.2364     19.3059    136.0896
   893.7500      0.0000    757.8499     19.3497    130.3102
   894.0000      0.0000    773.4274     18.8239    119.0504
   894.2500      0.0000    792.1434     17.9320    104.8362
   894.5000      0.0000    806.6249     16.9035     92.3730
   894.7500      0.0000    814.8156     15.9053     85.5736
   895.0000      0.0000    818.2609     15.0031     85.2634
   895.2500      0.0000    819.4496     14.1939     89.6854
   895.5000      0.0000    819.9497     13.4712     96.6917
   895.7500      0.0000    819.9720     12.8552    104.9606
   896.0000      0.0000    819.3195     12.3736    113.4792
   896.2500      0.0000    818.3433     12.0336    120.8959
   896.5000      0.0000    817.7275     11.8143    125.9585
   896.7500      0.0000    817.9807     11.6789    128.4481
