~Version Information
VERS.                      2.0: CWLS Log ASCII Standard - VERSION 2.0
WRAP.                       NO: One line per depth step
~Well Information Block
STRT.FT               590.0000: 
STOP.FT              1563.5000: 
STEP.FT                 0.1000: 
NULL.                -999.2500: 
COMP.          Petrogulf Corporation: COMPANY
WELL.             State 16-43R: WELL
FLD.           Purgatorie River: FIELD
LOC.           2538' FSL & 716' FEL: LOCATION
PROV.                 Colorado: PROVINCE
CNTY.               Las Animas: COUNTRY
SRVC.                Patterson: SERVICE COMPANY
DATE.          Tue Aug 09 14:21:37 2005: LOG DATE
UWI.                          : UNIQUE WELL ID
~Curve Information Block
DEPT.FT            0 000 00 00: Depth
DCAL.in                       : CDL Caliper
RHOB.g/cc                     : CDL Bulk Density
RHOC.g/cc                     : CDL Density Correction
DPOR.pu                       : CDL Density Porosity
GR.GAPI                       : Gamma Ray
NPOR.pu                       : Neutron Porosity
~Parameter Information Block
~A  Depth       DCAL        RHOB        RHOC        DPOR         GR         NPOR    
# ...
   657.2000      7.9798      2.5985      0.0659      3.1213    133.4921     29.5354
   657.3000      7.9537      2.5918      0.0727      3.5285    131.6367     29.3851
   657.4000      7.9537      2.5792      0.0357      4.2911    133.1855     29.4284
   657.5000      7.9284      2.5661      0.0164      5.0863    136.8026     29.5007
   657.6000      7.9284      2.5571      0.0961      5.6301    138.5401     29.3004
   657.7000      7.9284      2.5474      0.0633      6.2162    139.5246     28.8341
   657.8000      7.9280      2.5338      0.0700      7.0395    141.8604     28.5170
   657.9000      7.9280      2.5160      0.0904      8.1206    143.6129     28.3601
   658.0000      7.9355      2.5015      0.0360      8.9975    143.8217     28.0291
   658.1000      7.9355      2.4985      0.0816      9.1824    143.6745     27.6294
   658.2000      7.9355      2.5003      0.0538      9.0716    144.1860     27.3666
   658.3000      7.9260      2.5008      0.0489      9.0417    146.1042     27.1769
   658.4000      7.9260      2.4985      0.0994      9.1794    149.0392     27.1908
   658.5000      7.9315      2.4935      0.0712      9.4855    150.7370     27.5683
   658.6000      7.9315      2.4937      0.0429      9.4722    149.6002     28.0145
   658.7000      7.9315      2.5047      0.0622      8.8072    146.7895     28.2889
   658.8000      7.8620      2.5186      0.1027      7.9637    145.3262     28.6364
   658.9000      7.8620      2.5302      0.0305      7.2592    147.1592     29.1529
   659.0000      7.8540      2.5457      0.0482      6.3183    149.5162     29.4000
   659.1000      7.8540      2.5649      0.0841      5.1553    149.3956     29.2743
   659.2000      7.8540      2.5805      0.0819      4.2120    147.5678     29.2456
   659.3000      7.8449      2.5893      0.1154      3.6772    145.4767     29.5596
   659.4000      7.8449      2.5930      0.0847      3.4567    143.0741     30.1138
   659.5000      7.8222      2.5963      0.0527      3.2526    139.1253     30.4674
   659.6000      7.8222      2.5959      0.0622      3.2788    133.1202     30.2826
   659.7000      7.8222      2.5836      0.0449      4.0250    126.5205     29.7640
   659.8000      7.8154      2.5694      0.0008      4.8872    121.9702     29.3401
   659.9000      7.8154      2.5703      0.0304      4.8283    121.5515     29.2526
   660.0000      7.8344      2.5822      0.0648      4.1109    123.7835     29.3891
   660.1000      7.8344      2.5934      0.0583      3.4314    125.8998     29.5177
   660.2000      7.8344      2.6057      0.0718      2.6851    127.4550     29.5508
   660.3000      7.8369      2.6173      0.0973      1.9829    128.7297     29.4607
   660.4000      7.8369      2.6156      0.0992      2.0847    131.0491     29.2301
   660.5000      7.8266      2.5987      0.0517      3.1118    134.2440     28.9219
   660.6000      7.8266      2.5874      0.0073      3.7912    135.2440     28.6113
   660.7000      7.8266      2.5998      0.0480      3.0448    134.3859     28.4813
   660.8000      7.8254      2.6220      0.0997      1.6959    133.7639     28.4965
   660.9000      7.8254      2.6326      0.0683      1.0537    132.4551     28.3263
   661.0000      7.8270      2.6286      0.0887      1.2981    131.4504     28.0821
   661.1000      7.8270      2.6138      0.0603      2.1944    134.6821     28.1005
   661.2000      7.8270      2.5920      0.0216      3.5151    140.1613     28.2660
   661.3000      7.8261      2.5696      0.0434      4.8707    141.3921     28.3397
   661.4000      7.8261      2.5590      0.0014      5.5179    136.9960     28.3991
   661.5000      7.7968      2.5742      0.0315      4.5967    130.8771     28.5446
   661.6000      7.7968      2.6092      0.0656      2.4704    126.2477     28.6838
   661.7000      7.7968      2.6416      0.0916      0.5094    123.7431     28.7384
   661.8000      7.7830      2.6634      0.0787     -0.8138    122.0070     28.8367
   661.9000      7.7830      2.6847      0.1159     -2.1018    119.7035     29.1245
   662.0000      7.8216      2.7008      0.1467     -3.0807    118.0625     29.4489
   662.1000      7.8216      2.6970      0.1171     -2.8458    117.1337     29.6311
   662.2000      7.8216      2.6814      0.0712     -1.9027    114.2546     29.7382
   662.3000      7.8172      2.6734      0.0605     -1.4175    109.8484     29.7066
   662.4000      7.8172      2.6715      0.1113     -1.3049    107.7303     29.2672
   662.5000      7.8069      2.6693      0.0388     -1.1680    108.8593     28.5930
   662.6000      7.8069      2.6695      0.0990     -1.1796    109.5285     28.3329
   662.7000      7.8069      2.6642      0.1185     -0.8630    107.5499     28.6231
   662.8000      7.7895      2.6471      0.0551      0.1756    106.3970     28.8810
   662.9000      7.7895      2.6286      0.0544      1.2952    108.5047     28.6291
   663.0000      7.7997      2.6180      0.0064      1.9403    110.6967     28.0758
   663.1000      7.7997      2.6164      0.0548      2.0359    111.6913     27.7213
   663.2000      7.7997      2.6174      0.0597      1.9745    114.5448     27.5167
   663.3000      7.7999      2.6130      0.0568      2.2451    119.0045     27.2166
   663.4000      7.7999      2.6045      0.0261      2.7593    121.1095     26.8250
   663.5000      7.8073      2.5963      0.0451      3.2552    120.4646     26.3680
   663.6000      7.8073      2.5886      0.0930      3.7189    119.5840     25.8175
   663.7000      7.8073      2.5810      0.0293      4.1805    119.5802     25.1715
   663.8000      7.8070      2.5767      0.0455      4.4401    120.7655     24.5669
   663.9000      7.8070      2.5791      0.0317      4.2967    124.2701     24.2694
   664.0000      7.8074      2.5849      0.0657      3.9456    129.9485     24.4785
   664.1000      7.8074      2.5856      0.0615      3.9047    134.4668     25.1423
   664.2000      7.8074      2.5778      0.0801      4.3746    137.0153     26.0805
   664.3000      7.8133      2.5627      0.0798      5.2893    140.6271     26.9491
   664.4000      7.8133      2.5502      0.0169      6.0513    146.5726     27.3676
   664.5000      7.8281      2.5569      0.0371      5.6395    152.4977     27.5867
   664.6000      7.8281      2.5790      0.0649      4.3017    155.0174     28.1450
   664.7000      7.8281      2.5983      0.0358      3.1320    153.1407     28.8957
   664.8000      7.8276      2.6121      0.0774      2.2968    148.1638     29.5770
   664.9000      7.8276      2.6208      0.0639      1.7696    142.8418     30.4168
   665.0000      7.8208      2.6174      0.0757      1.9772    142.0305     31.3698
   665.1000      7.8208      2.6007      0.0470      2.9903    145.9428     31.8662
   665.2000      7.8208      2.5893     -0.0035      3.6806    148.8391     31.7932
   665.3000      7.8286      2.6024      0.0151      2.8824    150.3238     31.5949
   665.4000      7.8286      2.6282      0.0640      1.3196    151.9861     31.5303
   665.5000      7.8261      2.6444      0.0395      0.3403    149.8006     31.5618
   665.6000      7.8261      2.6513      0.0363     -0.0785    142.7744     31.6474
   665.7000      7.8261      2.6606      0.0642     -0.6420    134.6098     31.8094
   665.8000      7.8153      2.6725      0.1210     -1.3633    127.7050     32.0492
   665.9000      7.8153      2.6807      0.1029     -1.8606    124.0206     32.2666
   666.0000      7.7975      2.6844      0.1027     -2.0849    124.8657     32.1425
   666.1000      7.7975      2.6827      0.1133     -1.9830    127.6858     31.7629
   666.2000      7.7975      2.6770      0.0789     -1.6338    128.2508     31.6392
   666.3000      7.8165      2.6769      0.0552     -1.6307    125.6335     31.8799
   666.4000      7.8165      2.6833      0.0536     -2.0180    123.1602     32.1278
   666.5000      7.8153      2.6811      0.0798     -1.8860    122.9342     31.9894
   666.6000      7.8153      2.6685      0.0013     -1.1233    122.9581     31.4840
   666.7000      7.8153      2.6570      0.0526     -0.4247    122.9666     31.0497
