~Version Information
VERS.                      2.0: CWLS Log ASCII Standard - VERSION 2.0
WRAP.                       NO: One line per depth step
~Well Information Block
STRT.FT               710.0000: 
STOP.FT              2304.5000: 
STEP.FT                 0.2500: 
NULL.                -999.2500: 
COMP.          Pioneer Natural Resources: COMPANY
WELL.           Ogallela 44-12: WELL
FLD.           Purgatoire River: FIELD
LOC.           610' FSL & 671' FEL: LOCATION
PROV.                 Colorado: PROVINCE
CNTY.               Las Animas: COUNTRY
SRVC.                Patterson: SERVICE COMPANY
DATE.          Wed Feb 23 00:14:59 2005: LOG DATE
UWI.           05 071 08283 00: UNIQUE WELL ID
~Curve Information Block
DEPT.FT            0 000 00 00: Depth
SN.Ohm-m                      : IEL Short Normal
SP.mV                         : IEL Spontaneous Potential
DIR.Ohm-m                     : IEL Induction Resistivity
GR.GAPI                       : Gamma Ray
~Parameter Information Block
~A  Depth        SN          SP         DIR          GR     
# ...
  1849.0000     27.8330    -40.9941     23.5913     51.9989
  1849.2500     27.0916    -40.8715     23.3029     60.7847
  1849.5000     26.3486    -40.5723     23.1432     75.7229
  1849.7500     25.6613    -40.1697     23.0735     85.5570
  1850.0000     25.0576    -39.7744     23.0452     98.9529
  1850.2500     24.5616    -39.4807     23.0108    106.7743
  1850.5000     24.2116    -39.3216     22.9385    116.2456
  1850.7500     24.0481    -39.2659     22.8252    120.3180
  1851.0000     24.0710    -39.2511     22.6955    121.8894
  1851.2500     24.2045    -39.2194     22.5837    119.9410
  1851.5000     24.3649    -39.1363     22.5133    114.1618
  1851.7500     24.5585    -38.9943     22.4895    109.7208
  1852.0000     24.8259    -38.8117     22.5111    103.5364
  1852.2500     25.1247    -38.6316     22.5881     99.7206
  1852.5000     25.3588    -38.5137     22.7462     93.7003
  1852.7500     25.5019    -38.5150     23.0121     89.0227
  1853.0000     25.6293    -38.6665     23.3883     80.4711
  1853.2500     25.8291    -38.9647     23.8361     73.7375
  1853.5000     26.1222    -39.3801     24.2824     62.9452
  1853.7500     26.4555    -39.8730     24.6517     56.1976
  1854.0000     26.7353    -40.4050     24.9018     48.1796
  1854.2500     26.8948    -40.9500     25.0342     44.5738
  1854.5000     26.9452    -41.5020     25.0676     41.3449
  1854.7500     26.9591    -42.0697     25.0024     40.0792
  1855.0000     27.0161    -42.6564     24.8126     38.7010
  1855.2500     27.1426    -43.2394     24.4674     37.9581
  1855.5000     27.2808    -43.7681     23.9633     37.2711
  1855.7500     27.3034    -44.1805     23.3399     37.3739
  1856.0000     27.0593    -44.4244     22.6711     39.1253
  1856.2500     26.4479    -44.4677     22.0346     41.9096
  1856.5000     25.4828    -44.2941     21.4773     49.4446
  1856.7500     24.2787    -43.8968     20.9995     57.1702
  1857.0000     22.9861    -43.2856     20.5711     73.2035
  1857.2500     21.7452    -42.5061     20.1682     86.4228
  1857.5000     20.6676    -41.6495     19.7969    107.3490
  1857.7500     19.8173    -40.8340     19.4862    119.4243
  1858.0000     19.2000    -40.1636     19.2608    129.8601
  1858.2500     18.7873    -39.6905     19.1253    129.6009
  1858.5000     18.5602    -39.4033     19.0671    117.8006
  1858.7500     18.5396    -39.2408     19.0678    104.2748
  1859.0000     18.7787    -39.1160     19.1091     81.7186
  1859.2500     19.3136    -38.9439     19.1747     68.8025
  1859.5000     20.1167    -38.6744     19.2542     55.9094
  1859.7500     21.0886    -38.3174     19.3498     51.5233
  1860.0000     22.0796    -37.9326     19.4742     49.3395
  1860.2500     22.9497    -37.5809     19.6356     49.8700
  1860.5000     23.6420    -37.2783     19.8168     53.0897
  1860.7500     24.1749    -36.9942     19.9695     56.7522
  1861.0000     24.5580    -36.6838     20.0311     63.9200
  1861.2500     24.7413    -36.3149     19.9585     69.2607
  1861.5000     24.6469    -35.8750     19.7539     77.5470
  1861.7500     24.2244    -35.3703     19.4599     83.4056
  1862.0000     23.4673    -34.8277     19.1265     93.4714
  1862.2500     22.4255    -34.2920     18.7787    101.2829
  1862.5000     21.2309    -33.8118     18.4083    113.8547
  1862.7500     20.0470    -33.4215     17.9939    121.6362
  1863.0000     18.9584    -33.1316     17.5262    130.3855
  1863.2500     17.9486    -32.9332     17.0152    133.8822
  1863.5000     16.9837    -32.8093     16.4785    136.6890
  1863.7500     16.0864    -32.7462     15.9276    137.9682
  1864.0000     15.3281    -32.7369     15.3687    140.0086
  1864.2500     14.7698    -32.7751     14.8160    141.2845
  1864.5000     14.4214    -32.8482     14.3006    142.1883
  1864.7500     14.2494    -32.9365     13.8646    141.8385
  1865.0000     14.2038    -33.0228     13.5447    140.3133
  1865.2500     14.2331    -33.1019     13.3600    139.2812
  1865.5000     14.2995    -33.1846     13.3110    138.9108
  1865.7500     14.3973    -33.2943     13.3863    139.6832
  1866.0000     14.5461    -33.4580     13.5706    141.1153
  1866.2500     14.7689    -33.6931     13.8467    140.6950
  1866.5000     15.0940    -33.9987     14.1935    135.4886
  1866.7500     15.5673    -34.3571     14.5835    128.4155
  1867.0000     16.2430    -34.7427     14.9859    113.2848
  1867.2500     17.1791    -35.1298     15.3772    101.3990
  1867.5000     18.4692    -35.4979     15.7551     83.4286
  1867.7500     20.2308    -35.8354     16.1485     72.8208
  1868.0000     22.4855    -36.1397     16.6120     60.8696
  1868.2500     25.0454    -36.4106     17.2057     56.0926
  1868.5000     27.5320    -36.6380     17.9696     53.9133
  1868.7500     29.5298    -36.7926     18.9071     55.8171
  1869.0000     30.7869    -36.8330     19.9826     63.6613
  1869.2500     31.2988    -36.7300     21.1321     71.5798
  1869.5000     31.2062    -36.4942     22.2783     84.3532
  1869.7500     30.6701    -36.1857     23.3493     90.7750
  1870.0000     29.8604    -35.8974     24.2934     93.3832
  1870.2500     28.9935    -35.7247     25.0770     89.7432
  1870.5000     28.3051    -35.7349     25.6639     78.1338
  1870.7500     27.9396    -35.9495     26.0007     68.5246
  1871.0000     27.8571    -36.3415     26.0387     55.1074
  1871.2500     27.8659    -36.8484     25.7789     48.2380
  1871.5000     27.7711    -37.3942     25.2909     41.6251
  1871.7500     27.5085    -37.9102     24.6823     39.2430
  1872.0000     27.1457    -38.3443     24.0574     37.7455
  1872.2500     26.7793    -38.6602     23.4976     37.9328
  1872.5000     26.4503    -38.8351     23.0605     40.4557
  1872.7500     26.1295    -38.8630     22.7770     44.0362
  1873.0000     25.7584    -38.7603     22.6420     52.0605
  1873.2500     25.3177    -38.5706     22.6107     58.0373
  1873.5000     24.8573    -38.3605     22.6124     64.4307
  1873.7500     24.4614    -38.2043     22.5794     64.9981
  1874.0000     24.1939    -38.1549     22.4748     59.4507
  1874.2500     24.0615    -38.2144     22.2978     53.0103
  1874.5000     24.0056    -38.3276     22.0693     43.7297
  1874.7500     23.9380    -38.4092     21.8156     39.9262
  1875.0000     23.7989    -38.3854     21.5644     38.8195
  1875.2500     23.5837    -38.2250     21.3519     40.4776
  1875.5000     23.3066    -37.9445     21.2237     44.9731
  1875.7500     22.9624    -37.5928     21.2220     48.8566
  1876.0000     22.5481    -37.2269     21.3624     56.1423
  1876.2500     22.1038    -36.8914     21.6140     62.1431
  1876.5000     21.7149    -36.6152     21.8992     72.4178
  1876.7500     21.4715    -36.4225     22.1250     79.1920
  1877.0000     21.4047    -36.3432     22.2359     86.7525
  1877.2500     21.4652    -36.4076     22.2414     88.5798
  1877.5000     21.5960    -36.6291     22.1922     85.1500
  1877.7500     21.8264    -36.9935     22.1296     79.0623
  1878.0000     22.2552    -37.4668     22.0565     66.3543
  1878.2500     22.9266    -38.0112     21.9560     57.0992
  1878.5000     23.7425    -38.5908     21.8320     44.5165
  1878.7500     24.5009    -39.1645     21.7338     38.0962
  1879.0000     25.0138    -39.6813     21.7381     32.4685
  1879.2500     25.2009    -40.0895     21.9000     31.3021
  1879.5000     25.1059    -40.3529     22.2055     32.1340
  1879.7500     24.8422    -40.4645     22.5594     33.4178
  1880.0000     24.5022    -40.4442     22.8201     35.3341
  1880.2500     24.1050    -40.3233     22.8683     36.5598
  1880.5000     23.6194    -40.1286     22.6635     38.9885
  1880.7500     23.0251    -39.8762     22.2459     41.3915
  1881.0000     22.3553    -39.5781     21.6955     45.9530
  1881.2500     21.6711    -39.2546     21.0894     48.8186
  1881.5000     21.0010    -38.9419     20.4841     50.9757
  1881.7500     20.3467    -38.6863     19.9168     50.2797
  1882.0000     19.7301    -38.5234     19.4096     46.2730
  1882.2500     19.1955    -38.4583     18.9662     42.4705
