~Version Information
VERS.                      2.0: CWLS Log ASCII Standard - VERSION 2.0
WRAP.                       NO: One line per depth step
~Well Information Block
STRT.FT               580.0000: 
STOP.FT              1756.0000: 
STEP.FT                 0.1000: 
NULL.                -999.2500: 
COMP.          Pioneer Natural Resources: COMPANY
WELL.          Lookout Point 31-23 Tr: WELL
FLD.           Purgatoire River: FIELD
LOC.           541' FNL & 1768' FEL: LOCATION
PROV.                 Colorado: PROVINCE
CNTY.               Las Animas: COUNTRY
SRVC.                Patterson: SERVICE COMPANY
DATE.          Mon Jan 24 07:20:20 2005: LOG DATE
UWI.           05 071 08260 00: UNIQUE WELL ID
~Curve Information Block
DEPT.FT            0 000 00 00: Depth
DCAL.in                       : CDL Caliper
DPOR.pu                       : CDL Density Porosity
GR.GAPI                       : Gamma Ray
NPOR.pu                       : Neutron Porosity
RHOB.g/cc                     : CDL Bulk Density
RHOC.g/cc                     : CDL Density Correction
~Parameter Information Block
~A  Depth       DCAL        DPOR         GR         NPOR        RHOB        RHOC    
# ...
  1415.2000      7.7928     10.5110    166.9475     23.5403      2.4766     -0.0018
  1415.3000      7.7765      9.5960    163.5874     23.0579      2.4917      0.0014
  1415.4000      7.7765      8.4988    164.0984     22.8237      2.5098      0.0261
  1415.5000      7.7636      8.1965    167.6242     22.6857      2.5148      0.0825
  1415.6000      7.7636      8.9786    173.0210     22.5634      2.5019      0.0416
  1415.7000      7.7636     10.1961    177.9814     23.0507      2.4818      0.0146
  1415.8000      7.7673     11.0441    181.6740     24.0295      2.4678      0.0151
  1415.9000      7.7673     11.2678    187.1750     24.2915      2.4641      0.0313
  1416.0000      7.7746     11.0247    191.5958     23.2851      2.4681      0.0082
  1416.1000      7.7746     10.5160    188.4096     21.9732      2.4765      0.0310
  1416.2000      7.7746      9.8569    177.7879     21.4833      2.4874      0.0558
  1416.3000      7.7759      8.9474    165.4181     21.5650      2.5024      0.0763
  1416.4000      7.7759      7.6737    158.1342     21.4100      2.5234      0.0654
  1416.5000      7.7738      6.2102    153.3276     21.0365      2.5475      0.0887
  1416.6000      7.7738      4.9702    145.3305     20.7677      2.5680      0.1028
  1416.7000      7.7738      3.6943    137.3255     20.4712      2.5890      0.1007
  1416.8000      7.7660      1.7831    133.4784     20.1570      2.6206      0.0845
  1416.9000      7.7660      0.0789    132.2700     20.0346      2.6487      0.1681
  1417.0000      7.7561     -0.2817    129.6615     20.1021      2.6546      0.0923
  1417.1000      7.7561      0.3950    124.5901     20.5782      2.6435      0.0760
  1417.2000      7.7561      2.0000    118.7982     21.1788      2.6170      0.1089
  1417.3000      7.7504      4.1093    113.2873     20.8209      2.5822      0.0150
  1417.4000      7.7504      5.1945    107.9090     19.4173      2.5643      0.0126
  1417.5000      7.7492      5.2414    102.9240     18.1032      2.5635      0.0261
  1417.6000      7.7492      5.3631    101.9587     17.4067      2.5615     -0.0205
  1417.7000      7.7492      5.7477    107.2992     17.0146      2.5552      0.0103
  1417.8000      7.7488      6.3754    112.8285     16.7526      2.5448      0.0233
  1417.9000      7.7488      7.4495    111.0460     16.7501      2.5271      0.0345
  1418.0000      7.7475      8.5542    105.2602     16.8789      2.5089     -0.0305
  1418.1000      7.7475      8.4207    105.0968     16.8334      2.5111     -0.0386
  1418.2000      7.7475      6.9692    109.1720     16.5676      2.5350      0.0616
  1418.3000      7.7470      6.0287    108.9266     15.9672      2.5505      0.0662
  1418.4000      7.7470      6.6805    104.0470     15.1068      2.5398      0.0709
  1418.5000      7.7476      7.6609     98.6128     14.4961      2.5236     -0.0102
  1418.6000      7.7476      7.2760     94.3566     14.1055      2.5299      0.0409
  1418.7000      7.7476      5.7601     89.3967     13.5388      2.5550      0.0429
  1418.8000      7.7483      4.3164     81.4669     12.5806      2.5788      0.0985
  1418.9000      7.7483      3.1399     73.6277     11.5610      2.5982      0.0767
  1419.0000      7.7479      1.6686     72.1373     11.0214      2.6225      0.0662
  1419.1000      7.7479      0.6005     77.8359     10.9791      2.6401      0.1211
  1419.2000      7.7479      1.0523     85.3285     11.3696      2.6326      0.0736
  1419.3000      7.7528      2.5322     89.7412     12.1826      2.6082      0.0967
  1419.4000      7.7528      4.3598     88.7852     13.0973      2.5781      0.0798
  1419.5000      7.7597      6.2165     82.6741     13.9563      2.5474      0.0575
  1419.6000      7.7597      7.2454     77.3420     14.6901      2.5305      0.0446
  1419.7000      7.7597      7.0755     79.1920     15.2433      2.5333      0.0604
  1419.8000      7.7555      6.6759     86.8252     15.8188      2.5398      0.0952
  1419.9000      7.7555      6.8448     96.1996     16.3997      2.5371      0.0636
  1420.0000      7.7495      6.8987    105.9254     17.1064      2.5362      0.0199
  1420.1000      7.7495      6.3449    114.7738     18.2410      2.5453      0.0565
  1420.2000      7.7495      6.0862    120.0124     19.2638      2.5496      0.0616
  1420.3000      7.7488      6.3888    120.5409     19.6199      2.5446      0.0498
  1420.4000      7.7488      6.1466    120.9930     19.8025      2.5486      0.0689
  1420.5000      7.7527      5.2313    123.5253     19.8546      2.5637      0.1322
  1420.6000      7.7527      4.8217    123.8446     19.4909      2.5704      0.0899
  1420.7000      7.7527      5.1453    122.0818     19.4855      2.5651      0.0871
  1420.8000      7.7595      5.6931    124.5632     20.2058      2.5561      0.0853
  1420.9000      7.7595      6.5084    133.8359     21.2176      2.5426      0.0785
  1421.0000      7.7617      7.6285    141.8026     22.2760      2.5241      0.0051
  1421.1000      7.7617      8.5937    140.6702     22.8479      2.5082      0.0396
  1421.2000      7.7617      8.8362    134.2868     22.8472      2.5042      0.0226
  1421.3000      7.7610      7.9761    128.4216     23.3410      2.5184      0.0596
  1421.4000      7.7610      6.5755    124.8880     24.5419      2.5415      0.0452
  1421.5000      7.7625      6.0003    122.8881     25.1732      2.5510      0.1000
  1421.6000      7.7625      6.9147    118.9342     24.5326      2.5359      0.0726
  1421.7000      7.7625      8.5197    114.9658     23.3114      2.5094      0.0448
  1421.8000      7.7652      9.8096    115.3783     22.4716      2.4881      0.0494
  1421.9000      7.7652     10.3230    119.9053     22.5762      2.4797     -0.0063
  1422.0000      7.7711      9.9934    124.4210     23.5099      2.4851      0.0390
  1422.1000      7.7711      9.4482    126.6977     24.6352      2.4941      0.0307
  1422.2000      7.7711      9.3407    129.5877     25.3748      2.4959      0.0725
  1422.3000      7.7772      9.1501    133.6716     25.6328      2.4990     -0.0010
  1422.4000      7.7772      8.0521    137.6882     25.5994      2.5171      0.0990
  1422.5000      7.7808      6.7424    144.4131     25.3121      2.5388      0.0931
  1422.6000      7.7808      6.2504    150.8792     25.0271      2.5469      0.1118
  1422.7000      7.7808      6.5261    152.0311     25.0323      2.5423      0.0934
  1422.8000      7.7827      7.0365    154.0131     24.8821      2.5339      0.1032
  1422.9000      7.7827      7.7160    164.8878     24.3465      2.5227      0.0741
  1423.0000      7.7815      8.5643    179.3742     24.2543      2.5087      0.0538
  1423.1000      7.7815      9.2855    183.4512     24.6664      2.4968      0.0619
  1423.2000      7.7815      9.4906    174.5797     24.5840      2.4934      0.0561
  1423.3000      7.7796      9.0288    165.0328     24.1399      2.5010      0.0562
  1423.4000      7.7796      8.4570    162.4592     24.1576      2.5105      0.0763
  1423.5000      7.7786      8.5056    161.2749     24.4647      2.5097      0.0618
  1423.6000      7.7786      8.9794    159.6792     24.1354      2.5018      0.0408
  1423.7000      7.7786      9.0600    163.0426     22.7958      2.5005      0.0413
  1423.8000      7.7779      8.3807    170.8800     21.3351      2.5117      0.0471
  1423.9000      7.7779      7.6069    174.8530     20.7946      2.5245      0.0749
  1424.0000      7.7764      7.5540    168.2593     21.0062      2.5254      0.0745
  1424.1000      7.7764      8.0196    153.2085     21.0268      2.5177      0.0488
  1424.2000      7.7764      8.4781    136.7195     20.5896      2.5101      0.0630
  1424.3000      7.7754      8.7654    122.6089     19.9751      2.5054      0.0161
  1424.4000      7.7754      8.7822    112.3744     19.5576      2.5051      0.0246
  1424.5000      7.7752      8.5890    110.0844     19.7315      2.5083      0.0292
  1424.6000      7.7752      8.5532    113.5142     19.9378      2.5089      0.0452
  1424.7000      7.7752      8.8324    115.4536     19.6149      2.5043      0.0292
