~Version Information
VERS.                      2.0: CWLS Log ASCII Standard - VERSION 2.0
WRAP.                       NO: One line per depth step
~Well Information Block
STRT.FT                15.0000: 
STOP.FT              2265.2500: 
STEP.FT                 0.2500: 
NULL.                -999.2500: 
COMP.          Pioneer Natural Resources: COMPANY
WELL.             Vector 33-23: WELL
FLD.           Purgatoire River: FIELD
LOC.           1988' FSL & 1560' FEL: LOCATION
PROV.                 Colorado: PROVINCE
CNTY.               Las Animas: COUNTRY
SRVC.                Patterson: SERVICE COMPANY
DATE.          Fri Apr 01 13:14:24 2005: LOG DATE
UWI.           05 071 08336 00: UNIQUE WELL ID
~Curve Information Block
DEPT.FT            0 000 00 00: Depth
GR.GAPI                       : Gamma Ray
CCL.                          : Casing Collar Locator
TT3.usec                      : CBL 3' Travel Time
AMP3.mV                       : CBL 3' Amplitude
AMP5.mV                       : CBL 5' Amplitude
~Parameter Information Block
~A  Depth        GR         CCL         TT3         AMP3        AMP5    
# ...
   603.0000     66.0152      0.0000   1314.3492     22.6742      4.1333
   603.2500     63.6186      0.0000   1298.1285     22.5387      4.1897
   603.5000     61.1479      0.0000   1291.2219     22.4149      4.2456
   603.7500     60.0915      0.0000   1298.1285     22.3319      4.2905
   604.0000     61.0671      0.0000   1314.3492     22.2960      4.3260
   604.2500     63.2317      0.0000   1330.9175     22.2839      4.3571
   604.5000     65.1196      0.0000   1342.0453     22.2669      4.3838
   604.7500     66.2015      0.0000   1347.4175     22.2463      4.4014
   605.0000     67.3790      0.0000   1349.3470     22.2528      4.4067
   605.2500     69.7307      0.0000   1349.8715     22.3118      4.4002
   605.5000     73.1752      0.0000   1349.9802     22.4184      4.3851
   605.7500     76.8465      0.0000   1350.0000     22.5427      4.3671
   606.0000     80.3515      0.0000   1350.0000     22.6550      4.3533
   606.2500     83.9266      0.0000   1350.0000     22.7500      4.3512
   606.5000     87.5046      0.0000   1350.0000     22.8523      4.3666
   606.7500     90.1959      0.0000   1350.0000     22.9850      4.4035
   607.0000     90.9140      0.0000   1349.9735     23.1281      4.4620
   607.2500     89.4825      0.0000   1349.8271     23.2224      4.5393
   607.5000     86.9309      0.0000   1349.1223     23.2233      4.6319
   607.7500     84.5206      0.0000   1346.5288     23.1346      4.7328
   608.0000     82.7755      0.0000   1339.3081     22.9852      4.8251
   608.2500     81.7526      0.0000   1324.3251     22.7917      4.8861
   608.5000     81.7469      0.0000   1301.8837     22.5569      4.9043
   608.7500     82.9868      0.0000   1279.2330     22.2830      4.8909
   609.0000     84.8447      0.0000   1266.6351     21.9646      4.8686
   609.2500     86.1388      0.0000   1265.9590     21.5789      4.8494
   609.5000     86.2144      0.0000   1264.7640     21.1175      4.8275
   609.7500     85.1392      0.0000   1246.4523     20.6405      4.7955
   610.0000     82.9363      0.0000   1206.9221     20.2719      4.7586
   610.2500     79.3353      0.0000   1158.3861     20.1124      4.7294
   610.5000     74.4631      0.0000   1116.6150     20.1737      4.7122
   610.7500     69.3431      0.0000   1089.3816     20.4157      4.6987
   611.0000     65.5192      0.0000   1079.7209     20.8115      4.6784
   611.2500     64.2139      0.0000   1092.6985     21.3357      4.6490
   611.5000     65.6513      0.0000   1129.4186     21.9094      4.6194
   611.7500     68.9384      0.0000   1177.4264     22.3946      4.6030
   612.0000     72.5371      0.0000   1217.2108     22.6561      4.6074
   612.2500     75.0711      0.0000   1240.4777     22.6460      4.6280
   612.5000     76.0389      0.0000   1256.0022     22.4471      4.6487
   612.7500     75.8395      0.0000   1275.7726     22.2255      4.6509
   613.0000     75.0583      0.0000   1301.0031     22.1141      4.6257
   613.2500     73.9535      0.0000   1324.1487     22.1304      4.5820
   613.5000     72.8078      0.0000   1339.2798     22.2067      4.5432
   613.7500     72.3821      0.0000   1346.5282     22.2851      4.5301
   614.0000     73.5253      0.0000   1349.1222     22.3597      4.5433
   614.2500     76.3618      0.0000   1349.8271     22.4348      4.5612
   614.5000     80.0605      0.0000   1349.9735     22.4779      4.5607
   614.7500     83.3794      0.0000   1350.0000     22.4331      4.5402
   615.0000     85.4823      0.0000   1350.0000     22.2694      4.5167
   615.2500     86.4062      0.0000   1350.0000     22.0109      4.5043
   615.5000     86.6920      0.0000   1350.0000     21.7354      4.5007
   615.7500     86.4162      0.0000   1350.0000     21.5454      4.4942
   616.0000     84.6923      0.0000   1350.0000     21.5118      4.4766
   616.2500     80.5284      0.0000   1350.0000     21.6179      4.4480
   616.5000     74.3918      0.0000   1350.0000     21.7659      4.4130
   616.7500     68.6519      0.0000   1350.0000     21.8633      4.3785
   617.0000     65.9992      0.0000   1350.0000     21.8996      4.3494
   617.2500     67.1643      0.0000   1350.0000     21.9281      4.3256
   617.5000     70.2059      0.0000   1350.0000     21.9824      4.3006
   617.7500     72.1163      0.0000   1350.0000     22.0287      4.2680
   618.0000     71.2014      0.0000   1350.0000     21.9975      4.2289
   618.2500     68.0422      0.0000   1350.0000     21.8496      4.1872
   618.5000     64.4871      0.0000   1350.0000     21.6156      4.1378
   618.7500     62.0969      0.0000   1350.0000     21.3817      4.0624
   619.0000     61.5387      0.0000   1350.0000     21.2286      3.9343
   619.2500     62.8519      0.0000   1350.0000     21.1594      3.7302
   619.5000     65.6144      0.0000   1350.0000     21.0466      3.4503
   619.7500     68.7974      0.0000   1350.0000     20.6339      3.1387
   620.0000     71.1187      0.0000   1350.0000     19.6432      2.8708
   620.2500     72.1283      0.0000   1350.0000     17.9946      2.7051
   620.5000     72.8209      0.0000   1350.0000     15.9826      2.6478
   620.7500     74.5834      0.0000   1350.0000     14.1716      2.6655
   621.0000     77.4154      0.0000   1349.9943     13.0222      2.7197
   621.2500     79.7272      0.0000   1349.9629     12.6077      2.7849
   621.5000     80.1448      0.0000   1349.8114     12.6886      2.8497
   621.7500     78.9879      3.0000   1349.2543     12.9946      2.9121
   622.0000     77.6682      0.0000   1347.7031     13.4209      2.9726
   622.2500     77.1751      0.0000   1344.4900     14.0443      3.0264
   622.5000     77.4989      0.0000   1339.7059     15.0203      3.0634
   622.7500     78.0966      0.0000   1335.0223     16.4501      3.0811
   623.0000     78.4841      0.0000   1333.0281     18.3062      3.1036
   623.2500     78.3555      0.0000   1335.0223     20.4475      3.1840
   623.5000     77.2587      0.0000   1339.7059     22.6421      3.3751
   623.7500     74.6088      0.0000   1344.4900     24.5881      3.6878
   624.0000     70.4922      0.0000   1347.7031     26.0329      4.0845
   624.2500     66.1150      0.0000   1349.2543     26.9267      4.5181
   624.5000     62.8986      0.0000   1349.8114     27.4180      4.9592
   624.7500     61.2519      0.0000   1349.9629     27.6974      5.3763
   625.0000     60.5573      0.0000   1349.9943     27.8755      5.7226
   625.2500     60.0922      0.0000   1350.0000     27.9833      5.9652
   625.5000     59.5061      0.0000   1350.0000     28.0305      6.1097
   625.7500     58.5393      0.0000   1349.9701     28.0356      6.1881
   626.0000     56.8666      0.0000   1349.8049     28.0170      6.2303
   626.2500     54.4865      0.0000   1349.0094     27.9855      6.2546
   626.5000     52.0287      0.0000   1346.0822     27.9643      6.2753
   626.7500     50.4222      0.0000   1337.9323     27.9977      6.3114
   627.0000     50.1202      0.0000   1321.0510     28.1239      6.3851
   627.2500     50.5829      0.0000   1295.9161     28.3388      6.5117
   627.5000     50.5112      0.0000   1271.3085     28.5981      6.6926
   627.7500     48.7236      0.0000   1260.8308     28.8583      6.9191
   628.0000     45.0591      0.0000   1271.3085     29.1142      7.1782
   628.2500     40.6019      0.0000   1295.9161     29.3989      7.4556
   628.5000     36.9574      0.0000   1321.0510     29.7574      7.7353
   628.7500     35.1920      0.0000   1337.9323     30.2354      8.0003
   629.0000     35.3849      0.0000   1346.0822     30.8827      8.2337
   629.2500     36.9218      0.0000   1349.0094     31.7317      8.4202
   629.5000     38.8466      0.0000   1349.8049     32.7603      8.5496
   629.7500     40.0890      0.0000   1349.9701     33.8931      8.6255
   630.0000     39.9342      0.0000   1350.0000     35.0466      8.6724
   630.2500     38.5683      0.0000   1350.0000     36.1613      8.7315
   630.5000     36.9813      0.0000   1350.0000     37.1925      8.8443
   630.7500     36.1800      0.0000   1350.0000     38.0888      9.0330
