~Version Information
 VERS.                                  2.0 : CWLS LAS VERSION
 WRAP.                                   NO : WRAPING MODE
 SWARE .                 MController 2.5.0J : SOFTWARE VERSION
~Well Information
 WELL.                         Norton 9-14V : WELL
 COMP.                       Petrogulf Corp : COMPANY
 FLD.                      Purgatoire River : FIELD
 LOC.                 SW/SW Sec 9 T33S R67W : LOCATION
 DATE.                             10/27/04 : DATE(S) LOGGED
 SRVC.      Blanco Geological Servivces LLC : SERVICE COMPANY
 STAT.                                   CO : STATE
 CNTY.                           Las Animas : COUNTY
 CTRY.                                  USA : COUNTRY
 API.                       05-071-07891-00 : API NUMBER
 STRT.FT                             752.00 : START DEPTH
 STOP.FT                            2427.00 : STOP DEPTH
 STEP.FT                               1.00 : DEPTH INCREMENT
 NULL.                                -9999 : NULL VALUE
~Curve information
 DEPTH.FT                                   :
 ROP.MIN/FT                                 :
 GAS.UNITS                                  :
~ASCII Log data
# ...
      1552.0         0.13         19.2 
      1553.0         0.15         19.2 
      1554.0         0.13         19.4 
      1555.0         0.13         18.7 
      1556.0         0.27         17.1 
      1557.0         0.23         16.2 
      1558.0         0.35         16.9 
      1559.0         0.30         17.1 
      1560.0         0.30         16.7 
      1561.0         0.30         16.5 
      1562.0         0.30         16.0 
      1563.0         0.30         16.0 
      1564.0         0.30         15.1 
      1565.0         0.30         14.9 
      1566.0         0.27         14.4 
      1567.0         0.27         15.1 
      1568.0         0.27         14.5 
      1569.0         0.28         15.0 
      1570.0         0.20         15.6 
      1571.0         0.23         14.8 
      1572.0         0.23         30.8 
      1573.0         0.20         29.3 
      1574.0         0.27         28.1 
      1575.0         0.27         24.3 
      1576.0         0.20         22.3 
      1577.0         0.20         21.7 
      1578.0         0.20         21.6 
      1579.0         0.20         21.4 
      1580.0         0.17         19.6 
      1581.0         0.20         19.4 
      1582.0         0.17         19.2 
      1583.0         0.20         17.9 
      1584.0         0.23         17.7 
      1585.0         0.18         18.5 
      1586.0         0.27         18.3 
      1587.0         0.33         18.4 
      1588.0         0.30         15.8 
      1589.0         0.23         15.8 
      1590.0         0.33         16.5 
      1591.0         0.30         15.2 
      1592.0         0.27         14.8 
      1593.0         0.30         14.6 
      1594.0         0.23         14.9 
      1595.0         0.23         15.7 
      1596.0         0.18         15.9 
      1597.0         0.20         15.9 
      1598.0         0.20         15.5 
      1599.0         0.20         15.8 
      1600.0         0.23         16.4 
      1601.0         0.27         16.3 
      1602.0         0.20         16.7 
      1603.0         0.20         13.3 
      1604.0         0.23         15.0 
      1605.0         0.27         16.0 
      1606.0         0.20         18.1 
      1607.0         0.20         20.0 
      1608.0         0.17         21.0 
      1609.0         0.23         22.0 
      1610.0         0.17         22.0 
      1611.0         0.17         21.6 
      1612.0         0.22         22.2 
      1613.0         0.27         20.7 
      1614.0         0.27         19.0 
      1615.0         0.33         18.1 
      1616.0         0.13         18.2 
      1617.0         0.27         18.4 
      1618.0         0.28         18.5 
      1619.0         0.27         18.0 
      1620.0         0.23         17.6 
      1621.0         0.27         17.8 
      1622.0         0.30         18.5 
      1623.0         0.27         17.2 
      1624.0         0.27         17.0 
      1625.0         0.27         17.9 
      1626.0         0.27         16.2 
      1627.0         0.30         16.0 
      1628.0         0.23         16.4 
      1629.0         0.20         16.7 
      1630.0         0.25         16.3 
      1631.0         0.20         34.6 
      1632.0         0.20         19.5 
      1633.0         0.20         17.9 
      1634.0         0.23         15.8 
      1635.0         0.20         16.7 
      1636.0         0.20         17.0 
      1637.0         0.20         17.5 
      1638.0         0.20         17.5 
      1639.0         0.20         17.6 
      1640.0         0.17         18.1 
      1641.0         0.20         18.6 
      1642.0         0.20         19.4 
      1643.0         0.17         18.1 
      1644.0         0.20         18.2 
      1645.0         0.17         18.2 
      1646.0         0.27         16.8 
      1647.0         0.30         16.5 
      1648.0         0.27         16.9 
      1649.0         0.28         15.6 
      1650.0         0.23         14.8 
      1651.0         0.23         13.8 
      1652.0         0.23         13.7 
      1653.0         0.20         14.0 
      1654.0         0.23         14.5 
      1655.0         0.23         14.7 
      1656.0         0.23         15.0 
      1657.0         0.20         15.7 
      1658.0         0.20         15.1 
      1659.0         0.30         14.7 
      1660.0         0.30         15.2 
      1661.0         0.27         14.6 
      1662.0         0.37         18.3 
      1663.0         0.25         18.3 
      1664.0         0.27         20.5 
      1665.0         0.20         22.7 
      1666.0         0.20         23.4 
      1667.0         0.23         20.9 
      1668.0         0.13         21.1 
      1669.0         0.20         21.7 
      1670.0         0.30         21.7 
      1671.0         0.23         20.2 
      1672.0         0.20         20.4 
      1673.0         0.17         19.1 
      1674.0         0.17         19.4 
      1675.0         0.27         18.1 
      1676.0         0.27         18.3 
      1677.0         0.30         18.7 
      1678.0         0.27         18.7 
      1679.0         0.23         17.5 
      1680.0         0.17         17.2 
      1681.0         0.23         18.1 
      1682.0         0.20         16.7 
      1683.0         0.23         17.2 
      1684.0         0.28         16.3 
      1685.0         0.30         16.3 
      1686.0         0.30         16.1 
      1687.0         0.30         16.0 
      1688.0         0.23         14.9 
      1689.0         0.23         15.1 
      1690.0         0.20         16.3 
      1691.0         0.20         15.4 
      1692.0         0.20         15.6 
      1693.0         0.20         19.3 
      1694.0         0.20         19.3 
      1695.0         0.20         21.6 
      1696.0         0.20         22.9 
      1697.0         0.27         24.7 
      1698.0         0.35         24.9 
      1699.0         0.30         23.2 
      1700.0         0.23         21.3 
      1701.0         0.20         20.3 
      1702.0         0.23         20.8 
      1703.0         0.17         19.1 
      1704.0         0.17         18.5 
      1705.0         0.23         17.1 
      1706.0         0.27         16.6 
      1707.0         0.23         16.6 
      1708.0         0.23         17.3 
      1709.0         0.33         17.5 
      1710.0         0.27         17.7 
      1711.0         0.20         17.6 
      1712.0         0.17         16.8 
      1713.0         0.17         16.9 
      1714.0         0.20         17.7 
      1715.0         0.27         18.7 
      1716.0         0.20         19.0 
      1717.0         0.18         20.1 
      1718.0         0.13         18.1 
      1719.0         0.20         17.6 
      1720.0         0.17         18.5 
      1721.0         0.17         16.1 
      1722.0         0.23         18.3 
      1723.0         0.27         20.8 
      1724.0         0.17         21.6 
      1725.0         0.13         23.5 
      1726.0         0.23         24.5 
      1727.0         0.23         25.3 
      1728.0         0.17         25.1 
      1729.0         0.17         26.3 
      1730.0         0.13         26.2 
      1731.0         0.20         26.2 
      1732.0         0.17         26.5 
      1733.0         0.20         24.8 
      1734.0         0.20         23.5 
      1735.0         0.25         20.9 
      1736.0         0.27         20.3 
      1737.0         0.43         18.6 
      1738.0         0.35         19.5 
      1739.0         0.43         19.8 
      1740.0         0.30         18.8 
      1741.0         0.27         18.7 
      1742.0         0.30         17.2 
      1743.0         0.30         16.6 
      1744.0         0.30         16.9 
      1745.0         0.30         17.2 
      1746.0         0.23         16.4 
      1747.0         0.27         17.8 
      1748.0         0.27         17.7 
      1749.0         0.27         17.3 
      1750.0         0.28         17.3 
      1751.0         0.27         18.1 
