~Version Information
VERS.                      2.0: CWLS Log ASCII Standard - VERSION 2.0
WRAP.                       NO: One line per depth step
~Well Information Block
STRT.FT                -7.7500: 
STOP.FT              1383.2500: 
STEP.FT                 0.2500: 
NULL.                -999.2500: 
COMP.          Petrogulf Corporation: COMPANY
WELL.          Great Plains 22-22R: WELL
FLD.           Purgatoire River: FIELD
LOC.           2042' FNL & 1657' FWL SENW 22 33S 67W ----: LOCATION
PROV.                 Colorado: PROVINCE
CNTY.               Las Animas: COUNTRY
SRVC.                         : SERVICE COMPANY
DATE.          Thu Sep 22 14:55:58 2005: LOG DATE
UWI.             07108028     : UNIQUE WELL ID
~Curve Information Block
DEPT.FT            0 000 00 00: Depth
CCL.                          : Casing Collar Locator
TT3.usec                      : CBL 3' Travel Time
AMP3.mV                       : CBL 3' Amplitude
GR.GAPI                       : Gamma Ray
~Parameter Information Block
~A  Depth       CCL         TT3         AMP3         GR     
# ...
  1365.7500      0.0000    383.5473      9.1314    123.8322
  1366.0000      0.0000    375.5543      9.1009    120.2429
  1366.2500      0.0000    372.4373      8.9987    115.6905
  1366.5000      0.0000    371.5817      8.8216    110.0038
  1366.7500      0.0000    371.5176      8.5873    102.9724
  1367.0000      0.0000    371.6876      8.3215     95.6195
  1367.2500      0.0000    371.9832      8.0463     90.1825
  1367.5000      0.0000    372.3929      7.7732     88.4740
  1367.7500      0.0000    372.8682      7.5052     90.2294
  1368.0000      0.0000    373.3782      7.2468     93.1813
  1368.2500      0.0000    374.0868      7.0097     94.7395
  1368.5000      0.0000    375.4728      6.8093     93.5164
  1368.7500      0.0000    378.2048      6.6565     89.2039
  1369.0000      0.0000    382.6090      6.5554     81.4079
  1369.2500      0.0000    387.9558      6.5039     69.3726
  1369.5000      0.0000    392.4987      6.4935     53.2996
  1369.7500      0.0000    394.8199      6.5125     35.6043
  1370.0000      0.0000    395.2450      6.5477     20.0508
  1370.2500      0.0000    395.4938      6.5855      9.2995
  1370.5000      0.0000    396.9032      6.6147      3.4933
  1370.7500      0.0000    399.2180      6.6316      1.0504
  1371.0000      0.0000    400.8147      6.6415      0.2504
  1371.2500      0.0000    399.8358      6.6516      0.0466
  1371.5000      0.0000    395.5674      6.6603      0.0063
  1371.7500      0.0000    389.1295      6.6569      0.0000
  1372.0000      0.0000    382.6872      6.6326   -999.2500
  1372.2500      0.0000    377.8793      6.5915   -999.2500
  1372.5000      0.0000    375.0363      6.5499   -999.2500
  1372.7500      0.0000    373.6028      6.5236   -999.2500
  1373.0000      0.0000    372.8942      6.5174   -999.2500
  1373.2500      0.0000    372.4421      6.5235   -999.2500
  1373.5000      0.0000    371.9573      6.5320   -999.2500
  1373.7500      0.0000    370.9211      6.5330   -999.2500
  1374.0000      0.0000    367.6356      6.4858   -999.2500
  1374.2500      0.0000    357.7624      6.2649   -999.2500
  1374.5000      0.0000    333.9158      5.6425   -999.2500
  1374.7500      0.0000    289.0648      4.3957   -999.2500
  1375.0000      0.0000    223.5734      2.5232   -999.2500
  1375.2500      0.0000    149.2459      0.3690   -999.2500
  1375.5000      0.0000     83.6136     -1.5467   -999.2500
  1375.7500      0.0000     38.4975     -2.8687   -999.2500
  1376.0000      0.0000     14.3484     -3.5779   -999.2500
  1376.2500      0.0000      4.2819     -3.8740   -999.2500
  1376.5000      0.0000      1.0139     -3.9701   -999.2500
  1376.7500      0.0000      0.1876     -3.9945   -999.2500
  1377.0000      0.0000      0.0249     -3.9993   -999.2500
  1377.2500      0.0000   -999.2500   -999.2500   -999.2500
  1377.5000      0.0000   -999.2500   -999.2500   -999.2500
  1377.7500      0.0000   -999.2500   -999.2500   -999.2500
  1378.0000      0.0000   -999.2500   -999.2500   -999.2500
  1378.2500      0.0000   -999.2500   -999.2500   -999.2500
  1378.5000      0.0000   -999.2500   -999.2500   -999.2500
  1378.7500      0.0000   -999.2500   -999.2500   -999.2500
  1379.0000      0.0000   -999.2500   -999.2500   -999.2500
  1379.2500      0.0000   -999.2500   -999.2500   -999.2500
  1379.5000      0.0000   -999.2500   -999.2500   -999.2500
  1379.7500      0.0000   -999.2500   -999.2500   -999.2500
  1380.0000      0.0000   -999.2500   -999.2500   -999.2500
  1380.2500      0.0000   -999.2500   -999.2500   -999.2500
  1380.5000      0.0000   -999.2500   -999.2500   -999.2500
  1380.7500      0.0000   -999.2500   -999.2500   -999.2500
  1381.0000      0.0000   -999.2500   -999.2500   -999.2500
  1381.2500      0.0000   -999.2500   -999.2500   -999.2500
  1381.5000      0.0000   -999.2500   -999.2500   -999.2500
  1381.7500      0.0000   -999.2500   -999.2500   -999.2500
  1382.0000      0.0000   -999.2500   -999.2500   -999.2500
  1382.2500      0.0000   -999.2500   -999.2500   -999.2500
  1382.5000      0.0000   -999.2500   -999.2500   -999.2500
  1382.7500   -999.2500   -999.2500   -999.2500   -999.2500
  1383.0000   -999.2500   -999.2500   -999.2500   -999.2500
  1383.2500   -999.2500   -999.2500   -999.2500   -999.2500
