~Version Information
VERS.                      2.0: CWLS Log ASCII Standard - VERSION 2.0
WRAP.                       NO: One line per depth step
~Well Information Block
STRT.FT               806.0000: 
STOP.FT              1814.0000: 
STEP.FT                 0.2500: 
NULL.                -999.2500: 
COMP.          Pioneer Natural Resources: COMPANY
WELL.            Hill 33-22 Tr: WELL
FLD.           Purgatoire River: FIELD
LOC.           1573' FSL & 1585' FEL: LOCATION
PROV.                 Colorado: PROVINCE
CNTY.               Las Animas: COUNTRY
SRVC.                Patterson: SERVICE COMPANY
DATE.          Thu Apr 14 09:13:17 2005: LOG DATE
UWI.           05 071 08316 00: UNIQUE WELL ID
~Curve Information Block
DEPT.FT            0 000 00 00: Depth
SN.Ohm-m                      : IEL Short Normal
SP.mV                         : IEL Spontaneous Potential
DIR.Ohm-m                     : IEL Induction Resistivity
GR.GAPI                       : Gamma Ray
~Parameter Information Block
~A  Depth        SN          SP         DIR          GR     
# ...
  1141.0000     38.2775     27.6243     30.2122    116.4412
  1141.2500     34.3952     29.0011     29.7096    122.6053
  1141.5000     30.3188     30.3067     29.3717    130.8139
  1141.7500     26.9229     31.5048     29.2670    134.9470
  1142.0000     24.7254     32.5683     29.4378    138.3757
  1142.2500     23.5557     33.4409     29.8599    138.6716
  1142.5000     22.9255     34.0825     30.4197    136.4824
  1142.7500     22.6701     34.5167     30.9472    133.7046
  1143.0000     22.9619     34.8328     31.3127    128.5135
  1143.2500     23.9110     35.1589     31.5127    125.0711
  1143.5000     25.4316     35.6231     31.6670    121.1424
  1143.7500     27.3542     36.2936     31.9398    119.6183
  1144.0000     29.4033     37.1226     32.4641    118.3461
  1144.2500     31.1219     37.9504     33.3095    117.6285
  1144.5000     32.1110     38.5818     34.4702    116.3954
  1144.7500     32.3111     38.8834     35.8581    115.4300
  1145.0000     31.9365     38.8391     37.3263    113.1912
  1145.2500     31.3424     38.5393     38.7506    110.5655
  1145.5000     31.0235     38.1193     40.1242    104.0835
  1145.7500     31.5261     37.6912     41.5665     97.9064
  1146.0000     33.3112     37.3087     43.2271     86.2320
  1146.2500     36.6274     36.9733     45.1641     77.5022
  1146.5000     41.2273     36.6601     47.2739     64.9921
  1146.7500     46.0886     36.3457     49.2892     58.5825
  1147.0000     49.7591     36.0284     50.8551     54.2694
  1147.2500     51.3973     35.7338     51.6842     55.5558
  1147.5000     51.3802     35.5068     51.7217     62.7962
  1147.7500     50.7046     35.3942     51.1705     69.7064
  1148.0000     50.0220     35.4300     50.3420     80.5498
  1148.2500     49.2701     35.6266     49.4593     87.1385
  1148.5000     47.7789     35.9753     48.5710     95.5815
  1148.7500     44.8016     36.4516     47.5755    100.3141
  1149.0000     40.4842     37.0162     46.3152    106.3778
  1149.2500     36.0568     37.6052     44.6891    110.0777
  1149.5000     32.6921     38.1155     42.7378    115.9120
  1149.7500     30.6281     38.4084     40.6451    120.2971
  1150.0000     29.4342     38.3516     38.6456    127.5772
  1150.2500     28.5438     37.8762     36.9083    132.7529
  1150.5000     27.5054     37.0053     35.4753    141.0171
  1150.7500     26.1310     35.8390     34.2756    146.9674
  1151.0000     24.5400     34.5225     33.1896    156.3297
  1151.2500     23.0060     33.2228     32.1261    162.2236
  1151.5000     21.7695     32.1059     31.0721    168.5836
  1151.7500     20.9859     31.2971     30.0869    169.8817
  1152.0000     20.8180     30.8375     29.2581    165.9848
  1152.2500     21.4061     30.6731     28.6546    159.5721
  1152.5000     22.5823     30.6975     28.3040    146.2883
  1152.7500     23.8076     30.8179     28.1917    137.0863
  1153.0000     24.4982     30.9948     28.2718    126.6082
  1153.2500     24.3391     31.2359     28.4815    123.3397
  1153.5000     23.5432     31.5667     28.7529    124.4053
  1153.7500     22.8839     32.0037     29.0197    128.1108
  1154.0000     23.0724     32.5402     29.2268    135.1832
  1154.2500     24.0901     33.1473     29.3419    139.0922
  1154.5000     25.3180     33.7868     29.3591    141.9012
  1154.7500     26.1150     34.4263     29.2866    141.7419
  1155.0000     26.1584     35.0481     29.1247    139.7977
  1155.2500     25.4896     35.6579     28.8507    138.3784
  1155.5000     24.4439     36.2895     28.4216    137.3913
  1155.7500     23.4589     36.9806     27.7898    137.7211
  1156.0000     22.8085     37.7210     26.9308    138.9863
  1156.2500     22.4971     38.4312     25.8642    139.6860
  1156.5000     22.3539     39.0089     24.6482    140.2479
  1156.7500     22.1850     39.3975     23.3432    140.8397
  1157.0000     21.8992     39.6043     21.9748    143.0972
  1157.2500     21.5340     39.6664     20.5377    145.6148
  1157.5000     21.1930     39.6202     19.0433    150.3515
  1157.7500     20.9656     39.5054     17.5589    153.7552
  1158.0000     20.8212     39.3768     16.1935    158.4717
  1158.2500     20.6198     39.2921     15.0438    160.7643
  1158.5000     20.3289     39.2801     14.1566    162.0777
  1158.7500     20.0718     39.3228     13.5330    161.6078
  1159.0000     19.9402     39.3649     13.1653    160.1108
  1159.2500     19.9088     39.3410     13.0892    159.3387
  1159.5000     19.8883     39.1988     13.4580    158.6423
  1159.7500     19.8337     38.9124     14.6841    157.9520
  1160.0000     19.8098     38.4898     17.9249    155.7648
  1160.2500     19.8935     37.9730     27.9170    153.4777
  1160.5000     20.0954     37.4237    118.2448    149.2144
  1160.7500     20.4667     36.8936 100000.0000    146.2180
  1161.0000     21.1165     36.4036 100000.0000    142.3190
  1161.2500     22.0122     35.9482 100000.0000    140.5009
  1161.5000     22.9209     35.5184 100000.0000    139.1018
  1161.7500     23.5673     35.1226 100000.0000    138.8522
  1162.0000     23.6905     34.7968 100000.0000    138.9659
  1162.2500     23.0429     34.5981 100000.0000    139.1153
  1162.5000     21.5975     34.5840 100000.0000    139.3809
  1162.7500     19.7782     34.7823 100000.0000    139.7657
  1163.0000     18.2716     35.1688 100000.0000    140.9786
  1163.2500     17.5621     35.6680 100000.0000    142.1637
  1163.5000     17.6704     36.1861 100000.0000    144.0339
  1163.7500     18.2058     36.6609 100000.0000    145.1363
  1164.0000     18.6368     37.0929 100000.0000    146.7967
  1164.2500     18.6506     37.5273 100000.0000    148.3003
  1164.5000     18.2910     38.0031 100000.0000    151.6556
  1164.7500     17.7723     38.5100 100000.0000    154.5327
  1165.0000     17.2887     38.9806 100000.0000    158.9837
  1165.2500     16.9384     39.3072 100000.0000    161.3897
  1165.5000     16.6940     39.3701 100000.0000    163.1826
  1165.7500     16.4999     39.0685 100000.0000    162.9391
  1166.0000     16.3380     38.3361 100000.0000    160.9530
  1166.2500     16.1806     37.1146 100000.0000    159.2582
  1166.5000     16.0688     35.2713      9.5791    157.1694
  1166.7500     16.1319     32.4958      1.8120    156.0925
  1167.0000     16.3534     28.2255      0.7449    153.6760
  1167.2500     16.4805     21.6343      0.3741    150.2088
  1167.5000     16.2018     11.7042      0.2062    140.2000
  1167.7500     15.3351     -2.6251      0.1280    130.2305
  1168.0000     13.8852    -22.2486      0.0950    112.7959
  1168.2500     11.9755    -47.6175      0.0855    101.7598
  1168.5000      9.9612    -78.2466      0.0893     88.7234
  1168.7500      8.5330   -111.9390      0.1008     82.3585
  1169.0000      8.2206   -144.2538      0.1144     74.3182
  1169.2500      9.2249   -169.3293      0.1244     68.8328
  1169.5000     13.2013   -182.4297      0.1288     60.1652
  1169.7500     26.8093   -182.6269      0.1295     54.8690
  1170.0000     62.9358   -173.2887      0.1319     49.0759
  1170.2500    131.7040   -159.9611      0.1421     46.8445
  1170.5000    223.4191   -147.5715      0.1675     45.2118
  1170.7500    304.2583   -138.9026      0.2183     44.7499
  1171.0000    335.6913   -134.5906      0.3109     44.8103
  1171.2500    300.5217   -133.7733      0.4765     45.7628
  1171.5000    215.3553   -134.6331      0.7919     49.7692
  1171.7500    121.0172   -134.6836      1.5218     54.7078
  1172.0000     53.6616   -131.1250      4.2070     65.2094
  1172.2500     21.2292   -121.7668 100000.0000     73.1343
  1172.5000     10.3346   -106.5756 100000.0000     83.6499
  1172.7500      7.3963    -88.8530 100000.0000     88.5898
  1173.0000      6.6264    -74.5103 100000.0000     92.7861
  1173.2500      6.5851    -69.2039 100000.0000     94.2225
  1173.5000      6.7969    -75.2781 100000.0000     95.6680
  1173.7500      6.9207    -90.8541 100000.0000     96.2609
  1174.0000      6.8190   -111.3739 100000.0000     95.3968
  1174.2500      6.5518   -131.9704 100000.0000     92.6398
