~Version Information
VERS.                      2.0: CWLS Log ASCII Standard - VERSION 2.0
WRAP.                       NO: One line per depth step
~Well Information Block
STRT.FT                15.0000: 
STOP.FT              2556.5000: 
STEP.FT                 0.2500: 
NULL.                -999.2500: 
COMP.          Pioneer Natural Resources: COMPANY
WELL.              Quack 22-24: WELL
FLD.           Purgatoire River: FIELD
LOC.           2492' FNL & 2459' FWL: LOCATION
PROV.                 Colorado: PROVINCE
CNTY.               Las Animas: COUNTRY
SRVC.                Patterson: SERVICE COMPANY
DATE.          Tue Jul 26 07:02:30 2005: LOG DATE
UWI.           05 071 08402 00: UNIQUE WELL ID
~Curve Information Block
DEPT.FT            0 000 00 00: Depth
GR.GAPI                       : Gamma Ray
CCL.                          : Casing Collar Locator
TT3.usec                      : CBL 3' Travel Time
AMP3.mV                       : CBL 3' Amplitude
~Parameter Information Block
~A  Depth        GR         CCL         TT3         AMP3    
# ...
   182.5000     70.1782      0.0000    669.1729     23.4742
   182.7500     69.6622      0.0000    643.4116     23.6301
   183.0000     68.7658      0.0000    615.4578     23.7703
   183.2500     67.3289      0.0000    581.5530     23.9433
   183.5000     65.1721      0.0000    541.4424     24.1669
   183.7500     62.0044      0.0000    502.7660     24.4202
   184.0000     57.9159      0.0000    475.5352     24.6613
   184.2500     53.7868      0.0000    463.5387     24.8520
   184.5000     50.6997      0.0000    462.6635     24.9702
   184.7500     48.7628      0.0000    466.0474     25.0136
   185.0000     46.9488      0.0000    469.1218     24.9985
   185.2500     44.3710      0.0000    470.4891     24.9555
   185.5000     41.4237      0.0000    470.1189     24.9191
   185.7500     39.4450      0.0000    467.6481     24.9174
   186.0000     39.3794      0.0000    462.2911     24.9649
   186.2500     40.8823      0.0000    454.3275     25.0538
   186.5000     42.7387      0.0000    446.5453     25.1448
   186.7500     44.0518      0.0000    443.1824     25.1720
   187.0000     44.8067      0.0000    446.3306     25.0740
   187.2500     45.3341      0.0000    453.8435     24.8296
   187.5000     45.6958      0.0000    461.4970     24.4699
   187.7500     45.8230      0.0000    466.5904     24.0592
   188.0000     45.8795      0.0000    469.0111     23.6680
   188.2500     46.1241      0.0000    469.8727     23.3485
   188.5000     46.5835      0.0000    470.1281     23.1185
   188.7500     47.0440      0.0000    470.2052     22.9673
   189.0000     47.2473      0.0000    470.2096     22.8828
   189.2500     47.0567      0.0000    470.1456     22.8714
   189.5000     46.5528      0.0000    470.0277     22.9481
   189.7500     46.0213      0.0000    469.8852     23.1071
   190.0000     45.8643      0.0000    469.7543     23.3096
   190.2500     46.4413      0.0000    469.6729     23.5013
   190.5000     47.7801      0.0000    469.6943     23.6405
   190.7500     49.3172      0.0000    469.8815     23.7133
   191.0000     50.0554      0.0000    470.4316     23.7257
   191.2500     49.2761      0.0000    471.9190     23.6819
   191.5000     47.2909      0.0000    475.6183     23.5700
   191.7500     45.4049      0.0000    483.2815     23.3756
   192.0000     44.9145      0.0000    496.1306     23.1108
   192.2500     46.0935      0.0000    514.3007     22.8142
   192.5000     48.2035      0.0000    537.9222     22.5117
   192.7500     50.3015      0.0000    567.6521     22.1904
   193.0000     51.7862      0.0000    602.0806     21.8282
   193.2500     52.4289      0.0000    635.5487     21.4401
   193.5000     52.4386      0.0000    661.2639     21.0797
   193.7500     52.4166      0.0000    676.4905     20.8019
   194.0000     52.7656      0.0000    683.3835     20.6303
   194.2500     53.2605      0.0000    685.7621     20.5541
   194.5000     53.5666      0.0000    686.3822     20.5397
   194.7500     53.9306      0.0000    686.4966     20.5445
   195.0000     54.9807      0.0000    686.5081     20.5290
   195.2500     56.9513      0.0000    686.4915     20.4694
   195.5000     59.3351      0.0000    686.4576     20.3635
   195.7500     61.2487      0.0000    686.3986     20.2239
   196.0000     61.9606      0.0000    686.3224     20.0695
   196.2500     61.1061      0.0000    686.2450     19.9219
   196.5000     58.6568      0.0000    686.1781     19.8021
   196.7500     54.9205      0.0000    686.1228     19.7249
   197.0000     50.6059      0.0000    686.0649     19.6938
   197.2500     46.7108      0.0000    685.9168     19.6983
   197.5000     44.0784      0.0000    685.3852     19.7127
   197.7500     42.9475      0.0000    683.8301     19.7027
   198.0000     42.9133      0.0000    680.4033     19.6488
   198.2500     43.2657      0.0000    674.8290     19.5619
   198.5000     43.4163      0.0000    668.4371     19.4717
   198.7500     43.2923      0.0000    663.9446     19.4039
   199.0000     43.6022      0.0000    663.1836     19.3704
   199.2500     45.6198      0.0000    664.8519     19.3719
   199.5000     50.3773      0.0000    665.2192     19.3997
   199.7500     57.9241      0.0000    661.3762     19.4402
   200.0000     67.3194      0.0000    653.5786     19.4808
   200.2500     77.0569      0.0000    644.6602     19.5089
   200.5000     85.3474      0.0000    637.9196     19.5093
   200.7500     90.4462      0.0000    635.7620     19.4715
   201.0000     91.4052      0.0000    639.3942     19.3981
   201.2500     88.7252      0.0000    648.4263     19.2968
   201.5000     84.0948      0.0000    660.4717     19.1637
   201.7500     79.3996      0.0000    672.0524     18.9861
   202.0000     75.9122      0.0000    680.6843     18.7673
   202.2500     74.1328      0.0000    685.9694     18.5391
   202.5000     74.0036      0.0000    688.7835     18.3444
   202.7500     75.1598      0.0000    690.1640     18.2059
   203.0000     77.1992      0.0000    691.3066     18.1128
   203.2500     79.9910      0.0000    693.7389     18.0346
   203.5000     83.7197      0.0000    698.1807     17.9419
   203.7500     88.4042      0.0000    703.0867     17.8163
   204.0000     93.4573      0.0000    705.1010     17.6539
   204.2500     98.0691      0.0000    701.5944     17.4689
   204.5000    101.8331      0.0000    693.1080     17.2880
   204.7500    104.6023      0.0000    683.4446     17.1343
   205.0000    106.1870      0.0000    677.0543     17.0147
   205.2500    106.8111      0.0000    675.8638     16.9231
   205.5000    107.3837      0.0000    678.3967     16.8495
   205.7500    108.5512      0.0000    681.6102     16.7854
   206.0000    109.7348      0.0000    683.1105     16.7246
   206.2500    109.7590      0.0000    681.9250     16.6613
   206.5000    108.2977      0.0000    678.4861     16.5902
   206.7500    106.2083      0.0000    674.5284     16.5078
   207.0000    104.5385      0.0000    672.1389     16.4167
   207.2500    103.6290      0.0000    671.7201     16.3256
   207.5000    103.0897      0.0000    670.9188     16.2436
   207.7500    102.2650      0.0000    666.3682     16.1722
   208.0000    100.7287      0.0000    656.7930     16.1051
   208.2500     98.6142      0.0000    644.3613     16.0345
   208.5000     96.4919      0.0000    633.0912     15.9538
   208.7500     94.8251      0.0000    626.1617     15.8557
   209.0000     93.5254      0.0000    624.5188     15.7353
   209.2500     91.9757      0.0000    627.0935     15.5995
   209.5000     89.4333      0.0000    631.6251     15.4710
   209.7500     85.7157      0.0000    635.7421     15.3767
   210.0000     81.7886      0.0000    638.1006     15.3289
   210.2500     79.3981      0.0000    638.6718     15.3203
   210.5000     79.7403      0.0000    638.2675     15.3338
   210.7500     82.6005      0.0000    638.5222     15.3548
   211.0000     86.6911      0.0000    641.8051     15.3754
   211.2500     90.4383      0.0000    649.5794     15.3934
   211.5000     92.6784      0.0000    660.5753     15.4119
   211.7500     93.1813      0.0000    671.4658     15.4399
   212.0000     92.5322      0.0000    679.5114     15.4915
   212.2500     91.4058      0.0000    684.1451     15.5785
   212.5000     90.1181      0.0000    686.3600     15.7001
   212.7500     88.6944      0.0000    687.3646     15.8404
   213.0000     86.9442      0.0000    687.8595     15.9750
   213.2500     84.5456      0.0000    687.7607     16.0811
   213.5000     81.4051      0.0000    685.9469     16.1461
   213.7500     78.0435      0.0000    680.6884     16.1748
   214.0000     75.4691      0.0000    671.6301     16.1870
   214.2500     74.4922      0.0000    661.8887     16.1993
   214.5000     75.0411      0.0000    656.9449     16.2013
   214.7500     76.0848      0.0000    659.9619     16.1386
   215.0000     76.2555      0.0000    668.1595     15.9039
   215.2500     74.7823      0.0000    674.6735     15.3496
   215.5000     72.1035      0.0000    674.4396     14.3753
   215.7500     69.7119      0.0000    668.6270     13.0788
