~Version Information
VERS.                      2.0: CWLS Log ASCII Standard - VERSION 2.0
WRAP.                       NO: One line per depth step
~Well Information Block
STRT.FT               780.0000: 
STOP.FT              2866.2000: 
STEP.FT                 0.1000: 
NULL.                -999.2500: 
COMP.          Pioneer Natural Resources: COMPANY
WELL.            Sebring 42-29: WELL
FLD.           Purgatoire River: FIELD
LOC.           1751' FNL & 584' FEL--: LOCATION
PROV.                 Colorado: PROVINCE
CNTY.               Las Animas: COUNTRY
SRVC.                Patterson: SERVICE COMPANY
DATE.          Mon Aug 15 07:11:37 2005: LOG DATE
UWI.           05 071 08293 00: UNIQUE WELL ID
~Curve Information Block
DEPT.FT            0 000 00 00: Depth
DCAL.in                       : CDL Caliper
RHOB.g/cc                     : CDL Bulk Density
RHOC.g/cc                     : CDL Density Correction
DPOR.pu                       : CDL Density Porosity
NPOR.pu                       : Neutron Porosity
GR.GAPI                       : Gamma Ray
~Parameter Information Block
~A  Depth       DCAL        RHOB        RHOC        DPOR        NPOR         GR     
# ...
  1058.4000      8.2137      2.5793      0.0361      4.2843     24.9891    125.2090
  1058.5000      8.2151      2.5957      0.0599      3.2883     25.7287    118.2336
  1058.6000      8.2151      2.6123      0.0529      2.2822     26.2351    117.2008
  1058.7000      8.2151      2.6203      0.0420      1.8022     26.1358    118.5491
  1058.8000      8.2149      2.6173      0.0323      1.9827     25.8858    118.5033
  1058.9000      8.2149      2.6059      0.0354      2.6723     25.6049    118.7930
  1059.0000      8.2135      2.5984      0.0138      3.1291     25.0892    121.5226
  1059.1000      8.2135      2.5927      0.0536      3.4743     24.6759    124.5148
  1059.2000      8.2135      2.5718      0.0121      4.7412     24.6040    124.5296
  1059.3000      8.2142      2.5438      0.0198      6.4351     24.7053    123.9116
  1059.4000      8.2142      2.5286     -0.0132      7.3595     24.6967    127.2193
  1059.5000      8.2151      2.5239      0.0060      7.6436     24.3822    131.0009
  1059.6000      8.2151      2.5255     -0.0338      7.5435     23.8618    128.3813
  1059.7000      8.2151      2.5471     -0.0450      6.2339     23.6555    121.0211
  1059.8000      8.2139      2.5909      0.0132      3.5824     24.1626    114.8756
  1059.9000      8.2139      2.6293      0.0721      1.2533     24.8209    111.8917
  1060.0000      8.2135      2.6483      0.0489      0.1013     25.0111    112.5679
  1060.1000      8.2135      2.6755      0.0174     -1.5434     24.9626    115.4320
  1060.2000      8.2135      2.7306      0.0830     -4.8828     25.2226    116.8444
  1060.3000      8.2144      2.7900      0.0810     -8.4857     26.1271    115.5338
  1060.4000      8.2144      2.8194      0.1354    -10.2661     27.5181    112.3250
  1060.5000      8.2134      2.8131      0.0569     -9.8838     28.8101    107.9518
  1060.6000      8.2134      2.8012      0.0089     -9.1633     29.6629    104.6126
  1060.7000      8.2134      2.8054      0.0507     -9.4190     30.1400    104.0620
  1060.8000      8.2114      2.8093      0.0746     -9.6536     30.2897    104.2375
  1060.9000      8.2114      2.7907      0.0148     -8.5264     30.2808    104.3106
  1061.0000      8.2116      2.7524      0.0532     -6.2033     30.2842    106.5058
  1061.1000      8.2116      2.7141     -0.0035     -3.8873     30.0143    109.6058
  1061.2000      8.2116      2.6943      0.0212     -2.6827     29.3708    110.2553
  1061.3000      8.2132      2.6864      0.0724     -2.2090     28.9155    109.6687
  1061.4000      8.2132      2.6831      0.0127     -2.0085     28.9289    110.5439
  1061.5000      8.2141      2.6943      0.0618     -2.6849     29.0767    113.1255
  1061.6000      8.2141      2.7018      0.1129     -3.1422     29.0348    115.0055
  1061.7000      8.2141      2.6825      0.0094     -1.9704     28.7510    115.3971
  1061.8000      8.2159      2.6584      0.0452     -0.5092     28.5408    116.4290
  1061.9000      8.2159      2.6536      0.0458     -0.2189     28.6379    119.1217
  1062.0000      8.2198      2.6626      0.0462     -0.7622     28.8216    122.7514
  1062.1000      8.2198      2.6724      0.0697     -1.3568     28.9196    125.1966
  1062.2000      8.2198      2.6714      0.0786     -1.2943     29.0251    125.8193
  1062.3000      8.2245      2.6582      0.0369     -0.4994     29.1968    124.2169
  1062.4000      8.2245      2.6502      0.0270     -0.0113     29.5314    120.3511
  1062.5000      8.2285      2.6535      0.0163     -0.2131     30.0838    118.9314
  1062.6000      8.2285      2.6541      0.0504     -0.2479     30.5274    123.1105
  1062.7000      8.2285      2.6426      0.0162      0.4476     30.4140    128.6476
  1062.8000      8.2316      2.6242      0.0102      1.5616     29.7371    130.9111
  1062.9000      8.2316      2.6095     -0.0006      2.4562     28.9682    130.2385
  1063.0000      8.2358      2.6041     -0.0286      2.7834     28.4983    129.7812
  1063.1000      8.2358      2.6033      0.0071      2.8310     28.3542    129.5344
  1063.2000      8.2358      2.5996      0.0064      3.0525     28.2686    125.3117
  1063.3000      8.2388      2.5976     -0.0047      3.1746     27.9664    121.0062
  1063.4000      8.2388      2.5997      0.0316      3.0500     27.2868    123.8881
  1063.5000      8.2388      2.5879      0.0878      3.7621     26.5232    128.7315
  1063.6000      8.2388      2.5642     -0.0505      5.1989     26.3205    127.4543
  1063.7000      8.2388      2.5607      0.0078      5.4115     26.7935    124.4590
  1063.8000      8.2380      2.5728      0.0848      4.6774     27.3230    127.5664
  1063.9000      8.2380      2.5705      0.0589      4.8152     27.4683    133.4028
  1064.0000      8.2372      2.5600      0.0315      5.4574     27.3948    136.5678
  1064.1000      8.2372      2.5624      0.0268      5.3118     27.2529    137.6468
  1064.2000      8.2372      2.5631      0.1234      5.2649     27.1079    137.9722
  1064.3000      8.2374      2.5316      0.0270      7.1754     27.0966    137.7896
  1064.4000      8.2374      2.4768      0.0436     10.4964     27.0750    137.7617
  1064.5000      8.2417      2.4364     -0.0119     12.9449     26.7861    139.3380
  1064.6000      8.2417      2.4346     -0.0031     13.0517     26.2902    140.5907
  1064.7000      8.2417      2.4616      0.0404     11.4183     25.7959    136.6798
  1064.8000      8.2490      2.4920      0.0617      9.5748     25.2732    129.0434
  1064.9000      8.2490      2.5102      0.0343      8.4757     24.3148    125.7522
  1065.0000      8.2574      2.5071      0.1035      8.6584     22.7934    129.8657
  1065.1000      8.2574      2.4790      0.0884     10.3659     21.3493    135.9509
  1065.2000      8.2574      2.4358      0.0697     12.9837     20.4156    137.7062
  1065.3000      8.2686      2.3960      0.0720     15.3956     19.5613    135.0676
  1065.4000      8.2686      2.3773      0.0683     16.5290     18.4656    134.0073
  1065.5000      8.2712      2.3899      0.0763     15.7635     17.3946    136.3617
  1065.6000      8.2712      2.4138      0.1705     14.3129     16.6558    138.6523
  1065.7000      8.2712      2.4107      0.0585     14.5015     16.6326    138.4597
  1065.8000      8.2627      2.3767      0.0600     16.5659     17.5609    137.5917
  1065.9000      8.2627      2.3428      0.0467     18.6204     18.9612    140.8197
  1066.0000      8.2781      2.3306      0.1368     19.3589     20.3787    148.2749
  1066.1000      8.2781      2.3352      0.1454     19.0761     21.9273    155.4329
  1066.2000      8.2781      2.3513      0.1311     18.1027     23.5420    157.0852
  1066.3000      8.3089      2.3768      0.1601     16.5596     24.6147    151.2994
  1066.4000      8.3089      2.4000      0.1816     15.1540     24.6052    144.3146
  1066.5000      8.2808      2.4069      0.2042     14.7327     23.8690    141.8186
  1066.6000      8.2808      2.3972      0.1241     15.3232     23.2549    139.9675
  1066.7000      8.2808      2.3894      0.0929     15.7956     23.0794    136.2742
  1066.8000      8.1947      2.3953      0.1371     15.4335     23.0793    133.8051
  1066.9000      8.1947      2.4080      0.0992     14.6694     22.8555    133.0157
  1067.0000      8.1358      2.4247      0.0644     13.6549     22.3300    133.5262
  1067.1000      8.1358      2.4465      0.1138     12.3329     21.9110    134.9082
  1067.2000      8.1358      2.4672      0.0938     11.0771     22.1087    135.5986
  1067.3000      8.1214      2.4910      0.0557      9.6358     22.7636    134.4408
  1067.4000      8.1214      2.5251      0.0870      7.5725     23.3295    133.5238
  1067.5000      8.1203      2.5601      0.1090      5.4476     23.7107    133.9941
  1067.6000      8.1203      2.5881      0.1187      3.7541     23.9063    133.8794
  1067.7000      8.1203      2.6106      0.0924      2.3886     23.9195    132.7965
  1067.8000      8.1187      2.6218      0.1462      1.7086     24.0742    132.7212
  1067.9000      8.1187      2.6179      0.0845      1.9480     24.4411    132.2701
