~Version Information
VERS.                      2.0: CWLS Log ASCII Standard - VERSION 2.0
WRAP.                       NO: One line per depth step
~Well Information Block
STRT.FT               770.0000: 
STOP.FT              1997.7000: 
STEP.FT                 0.1000: 
NULL.                -999.2500: 
COMP.          Pioneer Natural Resources: COMPANY
WELL.          Titan Federal 34-17: WELL
FLD.           Purgatoire River: FIELD
LOC.           321' FSL & 1911' FEL--: LOCATION
STAT.                 Colorado: State
CNTY.               Las Animas: COUNTY
CTRY. USA : Country
SECT. 17 : Section
TOWN. 32S : Township
RANG. 65W : Range
SRVC.                Patterson: SERVICE COMPANY
DATE.          Thu Oct 06 15:09:27 2005: LOG DATE
API.           05 071 08272 00: UNIQUE WELL ID
~Curve Information Block
DEPT.FT            0 000 00 00: Depth
DCAL.in                       : CDL Caliper
RHOB.g/cc                     : CDL Bulk Density
RHOC.g/cc                     : CDL Density Correction
DPOR.pu                       : CDL Density Porosity
NPOR.pu                       : Neutron Porosity
GR.GAPI                       : Gamma Ray
~Parameter Information Block
~A  Depth       DCAL        RHOB        RHOC        DPOR        NPOR         GR     
# ...
  1250.0000      8.0921      2.5732     -0.0252      4.6569     22.8880     92.1927
  1250.1000      8.0921      2.5799     -0.0168      4.2514     22.7874     91.8033
  1250.2000      8.0921      2.6026      0.0418      2.8748     22.5805     93.0970
  1250.3000      8.0919      2.6005      0.0148      2.9988     22.4401     95.0664
  1250.4000      8.0919      2.5831     -0.0251      4.0543     22.2718     96.0788
  1250.5000      8.0908      2.5803     -0.0301      4.2246     21.9874     95.8323
  1250.6000      8.0908      2.5916     -0.0007      3.5381     21.7932     93.6928
  1250.7000      8.0908      2.6030      0.0068      2.8494     21.9792     88.6931
  1250.8000      8.0896      2.6156     -0.0130      2.0873     22.4059     83.6011
  1250.9000      8.0896      2.6331      0.0645      1.0234     22.5820     82.3055
  1251.0000      8.0891      2.6377      0.0746      0.7452     22.3507     84.8433
  1251.1000      8.0891      2.6171      0.0304      1.9945     21.9885     87.7702
  1251.2000      8.0891      2.5904      0.0043      3.6135     21.8008     88.8917
  1251.3000      8.0902      2.5784      0.0183      4.3420     21.6532     87.7143
  1251.4000      8.0902      2.5800     -0.0097      4.2414     21.4018     85.0134
  1251.5000      8.0907      2.5837      0.0396      4.0158     21.3718     86.1434
  1251.6000      8.0907      2.5798      0.0267      4.2523     21.5102     93.3272
  1251.7000      8.0907      2.5689      0.0142      4.9142     21.3575    101.4290
  1251.8000      8.0892      2.5626      0.0033      5.2947     20.7713    103.8820
  1251.9000      8.0892      2.5695      0.0116      4.8815     20.1381     99.5589
  1252.0000      8.0876      2.5803      0.0530      4.2235     19.8540     93.9743
  1252.1000      8.0876      2.5842      0.0019      3.9880     19.8667     90.3626
  1252.2000      8.0876      2.5854      0.0123      3.9128     19.9283     88.9515
  1252.3000      8.0875      2.5862      0.0362      3.8643     19.7924     89.7684
  1252.4000      8.0875      2.5816      0.0393      4.1435     19.5179     91.8197
  1252.5000      8.0894      2.5753      0.0480      4.5268     19.5503     93.0634
  1252.6000      8.0894      2.5779      0.0460      4.3676     20.0137     90.5248
  1252.7000      8.0894      2.5937      0.0356      3.4124     20.4376     85.8957
  1252.8000      8.0921      2.6120      0.0646      2.3035     20.5125     85.8289
  1252.9000      8.0921      2.6122      0.0740      2.2899     20.5477     90.5006
  1253.0000      8.0930      2.5947      0.0348      3.3493     20.7363     94.7751
  1253.1000      8.0930      2.5877      0.0287      3.7769     21.1152     95.3639
  1253.2000      8.0930      2.6050      0.0626      2.7259     21.9560     91.1144
  1253.3000      8.0926      2.6331      0.0795      1.0265     23.0568     85.4935
  1253.4000      8.0926      2.6599      0.0646     -0.5984     24.0731     83.6988
  1253.5000      8.0918      2.6892      0.0628     -2.3767     24.8858     86.6675
  1253.6000      8.0918      2.7234      0.1060     -4.4455     25.3488     90.1344
  1253.7000      8.0918      2.7514      0.1000     -6.1479     25.6805     89.3609
  1253.8000      8.0924      2.7649      0.0836     -6.9660     26.1891     82.9643
  1253.9000      8.0924      2.7668      0.0754     -7.0784     26.9111     74.5302
  1254.0000      8.0930      2.7578      0.0670     -6.5311     27.7043     69.7992
  1254.1000      8.0930      2.7323      0.0211     -4.9880     28.3604     71.6981
  1254.2000      8.0930      2.6936     -0.0197     -2.6418     28.7689     78.7900
  1254.3000      8.0926      2.6496     -0.0354      0.0222     29.0948     87.1869
  1254.4000      8.0926      2.6033     -0.0365      2.8280     29.6717     93.5484
  1254.5000      8.0919      2.5616     -0.0602      5.3558     30.1177     98.1700
  1254.6000      8.0919      2.5376     -0.0540      6.8116     29.8067    101.8399
  1254.7000      8.0919      2.5329      0.0252      7.0974     29.0026    104.0017
  1254.8000      8.0909      2.5363      0.0229      6.8902     28.3091    106.2819
  1254.9000      8.0909      2.5454      0.0009      6.3381     28.1692    109.9457
  1255.0000      8.0902      2.5567      0.0516      5.6522     28.5866    114.8782
  1255.1000      8.0902      2.5554      0.0474      5.7354     28.9282    122.0722
  1255.2000      8.0902      2.5352      0.0379      6.9556     28.7630    129.8087
  1255.3000      8.0908      2.5021      0.0575      8.9607     28.2256    135.5776
  1255.4000      8.0908      2.4679      0.0315     11.0366     27.5822    139.7514
  1255.5000      8.0919      2.4418      0.0621     12.6172     26.9689    142.4198
  1255.6000      8.0919      2.4210      0.0447     13.8799     26.2857    144.5470
  1255.7000      8.0919      2.4031      0.0267     14.9625     25.4161    147.6012
  1255.8000      8.0953      2.3906      0.0425     15.7224     24.6582    149.1785
  1255.9000      8.0953      2.3774      0.0803     16.5237     24.0205    147.7403
  1256.0000      8.1031      2.3593      0.0273     17.6177     23.1867    146.7343
  1256.1000      8.1031      2.3473     -0.0076     18.3457     22.3204    149.4518
  1256.2000      8.1031      2.3506      0.0305     18.1442     21.5850    154.6604
  1256.3000      8.1101      2.3679      0.0318     17.0944     20.9353    159.9716
  1256.4000      8.1101      2.3952      0.0743     15.4425     20.4238    165.3004
  1256.5000      8.1129      2.4244      0.1134     13.6708     19.8578    169.7606
  1256.6000      8.1129      2.4551      0.0748     11.8123     19.2447    170.1652
  1256.7000      8.1129      2.4933      0.1381      9.4956     19.2969    167.0283
  1256.8000      8.1157      2.5325      0.1349      7.1226     20.3436    163.1082
  1256.9000      8.1157      2.5620      0.1653      5.3343     21.6599    159.2791
  1257.0000      8.1180      2.5768      0.1365      4.4359     22.5383    157.2533
  1257.1000      8.1180      2.5804      0.0529      4.2174     23.0660    156.5586
  1257.2000      8.1180      2.5818      0.0370      4.1333     23.5239    156.4767
  1257.3000      8.1186      2.5842      0.0497      3.9862     23.9499    156.4165
  1257.4000      8.1186      2.5860      0.0378      3.8801     24.2580    153.0823
  1257.5000      8.1197      2.5766      0.0543      4.4504     24.5349    148.2011
  1257.6000      8.1197      2.5414      0.0232      6.5793     24.8040    148.1098
  1257.7000      8.1197      2.4923     -0.0104      9.5567     24.9531    152.1323
  1257.8000      8.1211      2.4603     -0.0115     11.4942     25.1970    156.8819
  1257.9000      8.1211      2.4613     -0.0448     11.4385     25.4836    163.0448
  1258.0000      8.1220      2.4900     -0.0042      9.6961     25.3731    166.7282
  1258.1000      8.1220      2.5302      0.0025      7.2610     25.0089    163.6769
  1258.2000      8.1220      2.5616      0.0318      5.3604     24.9578    157.1379
  1258.3000      8.1222      2.5708      0.0550      4.8005     25.4496    151.4539
  1258.4000      8.1222      2.5667      0.0192      5.0497     26.3102    147.7380
  1258.5000      8.1216      2.5684      0.0187      4.9477     27.0824    147.0513
  1258.6000      8.1216      2.5797      0.0445      4.2625     27.2015    148.1036
  1258.7000      8.1216      2.5867      0.0320      3.8342     26.8214    146.9782
  1258.8000      8.1203      2.5809      0.0314      4.1901     26.7627    143.3480
  1258.9000      8.1203      2.5710      0.0453      4.7854     27.3657    141.2295
  1259.0000      8.1197      2.5603      0.0511      5.4349     28.0164    145.4796
  1259.1000      8.1197      2.5367      0.0501      6.8668     27.8457    155.4639
  1259.2000      8.1197      2.4968      0.0214      9.2822     27.2594    162.1585
  1259.3000      8.1206      2.4581     -0.0437     11.6299     27.2158    158.5478
  1259.4000      8.1206      2.4388     -0.0185     12.8003     27.5930    151.1840
  1259.5000      8.1223      2.4337     -0.0035     13.1111     27.7214    149.9336
