~Version Information
VERS.                      2.0: CWLS Log ASCII Standard - VERSION 2.0
WRAP.                       NO: One line per depth step
~Well Information Block
STRT.FT                 0.5000: 
STOP.FT              2744.2500: 
STEP.FT                 0.2500: 
NULL.                -999.2500: 
COMP.          Petrogulf Corporation: COMPANY
WELL.              Silva 1-43V: WELL
FLD.           Purgatoire River: FIELD
LOC.           2010' FSL & 614' FEL--: LOCATION
PROV.                 Colorado: PROVINCE
CNTY.               Las Animas: COUNTRY
SRVC.                Patterson: SERVICE COMPANY
DATE.          Mon Sep 12 10:37:12 2005: LOG DATE
UWI.           05 071 08371 00: UNIQUE WELL ID
~Curve Information Block
DEPT.FT            0 000 00 00: Depth
CCL.                          : Casing Collar Locator
TT3.usec                      : CBL 3' Travel Time
AMP3.mV                       : CBL 3' Amplitude
GR.GAPI                       : Gamma Ray
~Parameter Information Block
~A  Depth       CCL         TT3         AMP3         GR     
     0.5000   -999.2500   -999.2500   -999.2500     31.2003
     0.7500   -999.2500   -999.2500   -999.2500     36.2793
     1.0000   -999.2500   -999.2500   -999.2500     43.4219
     1.2500   -999.2500   -999.2500   -999.2500     50.6497
     1.5000   -999.2500   -999.2500   -999.2500     56.5897
     1.7500   -999.2500   -999.2500   -999.2500     61.2522
     2.0000   -999.2500   -999.2500   -999.2500     65.3889
     2.2500   -999.2500   -999.2500   -999.2500     69.0440
     2.5000   -999.2500   -999.2500   -999.2500     71.3430
     2.7500   -999.2500   -999.2500   -999.2500     71.8687
     3.0000   -999.2500   -999.2500   -999.2500     71.3525
     3.2500   -999.2500   -999.2500   -999.2500     70.6823
     3.5000   -999.2500   -999.2500   -999.2500     70.0765
     3.7500   -999.2500   -999.2500   -999.2500     69.4422
     4.0000   -999.2500   -999.2500   -999.2500     68.8027
     4.2500   -999.2500   -999.2500   -999.2500     68.3924
     4.5000   -999.2500   -999.2500   -999.2500     68.9535
     4.7500   -999.2500   -999.2500   -999.2500     71.5841
     5.0000   -999.2500   -999.2500   -999.2500     76.5263
     5.2500   -999.2500   -999.2500   -999.2500     82.1470
     5.5000   -999.2500   -999.2500   -999.2500     85.7085
     5.7500   -999.2500   1413.0000      1.5794     85.5185
     6.0000   -999.2500   1413.0000      1.5783     82.4042
     6.2500   -999.2500   1413.0000      1.5777     78.9196
     6.5000   -999.2500   1413.0000      1.5724     77.0882
     6.7500   -999.2500   1413.0000      1.5645     77.0750
     7.0000   -999.2500   1413.0000      1.5613     77.7645
     7.2500   -999.2500   1413.0000      1.5658     78.0319
     7.5000   -999.2500   1413.0000      1.5719     77.4809
     7.7500   -999.2500   1413.0000      1.5685     76.5368
     8.0000   -999.2500   1413.0000      1.5501     75.9381
     8.2500   -999.2500   1413.0000      1.5240     75.7281
     8.5000   -999.2500   1413.0000      1.5087     74.7240
     8.7500   -999.2500   1413.0000      1.5198     71.5145
     9.0000   -999.2500   1413.0000      1.5563     66.2694
     9.2500   -999.2500   1413.0000      1.5996     61.0989
     9.5000   -999.2500   1413.0000      1.6290     58.1631
     9.7500   -999.2500   1413.0000      1.6358     57.6815
    10.0000   -999.2500   1413.0000      1.6254     58.1956
    10.2500   -999.2500   1413.0000      1.6101     58.4799
    10.5000   -999.2500   1413.0000      1.6014     58.6345
    10.7500   -999.2500   1413.0000      1.6049     59.4039
    11.0000   -999.2500   1413.0000      1.6191     60.9817
    11.2500   -999.2500   1413.0000      1.6371     62.6873
    11.5000      0.0000   1413.0000      1.6497     63.5962
    11.7500      0.0000   1413.0000      1.6495     63.3641
    12.0000      0.0000   1413.0000      1.6355     62.4029
    12.2500      0.0000   1413.0000      1.6142     61.2791
    12.5000      0.0000   1413.0000      1.5966     60.1346
    12.7500      0.0000   1412.9886      1.5903     58.8097
    13.0000      0.0000   1412.9261      1.5955     57.3522
    13.2500      0.0000   1412.6024      1.6068     56.1827
    13.5000      0.0000   1411.3699      1.6189     55.7641
    13.7500     -2.0000   1407.6849      1.6282     56.1901
    14.0000      2.0000   1399.0448      1.6327     57.0817
    14.2500      0.0000   1383.0751      1.6377     57.8536
    14.5000      0.0000   1359.4100      1.6701     58.0410
    14.7500      0.0000   1329.8416      1.8334     57.4771
    15.0000      0.0000   1293.8170      2.4527     56.4554
    15.2500      2.0000   1240.8452      4.3191     55.7756
    15.5000     -2.0000   1149.4596      8.8159     56.1670
    15.7500      0.0000   1002.4701     17.4408     57.4733
    16.0000      0.0000    809.4939     30.5657     58.8119
    16.2500      0.0000    610.1937     46.3882     59.8318
    16.5000      0.0000    448.9312     61.4940     61.4033
    16.7500      0.0000    346.3353     72.9155     64.5200
    17.0000      0.0000    294.8020     79.7526     68.6975
    17.2500      0.0000    274.3008     82.9851     72.0804
    17.5000      0.0000    267.8366     84.1761     73.2533
    17.7500      0.0000    266.2198     84.4875     72.4932
    18.0000      0.0000    265.9071     84.4958     71.2858
    18.2500      0.0000    265.8741     84.4245     71.1411
    18.5000      0.0000    265.8869     84.3681     72.7256
    18.7500      0.0000    265.9030     84.3772     75.3967
    19.0000      0.0000    265.9199     84.4582     77.5473
    19.2500      0.0000    265.9367     84.5757     77.9651
    19.5000      0.0000    265.9511     84.6840     76.8381
    19.7500      0.0000    265.9604     84.7587     75.1150
    20.0000      0.0000    265.9630     84.8044     73.3496
    20.2500      0.0000    265.9599     84.8422     71.7645
    20.5000      0.0000    265.9531     84.8936     70.8005
    20.7500      0.0000    265.9439     84.9682     70.6117
    21.0000      0.0000    265.9327     85.0581     70.2723
    21.2500      0.0000    265.9214     85.1402     68.4033
    21.5000      0.0000    265.9144     85.1861     64.7490
    21.7500      0.0000    265.9175     85.1790     60.6969
    22.0000      0.0000    265.9333     85.1263     58.2000
    22.2500      0.0000    265.9598     85.0558     58.4988
    22.5000      0.0000    265.9925     84.9944     61.7878
    22.7500      0.0000    266.0271     84.9479     67.4682
    23.0000      0.0000    266.0609     84.8996     74.5254
    23.2500      0.0000    266.0920     84.8284     82.0641
    23.5000      0.0000    266.1182     84.7316     89.6320
    23.7500      0.0000    266.1368     84.6312     96.7259
    24.0000      0.0000    266.1469     84.5599    102.1723
    24.2500      0.0000    266.1493     84.5402    104.6616
    24.5000      0.0000    266.1462     84.5731    103.9448
    24.7500      0.0000    266.1400     84.6410    101.0102
    25.0000      0.0000    266.1332     84.7182     97.0644
    25.2500      0.0000    266.1283     84.7844     92.6101
    25.5000      0.0000    266.1262     84.8318     87.3815
    25.7500      0.0000    266.1262     84.8626     80.9809
    26.0000      0.0000    266.1285     84.8772     73.6727
    26.2500      0.0000    266.1364     84.8668     66.6720
    26.5000      0.0000    266.1543     84.8216     61.5090
    26.7500      0.0000    266.1829     84.7458     58.8920
    27.0000      0.0000    266.2164     84.6613     58.1889
    27.2500      0.0000    266.2455     84.5964     58.1099
    27.5000      0.0000    266.2630     84.5697     57.9256
    27.7500      0.0000    266.2672     84.5847     57.8993
    28.0000      0.0000    266.2623     84.6328     58.5141
    28.2500      0.0000    266.2559     84.6983     59.5659
    28.5000      0.0000    266.2552     84.7629     60.3388
    28.7500      0.0000    266.2627     84.8117     60.4742
    29.0000      0.0000    266.2764     84.8386     60.2107
    29.2500      0.0000    266.2928     84.8458     59.8779
    29.5000      0.0000    266.3102     84.8378     59.6146
    29.7500      0.0000    266.3284     84.8176     59.5166
    30.0000      0.0000    266.3455     84.7930     59.5818
    30.2500      0.0000    266.3564     84.7799     59.4829
    30.5000      0.0000    266.3560     84.7893     58.7925
    30.7500      0.0000    266.3441     84.8144     57.5349
    31.0000      0.0000    266.3261     84.8415     56.2687
    31.2500      0.0000    266.3092     84.8711     55.6322
    31.5000      0.0000    266.2969     84.9194     55.9644
    31.7500      0.0000    266.2888     84.9966     57.1764
    32.0000      0.0000    266.2831     85.0888     58.7338
    32.2500      0.0000    266.2795     85.1586     59.9624
    32.5000      0.0000    266.2804     85.1595     60.4947
    32.7500      0.0000    266.2902     85.0585     60.2686
    33.0000      0.0000    266.3120     84.8572     59.3272
    33.2500      0.0000    266.3429     84.5990     57.9238
    33.5000      0.0000    266.3734     84.3535     56.5114
    33.7500      0.0000    266.3918     84.1824     55.2862
