~Version Information
VERS.                      2.0: CWLS Log ASCII Standard - VERSION 2.0
WRAP.                       NO: One line per depth step
~Well Information Block
STRT.FT               902.0000: 
STOP.FT              2428.2000: 
STEP.FT                 0.1000: 
NULL.                -999.2500: 
COMP.          Pioneer Natural Resources: COMPANY
WELL.            Victory 12-14: WELL
FLD.           Purgatoire River: FIELD
LOC.           2434' FNL & 188' FWL: LOCATION
PROV.                 Colorado: PROVINCE
CNTY.               Las Animas: COUNTRY
SRVC.                Patterson: SERVICE COMPANY
DATE.          Mon Apr 18 07:24:17 2005: LOG DATE
UWI.           05 071 08332 00: UNIQUE WELL ID
~Curve Information Block
DEPT.FT            0 000 00 00: Depth
DCAL.in                       : CDL Caliper
RHOB.g/cc                     : CDL Bulk Density
RHOC.g/cc                     : CDL Density Correction
DPOR.pu                       : CDL Density Porosity
GR.GAPI                       : Gamma Ray
NPOR.pu                       : Neutron Porosity
~Parameter Information Block
~A  Depth       DCAL        RHOB        RHOC        DPOR         GR         NPOR    
# ...
  2006.0000      8.0413      2.5217      0.0137      7.7786    120.3715     26.5912
  2006.1000      8.0413      2.5076      0.0113      8.6273    124.0303     26.0687
  2006.2000      8.0413      2.5301     -0.0032      7.2638    130.2478     26.0031
  2006.3000      7.9886      2.5787      0.0574      4.3187    136.3226     26.2185
  2006.4000      7.9886      2.6248      0.1227      1.5281    136.7850     26.2588
  2006.5000      7.9823      2.6500      0.0997     -0.0006    133.5893     26.1253
  2006.6000      7.9823      2.6528      0.1082     -0.1702    134.8201     26.0145
  2006.7000      7.9823      2.6367      0.0572      0.8057    138.1725     25.9326
  2006.8000      7.9821      2.6204      0.0069      1.7950    137.7599     25.8802
  2006.9000      7.9821      2.6152      0.0471      2.1113    134.4147     26.0393
  2007.0000      7.9796      2.6057      0.0497      2.6829    129.9792     26.2193
  2007.1000      7.9796      2.5839      0.0725      4.0089    128.7923     25.9371
  2007.2000      7.9796      2.5715     -0.0162      4.7592    133.4913     25.4818
  2007.3000      7.9821      2.5880      0.0274      3.7554    136.9516     25.5120
  2007.4000      7.9821      2.6119      0.0298      2.3072    135.9646     25.9323
  2007.5000      7.9829      2.6145      0.0683      2.1523    135.4384     26.0924
  2007.6000      7.9829      2.6032      0.0101      2.8334    136.8062     25.8723
  2007.7000      7.9829      2.6012      0.0432      2.9552    135.2684     25.7038
  2007.8000      7.9828      2.6038      0.0748      2.7975    127.6752     25.8004
  2007.9000      7.9828      2.5933      0.0138      3.4350    120.6210     26.0261
  2008.0000      7.9818      2.5687      0.0814      4.9297    121.2960     26.1572
  2008.1000      7.9818      2.5415     -0.0084      6.5732    125.9556     26.0610
  2008.2000      7.9818      2.5233      0.0430      7.6787    126.5924     25.7084
  2008.3000      7.9604      2.5104      0.0014      8.4578    125.0029     25.2682
  2008.4000      7.9604      2.4993      0.0026      9.1306    125.0951     24.9950
  2008.5000      7.9449      2.4996     -0.0073      9.1144    121.7210     24.9096
  2008.6000      7.9449      2.5117      0.0688      8.3833    115.5988     24.8063
  2008.7000      7.9449      2.5259      0.0566      7.5186    116.3229     24.5146
  2008.8000      7.9327      2.5523      0.0824      5.9232    124.1712     24.0847
  2008.9000      7.9327      2.5954      0.1345      3.3084    130.1354     23.8676
  2009.0000      7.9317      2.6241      0.1920      1.5681    129.1428     24.2289
  2009.1000      7.9317      2.6115      0.1058      2.3353    123.9225     24.8387
  2009.2000      7.9317      2.5768      0.0329      4.4392    120.4829     24.9569
  2009.3000      7.9337      2.5503      0.0476      6.0449    119.9933     24.5612
  2009.4000      7.9337      2.5369     -0.0022      6.8519    121.1550     24.2904
  2009.5000      7.9440      2.5345      0.0338      6.9989    124.7853     24.3736
  2009.6000      7.9440      2.5470      0.0487      6.2417    128.6217     24.4065
  2009.7000      7.9440      2.5665      0.1491      5.0581    128.4670     24.3277
  2009.8000      7.9459      2.5735      0.0932      4.6380    122.7950     24.5911
  2009.9000      7.9459      2.5691      0.0397      4.9028    116.3565     25.0388
  2010.0000      7.9525      2.5732      0.0769      4.6530    116.6718     25.0914
  2010.1000      7.9525      2.5964      0.1104      3.2512    122.6637     24.9362
  2010.2000      7.9525      2.6329      0.1022      1.0385    127.7421     25.0399
  2010.3000      7.9461      2.6686      0.1529     -1.1249    129.5454     25.3409
  2010.4000      7.9461      2.6911      0.1383     -2.4938    127.1398     25.3751
  2010.5000      7.9087      2.6940      0.1283     -2.6687    121.6421     24.9937
  2010.6000      7.9087      2.6761      0.0794     -1.5833    118.6341     24.6655
  2010.7000      7.9087      2.6570      0.0380     -0.4257    119.2611     24.7966
  2010.8000      7.9100      2.6622      0.1032     -0.7385    119.2078     25.2158
  2010.9000      7.9100      2.6771      0.1046     -1.6445    118.4128     25.4752
  2011.0000      7.9298      2.6641      0.1063     -0.8533    121.5513     25.2444
  2011.1000      7.9298      2.6147      0.1098      2.1396    129.0263     24.6231
  2011.2000      7.9298      2.5597     -0.0152      5.4749    132.8194     24.3576
  2011.3000      7.9382      2.5288      0.0131      7.3439    128.2323     24.6824
  2011.4000      7.9382      2.5288     -0.0484      7.3460    123.7419     24.9745
  2011.5000      7.9743      2.5575      0.0220      5.6073    126.5751     25.0398
  2011.6000      7.9743      2.5963      0.0553      3.2535    130.7245     25.2607
  2011.7000      7.9743      2.6151      0.1075      2.1178    129.4486     25.5574
  2011.8000      7.9543      2.6124      0.0345      2.2788    126.3407     25.3928
  2011.9000      7.9543      2.6139      0.0207      2.1886    126.5445     24.6692
  2012.0000      7.9523      2.6134      0.1172      2.2190    129.3391     23.8922
  2012.1000      7.9523      2.5864      0.0353      3.8569    131.8368     23.7132
  2012.2000      7.9523      2.5451      0.0295      6.3582    130.8174     24.4933
  2012.3000      7.9604      2.5218     -0.0046      7.7708    125.7567     25.5958
  2012.4000      7.9604      2.5284      0.0165      7.3698    120.7017     26.0518
  2012.5000      7.9674      2.5539     -0.0375      5.8264    117.0041     25.8408
  2012.6000      7.9674      2.5799      0.0580      4.2489    112.0705     25.4739
  2012.7000      7.9674      2.5941      0.0251      3.3902    104.3214     25.3495
  2012.8000      7.9614      2.6077      0.0388      2.5613     97.4095     25.5069
  2012.9000      7.9614      2.6289      0.1129      1.2788     99.5855     25.6150
  2013.0000      7.9602      2.6430      0.0682      0.4230    108.0765     25.6660
  2013.1000      7.9602      2.6474      0.0554      0.1560    111.5511     26.0683
  2013.2000      7.9602      2.6439      0.0754      0.3667    109.9794     26.7940
  2013.3000      7.9507      2.6304      0.0624      1.1907    111.0735     27.3231
  2013.4000      7.9507      2.6302      0.0333      1.1993    115.4176     27.3699
  2013.5000      7.9178      2.6589      0.1385     -0.5409    118.1821     27.0353
  2013.6000      7.9178      2.6869      0.1414     -2.2385    117.8912     26.6759
  2013.7000      7.9178      2.6926      0.1089     -2.5791    119.5201     26.5061
  2013.8000      7.9161      2.6816      0.0903     -1.9131    122.5941     26.5243
  2013.9000      7.9161      2.6567      0.1254     -0.4070    121.5251     26.7175
  2014.0000      7.9003      2.6293      0.0393      1.2560    118.0452     26.7295
  2014.1000      7.9003      2.6203      0.0257      1.7987    115.0787     26.1122
  2014.2000      7.9003      2.6206      0.0572      1.7826    110.3918     25.2463
  2014.3000      7.9060      2.6061      0.0294      2.6612    105.8694     24.7450
  2014.4000      7.9060      2.5834     -0.0203      4.0348    105.7850     24.4967
  2014.5000      7.9022      2.5773     -0.0041      4.4062    109.6351     24.1374
  2014.6000      7.9022      2.5971      0.0283      3.2036    115.6560     23.8753
  2014.7000      7.9022      2.6330      0.0685      1.0310    120.1581     24.0499
  2014.8000      7.9548      2.6662      0.0494     -0.9843    118.8979     24.3121
  2014.9000      7.9548      2.6801      0.0539     -1.8259    114.8469     24.3428
  2015.0000      7.9544      2.6726      0.0625     -1.3679    115.5132     24.3216
  2015.1000      7.9544      2.6600      0.0351     -0.6060    119.3910     24.4202
  2015.2000      7.9544      2.6555      0.0732     -0.3335    117.3992     24.7661
  2015.3000      7.9538      2.6506      0.0343     -0.0369    110.5977     25.0869
  2015.4000      7.9538      2.6355      0.0716      0.8814    105.5506     24.9064
  2015.5000      7.9498      2.6081      0.0520      2.5368    103.3530     24.4489
