~Version Information
VERS.                      2.0: CWLS Log ASCII Standard - VERSION 2.0
WRAP.                       NO: One line per depth step
~Well Information Block
STRT.FT               454.0000: 
STOP.FT              1392.0000: 
STEP.FT                 0.2500: 
NULL.                -999.2500: 
COMP.          Pioneer Natural Resources: COMPANY
WELL.          Lorencito 6-3-34-66: WELL
FLD.           Purgatoire River: FIELD
LOC.           2545' FNL & 1914' FWL: LOCATION
STAT.                 Colorado: State
CNTY.               Las Animas: COUNTY
CTRY. USA : Country
SECT. 3 : Section
TOWN. 34S : Township
RANG. 66W : Range
SRVC.                Patterson: SERVICE COMPANY
DATE.          Fri Sep 09 22:07:39 2005: LOG DATE
API.           05 071 08369 00: UNIQUE WELL ID
~Curve Information Block
DEPT.FT            0 000 00 00: Depth
SN.Ohm-m                      : IEL Short Normal
SP.mV                         : IEL Spontaneous Potential
DIR.Ohm-m                     : IEL Induction Resistivity
GR.GAPI                       : Gamma Ray
~Parameter Information Block
~A  Depth        SN          SP         DIR          GR     
# ...
   755.5000     28.7996     40.8303     21.3729     54.3094
   755.7500     28.9843     39.4243     21.2394     53.9915
   756.0000     29.2061     37.9761     21.1967     55.1558
   756.2500     29.4823     36.5837     21.3042     57.4426
   756.5000     29.8174     35.3019     21.5873     63.0129
   756.7500     30.2057     34.0949     22.0296     67.5672
   757.0000     30.6343     32.8902     22.5734     74.4141
   757.2500     31.0771     31.7132     23.1288     78.3886
   757.5000     31.4878     30.7272     23.5939     82.6018
   757.7500     31.8096     30.1019     23.8864     83.8776
   758.0000     31.9976     29.8682     23.9679     83.5647
   758.2500     32.0367     29.9126     23.8534     82.3936
   758.5000     31.9444     30.0652     23.5925     80.4556
   758.7500     31.7613     30.1960     23.2461     79.7247
   759.0000     31.5388     30.2906     22.8638     80.2724
   759.2500     31.3213     30.4428     22.4736     81.9376
   759.5000     31.1256     30.7275     22.0872     86.4731
   759.7500     30.9312     31.0706     21.7076     90.8643
   760.0000     30.6828     31.2781     21.3384     99.3243
   760.2500     30.3006     31.1993     20.9877    105.8539
   760.5000     29.6966     30.8469     20.6668    115.8060
   760.7500     28.8096     30.3622     20.3859    121.5289
   761.0000     27.6553     29.8917     20.1499    126.9722
   761.2500     26.3592     29.5094     19.9535    128.1751
   761.5000     25.1308     29.2246     19.7823    127.8412
   761.7500     24.1790     29.0103     19.6173    127.7247
   762.0000     23.6191     28.8001     19.4417    129.4309
   762.2500     23.4311     28.4813     19.2464    131.8365
   762.5000     23.4909     27.9313     19.0336    136.3777
   762.7500     23.6445     27.0843     18.8165    139.3756
   763.0000     23.7773     25.9731     18.6152    143.0426
   763.2500     23.8436     24.7181     18.4497    144.7596
   763.5000     23.8582     23.4781     18.3363    146.2351
   763.7500     23.8678     22.3870     18.2852    146.3944
   764.0000     23.9264     21.5033     18.2991    145.0081
   764.2500     24.0781     20.8022     18.3739    142.8931
   764.5000     24.3486     20.2034     18.4991    138.4146
   764.7500     24.7402     19.5934     18.6584    135.1055
   765.0000     25.2334     18.8436     18.8293    130.3110
   765.2500     25.7943     17.8722     18.9857    127.2166
   765.5000     26.3826     16.7483     19.1009    122.5402
   765.7500     26.9611     15.7338     19.1542    119.6432
   766.0000     27.5038     15.1671     19.1371    116.5694
   766.2500     27.9969     15.2327     19.0585    115.6422
   766.5000     28.4233     15.7961     18.9437    115.2689
   766.7500     28.7404     16.4503     18.8286    115.0534
   767.0000     28.8724     16.7369     18.7484    114.3730
   767.2500     28.7353     16.3667     18.7286    113.9120
   767.5000     28.2861     15.2926     18.7771    113.6894
   767.7500     27.5573     13.6430     18.8810    114.0220
   768.0000     26.6497     11.6284     19.0083    115.5401
   768.2500     25.6871      9.4859     19.1144    117.3722
   768.5000     24.7699      7.4384     19.1539    121.0754
   768.7500     23.9592      5.6271     19.0945    123.6410
   769.0000     23.2935      4.0378     18.9295    126.5625
   769.2500     22.8143      2.4929     18.6811    127.5268
   769.5000     22.5714      0.7663     18.3955    127.4130
   769.7500     22.6009     -1.2321     18.1312    126.4217
   770.0000     22.8927     -3.3513     17.9465    124.0626
   770.2500     23.3736     -5.2939     17.8919    122.3672
   770.5000     23.9214     -6.8516     18.0052    120.2039
   770.7500     24.4093     -8.0723     18.3107    118.9574
   771.0000     24.7579     -9.2028     18.8154    116.8836
   771.2500     24.9663    -10.4551     19.5066    115.1837
   771.5000     25.0996    -11.8078     20.3449    112.2942
   771.7500     25.2433    -13.0139     21.2589    110.4090
   772.0000     25.4593    -13.7804     22.1493    108.1324
   772.2500     25.7734    -13.9481     22.9053    107.0881
   772.5000     26.1889    -13.5529     23.4374    105.9565
   772.7500     26.7010    -12.7883     23.7072    105.2404
   773.0000     27.2955    -11.9236     23.7385    104.0912
   773.2500     27.9423    -11.2109     23.6004    103.3556
   773.5000     28.5952    -10.8013     23.3712    102.2207
   773.7500     29.2011    -10.7126     23.1128    101.2010
   774.0000     29.7055    -10.8734     22.8536     99.1557
   774.2500     30.0508    -11.2063     22.5895     97.8867
   774.5000     30.1841    -11.6699     22.2914     97.2506
   774.7500     30.0870    -12.2323     21.9202     97.8446
   775.0000     29.8091    -12.8384     21.4404     99.2617
   775.2500     29.4658    -13.4254     20.8341     99.7461
   775.5000     29.1793    -13.9560     20.1082     99.3554
   775.7500     28.9895    -14.4185     19.2945     98.9114
   776.0000     28.8018    -14.7963     18.4407     99.7424
   776.2500     28.4173    -15.0467     17.5983    102.2968
   776.5000     27.6379    -15.1243     16.8108    110.0407
   776.7500     26.3802    -15.0420     16.1063    117.5891
   777.0000     24.7247    -14.8970     15.4953    130.7074
   777.2500     22.8737    -14.8051     14.9719    139.1577
   777.5000     21.0561    -14.8084     14.5181    149.2649
   777.7500     19.4466    -14.8576     14.1096    153.7621
   778.0000     18.1329    -14.8593     13.7217    157.4571
   778.2500     17.1267    -14.7164     13.3363    158.4525
   778.5000     16.4001    -14.3471     12.9454    158.5871
   778.7500     15.9262    -13.7056     12.5520    157.9411
   779.0000     15.6909    -12.8049     12.1674    155.9776
   779.2500     15.6672    -11.7258     11.8054    154.2543
   779.5000     15.7776    -10.6015     11.4789    151.5306
   779.7500     15.8989     -9.5651     11.1959    149.6145
   780.0000     15.9211     -8.6773     10.9606    146.3274
   780.2500     15.8052     -7.8889     10.7734    143.9090
   780.5000     15.5829     -7.0716     10.6339    140.2998
   780.7500     15.3050     -6.0956     10.5424    138.0831
   781.0000     14.9977     -4.8922     10.5007    135.5784
   781.2500     14.6656     -3.4693     10.5125    135.1738
   781.5000     14.3255     -1.9092     10.5823    137.8826
   781.7500     14.0263     -0.3711     10.7136    142.1131
   782.0000     13.8421      0.9363     10.9066    150.7193
   782.2500     13.8516      1.8443     11.1560    156.5069
   782.5000     14.1188      2.3183     11.4494    162.9557
   782.7500     14.6751      2.4664     11.7675    165.0166
   783.0000     15.4956      2.4421     12.0869    164.6348
   783.2500     16.4867      2.3121     12.3862    162.3895
   783.5000     17.5108      2.0022     12.6537    156.4234
   783.7500     18.4517      1.3655     12.8925    150.6427
   784.0000     19.2820      0.2891     13.1211    139.2764
   784.2500     20.0759     -1.2617     13.3701    130.5566
   784.5000     20.9574     -3.2410     13.6752    118.1335
   784.7500     22.0154     -5.5041     14.0710    111.8118
   785.0000     23.2412     -7.8042     14.5850    106.8091
   785.2500     24.5223     -9.8537     15.2348    106.4179
   785.5000     25.7004    -11.4231     16.0239    108.7672
   785.7500     26.6722    -12.4302     16.9382    111.0330
   786.0000     27.4782    -12.9674     17.9437    113.7610
   786.2500     28.2998    -13.2322     18.9868    114.7880
   786.5000     29.3367    -13.4071     20.0009    115.4218
   786.7500     30.6386    -13.5867     20.9188    115.4372
   787.0000     32.0318    -13.7817     21.6830    114.9523
   787.2500     33.2067    -13.9407     22.2533    114.5181
   787.5000     33.8980    -13.9684     22.6070    114.5865
   787.7500     34.0135    -13.7728     22.7317    115.5043
   788.0000     33.6338    -13.3359     22.6238    118.2158
   788.2500     32.9282    -12.7477     22.2884    120.8697
   788.5000     32.0683    -12.1666     21.7462    126.3576
   788.7500     31.1807    -11.7338     21.0375    131.0159
