~Version Information
VERS.                      2.0: CWLS Log ASCII Standard - VERSION 2.0
WRAP.                       NO: One line per depth step
~Well Information Block
STRT.FT               630.0000: 
STOP.FT              1155.5000: 
STEP.FT                 0.1000: 
NULL.                -999.2500: 
COMP.          Pioneer Natural Resources: COMPANY
WELL.          Drewmeister 34-34: WELL
FLD.           Purgatoire River: FIELD
LOC.           958' FSL & 1857' FEL: LOCATION
STAT.                 Colorado: State
CNTY.               Las Animas: COUNTY
CTRY. USA : Country
SECT. 34 : Section
TOWN. 32S : Township
RANG. 65W : Range
SRVC.                Patterson: SERVICE COMPANY
DATE.          Tue Oct 04 08:23:16 2005: LOG DATE
API.           05 071 08131 00: UNIQUE WELL ID
~Curve Information Block
DEPT.FT            0 000 00 00: Depth
DCAL.in                       : CDL Caliper
RHOB.g/cc                     : CDL Bulk Density
RHOC.g/cc                     : CDL Density Correction
DPOR.pu                       : CDL Density Porosity
GR.GAPI                       : Gamma Ray
NPOR.pu                       : Neutron Porosity
~Parameter Information Block
~A  Depth       DCAL        RHOB        RHOC        DPOR         GR         NPOR    
# ...
   764.4000      8.0913      2.6551      0.1289     -0.3097     83.5250     20.5675
   764.5000      8.0915      2.6549      0.1138     -0.2973     84.9755     19.5801
   764.6000      8.0915      2.6401      0.1082      0.5977     85.3173     18.6948
   764.7000      8.0915      2.6186      0.0718      1.9007     85.4676     18.2386
   764.8000      8.0916      2.5953      0.0765      3.3179     85.7636     18.0921
   764.9000      8.0916      2.5740      0.0512      4.6090     83.3715     18.1151
   765.0000      8.0930      2.5564      0.0389      5.6719     77.8583     18.1626
   765.1000      8.0930      2.5431      0.0094      6.4788     72.2933     17.8481
   765.2000      8.0930      2.5278      0.0226      7.4082     69.5497     17.2744
   765.3000      8.0942      2.5046      0.0132      8.8139     67.6581     16.9898
   765.4000      8.0942      2.4848      0.0297     10.0103     62.2853     17.1201
   765.5000      8.0930      2.4798      0.0240     10.3134     55.9860     17.3919
   765.6000      8.0930      2.4848      0.0149     10.0128     54.4858     17.4506
   765.7000      8.0930      2.4904      0.0335      9.6713     58.0348     17.3241
   765.8000      8.0916      2.5003     -0.0334      9.0739     62.4581     17.3056
   765.9000      8.0916      2.5238      0.0394      7.6456     64.5228     17.2352
   766.0000      8.0907      2.5583      0.0471      5.5551     66.3097     16.9854
   766.1000      8.0907      2.5947      0.0758      3.3511     70.3938     16.6743
   766.2000      8.0907      2.6140      0.1380      2.1803     73.7603     16.2288
   766.3000      8.0897      2.6068      0.0724      2.6211     70.9023     15.8466
   766.4000      8.0897      2.5916      0.0781      3.5378     64.0205     15.7761
   766.5000      8.0887      2.5795      0.0567      4.2727     61.4157     15.9070
   766.6000      8.0887      2.5645      0.0722      5.1820     62.0055     16.1254
   766.7000      8.0887      2.5397      0.0682      6.6821     60.2201     16.5867
   766.8000      8.0884      2.5081     -0.0320      8.6004     59.0512     17.0899
   766.9000      8.0884      2.4901     -0.0442      9.6930     63.9096     17.0402
   767.0000      8.0894      2.4974     -0.0130      9.2476     70.9844     16.3482
   767.1000      8.0894      2.5108      0.0286      8.4386     73.2331     15.6050
   767.2000      8.0894      2.5090      0.0336      8.5440     70.8603     15.5693
   767.3000      8.0907      2.4997      0.0041      9.1111     67.4081     16.3742
   767.4000      8.0907      2.4904      0.0243      9.6707     63.8851     16.9542
   767.5000      8.0924      2.4721      0.0151     10.7793     60.8808     16.6056
   767.6000      8.0924      2.4499     -0.0153     12.1268     58.8391     16.1874
   767.7000      8.0924      2.4417     -0.0380     12.6263     57.5377     16.4747
   767.8000      8.0938      2.4504      0.0193     12.0981     57.5538     17.1534
   767.9000      8.0938      2.4697      0.0198     10.9301     59.1281     17.4187
   768.0000      8.0929      2.4965      0.0023      9.3025     60.0961     16.9117
   768.1000      8.0929      2.5166      0.0725      8.0829     59.1664     16.2381
   768.2000      8.0929      2.5097      0.0441      8.5036     59.7195     16.0164
   768.3000      8.0914      2.4858      0.0114      9.9532     62.2774     16.2439
   768.4000      8.0914      2.4697      0.0221     10.9261     61.7494     16.9779
   768.5000      8.0906      2.4630      0.0203     11.3342     57.0407     17.9831
   768.6000      8.0906      2.4579      0.0062     11.6409     53.5596     18.4620
   768.7000      8.0906      2.4610      0.0027     11.4552     54.6419     18.2032
   768.8000      8.0902      2.4765      0.0355     10.5145     59.6277     17.9157
   768.9000      8.0902      2.4913      0.0565      9.6165     64.8897     18.0398
   769.0000      8.0905      2.4934      0.0288      9.4882     66.0336     18.2207
   769.1000      8.0905      2.4895      0.0222      9.7245     64.2167     18.3350
   769.2000      8.0905      2.4887      0.0597      9.7748     65.7836     18.6704
   769.3000      8.0908      2.4896      0.0524      9.7230     71.2977     19.2332
   769.4000      8.0908      2.4943      0.0540      9.4371     74.6846     19.7581
   769.5000      8.0907      2.5053      0.0579      8.7717     75.3480     19.9893
   769.6000      8.0907      2.5107      0.1032      8.4407     75.4096     19.5470
   769.7000      8.0907      2.4996      0.0688      9.1152     73.8144     18.3622
   769.8000      8.0908      2.4802      0.0412     10.2917     71.5923     17.3389
   769.9000      8.0908      2.4661      0.0537     11.1429     72.0840     17.2907
   770.0000      8.0904      2.4648      0.0159     11.2236     74.4625     18.0550
   770.1000      8.0904      2.4794      0.0758     10.3390     73.9261     18.9832
   770.2000      8.0904      2.5086      0.0800      8.5692     69.5168     19.6327
   770.3000      8.0875      2.5514      0.0828      5.9768     65.1471     19.9791
   770.4000      8.0875      2.5995      0.1654      3.0633     63.7425     19.9512
   770.5000      8.0850      2.6332      0.1870      1.0191     68.0027     19.6149
   770.6000      8.0850      2.6388      0.1382      0.6777     75.9688     19.3315
   770.7000      8.0850      2.6148      0.1310      2.1355     79.7581     19.1041
   770.8000      8.0876      2.5645      0.1304      5.1844     77.2591     18.8394
   770.9000      8.0876      2.5031      0.0515      8.9028     76.5033     18.8728
   771.0000      8.0904      2.4540      0.0220     11.8808     81.8565     19.5996
   771.1000      8.0904      2.4261      0.0099     13.5722     88.0197     20.6600
   771.2000      8.0904      2.4135     -0.0023     14.3306     90.2996     21.5127
   771.3000      8.0908      2.4135     -0.0117     14.3335     90.3966     22.2376
   771.4000      8.0908      2.4315      0.0020     13.2432     92.5854     22.9186
   771.5000      8.0913      2.4674      0.0377     11.0674     98.9243     23.6454
   771.6000      8.0913      2.5114      0.0866      8.3998    106.8421     24.6006
   771.7000      8.0913      2.5520      0.1602      5.9423    111.5595     25.4122
   771.8000      8.0919      2.5758      0.1699      4.4994    113.3626     25.5644
   771.9000      8.0919      2.5795      0.1043      4.2703    117.2379     25.2363
   772.0000      8.0914      2.5763      0.0655      4.4655    121.1882     25.0340
   772.1000      8.0914      2.5724      0.0458      4.7001    119.1873     24.9917
   772.2000      8.0914      2.5599      0.0466      5.4635    115.2118     24.8957
   772.3000      8.0908      2.5370      0.0148      6.8455    115.0016     24.7012
   772.4000      8.0908      2.5185     -0.0194      7.9706    115.2169     24.2159
   772.5000      8.0912      2.5137      0.0214      8.2622    111.8082     23.3935
   772.6000      8.0912      2.5210      0.0144      7.8204    106.8015     22.7865
   772.7000      8.0912      2.5364      0.0108      6.8820    104.8935     22.7698
   772.8000      8.0915      2.5443      0.0677      6.4047    106.5045     23.0283
   772.9000      8.0915      2.5285      0.0599      7.3641    108.6947     23.3477
   773.0000      8.0912      2.4991      0.0113      9.1433    110.9387     23.5934
   773.1000      8.0912      2.4761      0.0036     10.5370    115.1768     23.8143
   773.2000      8.0912      2.4556      0.0426     11.7821    124.9369     23.9797
   773.3000      8.0915      2.4291     -0.0013     13.3882    137.0462     23.8625
   773.4000      8.0915      2.4106     -0.0073     14.5115    139.4688     23.9554
   773.5000      8.0933      2.4095      0.0126     14.5737    130.0405     24.6458
   773.6000      8.0933      2.4209     -0.0152     13.8837    120.5689     25.2155
   773.7000      8.0933      2.4373      0.0165     12.8930    118.9854     25.1642
   773.8000      8.0948      2.4436      0.0839     12.5069    121.7672     24.8750
   773.9000      8.0948      2.4360      0.0619     12.9702    125.9249     24.4275
