~Version Information
VERS.                      2.0: CWLS Log ASCII Standard - VERSION 2.0
WRAP.                       NO: One line per depth step
~Well Information Block
STRT.FT               340.0000: 
STOP.FT              1542.5000: 
STEP.FT                 0.1000: 
NULL.                -999.2500: 
COMP.          Petrogulf Corporation: COMPANY
WELL.            Montoya 7-21R: WELL
FLD.           Purgatorie River: FIELD
LOC.           445' FNL & 1942' FWL: LOCATION
PROV.                 Colorado: PROVINCE
CNTY.               Las Animas: COUNTRY
SRVC.                Patterson: SERVICE COMPANY
DATE.          Thu Sep 15 10:33:27 2005: LOG DATE
UWI.                          : UNIQUE WELL ID
~Curve Information Block
DEPT.FT            0 000 00 00: Depth
DCAL.in                       : CDL Caliper
RHOB.g/cc                     : CDL Bulk Density
RHOC.g/cc                     : CDL Density Correction
DPOR.pu                       : CDL Density Porosity
GR.GAPI                       : Gamma Ray
NPOR.pu                       : Neutron Porosity
~Parameter Information Block
~A  Depth       DCAL        RHOB        RHOC        DPOR         GR         NPOR    
# ...
   820.0000      8.1139      2.6569      0.0262     -0.4206    138.8871     27.9106
   820.1000      8.1139      2.6937      0.0676     -2.6484    140.2564     27.6576
   820.2000      8.1139      2.7242      0.1190     -4.4962    142.4000     27.3191
   820.3000      8.1286      2.7302      0.0267     -4.8600    142.6751     27.4637
   820.4000      8.1286      2.7219      0.0602     -4.3566    140.4520     28.0468
   820.5000      8.1195      2.7091      0.0474     -3.5832    137.9232     28.4698
   820.6000      8.1195      2.6871      0.0340     -2.2483    136.2710     28.3686
   820.7000      8.1195      2.6489     -0.0074      0.0655    135.2873     28.0037
   820.8000      8.0771      2.6084     -0.0524      2.5191    135.2785     27.6904
   820.9000      8.0771      2.5822     -0.0180      4.1093    137.0920     27.5589
   821.0000      8.0795      2.5638     -0.0162      5.2216    140.5049     27.6528
   821.1000      8.0795      2.5549     -0.0122      5.7661    144.8117     27.9992
   821.2000      8.0795      2.5644      0.0875      5.1883    149.6139     28.4405
   821.3000      8.1008      2.5841      0.0906      3.9952    153.8447     28.6567
   821.4000      8.1008      2.6082      0.1049      2.5321    154.5482     28.8919
   821.5000      8.0957      2.6388      0.1188      0.6795    152.8550     29.3867
   821.6000      8.0957      2.6643      0.2128     -0.8638    153.2348     29.5324
   821.7000      8.0957      2.6675      0.1713     -1.0611    153.5858     29.1197
   821.8000      8.1014      2.6556      0.1294     -0.3376    150.3901     28.6742
   821.9000      8.1014      2.6495      0.0992      0.0318    146.0265     28.3279
   822.0000      8.1327      2.6556      0.0683     -0.3401    143.5952     27.9698
   822.1000      8.1327      2.6668      0.0415     -1.0181    142.9500     27.6625
   822.2000      8.1327      2.6741      0.0569     -1.4626    144.0006     27.5982
   822.3000      8.1074      2.6774      0.0225     -1.6624    146.0661     27.8112
   822.4000      8.1074      2.6908     -0.0309     -2.4756    144.8555     27.9871
   822.5000      8.1149      2.7129      0.0828     -3.8132    141.2433     28.0441
   822.6000      8.1149      2.7170      0.0337     -4.0603    142.2752     28.0624
   822.7000      8.1149      2.7005      0.0346     -3.0600    147.9734     28.0848
   822.8000      8.1494      2.6799      0.0588     -1.8135    152.5926     28.2640
   822.9000      8.1494      2.6620      0.0333     -0.7288    154.9863     28.5503
   823.0000      8.1548      2.6518     -0.0190     -0.1109    153.8558     28.4210
   823.1000      8.1548      2.6464      0.0091      0.2206    147.5880     27.7720
   823.2000      8.1548      2.6406     -0.0108      0.5711    141.2595     27.2293
   823.3000      8.1416      2.6386      0.0141      0.6934    139.8625     27.1516
   823.4000      8.1416      2.6374      0.0468      0.7648    141.6535     27.3617
   823.5000      8.1595      2.6351      0.0273      0.9043    142.1649     27.5253
   823.6000      8.1595      2.6342      0.0636      0.9582    140.8859     27.2748
   823.7000      8.1595      2.6286      0.0527      1.2997    138.9517     26.5572
   823.8000      8.1494      2.6158     -0.0037      2.0699    136.0870     25.7507
   823.9000      8.1494      2.5986      0.0264      3.1139    134.5731     25.1672
   824.0000      8.1335      2.5717      0.0266      4.7425    137.1408     24.9693
   824.1000      8.1335      2.5387      0.0087      6.7450    142.1905     25.0761
   824.2000      8.1335      2.5100      0.0117      8.4825    146.0240     25.1506
   824.3000      8.1183      2.4846     -0.0383     10.0218    145.2305     25.0246
   824.4000      8.1183      2.4595     -0.0072     11.5463    140.0199     24.9168
   824.5000      8.1265      2.4405     -0.0438     12.6971    136.1939     25.2271
   824.6000      8.1265      2.4382     -0.0402     12.8388    138.4658     25.9114
   824.7000      8.1265      2.4593     -0.0222     11.5594    144.9962     26.3914
   824.8000      8.1476      2.5036      0.0050      8.8699    150.7059     26.4521
   824.9000      8.1476      2.5557      0.0395      5.7138    151.6507     26.7550
   825.0000      8.1384      2.5911      0.0576      3.5680    149.5003     27.6092
   825.1000      8.1384      2.6028      0.1013      2.8583    149.6049     28.1775
   825.2000      8.1384      2.6071      0.0723      2.6015    154.9633     28.1462
   825.3000      8.1388      2.6175      0.1099      1.9668    163.4684     28.1806
   825.4000      8.1388      2.6253      0.0684      1.4964    168.3785     28.2685
   825.5000      8.1396      2.6177      0.0706      1.9578    166.6278     28.1567
   825.6000      8.1396      2.5981      0.0479      3.1480    162.2992     28.2155
   825.7000      8.1396      2.5813     -0.0024      4.1612    158.6654     28.5571
   825.8000      8.1431      2.5706      0.0520      4.8098    156.4796     28.7107
   825.9000      8.1431      2.5488      0.0546      6.1361    157.2057     28.2804
   826.0000      8.1426      2.5140      0.0363      8.2401    159.3257     27.6273
   826.1000      8.1426      2.4869     -0.0000      9.8863    159.0674     27.5720
   826.2000      8.1426      2.4719      0.0072     10.7964    158.9323     28.2448
   826.3000      8.1739      2.4627     -0.0341     11.3491    164.1328     29.0282
   826.4000      8.1739      2.4640     -0.0511     11.2753    170.9057     29.3453
   826.5000      8.2009      2.4705     -0.0076     10.8796    173.7207     29.0125
   826.6000      8.2009      2.4653      0.0427     11.1928    173.2103     28.5012
   826.7000      8.2009      2.4504      0.0318     12.0987    169.8800     28.4282
   826.8000      8.3118      2.4390      0.0913     12.7865    165.1796     28.7270
   826.9000      8.3118      2.4189      0.1417     14.0078    164.5155     29.1542
   827.0000      8.2382      2.3660      0.1379     17.2093    168.9319     29.5915
   827.1000      8.2382      2.2849      0.0450     22.1287    173.0892     29.8540
   827.2000      8.2382      2.2045      0.0160     26.9977    173.0858     29.9806
   827.3000      8.2660      2.1474      0.0065     30.4581    169.8746     30.3272
   827.4000      8.2660      2.1133      0.0187     32.5263    166.8492     30.8535
   827.5000      8.2583      2.0919      0.0772     33.8241    164.7237     31.1379
   827.6000      8.2583      2.0761      0.1645     34.7810    160.3323     31.2748
   827.7000      8.2583      2.0613      0.1210     35.6783    152.8849     31.5332
   827.8000      8.3004      2.0430      0.1833     36.7865    146.4536     31.7670
   827.9000      8.3004      2.0184      0.1524     38.2759    145.0299     31.8150
   828.0000      8.2984      1.9923      0.1352     39.8631    148.0242     31.8252
   828.1000      8.2984      1.9723      0.0758     41.0714    150.0125     32.0463
   828.2000      8.2984      1.9690      0.0386     41.2735    145.9237     32.4076
   828.3000      8.2840      1.9882      0.0418     40.1099    137.9484     32.6681
   828.4000      8.2840      2.0178      0.0819     38.3162    133.0096     32.8089
   828.5000      8.2893      2.0422      0.0275     36.8369    136.2328     32.7111
   828.6000      8.2893      2.0652      0.0448     35.4448    144.6168     32.2212
   828.7000      8.2893      2.0963      0.0564     33.5554    148.4596     31.6120
   828.8000      8.2900      2.1336      0.1207     31.2946    146.2704     31.3523
   828.9000      8.2900      2.1731      0.1127     28.9010    145.8009     31.4608
   829.0000      8.2896      2.2143      0.1426     26.4041    150.8210     31.5307
   829.1000      8.2896      2.2480      0.1388     24.3657    158.9412     31.5125
   829.2000      8.2896      2.2657      0.1455     23.2909    165.0210     31.6174
   829.3000      8.3009      2.2764      0.1228     22.6442    165.9836     31.7014
   829.4000      8.3009      2.2926      0.1396     21.6636    165.1695     31.6182
   829.5000      8.2972      2.3112      0.1654     20.5347    165.4766     31.5105
