~Version Information
VERS.                      2.0: CWLS Log ASCII Standard - VERSION 2.0
WRAP.                       NO: One line per depth step
~Well Information Block
STRT.FT               741.2000: 
STOP.FT              2461.0000: 
STEP.FT                 0.1000: 
NULL.                -999.2500: 
COMP.          Petrogulf Corporation: COMPANY
WELL.           Montoya 12-44V: WELL
FLD.           Purgatorie River: FIELD
LOC.           698' FSL & 599' FEL: LOCATION
CNTY.               Las Animas: COUNTY
SRVC.                         : SERVICE COMPANY
DATE.          Mon Aug 09 06:09:04 2004: LOG DATE
UWI.           05 071 08094 00: UNIQUE WELL ID
STAT.                 Colorado: STATE
~Curve Information Block
DEPT.FT            0 000 00 00: Depth
DCAL.in                       : CDL Caliper
RHOB.g/cc                     : CDL Bulk Density
RHOC.g/cc                     : CDL Density Correction
DPOR.pu                       : CDL Density Porosity
GR.GAPI                       : Gamma Ray
NPOR.pu                       : Neutron Porosity
~Parameter Information Block
~A  Depth       DCAL        RHOB        RHOC        DPOR         GR         NPOR    
# ...
  2334.8000      7.7042      2.5623      0.1270      5.3151     70.4085     18.7335
  2334.9000      7.7042      2.5547      0.0950      5.7740     66.2627     19.7278
  2335.0000      7.7147      2.5506      0.0854      6.0253     63.0714     20.6616
  2335.1000      7.7147      2.5551      0.0957      5.7504     62.8052     21.1774
  2335.2000      7.7147      2.5574      0.0946      5.6141     65.4805     20.8591
  2335.3000      7.7430      2.5412      0.0957      6.5932     68.4558     19.9701
  2335.4000      7.7430      2.5092      0.0639      8.5314     68.7120     19.7332
  2335.5000      7.7478      2.4809      0.0556     10.2508     67.7720     20.1625
  2335.6000      7.7478      2.4731     -0.0106     10.7185     66.9031     20.6845
  2335.7000      7.7478      2.4846      0.0424     10.0252     63.9318     21.2684
  2335.8000      7.7474      2.4946      0.0736      9.4192     60.5551     21.6036
  2335.9000      7.7474      2.4932      0.0392      9.5015     58.6526     21.3877
  2336.0000      7.7422      2.4934      0.0506      9.4908     55.4035     20.6092
  2336.1000      7.7422      2.5017      0.1117      8.9883     51.6986     19.6414
  2336.2000      7.7422      2.5022      0.0966      8.9599     52.5933     19.4146
  2336.3000      7.7114      2.4793      0.1111     10.3463     57.0364     20.1848
  2336.4000      7.7114      2.4301      0.0972     13.3257     60.9659     20.8997
  2336.5000      7.7064      2.3682      0.0575     17.0794     65.9107     21.0624
  2336.6000      7.7064      2.3175      0.0517     20.1535     74.8683     21.6501
  2336.7000      7.7064      2.2800      0.0720     22.4252     84.7706     22.9496
  2336.8000      7.7164      2.2365      0.0632     25.0584     91.5215     24.1421
  2336.9000      7.7164      2.1851      0.0366     28.1751     94.9011     24.8083
  2337.0000      7.7258      2.1477      0.0632     30.4441     95.4154     25.1961
  2337.1000      7.7258      2.1384      0.0765     31.0052     96.9216     25.6319
  2337.2000      7.7258      2.1424      0.1566     30.7607    104.8366     25.9149
  2337.3000      7.7521      2.1478      0.1028     30.4381    114.4416     25.2821
  2337.4000      7.7521      2.1815      0.0591     28.3925    119.8652     23.9468
  2337.5000      7.7653      2.2643      0.1338     23.3754    123.7310     23.0671
  2337.6000      7.7653      2.3649      0.1715     17.2798    126.8058     23.0479
  2337.7000      7.7653      2.4431      0.1816     12.5395    127.0916     23.2895
  2337.8000      7.7634      2.4953      0.1634      9.3772    127.7645     23.0877
  2337.9000      7.7634      2.5298      0.1874      7.2849    131.8612     22.2115
  2338.0000      7.7243      2.5448      0.0863      6.3773    134.6066     20.8047
  2338.1000      7.7243      2.5476      0.0626      6.2068    131.0354     19.2030
  2338.2000      7.7243      2.5487      0.0722      6.1397    125.7713     18.0950
  2338.3000      7.7179      2.5478      0.0568      6.1925    123.7021     17.8379
  2338.4000      7.7179      2.5410      0.0634      6.6066    123.2230     18.2314
  2338.5000      7.7017      2.5269      0.0268      7.4591    122.3166     18.7725
  2338.6000      7.7017      2.5154      0.0084      8.1562    122.8771     18.7701
  2338.7000      7.7017      2.5177      0.0183      8.0184    125.8435     18.0378
  2338.8000      7.6834      2.5264      0.0460      7.4892    125.7538     17.4106
  2338.9000      7.6834      2.5291      0.0501      7.3288    120.1725     17.6072
  2339.0000      7.7004      2.5294      0.0396      7.3113    116.7274     18.4112
  2339.1000      7.7004      2.5363      0.0614      6.8922    118.3674     19.1260
  2339.2000      7.7004      2.5476      0.0583      6.2064    116.3300     19.2710
  2339.3000      7.6983      2.5594      0.0573      5.4931    108.0241     19.1783
  2339.4000      7.6983      2.5727      0.0800      4.6851    105.6572     19.2208
  2339.5000      7.6837      2.5808      0.0960      4.1918    111.7046     19.3036
  2339.6000      7.6837      2.5738      0.0808      4.6204    114.0590     19.4663
  2339.7000      7.6837      2.5516      0.1026      5.9627    109.8374     19.5526
  2339.8000      7.6965      2.5243      0.0314      7.6176    107.9655     19.5237
  2339.9000      7.6965      2.5046      0.0677      8.8105    110.9136     19.7643
  2340.0000      7.7005      2.4949      0.0465      9.3981    114.0250     20.1016
  2340.1000      7.7005      2.4951      0.0299      9.3854    115.5100     20.0758
  2340.2000      7.7005      2.5117      0.0647      8.3805    118.3622     19.8841
  2340.3000      7.6970      2.5406      0.0932      6.6333    122.7044     19.9477
  2340.4000      7.6970      2.5641      0.1050      5.2079    123.9878     20.1924
  2340.5000      7.6620      2.5748      0.1078      4.5603    121.2733     20.0519
  2340.6000      7.6620      2.5787      0.1136      4.3227    116.5664     19.3645
  2340.7000      7.6620      2.5763      0.1316      4.4685    111.2576     18.8721
  2340.8000      7.6601      2.5651      0.1072      5.1469    106.6279     19.3932
  2340.9000      7.6601      2.5488      0.1015      6.1357    105.1459     20.7157
  2341.0000      7.6711      2.5318      0.0943      7.1620    108.7086     21.6682
  2341.1000      7.6711      2.5201      0.0837      7.8744    115.5969     21.5302
  2341.2000      7.6711      2.5189      0.0671      7.9443    121.5669     20.9341
  2341.3000      7.6974      2.5222      0.0678      7.7443    123.8676     20.4483
  2341.4000      7.6974      2.5176      0.0639      8.0271    124.8759     19.6981
  2341.5000      7.7027      2.5041      0.0425      8.8421    127.5603     18.8551
  2341.6000      7.7027      2.4947      0.0468      9.4100    129.4974     18.3432
  2341.7000      7.7027      2.4959      0.0436      9.3390    126.4037     18.1354
  2341.8000      7.7058      2.5038      0.0130      8.8614    118.2960     18.4588
  2341.9000      7.7058      2.5153      0.0366      8.1636    108.0965     19.1724
  2342.0000      7.7028      2.5265      0.0738      7.4878     99.2862     19.6210
  2342.1000      7.7028      2.5375      0.0441      6.8199     96.2580     19.4756
  2342.2000      7.7028      2.5511      0.0619      5.9911     97.8935     18.8834
  2342.3000      7.6988      2.5549      0.1067      5.7613     99.8066     18.3755
  2342.4000      7.6988      2.5404      0.0486      6.6394    103.4904     18.5718
  2342.5000      7.6829      2.5201      0.0540      7.8746    112.1272     19.5967
  2342.6000      7.6829      2.4945      0.0331      9.4232    122.3676     20.9930
  2342.7000      7.6829      2.4414      0.0388     12.6414    127.0790     22.4516
  2342.8000      7.6983      2.3418      0.0171     18.6795    122.7532     23.9684
  2342.9000      7.6983      2.2085     -0.0607     26.7591    113.9267     24.8056
  2343.0000      7.7029      2.0774     -0.0886     34.7011    109.8624     24.6982
  2343.1000      7.7029      1.9627     -0.0676     41.6551    113.4194     24.6445
  2343.2000      7.7029      1.8522     -0.1168     48.3501    119.2049     25.2869
  2343.3000      7.7146      1.7431     -0.1240     54.9638    119.8537     26.8663
  2343.4000      7.7146      1.6547     -0.1279     60.3226    115.3124     29.0493
  2343.5000      7.7526      1.6174     -0.1019     62.5803    110.9799     30.5525
  2343.6000      7.7526      1.6437      0.0303     60.9873    107.1078     30.8394
  2343.7000      7.7526      1.7066      0.1620     57.1736    102.8669     30.5644
  2343.8000      8.0194      1.7595      0.2196     53.9675    100.5833     30.0728
  2343.9000      8.0194      1.7718      0.2286     53.2220     98.6606     29.6231
  2344.0000      8.1381      1.7420      0.1743     55.0282     93.8321     29.8841
  2344.1000      8.1381      1.6893      0.0687     58.2246     90.3784     30.9584
  2344.2000      8.1381      1.6385     -0.0146     61.3023     93.1309     31.8668
  2344.3000      7.7343      1.5977     -0.0198     63.7767     96.3673     32.0983
