~Version Information
VERS.                      2.0: CWLS Log ASCII Standard - VERSION 2.0
WRAP.                       NO: One line per depth step
~Well Information Block
STRT.FT                 0.5000: 
STOP.FT              2891.5000: 
STEP.FT                 0.2500: 
NULL.                -999.2500: 
COMP.          Petrogulf Corporation: COMPANY
WELL.            Montoya 1-41V: WELL
FLD.           Purgatoire River: FIELD
LOC.           610' FNL & 1205' FEL--: LOCATION
PROV.                 Colorado: PROVINCE
CNTY.               Las Animas: COUNTRY
SRVC.                Patterson: SERVICE COMPANY
DATE.          Mon Sep 12 11:42:30 2005: LOG DATE
UWI.           05 071 08144 00: UNIQUE WELL ID
~Curve Information Block
DEPT.FT            0 000 00 00: Depth
CCL.                          : Casing Collar Locator
TT3.usec                      : CBL 3' Travel Time
AMP3.mV                       : CBL 3' Amplitude
GR.GAPI                       : Gamma Ray
~Parameter Information Block
~A  Depth       CCL         TT3         AMP3         GR     
# ...
  2848.0000      0.0000    704.0681      7.4119     66.3447
  2848.2500      0.0000    709.9841      7.1548     67.6044
  2848.5000      0.0000    716.9240      6.8906     67.1754
  2848.7500      0.0000    722.6024      6.6347     64.6870
  2849.0000      0.0000    725.3205      6.3583     60.9464
  2849.2500      0.0000    723.9610      6.0192     57.1302
  2849.5000      0.0000    718.9600      5.5967     54.0309
  2849.7500      0.0000    712.0881      5.1086     52.3155
  2850.0000      0.0000    705.5641      4.6033     52.8236
  2850.2500      0.0000    701.5291      4.1365     55.8775
  2850.5000      0.0000    700.8031      3.7515     60.4897
  2850.7500      0.0000    702.0511      3.4695     64.8245
  2851.0000      0.0000    703.8145      3.2865     67.5193
  2851.2500      0.0000    706.6240      3.1793     68.4298
  2851.5000      0.0000    711.1711      3.1206     68.4445
  2851.7500      0.0000    715.6902      3.0929     68.9441
  2852.0000      0.0000    717.7779      3.0903     70.9611
  2852.2500      0.0000    718.1711      3.1106     74.1134
  2852.5000      0.0000    720.4156      3.1476     76.5505
  2852.7500      0.0000    726.3194      3.1895     76.5542
  2853.0000      0.0000    733.2112      3.2186     74.1036
  2853.2500      0.0000    736.7296      3.2121     70.5531
  2853.5000      0.0000    735.6766      3.1472     67.1220
  2853.7500      0.0000    733.5363      3.0121     64.1544
  2854.0000      0.0000    736.4692      2.8137     61.6423
  2854.2500      0.0000    750.5829      2.5760     59.9441
  2854.5000      0.0000    778.2501      2.3278     59.6389
  2854.7500      0.0000    813.3856      2.0919     60.6531
  2855.0000      0.0000    841.1779      1.8831     61.9470
  2855.2500      0.0000    847.2731      1.7122     62.4456
  2855.5000      0.0000    829.3922      1.5855     62.0867
  2855.7500      0.0000    798.2072      1.5015     61.6380
  2856.0000      0.0000    767.1933      1.4539     61.7163
  2856.2500      0.0000    744.0519      1.4368     62.3383
  2856.5000      0.0000    730.2212      1.4445     63.2464
  2856.7500      0.0000    723.7855      1.4685     64.3758
  2857.0000      0.0000    721.4631      1.4986     65.9430
  2857.2500      0.0000    719.9653      1.5269     67.9444
  2857.5000      0.0000    716.9560      1.5475     69.5416
  2857.7500      0.0000    711.1774      1.5565     69.4489
  2858.0000      0.0000    702.7578      1.5543     67.2925
  2858.2500      0.0000    694.0626      1.5483     64.2267
  2858.5000      0.0000    689.3952      1.5515     61.9251
  2858.7500      0.0000    692.2012      1.5794     61.3470
  2859.0000      0.0000    701.8090      1.6508     62.6327
  2859.2500      0.0000    713.7314      1.7881     65.4963
  2859.5000      0.0000    724.7296      2.0054     69.1450
  2859.7500      0.0000    737.2980      2.2876     72.1190
  2860.0000      0.0000    756.2096      2.5867     72.8251
  2860.2500      0.0000    779.1012      2.8491     70.5091
  2860.5000      0.0000    793.8587      3.0518     65.8463
  2860.7500      0.0000    789.0490      3.2095     60.7390
  2861.0000      0.0000    765.6161      3.3509     57.4764
  2861.2500      2.0000    735.8520      3.4914     57.6085
  2861.5000     -2.0000    712.3663      3.6203     60.9385
  2861.7500      0.0000    699.6658      3.7135     65.4139
  2862.0000      0.0000    694.4509      3.7633     68.5048
  2862.2500      0.0000    691.5394      3.7857     69.1520
  2862.5000      0.0000    689.2091      3.7872     68.3410
  2862.7500      0.0000    689.4537      3.7369     67.7539
  2863.0000      0.0000    693.6957      3.5991     68.1659
  2863.2500      0.0000    699.1900      3.3905     69.2137
  2863.5000      0.0000    700.9269      3.1822     70.1845
  2863.7500      0.0000    697.2525      3.0414     70.6168
  2864.0000      0.0000    692.4508      2.9845     70.3292
  2864.2500      0.0000    692.8711      2.9890     69.2008
  2864.5000      0.0000    700.9960      3.0310     67.0870
  2864.7500      0.0000    713.7512      3.1033     64.1423
  2865.0000      0.0000    725.8652      3.2109     61.3166
  2865.2500      0.0000    733.9364      3.3663     60.2123
  2865.5000      0.0000    737.5869      3.5907     62.0474
  2865.7500      0.0000    737.9450      3.9113     66.6857
  2866.0000      0.0000    735.9488      4.3480     72.8815
  2866.2500      0.0000    732.0917      4.9033     79.4371
  2866.5000      0.0000    727.4612      5.5615     85.7367
  2866.7500      0.0000    725.0882      6.2998     91.1114
  2867.0000      0.0000    731.0508      7.1052     94.4001
  2867.2500      0.0000    754.2355      7.9848     94.5814
  2867.5000      0.0000    802.0649      8.9466     91.5396
  2867.7500      0.0000    872.2363      9.9553     86.0986
  2868.0000      0.0000    947.7454     10.9083     79.6828
  2868.2500      0.0000   1003.2917     11.6689     73.9821
  2868.5000      0.0000   1020.1954     12.1341     70.4241
  2868.7500      0.0000    997.8561     12.2835     69.5827
  2869.0000      0.0000    953.6290     12.1743     71.1096
  2869.2500      0.0000    911.9091     11.8979     74.2367
  2869.5000      0.0000    889.2903     11.5418     78.2720
  2869.7500      0.0000    885.5093     11.1816     82.7305
  2870.0000      0.0000    886.7720     10.8834     87.0998
  2870.2500      0.0000    878.2939     10.6819     90.4210
  2870.5000      0.0000    855.1505     10.5498     91.2394
  2870.7500      0.0000    823.1404     10.4088     88.4212
  2871.0000      0.0000    791.2981     10.1827     82.3187
  2871.2500      0.0000    764.4929      9.8398     74.9111
  2871.5000      0.0000    742.4141      9.3897     68.6422
  2871.7500      0.0000    723.4818      8.8553     65.1214
  2872.0000      0.0000    707.8731      8.2551     64.7018
  2872.2500      0.0000    697.1708      7.6040     66.7468
  2872.5000      0.0000    692.5643      6.9183     70.1173
  2872.7500      0.0000    693.7024      6.2211     73.8747
  2873.0000      0.0000    698.4541      5.5494     78.0449
  2873.2500      0.0000    703.4642      4.9541     83.5242
  2873.5000      0.0000    705.9747      4.4872     90.7167
  2873.7500      0.0000    706.0911      4.1837     98.1962
  2874.0000      0.0000    707.1995      4.0553    103.1915
  2874.2500      0.0000    713.1600      4.0966    103.7155
  2874.5000      0.0000    724.1797      4.2991     99.9114
  2874.7500      0.0000    735.4661      4.6633     92.9738
  2875.0000      0.0000    740.8805      5.2004     83.1827
  2875.2500      0.0000    738.5236      5.9196     69.7504
  2875.5000      0.0000    732.4495      6.8113     52.7639
  2875.7500      0.0000    729.1400      7.8344     34.6706
  2876.0000      0.0000    732.8209      8.9123     19.1934
  2876.2500      0.0000    742.4148      9.9428      8.7529
  2876.5000      0.0000    749.6791     10.8176      3.2369
  2876.7500      0.0000    740.3062     11.4470      0.9598
  2877.0000      0.0000    701.4211     11.7768      0.2260
  2877.2500      0.0000    633.0034     11.7924      0.0416
  2877.5000      0.0000    553.0025     11.5099      0.0054
  2877.7500      0.0000    489.3773     10.9712      0.0000
  2878.0000      0.0000    465.3655     10.2512   -999.2500
  2878.2500      0.0000    489.2004      9.4597   -999.2500
  2878.5000      0.0000    551.4629      8.7169   -999.2500
  2878.7500      0.0000    628.9377      8.1068   -999.2500
  2879.0000      0.0000    695.8143      7.6393   -999.2500
  2879.2500      0.0000    737.2491      7.2494   -999.2500
  2879.5000      0.0000    753.6631      6.8424   -999.2500
  2879.7500      0.0000    752.8826      6.3574   -999.2500
  2880.0000      0.0000    740.2571      5.7970   -999.2500
  2880.2500      0.0000    713.7452      5.1954   -999.2500
  2880.5000      0.0000    662.9833      4.5670   -999.2500
  2880.7500      0.0000    574.6625      3.8983   -999.2500
  2881.0000      0.0000    446.8622      3.1959   -999.2500
  2881.2500      0.0000    300.2877      2.5258   -999.2500
