~Version Information
 VERS.                                  2.0 : CWLS LAS VERSION
 WRAP.                                   NO : WRAPING MODE
 SWARE .                 MController 2.5.0J : SOFTWARE VERSION
~Well Information
 WELL.                         Schedler9-23R: WELL
 COMP.                             Petrogulf: COMPANY
 FLD.                      Purgatoire River : FIELD
 LOC.                 NE/SW Sec.9 T33s R67w : LOCATION
 DATE.                              10/31/04: DATE(S) LOGGED
 SRVC.                    Blanco Geological : SERVICE COMPANY
 STAT.                                   CO : STATE
 CNTY.                           Las Animas : COUNTY
 CTRY.                                  USA: COUNTRY
 API.                           05-071-08040: API NUMBER
 STRT.FT                             713.00 : START DEPTH
 STOP.FT                            2080.00 : STOP DEPTH
 STEP.FT                               1.00 : DEPTH INCREMENT
 NULL.                                -9999 : NULL VALUE
~Curve information
 DEPTH.FT                                   :
 ROP.MIN/FT                                 :
 GAS.UNITS                                  :
~ASCII Log data
# ...
      1113.0         0.40         35.2 
      1114.0         0.30         30.3 
      1115.0         0.27         26.6 
      1116.0         0.27         23.6 
      1117.0         0.35         20.9 
      1118.0         0.23         19.0 
      1119.0         0.20         19.8 
      1120.0         0.30         15.8 
      1121.0         0.20         15.8 
      1122.0         0.23         15.6 
      1123.0         0.23         13.9 
      1124.0         0.27         13.4 
      1125.0         0.30         14.1 
      1126.0         0.23         14.3 
      1127.0         0.23         13.8 
      1128.0         0.37         47.6 
      1129.0         0.27         44.9 
      1130.0         0.28         41.4 
      1131.0         0.37         39.3 
      1132.0         0.27         32.2 
      1133.0         0.23         27.5 
      1134.0         0.20         25.4 
      1135.0         0.27         24.6 
      1136.0         0.23         21.6 
      1137.0         0.30         17.8 
      1138.0         0.20         16.0 
      1139.0         0.23         14.4 
      1140.0         0.20         15.3 
      1141.0         0.33         17.7 
      1142.0         0.17         20.1 
      1143.0         0.12         21.5 
      1144.0         0.23         23.0 
      1145.0         0.17         22.4 
      1146.0         0.13         20.6 
      1147.0         0.13         20.6 
      1148.0         0.17         19.8 
      1149.0         0.17         20.0 
      1150.0         0.17         21.0 
      1151.0         0.17         21.3 
      1152.0         0.20         20.4 
      1153.0         0.17         20.4 
      1154.0         0.50         20.1 
      1155.0         0.20         20.0 
      1156.0         0.20         20.0 
      1157.0         0.13         23.2 
      1158.0         0.17         26.2 
      1159.0         0.17         27.2 
      1160.0         0.17         29.4 
      1161.0         0.25         39.3 
      1162.0         0.20         45.9 
      1163.0         0.20         56.7 
      1164.0         0.27         60.8 
      1165.0         0.20         55.1 
      1166.0         0.27         49.9 
      1167.0         0.13         45.1 
      1168.0         0.17         41.5 
      1169.0         0.13         36.7 
      1170.0         0.33         35.3 
      1171.0         0.27         30.9 
      1172.0         0.13         28.4 
      1173.0         0.17         28.4 
      1174.0         0.13         27.5 
      1175.0         0.27         26.4 
      1176.0         0.13         24.4 
      1177.0         0.17         21.5 
      1178.0         0.20         21.5 
      1179.0         0.20         18.6 
      1180.0         0.17         18.5 
      1181.0         0.17         16.9 
      1182.0         0.20         15.8 
      1183.0         0.32         14.7 
      1184.0         0.27         13.6 
      1185.0         0.33         13.9 
      1186.0         0.27         14.5 
      1187.0         0.27         14.6 
      1188.0         0.27         15.9 
      1189.0         0.37         14.4 
      1190.0         0.33         14.1 
      1191.0         0.33         14.9 
      1192.0         0.33         14.1 
      1193.0         0.20         14.8 
      1194.0         0.28         16.8 
      1195.0         0.27         17.7 
      1196.0         0.23         17.6 
      1197.0         0.32         18.3 
      1198.0         0.23         18.8 
      1199.0         0.20         17.0 
      1200.0         0.20         16.2 
      1201.0         0.20         16.9 
      1202.0         0.30         16.5 
      1203.0         0.30         16.2 
      1204.0         0.17         15.8 
      1205.0         0.17         14.8 
      1206.0         0.13         14.8 
      1207.0         0.20         14.2 
      1208.0         0.17         13.8 
      1209.0         0.40         13.8 
      1210.0         0.20         15.5 
      1211.0         0.27         18.9 
      1212.0         0.28         27.5 
      1213.0         0.27         30.8 
      1214.0         0.27         35.2 
      1215.0         0.10         35.2 
      1216.0         0.27         33.7 
      1217.0         0.30         32.0 
      1218.0         0.10         19.6 
      1219.0         0.13         19.6 
      1220.0         0.27         18.0 
      1221.0         0.23         17.2 
      1222.0         0.33         17.4 
      1223.0         0.30         16.6 
      1224.0         0.27         16.7 
      1225.0         0.27         16.6 
      1226.0         0.28         16.1 
      1227.0         0.20         15.2 
      1228.0         0.27         15.9 
      1229.0         0.20         15.8 
      1230.0         0.27         15.6 
      1231.0         0.23         17.2 
      1232.0         0.23         19.4 
      1233.0         0.27         23.9 
      1234.0         0.32         25.5 
      1235.0         0.20         26.6 
      1236.0         0.20         26.6 
      1237.0         0.17         26.6 
      1238.0         0.20         26.0 
      1239.0         0.20         26.2 
      1240.0         0.23         25.1 
      1241.0         0.27         23.8 
      1242.0         0.23         17.9 
      1243.0         0.27         17.8 
      1244.0         0.30         17.2 
      1245.0         0.23         18.8 
      1246.0         0.30         23.4 
      1247.0         0.27         29.9 
      1248.0         0.35         37.5 
      1249.0         0.37         43.8 
      1250.0         0.27         34.2 
      1251.0         0.33         49.8 
      1252.0         0.37         69.0 
      1253.0         0.30         81.1 
      1254.0         0.27         77.2 
      1255.0         0.23         67.1 
      1256.0         0.33         58.6 
      1257.0         0.17         49.5 
      1258.0         0.27         48.4 
      1259.0         0.23         43.9 
      1260.0         0.10         43.9 
      1261.0         0.10         44.3 
      1262.0         0.13         42.0 
      1263.0         0.13         40.6 
      1264.0         0.13         39.4 
      1265.0         0.13         39.4 
      1266.0         0.17         38.6 
      1267.0         0.27         35.1 
      1268.0         0.23         34.6 
      1269.0         0.20         32.5 
      1270.0         0.20         31.2 
      1271.0         0.25         31.3 
      1272.0         0.23         27.9 
      1273.0         0.27         25.1 
      1274.0         0.20         24.2 
      1275.0         0.23         22.2 
      1276.0         0.23         22.5 
      1277.0         0.23         23.1 
      1278.0         0.43         26.6 
      1279.0         0.20         24.3 
      1280.0         0.27         24.8 
      1281.0         0.33         24.5 
      1282.0         0.13         25.9 
      1283.0         0.27         25.4 
      1284.0         0.28         24.0 
      1285.0         0.37         24.0 
      1286.0         0.27         23.4 
      1287.0         0.30         22.8 
      1288.0         0.27         21.3 
      1289.0         0.27         21.7 
      1290.0         0.27         21.5 
      1291.0         0.40         20.1 
      1292.0         0.17         18.9 
      1293.0         0.23         18.9 
      1294.0         0.20         18.9 
      1295.0         0.18         18.1 
      1296.0         0.13         18.2 
      1297.0         0.13         18.2 
      1298.0         0.13         19.4 
      1299.0         0.13         19.4 
      1300.0         0.20         19.6 
      1301.0         0.17         20.3 
      1302.0         0.20         19.7 
      1303.0         0.27         19.4 
      1304.0         0.13         19.2 
      1305.0         0.27         19.7 
      1306.0         0.23         19.5 
      1307.0         0.27         37.2 
      1308.0         0.20         36.8 
      1309.0         0.23         37.0 
      1310.0         0.23         33.3 
      1311.0         0.23         32.3 
      1312.0         0.25         29.6 
