~Version Information
VERS.                      2.0: CWLS Log ASCII Standard - VERSION 2.0
WRAP.                       NO: One line per depth step
~Well Information Block
STRT.FT                -7.0000: 
STOP.FT              2730.2500: 
STEP.FT                 0.2500: 
NULL.                -999.2500: 
COMP.          Pioneer Natural Resources: COMPANY
WELL.             Squeal 11-26: WELL
FLD.           Purgatorie River: FIELD
LOC.           1186' FNL & 152' FWL--: LOCATION
PROV.                       CO: PROVINCE
CNTY.               Las Animas: COUNTRY
SRVC.          Patterson Wireline: SERVICE COMPANY
DATE.          Tue Jul 26 11:59:46 2005: LOG DATE
UWI.           05 071 08404 00: UNIQUE WELL ID
~Curve Information Block
DEPT.FT            0 000 00 00: Depth
CCL.                          : Casing Collar Locator
TT3.usec                      : CBL 3' Travel Time
AMP3.mV                       : CBL 3' Amplitude
GR.GAPI                       : Gamma Ray
~Parameter Information Block
~A  Depth       CCL         TT3         AMP3         GR     
# ...
   160.5000      0.0000    464.5697      4.7497     49.8910
   160.7500      0.0000    514.9771      4.5375     53.5491
   161.0000      0.0000    573.1733      4.2600     57.0743
   161.2500      0.0000    622.9330      3.9965     58.9534
   161.5000      0.0000    649.3127      3.8001     58.9315
   161.7500      0.0000    647.4288      3.6804     58.2415
   162.0000      0.0000    624.4602      3.6210     58.4149
   162.2500      2.0000    593.6695      3.5997     60.0917
   162.5000      0.0000    567.5820      3.5988     62.6675
   162.7500      0.0000    555.8069      3.6112     64.8108
   163.0000      0.0000    563.0699      3.6444     65.4566
   163.2500      0.0000    584.2532      3.7166     64.4576
   163.5000      0.0000    603.6424      3.8444     62.3228
   163.7500      0.0000    603.4745      4.0288     59.5382
   164.0000      0.0000    575.8997      4.2469     56.4763
   164.2500      0.0000    528.8344      4.4524     53.8654
   164.5000      0.0000    480.9197      4.5923     52.6639
   164.7500      0.0000    450.1568      4.6376     53.1483
   165.0000      0.0000    446.2934      4.6041     54.5112
   165.2500      0.0000    470.5845      4.5396     55.5904
   165.5000      0.0000    517.3439      4.4894     55.7153
   165.7500      0.0000    574.6856      4.4745     54.8613
   166.0000      0.0000    628.0974      4.4939     53.4602
   166.2500      0.0000    666.7372      4.5387     52.2728
   166.5000      0.0000    686.5852      4.6035     52.0696
   166.7500      0.0000    688.3242      4.6889     53.0690
   167.0000      0.0000    673.9049      4.7975     54.6270
   167.2500      0.0000    645.3623      4.9272     55.4305
   167.5000      0.0000    606.4014      5.0640     54.1989
   167.7500      0.0000    565.1007      5.1854     50.7696
   168.0000      0.0000    534.0350      5.2748     46.6493
   168.2500      0.0000    524.9229      5.3321     43.9897
   168.5000      0.0000    540.8122      5.3692     43.7179
   168.7500      0.0000    573.4725      5.3961     44.9773
   169.0000      0.0000    609.3267      5.4118     46.4372
   169.2500      0.0000    638.3351      5.4095     47.7310
   169.5000      0.0000    657.9070      5.3857     49.5408
   169.7500      0.0000    670.7095      5.3434     52.6643
   170.0000      0.0000    680.6599      5.2853     57.0335
   170.2500      0.0000    689.9589      5.2106     61.3812
   170.5000      0.0000    697.7874      5.1193     63.9839
   170.7500      0.0000    701.5372      5.0170     64.0913
   171.0000      0.0000    700.2326      4.9134     62.5450
   171.2500      0.0000    696.4901      4.8162     60.7714
   171.5000      0.0000    694.2006      4.7286     59.3388
   171.7500      0.0000    694.5190      4.6516     57.6802
   172.0000      0.0000    695.0056      4.5851     55.0586
   172.2500      0.0000    692.8694      4.5272     51.5612
   172.5000      0.0000    688.2496      4.4754     48.1642
   172.7500      0.0000    683.7361      4.4294     46.0824
   173.0000      0.0000    681.3810      4.3928     46.1174
   173.2500      0.0000    681.0291      4.3701     48.2277
   173.5000      0.0000    681.1965      4.3629     51.3774
   173.7500      0.0000    680.7234      4.3670     54.1179
   174.0000      0.0000    679.1508      4.3738     55.7473
   174.2500      0.0000    675.8141      4.3740     56.7938
   174.5000      0.0000    669.5270      4.3632     58.1880
   174.7500      0.0000    659.8552      4.3438     60.2096
   175.0000      0.0000    648.3972      4.3228     62.3026
   175.2500      0.0000    638.0268      4.3064     63.5842
   175.5000      0.0000    630.8792      4.2989     63.4374
   175.7500      0.0000    627.4115      4.3038     61.9439
   176.0000      0.0000    627.1943      4.3232     59.9023
   176.2500      0.0000    630.0324      4.3559     58.3060
   176.5000      0.0000    636.0604      4.3975     57.6245
   176.7500      0.0000    644.8380      4.4437     57.4001
   177.0000      0.0000    654.6827      4.4916     56.6340
   177.2500      0.0000    663.2594      4.5383     54.9361
   177.5000      0.0000    668.9125      4.5795     53.2243
   177.7500      0.0000    671.3015      4.6100     52.8277
   178.0000      0.0000    671.0316      4.6245     54.0541
   178.2500      0.0000    669.2913      4.6181     56.0292
   178.5000      0.0000    667.8583      4.5890     57.5852
   178.7500      0.0000    668.5724      4.5428     57.9732
   179.0000      0.0000    672.1274      4.4944     57.3136
   179.2500      0.0000    677.8072      4.4619     56.8283
   179.5000      0.0000    684.9618      4.4582     58.2480
   179.7500      0.0000    694.2863      4.4856     62.5437
   180.0000      0.0000    706.9769      4.5368     69.0774
   180.2500      0.0000    722.7390      4.5989     75.9420
   180.5000      0.0000    739.1501      4.6580     81.3095
   180.7500      0.0000    753.3522      4.7050     84.7542
   181.0000      0.0000    764.3454      4.7380     87.3256
   181.2500      0.0000    773.2141      4.7616     90.1431
   181.5000      0.0000    781.1609      4.7834     92.8254
   181.7500      0.0000    788.0633      4.8124     93.6475
   182.0000      0.0000    793.1027      4.8545     91.5918
   182.2500      0.0000    796.0089      4.9091     87.8202
   182.5000      0.0000    797.3027      4.9686     84.4714
   182.7500      0.0000    797.7578      5.0227     82.3127
   183.0000      0.0000    797.9074      5.0624     80.3981
   183.2500      0.0000    797.8485      5.0805     77.7545
   183.5000      0.0000    797.2029      5.0734     74.4313
   183.7500      0.0000    795.1993      5.0433     70.8660
   184.0000      0.0000    790.9018      5.0010     67.0969
   184.2500      0.0000    783.4166      4.9649     63.0406
   184.5000      0.0000    771.9545      4.9556     59.0615
   184.7500      0.0000    756.3492      4.9827     55.6787
   185.0000      0.0000    738.4456      5.0361     52.9395
   185.2500      0.0000    722.7766      5.0916     50.6464
   185.5000      0.0000    714.4130      5.1284     49.0192
   185.7500      0.0000    715.1356      5.1409     48.5767
   186.0000      0.0000    721.9880      5.1344     49.3687
   186.2500      0.0000    730.0735      5.1168     50.7358
   186.5000      0.0000    736.6915      5.0955     51.9584
   186.7500      0.0000    742.3679      5.0801     52.9661
   187.0000      0.0000    748.4228      5.0808     54.2889
   187.2500      0.0000    755.0301      5.1008     56.2693
   187.5000      0.0000    761.5915      5.1271     58.4751
   187.7500      0.0000    767.1946      5.1333     60.1254
   188.0000      0.0000    770.2224      5.0978     61.0098
   188.2500      0.0000    769.1406      5.0260     61.6374
   188.5000      0.0000    764.5231      4.9500     62.5054
   188.7500      0.0000    759.3618      4.9028     63.6637
   189.0000      0.0000    756.5637      4.8946     65.0854
   189.2500      0.0000    756.5700      4.9133     67.0119
   189.5000      0.0000    757.9679      4.9421     69.7384
   189.7500      0.0000    759.8332      4.9700     73.3277
   190.0000      0.0000    762.5128      4.9918     77.5936
   190.2500      0.0000    766.2497      5.0055     82.0951
   190.5000      0.0000    769.8604      5.0115     86.0738
   190.7500      0.0000    771.0320      5.0108     88.6855
   191.0000      0.0000    768.0279      5.0042     89.6032
   191.2500      0.0000    762.1653      4.9942     89.3269
   191.5000      0.0000    759.0296      4.9838     88.7265
   191.7500      0.0000    765.5160      4.9731     88.4093
   192.0000      0.0000    783.5585      4.9596     88.5622
   192.2500      0.0000    806.9158      4.9428     88.9348
   192.5000      0.0000    825.3348      4.9272     88.7938
   192.7500      0.0000    832.1608      4.9178     87.6129
   193.0000      0.0000    828.1215      4.9128     86.1553
   193.2500      0.0000    818.9348      4.9049     86.1537
   193.5000      0.0000    810.2653      4.8891     88.5364
   193.7500      0.0000    804.5849      4.8683     92.4282
