~Version Information
VERS.                      2.0: CWLS Log ASCII Standard - VERSION 2.0
WRAP.                       NO: One line per depth step
~Well Information Block
STRT.FT                -7.5000: 
STOP.FT               872.5000: 
STEP.FT                 0.5000: 
NULL.                -999.2500: 
COMP.          Pioneer Natural Resources: COMPANY
WELL.          New Mexico 21-5: WELL
FLD.           Purgatorie River: FIELD
LOC.           175' FNL & 1700' FWL: LOCATION
PROV.                 Colorado: PROVINCE
CNTY.               Las Animas: COUNTRY
SRVC.          Patterson Wireline: SERVICE COMPANY
DATE.          Fri Dec 17 09:32:01 2004: LOG DATE
UWI.           05-071-08234-00: UNIQUE WELL ID
~Curve Information Block
DEPT.FT            0 000 00 00: Depth
CCL.                          : Casing Collar Locator
TT3.usec                      : CBL 3' Travel Time
AMP3.mV                       : CBL 3' Amplitude
GR.GAPI                       : Gamma Ray
~Parameter Information Block
~A  Depth       CCL         TT3         AMP3         GR     
# ...
   595.5000      0.0000    768.3964      9.5251    123.4518
   596.0000      0.0000    766.2261      9.6861    117.7144
   596.5000      0.0000    772.0631      9.6381    116.8102
   597.0000      0.0000    792.5092      9.0717    116.7203
   597.5000      0.0000    807.0074      8.3965    115.2735
   598.0000      0.0000    799.8570      8.0190    118.4157
   598.5000      0.0000    781.5281      7.8894    131.6079
   599.0000      0.0000    766.2566      7.9007    139.4217
   599.5000      0.0000    743.5378      7.8865    139.0100
   600.0000      0.0000    726.8015      7.8442    136.3815
   600.5000      0.0000    737.1675      7.8075    132.6111
   601.0000      0.0000    763.6556      7.8568    131.0210
   601.5000      0.0000    781.7647      7.9089    131.6642
   602.0000      0.0000    773.1091      7.9333    126.5587
   602.5000      0.0000    753.8662      7.8379    120.0260
   603.0000      0.0000    752.2230      7.6326    119.2361
   603.5000      0.0000    761.2134      7.4310    122.5342
   604.0000      0.0000    757.0325      7.3673    123.7333
   604.5000      0.0000    752.1813      7.5287    119.2075
   605.0000      0.0000    762.2155      7.7519    108.3961
   605.5000      0.0000    772.0560      7.8357    103.3041
   606.0000      0.0000    767.5081      7.8703    113.5791
   606.5000      0.0000    758.3920      8.1403    127.7409
   607.0000      0.0000    757.3224      8.7564    138.1066
   607.5000      0.0000    756.2355      9.2741    147.0547
   608.0000      0.0000    751.2919      9.3065    150.6192
   608.5000      0.0000    747.6866      9.0678    141.5156
   609.0000      0.0000    741.3726      8.8520    128.8839
   609.5000      0.0000    729.5209      8.8193    125.5413
   610.0000      0.0000    716.3145      8.7541    124.6815
   610.5000      0.0000    707.5938      8.4977    117.3868
   611.0000      0.0000    707.4550      8.0828    112.6182
   611.5000      0.0000    715.1887      7.6130    117.6758
   612.0000      0.0000    720.1166      7.1670    127.2943
   612.5000      0.0000    719.3338      7.0890    128.0516
   613.0000      0.0000    723.5131      7.3169    121.6935
   613.5000      0.0000    724.8591      7.7306    112.9622
   614.0000      0.0000    722.1575      8.1009    102.8076
   614.5000      0.0000    732.1750      8.2857     93.3403
   615.0000      0.0000    751.3322      8.4078     92.4739
   615.5000      0.0000    749.2169      8.4337    109.5512
   616.0000      0.0000    730.6638      8.4633    130.3375
   616.5000      0.0000    726.4757      8.1540    133.1228
   617.0000      0.0000    732.8203      7.5839    122.6680
   617.5000      0.0000    723.5712      7.2586    115.6133
   618.0000      0.0000    704.7590      6.8977    113.0992
   618.5000      0.0000    695.2698      6.5744    113.1944
   619.0000      0.0000    688.6810      6.5778    118.8222
   619.5000      0.0000    687.4161      6.6243    120.6096
   620.0000      0.0000    700.0384      6.7000    121.3533
   620.5000      0.0000    720.0022      6.7971    129.7034
   621.0000      0.0000    738.1318      6.7826    136.4189
   621.5000      0.0000    747.2618      6.9434    132.2179
   622.0000      0.0000    752.3182      7.2761    120.0081
   622.5000      0.0000    755.7049      7.4368    110.8077
   623.0000      0.0000    752.9152      7.6145    107.2845
   623.5000      0.0000    749.1144      7.7960    108.1720
   624.0000      0.0000    748.0222      7.6579    115.2686
   624.5000      0.0000    747.6461      7.4550    123.3036
   625.0000      0.0000    744.1481      7.3754    126.1276
   625.5000      0.0000    731.4423      6.9238    126.6984
   626.0000      0.0000    717.8502      5.9248    126.3709
   626.5000      0.0000    726.2613      5.1733    117.5785
   627.0000      0.0000    753.8571      5.3406    105.8649
   627.5000      5.0000    777.8774      5.6676    101.0368
   628.0000      0.0000    777.3013      5.7169    103.6074
   628.5000      0.0000    761.2804      6.1078    112.2790
   629.0000      0.0000    757.2472      6.7941    127.8163
   629.5000      0.0000    750.0089      7.2212    143.1753
   630.0000      0.0000    713.5804      7.6614    144.7746
   630.5000      0.0000    685.6378      7.8045    137.3373
   631.0000      0.0000    702.1387      7.5958    135.9692
   631.5000      0.0000    706.9631      7.5991    139.8238
   632.0000      0.0000    654.3891      7.5980    142.4831
   632.5000      0.0000    588.3575      7.3060    141.7092
   633.0000      0.0000    558.5420      7.1635    139.4734
   633.5000      0.0000    560.1895      7.1635    135.3387
   634.0000      0.0000    553.1985      7.0567    132.1313
   634.5000      0.0000    524.4821      7.1330    136.1054
   635.0000      0.0000    509.0480      7.2092    140.8522
   635.5000      0.0000    543.0911      6.8405    138.4310
   636.0000      0.0000    631.3448      6.5125    135.2561
   636.5000      0.0000    704.6285      6.6684    136.4136
   637.0000      0.0000    732.1655      6.7678    135.2897
   637.5000      0.0000    736.0907      6.6731    133.1749
   638.0000      0.0000    729.1406      6.9368    134.3906
   638.5000      0.0000    725.3085      7.4823    133.4583
   639.0000      0.0000    732.6824      7.7888    130.7702
   639.5000      0.0000    740.4110      7.6791    123.4119
   640.0000      0.0000    739.6653      7.4469    111.2568
   640.5000      0.0000    740.3488      7.5824    101.3925
   641.0000      0.0000    746.9135      8.0963     98.4434
   641.5000      0.0000    756.0284      8.3709    102.2106
   642.0000      0.0000    761.8737      8.3226    108.6222
   642.5000      0.0000    753.6929      8.5009    111.4316
   643.0000      0.0000    733.2339      8.8788    111.8830
   643.5000      0.0000    724.1192      9.0157    112.3166
   644.0000      0.0000    739.4417      9.0606    109.3827
   644.5000      0.0000    724.0493      9.3440    105.7406
   645.0000      0.0000    665.0077      9.6706    102.2504
   645.5000      0.0000    609.6904      9.6307    101.9994
   646.0000      0.0000    633.6057      9.1564    112.2560
   646.5000      0.0000    699.5820      8.7582    124.5337
   647.0000      0.0000    736.2830      8.9231    131.4751
   647.5000      0.0000    745.7264      9.2412    137.4254
   648.0000      0.0000    740.0912      9.0588    142.9576
   648.5000      0.0000    708.5370      8.5288    141.8428
   649.0000      0.0000    659.6788      8.2830    137.9923
   649.5000      0.0000    657.5463      8.5458    139.0707
   650.0000      0.0000    709.2920      8.8473    144.7704
   650.5000      0.0000    744.8892      8.6724    146.8032
   651.0000      0.0000    749.0327      8.2585    145.1305
   651.5000      0.0000    747.7111      8.0909    140.8575
   652.0000      0.0000    747.2936      8.0368    134.6469
   652.5000      0.0000    747.1793      7.9227    123.7199
   653.0000      0.0000    746.4280      7.8375    110.0171
   653.5000      0.0000    739.3480      7.5529    105.9013
   654.0000      0.0000    726.7629      7.2203    109.6778
   654.5000      0.0000    725.7684      7.3041    117.9721
   655.0000      0.0000    737.1163      7.6266    126.4467
   655.5000      0.0000    743.1010      7.7359    131.1308
   656.0000      0.0000    737.3384      7.6363    131.9946
   656.5000      0.0000    724.7343      7.6626    132.3469
   657.0000      0.0000    719.2170      7.7899    135.6851
   657.5000      0.0000    721.6188      7.6472    140.0490
   658.0000      0.0000    710.3298      7.2589    142.5340
   658.5000      0.0000    645.6074      6.9743    144.7379
   659.0000      0.0000    551.1083      6.9380    142.0882
   659.5000      0.0000    500.4655      7.1199    132.6129
   660.0000      0.0000    502.9834      7.3525    124.2446
   660.5000      0.0000    526.2025      7.3957    116.9317
   661.0000      0.0000    529.7377      7.1090    115.3891
   661.5000      0.0000    506.0242      6.5152    123.6038
   662.0000      0.0000    471.1961      5.8739    128.4461
