~Version Information
VERS.                      2.0: CWLS Log ASCII Standard - VERSION 2.0
WRAP.                       NO: One line per depth step
~Well Information Block
STRT.FT               238.0000: 
STOP.FT              1377.0000: 
STEP.FT                 0.1000: 
NULL.                -999.2500: 
COMP.          Pioneer Natural Resources: COMPANY
WELL.             Raptor 44-26: WELL
FLD.           Purgatoire River: FIELD
LOC.           180' FSL & 812' FEL: LOCATION
PROV.                 Colorado: PROVINCE
CNTY.               Las Animas: COUNTRY
SRVC.                Patterson: SERVICE COMPANY
DATE.          Tue Mar 22 15:28:33 2005: LOG DATE
UWI.           05 071 08187 00: UNIQUE WELL ID
~Curve Information Block
DEPT.FT            0 000 00 00: Depth
DCAL.in                       : CDL Caliper
RHOB.g/cc                     : CDL Bulk Density
RHOC.g/cc                     : CDL Density Correction
DPOR.pu                       : CDL Density Porosity
GR.GAPI                       : Gamma Ray
NPOR.pu                       : Neutron Porosity
~Parameter Information Block
~A  Depth       DCAL        RHOB        RHOC        DPOR         GR         NPOR    
# ...
   986.8000      7.8094      2.5431     -0.0063      6.4785     62.0343     11.6708
   986.9000      7.8094      2.5654      0.0496      5.1272     64.2467     17.2249
   987.0000      7.8607      2.5745      0.0370      4.5783     70.3000     23.2840
   987.1000      7.8607      2.5786      0.0482      4.3276     74.4312     25.7660
   987.2000      7.8607      2.5877      0.0778      3.7777     72.7012     25.7916
   987.3000      7.8934      2.5840      0.1190      4.0008     69.4723     26.3424
   987.4000      7.8934      2.5570      0.0207      5.6375     71.1843     27.6586
   987.5000      7.9006      2.5309     -0.0083      7.2201     77.3144     27.5522
   987.6000      7.9006      2.5343     -0.0246      7.0096     82.3295     25.8677
   987.7000      7.9006      2.5713     -0.0061      4.7718     83.6992     24.0998
   987.8000      7.8924      2.6085      0.0870      2.5139     82.0813     22.8792
   987.9000      7.8924      2.6114      0.0872      2.3366     80.0758     23.4710
   988.0000      7.8865      2.5923      0.0782      3.4989     78.7280     26.1662
   988.1000      7.8865      2.5840      0.0398      3.9999     75.4211     29.2256
   988.2000      7.8865      2.5903      0.1007      3.6170     71.8089     30.1387
   988.3000      7.8862      2.5898      0.0627      3.6463     71.6657     29.0268
   988.4000      7.8862      2.5725      0.0449      4.6953     74.5617     28.2704
   988.5000      7.8678      2.5510     -0.0192      6.0013     78.0020     27.9183
   988.6000      7.8678      2.5473     -0.0056      6.2233     79.4357     26.1091
   988.7000      7.8678      2.5670     -0.0052      5.0301     78.9280     24.2679
   988.8000      7.9065      2.5848      0.0695      3.9538     78.6080     24.6788
   988.9000      7.9065      2.5732      0.0558      4.6538     78.7984     26.4061
   989.0000      7.8924      2.5477     -0.0441      6.1973     79.3017     27.2889
   989.1000      7.8924      2.5410      0.0480      6.6044     79.3992     27.0245
   989.2000      7.8924      2.5490      0.0268      6.1192     77.7906     26.9707
   989.3000      7.8831      2.5566      0.0235      5.6614     75.5789     28.0370
   989.4000      7.8831      2.5632      0.0331      5.2590     74.4035     29.8652
   989.5000      7.8855      2.5743      0.0529      4.5876     74.5298     30.0299
   989.6000      7.8855      2.5903      0.0516      3.6197     76.7101     27.3144
   989.7000      7.8855      2.5995      0.1191      3.0595     81.5961     24.2125
   989.8000      7.8756      2.5995      0.0520      3.0624     85.4836     23.1653
   989.9000      7.8756      2.5946      0.1100      3.3576     85.1895     25.2259
   990.0000      7.8550      2.5734      0.0741      4.6420     83.6881     27.8304
   990.1000      7.8550      2.5478     -0.0272      6.1936     83.1911     27.3878
   990.2000      7.8550      2.5528      0.0076      5.8908     82.3131     24.4817
   990.3000      7.8854      2.5838      0.0540      4.0133     79.8529     21.2524
   990.4000      7.8854      2.6038      0.0502      2.7978     77.0561     19.5212
   990.5000      7.8957      2.5927      0.0632      3.4753     77.0600     21.0480
   990.6000      7.8957      2.5631      0.0328      5.2690     80.5471     23.0111
   990.7000      7.8957      2.5466     -0.0048      6.2667     83.2412     23.0394
   990.8000      7.8898      2.5581      0.0078      5.5677     81.5350     22.0364
   990.9000      7.8898      2.5862      0.0117      3.8692     76.7376     21.4144
   991.0000      7.8844      2.6128      0.0607      2.2575     71.9010     20.6356
   991.1000      7.8844      2.6341      0.0618      0.9622     68.6368     20.7005
   991.2000      7.8844      2.6549      0.1289     -0.2993     66.6881     23.4452
   991.3000      7.8784      2.6700      0.0660     -1.2101     64.7448     26.0527
   991.4000      7.8784      2.6720      0.0955     -1.3306     60.9158     24.6835
   991.5000      7.8756      2.6637      0.0735     -0.8329     55.6198     20.7555
   991.6000      7.8756      2.6576      0.1001     -0.4608     51.8364     18.6136
   991.7000      7.8756      2.6548      0.0331     -0.2888     52.0563     19.9610
   991.8000      7.8714      2.6399      0.0510      0.6130     56.6412     20.1438
   991.9000      7.8714      2.6089     -0.0133      2.4927     63.2340     17.6713
   992.0000      7.8507      2.5834      0.0259      4.0361     68.9759     16.8740
   992.1000      7.8507      2.5771      0.0045      4.4158     74.0772     19.0835
   992.2000      7.8507      2.5816      0.0726      4.1454     78.7400     20.6181
   992.3000      7.8565      2.5859      0.0269      3.8829     82.0921     22.0187
   992.4000      7.8565      2.5835      0.0437      4.0324     84.8230     24.0497
   992.5000      7.8680      2.5628      0.0218      5.2864     88.9401     24.8086
   992.6000      7.8680      2.5285      0.0030      7.3628     96.2486     24.3244
   992.7000      7.8680      2.5066     -0.0059      8.6934    103.0016     25.3481
   992.8000      7.8877      2.5066      0.0450      8.6893    104.0933     27.5912
   992.9000      7.8877      2.5158      0.0643      8.1340    102.4173     28.2889
   993.0000      7.8766      2.5260      0.0436      7.5167    103.1694     27.7651
   993.1000      7.8766      2.5352      0.0733      6.9575    105.4340     27.5812
   993.2000      7.8766      2.5373      0.0413      6.8291    104.9681     27.1741
   993.3000      7.8545      2.5263      0.0759      7.4941    102.9748     26.9529
   993.4000      7.8545      2.5096      0.0221      8.5069    102.9814     27.3759
   993.5000      7.8499      2.5124      0.0050      8.3391    103.4469     26.2938
   993.6000      7.8499      2.5407      0.0601      6.6232    104.6896     23.3889
   993.7000      7.8499      2.5683      0.1081      4.9501    108.5100     21.7409
   993.8000      7.8597      2.5815      0.0505      4.1517    112.0355     22.6352
   993.9000      7.8597      2.5887      0.1004      3.7137    112.5784     22.6746
   994.0000      7.8514      2.5934      0.0422      3.4306    110.7028     21.2497
   994.1000      7.8514      2.5909      0.1087      3.5797    109.7864     22.1111
   994.2000      7.8514      2.5807      0.0505      4.2030    111.4384     25.0090
   994.3000      7.8499      2.5673      0.0456      5.0099    112.9857     26.0286
   994.4000      7.8499      2.5411      0.0793      6.5978    114.4384     23.5399
   994.5000      7.8601      2.5010     -0.0167      9.0311    117.8066     20.9682
   994.6000      7.8601      2.4766     -0.0064     10.5115    119.6772     22.5264
   994.7000      7.8601      2.4840      0.0199     10.0624    117.4479     26.4775
   994.8000      7.8474      2.5037      0.0542      8.8671    115.0857     29.5561
   994.9000      7.8474      2.5114      0.0417      8.4010    114.2810     30.2367
   995.0000      7.8506      2.5113     -0.0296      8.4044    111.7703     29.6574
   995.1000      7.8506      2.5239      0.0070      7.6450    108.6891     28.5409
   995.2000      7.8506      2.5422      0.0512      6.5324    111.1851     27.9875
   995.3000      7.8612      2.5453      0.0643      6.3459    115.7066     29.0385
   995.4000      7.8612      2.5386      0.0412      6.7492    113.3936     30.7741
   995.5000      7.8632      2.5390      0.0434      6.7288    107.3881     31.5053
   995.6000      7.8632      2.5465      0.0489      6.2730    103.9527     31.1862
   995.7000      7.8632      2.5555      0.0784      5.7246    102.0688     29.6563
   995.8000      7.8731      2.5578      0.0915      5.5879    101.4709     27.7689
   995.9000      7.8731      2.5382      0.0735      6.7754    102.6693     27.7741
   996.0000      7.8817      2.5049      0.0068      8.7910    103.2268     30.4532
   996.1000      7.8817      2.4898     -0.0219      9.7111    101.0083     33.3284
   996.2000      7.8817      2.5042      0.0135      8.8379     96.4688     32.9702
   996.3000      7.8650      2.5395      0.0805      6.6976     95.1047     30.2144
