~Version Information
 VERS.                                  2.0 : CWLS LAS VERSION
 WRAP.                                   NO : WRAPING MODE
 SWARE .                 MController 2.5.0J : SOFTWARE VERSION
~Well Information
 WELL.                        Rancher 12-35 : WELL
 COMP.        Pioneer Natural Resources Inc : COMPANY
 FLD.                      PURGATOIRE RIVER : FIELD
 LOC.                    SW/NW 35 T32S R67W : LOCATION
 DATE.                             10/11/04 : DATE(S) LOGGED
 SRVC.       BLANCO GEOLOGICAL SERVICES LLC : SERVICE COMPANY
 STAT.                             COLORADO : STATE
 CNTY.                           LAS ANIMAS : COUNTY
 CTRY.                                  USA : COUNTRY
 API.                       05-071-08179-00 : API NUMBER
 STRT.FT                             449.00 : START DEPTH
 STOP.FT                            2520.00 : STOP DEPTH
 STEP.FT                               1.00 : DEPTH INCREMENT
 NULL.                                -9999 : NULL VALUE
~Curve information
 DEPTH.FT                                   :
 ROP.MIN/FT                                 :
 GAS.UNITS                                  :
~ASCII Log data
# ...
      1649.0         0.27       1226.2 
      1650.0         0.27       3489.6 
      1651.0         0.38       3868.3 
      1652.0         0.27       3765.2 
      1653.0         0.20       3407.4 
      1654.0         0.27       2930.3 
      1655.0         0.33       2544.9 
      1656.0         0.30       2288.1 
      1657.0         0.30       2036.5 
      1658.0         0.27       1748.4 
      1659.0         0.27       1523.3 
      1660.0         0.20       1435.8 
      1661.0         0.23       1564.5 
      1662.0         0.23       1818.5 
      1663.0         0.22       2015.9 
      1664.0         0.20       2163.5 
      1665.0         0.17       2241.3 
      1666.0         0.23       2325.9 
      1667.0         0.27       2419.9 
      1668.0         0.17       2466.4 
      1669.0         0.17       2489.6 
      1670.0         0.17       2479.2 
      1671.0         0.27       2410.8 
      1672.0         0.13       2379.4 
      1673.0         0.17       2346.4 
      1674.0         0.17       2312.1 
      1675.0         0.23       2257.8 
      1676.0         0.17       2222.1 
      1677.0         0.17       2191.8 
      1678.0         0.18       2154.1 
      1679.0         0.13       2126.8 
      1680.0         0.27       4818.0 
      1681.0         0.27       4925.5 
      1682.0         0.20       4742.2 
      1683.0         0.27       4256.4 
      1684.0         0.33       3764.2 
      1685.0         0.30       3356.8 
      1686.0         0.25       3070.5 
      1687.0         0.37       2666.5 
      1688.0         0.30       2210.7 
      1689.0         0.23       1921.2 
      1690.0         0.27       1789.8 
      1691.0         0.27       1806.0 
      1692.0         0.23       1870.4 
      1693.0         0.23       1899.7 
      1694.0         0.27       1871.0 
      1695.0         0.20       1857.2 
      1696.0         0.17       1875.4 
      1697.0         0.17       1909.8 
      1698.0         0.17       1961.0 
      1699.0         0.17       2015.2 
      1700.0         0.13       2051.0 
      1701.0         0.22       2087.0 
      1702.0         0.27       2096.1 
      1703.0         0.17       2078.2 
      1704.0         0.17       2046.9 
      1705.0         0.20       2019.0 
      1706.0         0.20       1970.4 
      1707.0         0.17       1907.8 
      1708.0         0.17       1842.4 
      1709.0         0.20       1776.4 
      1710.0         0.20       1735.9 
      1711.0         0.17       1613.3 
      1712.0         0.27       1559.1 
      1713.0         0.23       1595.8 
      1714.0         0.20       1692.1 
      1715.0         0.17       1800.6 
      1716.0         0.18       1904.7 
      1717.0         0.17       1978.9 
      1718.0         0.13       2004.8 
      1719.0         0.33       1961.7 
      1720.0         0.27       1934.7 
      1721.0         0.13       1933.7 
      1722.0         0.27       1951.6 
      1723.0         0.10       1954.9 
      1724.0         0.27       1928.0 
      1725.0         0.20       1868.3 
      1726.0         0.20       1767.6 
      1727.0         0.20       1675.6 
      1728.0         0.20       1617.7 
      1729.0         0.17       1586.4 
      1730.0         0.20       1532.1 
      1731.0         0.20       1516.3 
      1732.0         0.18       1541.2 
      1733.0         0.20       1584.0 
      1734.0         0.20       1614.7 
      1735.0         0.20       1635.2 
      1736.0         0.20       1656.8 
      1737.0         0.23       1679.3 
      1738.0         0.20       1698.5 
      1739.0         0.27       1706.0 
      1740.0         0.27       4067.4 
      1741.0         0.33       3307.0 
      1742.0         0.32       3086.3 
      1743.0         0.23       2989.3 
      1744.0         0.30       2781.7 
      1745.0         0.30       2534.4 
      1746.0         0.27       2329.9 
      1747.0         0.27       2158.1 
      1748.0         0.27       2000.8 
      1749.0         0.27       1864.0 
      1750.0         0.23       1773.0 
      1751.0         0.20       1720.4 
      1752.0         0.23       1695.2 
      1753.0         0.23       1698.9 
      1754.0         0.23       1699.9 
      1755.0         0.25       1687.4 
      1756.0         0.20       1670.2 
      1757.0         0.23       1656.1 
      1758.0         0.20       1647.0 
      1759.0         0.23       1634.5 
      1760.0         0.23       1626.1 
      1761.0         0.23       1617.7 
      1762.0         0.23       1607.9 
      1763.0         0.23       1597.8 
      1764.0         0.23       1584.3 
      1765.0         0.17       1571.5 
      1766.0         0.17       1561.4 
      1767.0         0.17       1552.3 
      1768.0         0.17       1543.2 
      1769.0         0.28       1524.0 
      1770.0         0.27       2842.4 
      1771.0         0.37       2918.8 
      1772.0         0.27       2852.8 
      1773.0         0.20       2721.1 
      1774.0         0.23       2537.1 
      1775.0         0.17       2399.3 
      1776.0         0.20       2231.2 
      1777.0         0.17       2086.7 
      1778.0         0.25       1880.8 
      1779.0         0.23       1755.8 
      1780.0         0.30       1693.8 
      1781.0         0.23       1673.3 
      1782.0         0.20       1655.1 
      1783.0         0.27       1636.6 
      1784.0         0.17       1634.2 
      1785.0         0.13       1634.9 
      1786.0         0.13       1638.6 
      1787.0         0.23       1640.9 
      1788.0         0.20       1634.2 
      1789.0         0.17       1624.8 
      1790.0         0.17       1613.3 
      1791.0         0.10       1606.9 
      1792.0         0.27       1584.0 
      1793.0         0.13       1560.7 
      1794.0         0.13       1538.8 
      1795.0         0.28       1514.3 
      1796.0         0.27       1501.5 
      1797.0         0.27       1482.2 
      1798.0         0.27       1462.4 
      1799.0         0.27       1445.5 
      1800.0         0.17       2930.6 
      1801.0         0.23       2962.6 
      1802.0         0.20       2851.5 
      1803.0         0.20       2667.2 
      1804.0         0.13       2535.4 
      1805.0         0.17       2342.7 
      1806.0         0.30       1957.0 
      1807.0         0.17       1833.0 
      1808.0         0.20       1773.7 
      1809.0         0.20       1755.5 
      1810.0         0.20       1735.6 
      1811.0         0.13       1715.4 
      1812.0         0.10       1700.9 
      1813.0         0.17       1668.6 
      1814.0         0.25       1622.4 
      1815.0         0.17       1606.9 
      1816.0         0.27       1595.8 
      1817.0         0.27       1590.4 
      1818.0         0.20       1570.2 
      1819.0         0.13       1552.3 
      1820.0         0.13       1537.8 
      1821.0         0.13       1532.1 
      1822.0         0.23       1530.1 
      1823.0         0.17       1531.1 
      1824.0         0.13       1526.0 
      1825.0         0.17       1512.2 
      1826.0         0.17       1483.6 
      1827.0         0.13       1445.5 
      1828.0         0.23       1378.5 
      1829.0         0.27       1370.1 
      1830.0         0.27       1408.5 
      1831.0         0.28       1427.0 
      1832.0         0.13       1614.0 
      1833.0         0.27       2022.3 
      1834.0         0.17       2262.9 
      1835.0         0.20       2501.1 
      1836.0         0.17       2618.7 
      1837.0         0.20       2660.4 
      1838.0         0.22       2649.0 
      1839.0         0.20       2655.0 
      1840.0         0.20       2649.3 
      1841.0         0.20       2605.5 
      1842.0         0.23       2512.5 
      1843.0         0.27       2389.2 
      1844.0         0.30       2195.5 
      1845.0         0.23       2050.3 
      1846.0         0.20       1921.9 
      1847.0         0.13       1850.5 
      1848.0         0.17       1780.1 
