~Version Information
VERS.                      2.0: CWLS Log ASCII Standard - VERSION 2.0
WRAP.                       NO: One line per depth step
~Well Information Block
STRT.FT               240.0000: 
STOP.FT              1452.5000: 
STEP.FT                 0.1000: 
NULL.                -999.2500: 
COMP.          Petrogulf Corporation: COMPANY
WELL.          Robinson 15-12R: WELL
FLD.           Purgatorie River: FIELD
LOC.           1752' FNL & 561' FWL: LOCATION
PROV.                 Colorado: PROVINCE
CNTY.               Las Animas: COUNTRY
SRVC.                Patterson: SERVICE COMPANY
DATE.          Tue Sep 13 15:07:52 2005: LOG DATE
UWI.                          : UNIQUE WELL ID
~Curve Information Block
DEPT.FT            0 000 00 00: Depth
DCAL.in                       : CDL Caliper
RHOB.g/cc                     : CDL Bulk Density
RHOC.g/cc                     : CDL Density Correction
DPOR.pu                       : CDL Density Porosity
GR.GAPI                       : Gamma Ray
NPOR.pu                       : Neutron Porosity
~Parameter Information Block
~A  Depth       DCAL        RHOB        RHOC        DPOR         GR         NPOR    
# ...
  1200.0000      7.8921      2.5957      0.0608      3.2925    116.3621     20.5203
  1200.1000      7.8921      2.6048      0.1100      2.7392    111.7203     20.0707
  1200.2000      7.8921      2.6009      0.0254      2.9758    107.0301     19.4976
  1200.3000      7.9086      2.5961      0.0602      3.2688    107.6389     19.1272
  1200.4000      7.9086      2.5918      0.0727      3.5277    112.3214     18.8360
  1200.5000      7.9159      2.5832      0.0431      4.0478    113.8387     18.3029
  1200.6000      7.9159      2.5747      0.0504      4.5657    108.6815     17.6637
  1200.7000      7.9159      2.5709      0.0294      4.7929    101.9532     17.1762
  1200.8000      7.8534      2.5685      0.0538      4.9384     98.0102     17.0540
  1200.9000      7.8534      2.5590      0.0188      5.5171     97.1750     17.3877
  1201.0000      7.8784      2.5495      0.0194      6.0916    100.1492     18.1545
  1201.1000      7.8784      2.5561      0.0210      5.6880    107.4321     19.2795
  1201.2000      7.8784      2.5740      0.0735      4.6087    116.0947     20.5598
  1201.3000      7.8727      2.5836      0.0909      4.0231    121.2806     21.4927
  1201.4000      7.8727      2.5834      0.0492      4.0338    123.1356     21.7468
  1201.5000      7.8334      2.5862      0.0742      3.8679    123.7944     21.6129
  1201.6000      7.8334      2.5920      0.1034      3.5162    123.5181     21.4881
  1201.7000      7.8334      2.5898      0.0981      3.6459    122.5180     21.6446
  1201.8000      7.8338      2.5822      0.0594      4.1088    119.6910     22.1919
  1201.9000      7.8338      2.5859      0.0484      3.8840    115.3500     22.6363
  1202.0000      7.8434      2.6042      0.1042      2.7765    112.6757     22.4152
  1202.1000      7.8434      2.6252      0.0859      1.5045    111.3881     21.6125
  1202.2000      7.8434      2.6447      0.1086      0.3192    107.8944     20.6380
  1202.3000      7.8798      2.6541      0.1382     -0.2495    100.9493     19.9345
  1202.4000      7.8798      2.6354      0.0994      0.8873     93.0300     19.5996
  1202.5000      7.8842      2.5954      0.0553      3.3115     88.0750     19.3231
  1202.6000      7.8842      2.5648      0.0565      5.1631     85.9756     19.2291
  1202.7000      7.8842      2.5606      0.0315      5.4196     85.1115     19.6629
  1202.8000      7.8428      2.5733      0.0249      4.6459     86.2779     20.3114
  1202.9000      7.8428      2.5827      0.0845      4.0808     88.7703     20.6961
  1203.0000      7.8336      2.5836      0.0195      4.0266     91.1193     20.7676
  1203.1000      7.8336      2.5870      0.0525      3.8174     92.2266     20.4941
  1203.2000      7.8336      2.5873      0.0977      3.8013     91.2220     20.1003
  1203.3000      7.8430      2.5750      0.0490      4.5450     88.6625     20.1320
  1203.4000      7.8430      2.5642      0.0388      5.1996     86.1436     20.4582
  1203.5000      7.8421      2.5726      0.0402      4.6913     86.0997     20.4975
  1203.6000      7.8421      2.5983      0.0608      3.1315     87.2404     20.2681
  1203.7000      7.8421      2.6238      0.0857      1.5857     85.5065     20.1616
  1203.8000      7.8886      2.6284      0.1271      1.3112     82.5580     20.1983
  1203.9000      7.8886      2.6081      0.0891      2.5379     82.6072     20.0629
  1204.0000      7.8755      2.5841      0.0538      3.9913     84.4158     19.6734
  1204.1000      7.8755      2.5728      0.0616      4.6785     85.5216     19.2724
  1204.2000      7.8755      2.5684      0.0919      4.9436     85.6694     18.9438
  1204.3000      7.8881      2.5623      0.0261      5.3165     85.3643     18.7753
  1204.4000      7.8881      2.5545      0.0660      5.7898     85.0426     19.0123
  1204.5000      7.9069      2.5523      0.0062      5.9242     84.9170     19.5715
  1204.6000      7.9069      2.5658      0.0552      5.1035     83.3706     19.9080
  1204.7000      7.9069      2.5860      0.0805      3.8763     78.7242     19.6972
  1204.8000      7.9190      2.5970      0.0519      3.2124     73.8559     19.2889
  1204.9000      7.9190      2.6022      0.0522      2.8941     72.2124     19.0546
  1205.0000      7.9178      2.6069      0.0706      2.6128     74.0602     18.8626
  1205.1000      7.9178      2.6068      0.0661      2.6191     78.7623     18.5740
  1205.2000      7.9178      2.5999      0.0335      3.0362     84.0781     18.3117
  1205.3000      7.9145      2.5883      0.0433      3.7416     87.9560     17.9679
  1205.4000      7.9145      2.5779      0.0336      4.3681     91.9338     17.3880
  1205.5000      7.9225      2.5771      0.0615      4.4157     98.4961     16.8726
  1205.6000      7.9225      2.5842      0.0579      3.9868    104.1369     16.7388
  1205.7000      7.9225      2.5909      0.0146      3.5826    104.2508     17.2412
  1205.8000      7.9254      2.5948      0.0465      3.3440    102.6837     18.5464
  1205.9000      7.9254      2.5951      0.0797      3.3273    105.6023     20.2270
  1206.0000      7.9221      2.5931      0.0827      3.4478    110.5952     21.4841
  1206.1000      7.9221      2.5850      0.1131      3.9409    112.7932     22.0368
  1206.2000      7.9221      2.5639      0.0840      5.2175    114.8504     22.2238
  1206.3000      7.9054      2.5430      0.0582      6.4834    119.4151     22.3225
  1206.4000      7.9054      2.5360      0.0728      6.9067    124.9008     22.3320
  1206.5000      7.8680      2.5411      0.0257      6.5976    127.7869     22.2402
  1206.6000      7.8680      2.5580      0.0890      5.5748    127.1285     22.1427
  1206.7000      7.8680      2.5880      0.0742      3.7552    127.2025     22.2851
  1206.8000      7.8699      2.6201      0.1732      1.8116    129.0531     22.7406
  1206.9000      7.8699      2.6363      0.1324      0.8303    131.1953     23.2926
  1207.0000      7.8474      2.6379      0.1091      0.7357    134.6320     23.7136
  1207.1000      7.8474      2.6317      0.1427      1.1066    137.7393     23.8232
  1207.2000      7.8474      2.6206      0.1099      1.7798    137.8625     23.6762
  1207.3000      7.8545      2.6110      0.1075      2.3611    136.5365     23.7678
  1207.4000      7.8545      2.6032      0.0817      2.8375    136.5818     24.4321
  1207.5000      7.8868      2.5957      0.0017      3.2908    139.9604     25.0580
  1207.6000      7.8868      2.5896      0.0618      3.6615    146.5661     24.7058
  1207.7000      7.8868      2.5799      0.0710      4.2507    151.6504     23.3122
  1207.8000      7.8884      2.5642      0.0292      5.2023    150.6962     21.6853
  1207.9000      7.8884      2.5529      0.0153      5.8866    147.5042     20.7953
  1208.0000      7.9062      2.5571      0.0443      5.6319    146.4256     20.9339
  1208.1000      7.9062      2.5708      0.0507      4.7970    145.2614     21.6998
  1208.2000      7.9062      2.5808      0.0664      4.1924    141.2998     22.7675
  1208.3000      7.9086      2.5871      0.0113      3.8146    136.8952     23.7468
  1208.4000      7.9086      2.6007      0.0454      2.9867    134.2705     24.1364
  1208.5000      7.9139      2.6209      0.0921      1.7629    130.7279     23.9569
  1208.6000      7.9139      2.6345      0.0744      0.9367    124.7878     23.7429
  1208.7000      7.9139      2.6329      0.1018      1.0372    117.8891     23.7648
  1208.8000      7.9079      2.6189      0.0365      1.8839    112.5642     23.8913
  1208.9000      7.9079      2.6094     -0.0019      2.4604    110.7799     23.9978
  1209.0000      7.8947      2.6140      0.0162      2.1800    110.8839     23.8747
  1209.1000      7.8947      2.6201      0.0560      1.8094    109.6387     23.3736
  1209.2000      7.8947      2.6177      0.0372      1.9572    107.1939     22.5781
  1209.3000      7.8876      2.6186      0.0524      1.9038    107.0564     21.6596
  1209.4000      7.8876      2.6309      0.0194      1.1552    111.1990     20.9496
  1209.5000      7.8506      2.6437      0.0914      0.3796    117.7242     20.5729
