~Version Information
VERS.                      2.0: CWLS Log ASCII Standard - VERSION 2.0
WRAP.                       NO: One line per depth step
~Well Information Block
STRT.FT               800.0000: 
STOP.FT              1933.5000: 
STEP.FT                 0.2500: 
NULL.                -999.2500: 
COMP.          Pioneer Natural Resources: COMPANY
WELL.            Nova 11-14 Tr: WELL
FLD.           Purgatoire River: FIELD
LOC.           706' FNL & 1109' FWL: LOCATION
PROV.                 Colorado: PROVINCE
CNTY.               Las Animas: COUNTRY
SRVC.                Patterson: SERVICE COMPANY
DATE.          Wed Jul 20 23:28:11 2005: LOG DATE
UWI.           05 071 08434 00: UNIQUE WELL ID
~Curve Information Block
DEPT.FT            0 000 00 00: Depth
SN.Ohm-m                      : IEL Short Normal
SP.mV                         : IEL Spontaneous Potential
DIR.Ohm-m                     : IEL Induction Resistivity
GR.GAPI                       : Gamma Ray
~Parameter Information Block
~A  Depth        SN          SP         DIR          GR     
# ...
  1470.0000      8.0462    -84.8917      8.7203    136.2188
  1470.2500      8.2420    -84.8813      8.7923    133.1659
  1470.5000      8.4032    -84.9031      8.8607    127.9995
  1470.7500      8.5904    -84.9474      8.9218    124.8185
  1471.0000      8.8265    -84.9968      8.9775    121.9214
  1471.2500      9.0079    -85.0365      9.0348    121.6117
  1471.5000      9.0227    -85.0533      9.1015    122.5695
  1471.7500      8.9506    -85.0305      9.1806    123.1764
  1472.0000      8.9993    -84.9511      9.2688    123.3132
  1472.2500      9.2359    -84.8105      9.3586    123.1873
  1472.5000      9.5385    -84.6200      9.4399    123.4229
  1472.7500      9.7605    -84.4000      9.5018    123.9384
  1473.0000      9.7956    -84.1728      9.5349    124.8146
  1473.2500      9.6169    -83.9515      9.5351    125.3478
  1473.5000      9.3517    -83.7226      9.5067    126.5237
  1473.7500      9.1942    -83.4448      9.4605    127.7809
  1474.0000      9.2416    -83.0769      9.4094    129.7300
  1474.2500      9.4303    -82.6093      9.3640    130.2782
  1474.5000      9.5947    -82.0712      9.3322    129.0624
  1474.7500      9.6295    -81.5172      9.3197    126.9446
  1475.0000      9.5592    -81.0113      9.3326    122.7165
  1475.2500      9.4334    -80.6122      9.3771    120.0534
  1475.5000      9.2806    -80.3605      9.4578    117.9395
  1475.7500      9.1655    -80.2749      9.5753    118.4059
  1476.0000      9.1448    -80.3564      9.7255    121.6272
  1476.2500      9.1829    -80.5956      9.9019    124.6040
  1476.5000      9.2007    -80.9798     10.0997    128.7752
  1476.7500      9.1638    -81.4947     10.3195    130.8664
  1477.0000      9.1204    -82.1248     10.5678    132.7187
  1477.2500      9.1927    -82.8560     10.8533    133.0399
  1477.5000      9.5059    -83.6807     11.1826    132.0475
  1477.7500     10.1072    -84.5930     11.5572    130.4504
  1478.0000     10.9519    -85.5671     11.9756    127.0803
  1478.2500     11.9823    -86.5372     12.4377    124.5229
  1478.5000     13.1636    -87.4062     12.9471    120.4788
  1478.7500     14.4460    -88.0815     13.5097    117.5143
  1479.0000     15.7754    -88.5093     14.1296    112.5234
  1479.2500     17.1143    -88.6803     14.8102    109.1792
  1479.5000     18.4527    -88.6176     15.5573    105.1610
  1479.7500     19.8120    -88.3677     16.3792    103.3530
  1480.0000     21.1789    -87.9979     17.2809    101.0651
  1480.2500     22.4894    -87.5868     18.2536     99.0823
  1480.5000     23.7188    -87.2004     19.2681     95.1428
  1480.7500     24.9187    -86.8701     20.2777     92.4143
  1481.0000     26.2021    -86.5930     21.2289     89.3220
  1481.2500     27.6484    -86.3492     22.0790     88.2244
  1481.5000     29.1719    -86.1216     22.8073     87.7432
  1481.7500     30.5559    -85.9068     23.4176     87.7748
  1482.0000     31.5897    -85.7196     23.9314     87.6209
  1482.2500     32.1855    -85.5926     24.3782     87.1502
  1482.5000     32.4249    -85.5631     24.7819     85.9381
  1482.7500     32.4706    -85.6504     25.1441     85.0409
  1483.0000     32.4335    -85.8318     25.4323     84.2193
  1483.2500     32.3001    -86.0411     25.5879     84.3959
  1483.5000     31.9477    -86.2001     25.5555     86.1350
  1483.7500     31.2821    -86.2647     25.3179     88.3581
  1484.0000     30.3260    -86.2446     24.9120     93.1750
  1484.2500     29.1559    -86.1816     24.4121     97.0320
  1484.5000     27.8865    -86.1116     23.8954    102.6245
  1484.7500     26.6816    -86.0450     23.4128    105.4372
  1485.0000     25.6468    -85.9729     22.9783    107.4031
  1485.2500     24.7672    -85.8801     22.5769    107.2123
  1485.5000     23.9941    -85.7477     22.1817    105.6951
  1485.7500     23.3447    -85.5517     21.7738    104.8357
  1486.0000     22.8924    -85.2712     21.3543    104.9910
  1486.2500     22.6551    -84.9063     20.9416    105.9380
  1486.5000     22.5348    -84.4901     20.5557    107.1361
  1486.7500     22.3912    -84.0829     20.2037    106.9351
  1487.0000     22.1336    -83.7475     19.8800    105.0692
  1487.2500     21.7433    -83.5221     19.5748    103.5906
  1487.5000     21.2873    -83.4109     19.2807    102.6533
  1487.7500     20.9009    -83.3967     18.9913    103.3146
  1488.0000     20.6554    -83.4628     18.6972    105.7652
  1488.2500     20.4647    -83.6004     18.3888    107.6126
  1488.5000     20.1734    -83.7968     18.0604    109.2672
  1488.7500     19.7289    -84.0238     17.7107    109.2015
  1489.0000     19.1951    -84.2445     17.3411    108.1128
  1489.2500     18.6178    -84.4324     16.9538    107.9413
  1489.5000     17.9893    -84.5897     16.5515    110.4895
  1489.7500     17.3048    -84.7494     16.1379    114.2951
  1490.0000     16.5997    -84.9536     15.7185    121.7505
  1490.2500     15.9401    -85.2177     15.3024    126.6640
  1490.5000     15.3506    -85.5126     14.9013    132.6277
  1490.7500     14.7604    -85.7854     14.5230    135.5894
  1491.0000     14.1123    -85.9929     14.1622    138.8619
  1491.2500     13.4897    -86.1163     13.7965    140.2378
  1491.5000     13.0245    -86.1530     13.3954    140.5540
  1491.7500     12.7783    -86.1004     12.9410    139.4588
  1492.0000     12.7031    -85.9503     12.4424    136.6949
  1492.2500     12.6066    -85.6969     11.9311    135.1139
  1492.5000     12.2837    -85.3484     11.4422    134.5537
  1492.7500     11.7474    -84.9302     10.9991    135.3922
  1493.0000     11.1874    -84.4765     10.6123    137.0462
  1493.2500     10.6949    -84.0211     10.2856    137.4193
  1493.5000     10.1737    -83.5946     10.0200    136.1318
  1493.7500      9.5076    -83.2260      9.8130    134.2498
  1494.0000      8.7283    -82.9368      9.6549    130.6218
  1494.2500      8.0251    -82.7294      9.5278    127.9300
  1494.5000      7.6101    -82.5831      9.4097    123.6282
  1494.7500      7.5914    -82.4722      9.2805    120.7262
  1495.0000      7.9378    -82.3914      9.1265    116.9240
  1495.2500      8.4814    -82.3576      8.9431    115.1834
  1495.5000      8.9940    -82.3793      8.7351    114.0682
  1495.7500      9.3322    -82.4288      8.5159    114.0365
  1496.0000      9.5269    -82.4510      8.3035    113.9305
  1496.2500      9.6741    -82.4054      8.1149    113.2276
  1496.5000      9.7306    -82.2956      7.9584    111.3885
  1496.7500      9.5701    -82.1614      7.8319    110.6012
  1497.0000      9.2349    -82.0481      7.7246    112.1778
  1497.2500      8.9273    -81.9818      7.6236    115.6710
  1497.5000      8.7321    -81.9649      7.5196    123.7840
  1497.7500      8.4965    -81.9866      7.4103    129.8178
  1498.0000      8.0253    -82.0362      7.3000    137.4034
  1498.2500      7.3222    -82.1099      7.1949    140.7071
  1498.5000      6.5998    -82.2130      7.1000    143.3573
  1498.7500      6.0773    -82.3572      7.0167    144.2659
  1499.0000      5.8408    -82.5516      6.9435    144.9044
  1499.2500      5.8777    -82.7896      6.8772    144.6296
  1499.5000      6.0965    -83.0445      6.8146    142.8328
  1499.7500      6.3321    -83.2787      6.7536    141.0322
  1500.0000      6.4579    -83.4555      6.6944    138.5680
  1500.2500      6.4433    -83.5459      6.6392    137.5333
  1500.5000      6.3170    -83.5373      6.5907    136.6597
  1500.7500      6.1758    -83.4439      6.5510    135.9288
  1501.0000      6.1109    -83.3075      6.5210    133.5250
  1501.2500      6.0480    -83.1805      6.5013    130.7398
  1501.5000      5.8292    -83.0993      6.4919    124.8467
  1501.7500      5.4610    -83.0712      6.4926    119.8950
  1502.0000      5.1306    -83.0819      6.5013    111.0061
  1502.2500      5.0375    -83.1132      6.5131    104.2818
  1502.5000      5.2892    -83.1533      6.5210     94.1202
  1502.7500      5.8306    -83.1995      6.5173     88.3849
  1503.0000      6.4450    -83.2594      6.4967     82.8544
  1503.2500      6.8958    -83.3495      6.4591     81.2747
