~Version Information
VERS.                      2.0: CWLS Log ASCII Standard - VERSION 2.0
WRAP.                       NO: One line per depth step
~Well Information Block
STRT.FT               423.0000: 
STOP.FT              2306.0000: 
STEP.FT                 0.1000: 
NULL.                -999.2500: 
COMP.          Pioneer Natural Resources: COMPANY
WELL.             Culver 14-12: WELL
FLD.           Purgatoire River: FIELD
LOC.           913' FSL & 1140' FWL: LOCATION
PROV.                 Colorado: PROVINCE
CNTY.               Las Animas: COUNTRY
SRVC.                Patterson: SERVICE COMPANY
DATE.          Tue Jun 07 09:21:05 2005: LOG DATE
UWI.           05 071 08386 00: UNIQUE WELL ID
~Curve Information Block
DEPT.FT            0 000 00 00: Depth
DCAL.in                       : CDL Caliper
RHOB.g/cc                     : CDL Bulk Density
RHOC.g/cc                     : CDL Density Correction
DPOR.pu                       : CDL Density Porosity
GR.GAPI                       : Gamma Ray
NPOR.pu                       : Neutron Porosity
~Parameter Information Block
~A  Depth       DCAL        RHOB        RHOC        DPOR         GR         NPOR    
# ...
  2045.4000      7.9084      2.5560      0.0082      5.6988     60.9137     23.7292
  2045.5000      7.9657      2.5637      0.0733      5.2310     61.0987     24.2248
  2045.6000      7.9657      2.5760      0.0653      4.4878     56.9737     24.8290
  2045.7000      7.9657      2.5857      0.0371      3.8967     53.9861     24.8689
  2045.8000      7.9847      2.5937      0.0753      3.4147     55.7291     24.6460
  2045.9000      7.9847      2.6017      0.0968      2.9301     59.9305     24.0962
  2046.0000      7.9789      2.6077      0.1162      2.5612     63.2767     22.7077
  2046.1000      7.9789      2.6093      0.1288      2.4656     64.6708     21.5267
  2046.2000      7.9789      2.5929      0.1852      3.4626     64.2145     21.6890
  2046.3000      7.9671      2.5559      0.0867      5.7014     63.1571     22.6129
  2046.4000      7.9671      2.5383      0.0737      6.7699     63.1165     23.1768
  2046.5000      7.9289      2.5716      0.1117      4.7512     63.8573     22.9594
  2046.6000      7.9289      2.6345      0.1319      0.9369     65.5068     22.4822
  2046.7000      7.9289      2.6811      0.2052     -1.8867     67.6614     22.4765
  2046.8000      7.9152      2.6906      0.1650     -2.4584     67.4294     23.0878
  2046.9000      7.9152      2.6820      0.1602     -1.9398     65.9702     24.2396
  2047.0000      7.9445      2.6800      0.1462     -1.8153     65.3039     25.4472
  2047.1000      7.9445      2.6839      0.1950     -2.0554     63.6861     25.8203
  2047.2000      7.9445      2.6762      0.1456     -1.5867     61.6736     25.5706
  2047.3000      7.9710      2.6614      0.0896     -0.6908     61.0117     25.6100
  2047.4000      7.9710      2.6597      0.1193     -0.5862     61.1632     26.2667
  2047.5000      7.9847      2.6607      0.1359     -0.6485     61.0629     27.1023
  2047.6000      7.9847      2.6517      0.0802     -0.1033     61.2041     27.1435
  2047.7000      7.9847      2.6474      0.0496      0.1590     62.2357     26.3496
  2047.8000      7.9814      2.6431      0.1122      0.4209     63.2876     25.6027
  2047.9000      7.9814      2.6219      0.0592      1.7027     63.1768     25.2582
  2048.0000      7.9920      2.6027      0.0624      2.8663     62.2013     25.0633
  2048.1000      7.9920      2.6078      0.0696      2.5548     61.9836     24.8078
  2048.2000      7.9920      2.6245      0.1162      1.5462     62.8429     24.7535
  2048.3000      7.9902      2.6362      0.0268      0.8354     63.9507     25.2387
  2048.4000      7.9902      2.6427      0.1180      0.4439     64.3689     25.5515
  2048.5000      8.0002      2.6352      0.0868      0.8960     62.3900     24.7698
  2048.6000      8.0002      2.6089      0.0979      2.4889     59.0505     23.4056
  2048.7000      8.0002      2.5740      0.0037      4.6078     56.9050     22.1583
  2048.8000      7.9963      2.5461      0.0115      6.2954     56.7038     21.0829
  2048.9000      7.9963      2.5357      0.0098      6.9259     58.7771     20.3107
  2049.0000      8.0662      2.5420      0.0060      6.5424     63.7152     20.1743
  2049.1000      8.0662      2.5575      0.0036      5.6031     67.7298     20.9775
  2049.2000      8.0662      2.5743      0.0341      4.5862     65.0237     22.6423
  2049.3000      8.0923      2.5884      0.0230      3.7333     58.7364     24.2511
  2049.4000      8.0923      2.5977      0.0404      3.1725     55.5589     24.9208
  2049.5000      8.0818      2.5981      0.0627      3.1444     54.9229     24.9441
  2049.6000      8.0818      2.5906      0.0316      3.5988     52.7853     24.6630
  2049.7000      8.0818      2.5907      0.0067      3.5952     49.4538     23.8655
  2049.8000      8.0689      2.6143      0.0589      2.1614     48.5478     22.8525
  2049.9000      8.0689      2.6509      0.0563     -0.0535     49.9066     22.1726
  2050.0000      8.0745      2.6783      0.0694     -1.7142     50.3411     22.0375
  2050.1000      8.0745      2.6827      0.0744     -1.9837     50.8052     22.3381
  2050.2000      8.0745      2.6559      0.0747     -0.3573     52.6894     22.4688
  2050.3000      8.0373      2.6096      0.0188      2.4485     53.7557     22.2510
  2050.4000      8.0373      2.5727      0.0070      4.6822     52.3614     22.2454
  2050.5000      8.0316      2.5525      0.0318      5.9085     50.9849     22.3762
  2050.6000      8.0316      2.5385     -0.0340      6.7591     51.6442     22.1607
  2050.7000      8.0316      2.5353      0.0084      6.9494     52.4364     21.6296
  2050.8000      8.0482      2.5559     -0.0098      5.7015     51.2090     21.1960
  2050.9000      8.0482      2.5966      0.0677      3.2361     48.7520     21.0863
  2051.0000      8.0274      2.6310      0.1058      1.1535     46.2652     21.3758
  2051.1000      8.0274      2.6401      0.1113      0.6021     44.4644     22.1523
  2051.2000      8.0274      2.6286      0.0564      1.2983     44.4977     22.9995
  2051.3000      8.0160      2.6035      0.0857      2.8162     46.2929     23.1685
  2051.4000      8.0160      2.5734      0.0124      4.6446     48.0278     22.6504
  2051.5000      8.0118      2.5651     -0.0548      5.1470     47.7360     22.0618
  2051.6000      8.0118      2.5872      0.0622      3.8035     48.4761     21.9241
  2051.7000      8.0118      2.6076      0.0545      2.5698     53.3421     22.4260
  2051.8000      8.0060      2.6114      0.0443      2.3387     57.8937     23.2200
  2051.9000      8.0060      2.6164      0.0511      2.0369     56.2345     23.2822
  2052.0000      7.9789      2.6216      0.0741      1.7209     51.5209     22.2384
  2052.1000      7.9789      2.6189      0.0235      1.8833     49.5772     21.3737
  2052.2000      7.9789      2.6233      0.0801      1.6180     48.6211     21.4748
  2052.3000      7.9728      2.6393      0.1224      0.6480     46.8012     21.4922
  2052.4000      7.9728      2.6598      0.1338     -0.5931     45.8530     21.0552
  2052.5000      7.9815      2.6825      0.1607     -1.9669     46.3225     21.0354
  2052.6000      7.9815      2.6901      0.1015     -2.4315     47.5628     21.6268
  2052.7000      7.9815      2.6724      0.0230     -1.3558     48.1859     22.5969
  2052.8000      7.9875      2.6488      0.0798      0.0740     48.9131     23.5874
  2052.9000      7.9875      2.6346      0.0805      0.9354     51.0466     23.8318
  2053.0000      7.9829      2.6287      0.0514      1.2930     52.8084     23.3141
  2053.1000      7.9829      2.6367      0.0215      0.8046     52.3973     22.7259
  2053.2000      7.9829      2.6677      0.0592     -1.0698     49.8442     22.2170
  2053.3000      7.9811      2.7005      0.0993     -3.0629     46.5431     21.6363
  2053.4000      7.9811      2.6988      0.1165     -2.9564     44.9875     21.1413
  2053.5000      7.9862      2.6614      0.0763     -0.6884     45.6022     20.8889
  2053.6000      7.9862      2.6234      0.0290      1.6118     46.4745     20.7424
  2053.7000      7.9862      2.6069      0.0483      2.6123     46.7115     20.6005
  2053.8000      7.9814      2.6071      0.0501      2.6013     48.9177     20.3724
  2053.9000      7.9814      2.6195      0.0685      1.8469     54.3438     20.1557
  2054.0000      7.9822      2.6433      0.0813      0.4035     58.4718     20.1484
  2054.1000      7.9822      2.6624      0.1078     -0.7496     57.9700     20.3530
  2054.2000      7.9822      2.6656      0.0836     -0.9461     54.0250     20.9263
  2054.3000      7.9679      2.6646      0.1034     -0.8838     49.5932     21.7240
  2054.4000      7.9679      2.6660      0.1299     -0.9668     48.2991     22.1668
  2054.5000      7.9743      2.6721      0.0959     -1.3413     50.1438     22.3340
  2054.6000      7.9743      2.6790      0.1313     -1.7557     52.1546     22.3971
  2054.7000      7.9743      2.6744      0.0731     -1.4784     52.6873     22.2931
  2054.8000      7.9726      2.6657      0.0470     -0.9528     51.6462     22.5761
  2054.9000      7.9726      2.6639      0.0796     -0.8424     50.3383     23.3283
