~Version Information
VERS.                      2.0: CWLS Log ASCII Standard - VERSION 2.0
WRAP.                       NO: One line per depth step
~Well Information Block
STRT.FT               955.2500: 
STOP.FT              2226.0000: 
STEP.FT                 0.2500: 
NULL.                -999.2500: 
COMP.          Petrogulf Corporation: COMPANY
WELL.             Burson 8-13R: WELL
FLD.           Purgatorie River: FIELD
LOC.           1045' FNL & 2189' FEL: LOCATION
CNTY.               Las Animas: COUNTY
SRVC.                         : SERVICE COMPANY
DATE.          Fri Apr 30 04:52:15 2004: LOG DATE
UWI.           05 071 08039 00: UNIQUE WELL ID
STAT.                 Colorado: STATE
~Curve Information Block
DEPT.FT            0 000 00 00: Depth
SP.mV                         : DIL Spontaneous Potential
RILD.Ohm-m                    : DIL Deep Resistivity
RILM.Ohm-m                    : DIL Medium Resistivity
RLL3.Ohm-m                    : DIL Shallow Resistivity
~Parameter Information Block
~A  Depth        SP         RILD        RILM        RLL3    
# ...
  1323.7500   2000.0000      8.9970      9.0115   2000.0000
  1324.0000   2000.0000      8.9405      8.9343   2000.0000
  1324.2500   2000.0000      8.8957      8.8510   2000.0000
  1324.5000   2000.0000      8.8764      8.7619   2000.0000
  1324.7500   2000.0000      8.8932      8.6702   2000.0000
  1325.0000   2000.0000      8.9495      8.5885   2000.0000
  1325.2500   2000.0000      9.0433      8.5367   2000.0000
  1325.5000   2000.0000      9.1703      8.5359   2000.0000
  1325.7500   2000.0000      9.3274      8.6019   2000.0000
  1326.0000   2000.0000      9.5123      8.7434   2000.0000
  1326.2500   2000.0000      9.7219      8.9623   2000.0000
  1326.5000   2000.0000      9.9518      9.2554   2000.0000
  1326.7500   2000.0000     10.2002      9.6157   2000.0000
  1327.0000   2000.0000     10.4721     10.0330   2000.0000
  1327.2500   2000.0000     10.7794     10.4939   2000.0000
  1327.5000   2000.0000     11.1333     10.9858   2000.0000
  1327.7500   2000.0000     11.5321     11.5036   2000.0000
  1328.0000   2000.0000     11.9540     12.0527   2000.0000
  1328.2500   2000.0000     12.3627     12.6392   2000.0000
  1328.5000   2000.0000     12.7241     13.2463   2000.0000
  1328.7500   2000.0000     13.0227     13.8148   2000.0000
  1329.0000   2000.0000     13.2645     14.2546   2000.0000
  1329.2500   2000.0000     13.4703     14.4912   2000.0000
  1329.5000   2000.0000     13.6642     14.5110   2000.0000
  1329.7500   2000.0000     13.8648     14.3668   2000.0000
  1330.0000   2000.0000     14.0771     14.1446   2000.0000
  1330.2500   2000.0000     14.2922     13.9278   2000.0000
  1330.5000   2000.0000     14.4927     13.7782   2000.0000
  1330.7500   2000.0000     14.6641     13.7321   2000.0000
  1331.0000   2000.0000     14.8016     13.8035   2000.0000
  1331.2500   2000.0000     14.9125     13.9891   2000.0000
  1331.5000   2000.0000     15.0133     14.2725   2000.0000
  1331.7500   2000.0000     15.1260     14.6291   2000.0000
  1332.0000   2000.0000     15.2738     15.0335   2000.0000
  1332.2500   2000.0000     15.4789     15.4732   2000.0000
  1332.5000   2000.0000     15.7641     15.9573   2000.0000
  1332.7500   2000.0000     16.1537     16.5120   2000.0000
  1333.0000   2000.0000     16.6720     17.1603   2000.0000
  1333.2500   2000.0000     17.3372     17.8981   2000.0000
  1333.5000   2000.0000     18.1517     18.6823   2000.0000
  1333.7500   2000.0000     19.0911     19.4441   2000.0000
  1334.0000   2000.0000     20.0944     20.1257   2000.0000
  1334.2500   2000.0000     21.0628     20.7147   2000.0000
  1334.5000   2000.0000     21.8747     21.2447   2000.0000
  1334.7500   2000.0000     22.4247     21.7611   2000.0000
  1335.0000   2000.0000     22.6765     22.2840   2000.0000
  1335.2500   2000.0000     22.6958     22.7942   2000.0000
  1335.5000   2000.0000     22.6268     23.2456   2000.0000
  1335.7500   2000.0000     22.6249     23.5929   2000.0000
  1336.0000   2000.0000     22.7944     23.8208   2000.0000
  1336.2500   2000.0000     23.1629     23.9583   2000.0000
  1336.5000   2000.0000     23.6921     24.0687   2000.0000
  1336.7500   2000.0000     24.3032     24.2187   2000.0000
  1337.0000   2000.0000     24.9015     24.4535   2000.0000
  1337.2500   2000.0000     25.3932     24.7907   2000.0000
  1337.5000   2000.0000     25.7090     25.2372   2000.0000
  1337.7500   2000.0000     25.8272     25.8026   2000.0000
  1338.0000   2000.0000     25.7771     26.4848   2000.0000
  1338.2500   2000.0000     25.6133     27.2253   2000.0000
  1338.5000   2000.0000     25.3911     27.8802   2000.0000
  1338.7500   2000.0000     25.1639     28.2751   2000.0000
  1339.0000   2000.0000     24.9853     28.3442   2000.0000
  1339.2500   2000.0000     24.8950     28.2207   2000.0000
  1339.5000   2000.0000     24.8966     28.1603   2000.0000
  1339.7500   2000.0000     24.9595     28.3697   2000.0000
  1340.0000   2000.0000     25.0500     28.8865   2000.0000
  1340.2500   2000.0000     25.1700     29.5694   2000.0000
  1340.5000   2000.0000     25.3656     30.1829   2000.0000
  1340.7500   2000.0000     25.6936     30.5224   2000.0000
  1341.0000   2000.0000     26.1656     30.4888   2000.0000
  1341.2500   2000.0000     26.7098     30.0842   2000.0000
  1341.5000   2000.0000     27.1857     29.3794   2000.0000
  1341.7500   2000.0000     27.4502     28.4976   2000.0000
  1342.0000   2000.0000     27.4339     27.5853   2000.0000
  1342.2500   2000.0000     27.1606     26.7609   2000.0000
  1342.5000   2000.0000     26.7039     26.0763   2000.0000
  1342.7500   2000.0000     26.1281     25.5141   2000.0000
  1343.0000   2000.0000     25.4672     25.0139   2000.0000
  1343.2500   2000.0000     24.7403     24.5024   2000.0000
  1343.5000   2000.0000     23.9717     23.9164   2000.0000
  1343.7500   2000.0000     23.1826     23.2257   2000.0000
  1344.0000   2000.0000     22.3633     22.4533   2000.0000
  1344.2500   2000.0000     21.4691     21.6771   2000.0000
  1344.5000   2000.0000     20.4604     20.9955   2000.0000
  1344.7500   2000.0000     19.3599     20.4738   2000.0000
  1345.0000   2000.0000     18.2620     20.1113   2000.0000
  1345.2500   2000.0000     17.2832     19.8491   2000.0000
  1345.5000   2000.0000     16.5021     19.6088   2000.0000
  1345.7500   2000.0000     15.9372     19.3356   2000.0000
  1346.0000   2000.0000     15.5613     19.0177   2000.0000
  1346.2500   2000.0000     15.3293     18.6791   2000.0000
  1346.5000   2000.0000     15.2043     18.3579   2000.0000
  1346.7500   2000.0000     15.1714     18.0872   2000.0000
  1347.0000   2000.0000     15.2388     17.8819   2000.0000
  1347.2500   2000.0000     15.4261     17.7311   2000.0000
  1347.5000   2000.0000     15.7436     17.5959   2000.0000
  1347.7500   2000.0000     16.1700     17.4227   2000.0000
  1348.0000   2000.0000     16.6431     17.1772   2000.0000
  1348.2500   2000.0000     17.0734     16.8808   2000.0000
  1348.5000   2000.0000     17.3838     16.6152   2000.0000
  1348.7500   2000.0000     17.5504     16.4812   2000.0000
  1349.0000   2000.0000     17.6151     16.5488   2000.0000
  1349.2500   2000.0000     17.6624     16.8324   2000.0000
  1349.5000   2000.0000     17.7828     17.2943   2000.0000
  1349.7500   2000.0000     18.0438     17.8686   2000.0000
  1350.0000   2000.0000     18.4751     18.4884   2000.0000
  1350.2500   2000.0000     19.0686     19.1079   2000.0000
  1350.5000   2000.0000     19.7879     19.7077   2000.0000
  1350.7500   2000.0000     20.5818     20.2902   2000.0000
  1351.0000   2000.0000     21.3925     20.8722   2000.0000
  1351.2500   2000.0000     22.1572     21.4777   2000.0000
  1351.5000   2000.0000     22.8099     22.1253   2000.0000
  1351.7500   2000.0000     23.2887     22.8152   2000.0000
  1352.0000   2000.0000     23.5501     23.5249   2000.0000
  1352.2500   2000.0000     23.5798     24.2129   2000.0000
  1352.5000   2000.0000     23.3979     24.8113   2000.0000
  1352.7500   2000.0000     23.0533     25.2027   2000.0000
  1353.0000   2000.0000     22.6136     25.2244   2000.0000
  1353.2500   2000.0000     22.1472     24.7557   2000.0000
  1353.5000   2000.0000     21.7048     23.8400   2000.0000
  1353.7500   2000.0000     21.3070     22.6943   2000.0000
  1354.0000   2000.0000     20.9447     21.5797   2000.0000
  1354.2500   2000.0000     20.5939     20.6685   2000.0000
  1354.5000   2000.0000     20.2357     20.0048   2000.0000
  1354.7500   2000.0000     19.8658     19.5341   2000.0000
  1355.0000   2000.0000     19.4871     19.1551   2000.0000
  1355.2500   2000.0000     19.0903     18.7688   2000.0000
  1355.5000   2000.0000     18.6432     18.3126   2000.0000
  1355.7500   2000.0000     18.1087     17.7714   2000.0000
  1356.0000   2000.0000     17.4833     17.1683   2000.0000
  1356.2500   2000.0000     16.8185     16.5482   2000.0000
  1356.5000   2000.0000     16.1961     15.9650   2000.0000
  1356.7500   2000.0000     15.6799     15.4719   2000.0000
  1357.0000   2000.0000     15.2860     15.1115   2000.0000
