~Version Information
VERS.                      2.0: CWLS Log ASCII Standard - VERSION 2.0
WRAP.                       NO: One line per depth step
~Well Information Block
STRT.FT                -4.2500: 
STOP.FT              2218.5000: 
STEP.FT                 0.2500: 
NULL.                -999.2500: 
COMP.          Pioneer Natural Resources: COMPANY
WELL.             Warrior 32-1: WELL
FLD.           Purgatorie River: FIELD
LOC.           2624' FNL & 2392' FEL--: LOCATION
PROV.                       CO: PROVINCE
CNTY.               Las Animas: COUNTRY
SRVC.                         : SERVICE COMPANY
DATE.          Tue Oct 12 10:54:12 2004: LOG DATE
UWI.           005 071 08176 : UNIQUE WELL ID
~Curve Information Block
DEPT.FT            0 000 00 00: Depth
GR.GAPI                       : Gamma Ray
CCL.                          : Casing Collar Locator
TT3.usec                      : CBL 3' Travel Time
AMP3.mV                       : CBL 3' Amplitude
~Parameter Information Block
~A  Depth        GR         CCL         TT3         AMP3    
# ...
  1436.2500    144.4591      0.0000    677.5421      4.1526
  1436.5000    149.7533      0.0000    668.6086      4.1847
  1436.7500    154.1864      0.0000    650.1239      4.1697
  1437.0000    157.4536      0.0000    625.6493      4.1284
  1437.2500    160.6447      0.0000    603.0926      4.0974
  1437.5000    165.2620      0.0000    591.9549      4.0925
  1437.7500    172.1038      0.0000    598.5930      4.0963
  1438.0000    180.4166      0.0000    622.1531      4.0782
  1438.2500    187.5695      0.0000    655.0905      4.0241
  1438.5000    189.7948      0.0000    687.9523      3.9519
  1438.7500    184.0614      0.0000    713.5344      3.8998
  1439.0000    170.1865      0.0000    727.7405      3.8970
  1439.2500    151.4599      0.0000    729.4376      3.9450
  1439.5000    132.7020      0.0000    720.7289      4.0207
  1439.7500    117.2187      0.0000    706.0605      4.0913
  1440.0000    105.4688      0.0000    689.8940      4.1333
  1440.2500     96.2545      0.0000    674.9333      4.1420
  1440.5000     88.6996      0.0000    661.8088      4.1277
  1440.7500     83.2234      0.0000    649.7544      4.1033
  1441.0000     80.9564      0.0000    637.6898      4.0746
  1441.2500     82.1711      0.0000    625.0948      4.0384
  1441.5000     85.3489      0.0000    612.3828      3.9878
  1441.7500     88.1667      0.0000    600.8649      3.9232
  1442.0000     89.3365      0.0000    592.2235      3.8596
  1442.2500     89.0618      0.0000    587.7228      3.8182
  1442.5000     88.0112      0.0000    587.8351      3.8064
  1442.7500     86.5950      0.0000    592.3450      3.8072
  1443.0000     85.0737      0.0000    600.2329      3.7936
  1443.2500     83.6380      0.0000    609.4868      3.7558
  1443.5000     82.4547      0.0000    617.7084      3.7065
  1443.7500     82.1289      0.0000    623.3531      3.6601
  1444.0000     83.6596      0.0000    626.3442      3.6147
  1444.2500     87.1924      0.0000    627.5477      3.5612
  1444.5000     91.2705      0.0000    627.9266      3.5063
  1444.7500     94.0663      0.0000    628.1976      3.4762
  1445.0000     94.9867      0.0000    629.0076      3.4921
  1445.2500     94.6119      0.0000    631.1001      3.5453
  1445.5000     93.6086      0.0000    635.0278      3.6053
  1445.7500     92.1635      0.0000    640.4832      3.6489
  1446.0000     90.1961      0.0000    646.0425      3.6760
  1446.2500     87.8907      0.0000    650.0703      3.6999
  1446.5000     86.0084      0.0000    652.1321      3.7318
  1446.7500     85.4849      0.0000    653.2450      3.7723
  1447.0000     86.5021      0.0000    654.5785      3.8105
  1447.2500     87.9796      0.0000    656.1434      3.8287
  1447.5000     88.1373      0.0000    656.6806      3.8107
  1447.7500     85.7006      0.0000    654.0875      3.7555
  1448.0000     80.7846      0.0000    645.6622      3.6845
  1448.2500     74.9539      0.0000    629.0186      3.6276
  1448.5000     70.4614      0.0000    604.2505      3.6010
  1448.7500     68.9183      0.0000    575.4061      3.5963
  1449.0000     70.1279      0.0000    548.8617      3.5936
  1449.2500     72.1025      0.0000    529.5953      3.5823
  1449.5000     72.5452      0.0000    518.7935      3.5722
  1449.7500     70.6508      0.0000    514.1712      3.5817
  1450.0000     67.6567      0.0000    511.8521      3.6158
  1450.2500     65.7163      0.0000    508.5916      3.6577
  1450.5000     66.1994      0.0000    503.5648      3.6829
  1450.7500     68.9162      0.0000    498.8087      3.6785
  1451.0000     72.6836      0.0000    497.9220      3.6490
  1451.2500     76.3664      0.0000    504.0685      3.6129
  1451.5000     79.4342      0.0000    518.8657      3.5903
  1451.7500     81.8700      0.0000    542.1804      3.5898
  1452.0000     83.7669      0.0000    571.6318      3.6041
  1452.2500     85.0638      0.0000    602.1982      3.6179
  1452.5000     85.7256      0.0000    627.9078      3.6170
  1452.7500     86.0653      0.0000    645.1564      3.5916
  1453.0000     86.5956      0.0000    654.2980      3.5383
  1453.2500     87.5468      0.0000    658.1021      3.4643
  1453.5000     88.6468      0.0000    659.2858      3.3858
  1453.7500     89.3198      0.0000    659.2766      3.3187
  1454.0000     89.2414      0.0000    658.1140      3.2719
  1454.2500     88.7464      0.0000    654.5732      3.2509
  1454.5000     88.4127      0.0000    646.6442      3.2589
  1454.7500     88.2847      0.0000    633.4019      3.2902
  1455.0000     87.8500      0.0000    617.8240      3.3270
  1455.2500     86.7439      0.0000    607.0178      3.3527
  1455.5000     85.2415      0.0000    607.1733      3.3638
  1455.7500     84.1957      0.0000    617.1190      3.3647
  1456.0000     84.7771      0.0000    627.9722      3.3601
  1456.2500     88.3303      0.0000    630.2719      3.3615
  1456.5000     96.1092      0.0000    622.3195      3.3909
  1456.7500    108.4358      0.0000    612.6621      3.4647
  1457.0000    123.5798      0.0000    614.1088      3.5693
  1457.2500    137.8467      0.0000    633.2943      3.6589
  1457.5000    147.6586      0.0000    664.9883      3.6845
  1457.7500    152.0100      0.0000    696.6585      3.6314
  1458.0000    152.9606      0.0000    718.0793      3.5330
  1458.2500    153.8244      0.0000    726.5207      3.4498
  1458.5000    156.7453      0.0000    725.0146      3.4296
  1458.7500    161.4020      0.0000    718.1819      3.4781
  1459.0000    165.7020      0.0000    709.4993      3.5618
  1459.2500    167.9974      0.0000    700.7206      3.6415
  1459.5000    168.8165      0.0000    692.7997      3.7017
  1459.7500    169.9703      0.0000    686.9222      3.7522
  1460.0000    171.6167      0.0000    684.3839      3.8060
  1460.2500    171.0849      0.0000    685.7119      3.8614
  1460.5000    165.7088      0.0000    690.4678      3.9035
  1460.7500    156.3567      0.0000    697.7524      3.9179
  1461.0000    146.8271      0.0000    706.4152      3.8980
  1461.2500    140.0018      0.0000    714.8128      3.8410
  1461.5000    135.9578      0.0000    721.0986      3.7371
  1461.7500    133.7540      0.0000    724.4690      3.5674
  1462.0000    133.3701      0.0000    726.1898      3.3181
  1462.2500    135.1989      0.0000    728.6901      3.0118
  1462.5000    138.7693      0.0000    733.1517      2.7289
  1462.7500    142.9603      0.0000    738.2559      2.5744
  1463.0000    147.2039      0.0000    741.7385      2.5934
  1463.2500    151.6044      0.0000    742.9913      2.7262
  1463.5000    155.6735      0.0000    743.4821      2.8704
  1463.7500    157.8121      0.0000    744.8759      2.9716
  1464.0000    156.8755      0.0000    747.7408      3.0347
  1464.2500    153.9821      0.0000    751.7697      3.0774
  1464.5000    152.1249      0.0000    755.9518      3.1051
  1464.7500    153.6806      0.0000    759.1108      3.1189
  1465.0000    158.0579      0.0000    761.3607      3.1281
  1465.2500    161.8256      0.0000    763.9566      3.1567
  1465.5000    161.6937      0.0000    766.5245      3.2292
  1465.7500    157.6176      0.0000    765.9536      3.3310
  1466.0000    152.6658      0.0000    759.8489      3.4037
  1466.2500    149.9681      0.0000    749.8279      3.4097
  1466.5000    150.4479      0.0000    739.6255      3.3807
  1466.7500    153.0898      0.0000    730.9129      3.3755
  1467.0000    155.9981      0.0000    722.6252      3.4135
  1467.2500    156.9769      0.0000    713.8123      3.4748
  1467.5000    154.3186      0.0000    705.5975      3.5373
  1467.7500    147.8857      0.0000    700.0181      3.5917
  1468.0000    139.5400      0.0000    697.7056      3.6395
  1468.2500    132.5382      0.0000    697.4050      3.6937
  1468.5000    130.0173      0.0000    697.7929      3.7718
  1468.7500    133.1005      0.0000    699.3765      3.8730
  1469.0000    140.0298      0.0000    704.0616      3.9699
  1469.2500    147.3071      0.0000    712.8193      4.0313
  1469.5000    151.7869      0.0000    724.3210      4.0535
