~Version Information
VERS.                      2.0: CWLS Log ASCII Standard - VERSION 2.0
WRAP.                       NO: One line per depth step
~Well Information Block
STRT.FT               235.0000: 
STOP.FT              1634.5000: 
STEP.FT                 0.2500: 
NULL.                -999.2500: 
COMP.          Petrogulf Corporation: COMPANY
WELL.             State 16-41R: WELL
FLD.           Purgatorie River: FIELD
LOC.           280' FNL & 907' FEL: LOCATION
SECT.                       16: SECTION
TOWN.                      33S: TOWNSHIP
RANG.                      67W: RANGE
STAT.                 Colorado: STATE
CNTY.               Las Animas: COUNTY
CTRY.                      USA: COUNTRY
SRVC.                Patterson: SERVICE COMPANY
DATE.         Tue Oct 18 15:59:41 2005: LOG DATE
API.              05-071-08345: UNIQUE WELL ID
~Curve Information Block
DEPT.FT            0 000 00 00: Depth
SP.mV                         : DIL Spontaneous Potential
RILD.Ohm-m                    : DIL Deep Resistivity
RILM.Ohm-m                    : DIL Medium Resistivity
RLL3.Ohm-m                    : DIL Shallow Resistivity
GR.GAPI                       : Gamma Ray
~Parameter Information Block
~A  Depth        SP         RILD        RILM        RLL3         GR     
# ...
  1243.0000    175.7813     34.1596     39.3433     41.9017    105.8529
  1243.2500    175.5712     33.9743     39.9822     49.5601    103.7535
  1243.5000    175.3855     33.6429     40.4927     57.9940     97.1777
  1243.7500    175.2261     33.1229     40.7585     66.0074     91.5246
  1244.0000    175.0937     32.4088     40.6667     71.9933     83.1386
  1244.2500    174.9884     31.5193     40.1284     74.3548     78.1241
  1244.5000    174.9107     30.4713     39.0942     72.3871     71.4078
  1244.7500    174.8615     29.2682     37.5635     66.9250     67.5596
  1245.0000    174.8422     27.9171     35.5881     60.2804     63.6509
  1245.2500    174.8545     26.4583     33.2681     55.5236     62.7250
  1245.5000    174.9005     24.9751     30.7423     55.1982     63.1998
  1245.7500    174.9829     23.5724     28.1695     59.5988     63.7277
  1246.0000    175.1051     22.3419     25.7045     65.6564     63.6622
  1246.2500    175.2697     21.3402     23.4754     68.1669     63.4081
  1246.5000    175.4777     20.5853     21.5704     63.3623     64.9085
  1246.7500    175.7263     20.0645     20.0366     51.8382     68.6638
  1247.0000    176.0084     19.7436     18.8882     37.9198     79.7650
  1247.2500    176.3127     19.5762     18.1171     26.3294     90.2516
  1247.5000    176.6246     19.5123     17.7035     19.5989    107.4662
  1247.7500    176.9278     19.5086     17.6208     17.9826    117.5586
  1248.0000    177.2063     19.5383     17.8386     20.6578    127.1874
  1248.2500    177.4454     19.5966     18.3224     26.4231    128.8719
  1248.5000    177.6340     19.7014     19.0335     33.6246    124.7083
  1248.7500    177.7651     19.8895     19.9301     40.2173    118.9963
  1249.0000    177.8371     20.2084     20.9721     44.5071    109.5628
  1249.2500    177.8539     20.7057     22.1269     46.0125    104.2733
  1249.5000    177.8247     21.4174     23.3743     45.5182     98.5710
  1249.7500    177.7616     22.3565     24.7066     44.2659     95.6905
  1250.0000    177.6789     23.5032     26.1226     43.1354     91.3771
  1250.2500    177.5901     24.7988     27.6184     42.4306     88.2601
  1250.5000    177.5075     26.1494     29.1768     42.0640     83.9969
  1250.7500    177.4408     27.4383     30.7601     41.7691     81.8831
  1251.0000    177.3971     28.5456     32.3085     41.3306     79.5908
  1251.2500    177.3806     29.3708     33.7430     40.8219     78.3278
  1251.5000    177.3925     29.8542     34.9742     40.6067     76.9429
  1251.7500    177.4310     29.9939     35.9161     41.0325     76.6927
  1252.0000    177.4916     29.8451     36.5008     42.0738     77.6414
  1252.2500    177.5670     29.4961     36.6936     43.1855     79.1714
  1252.5000    177.6478     29.0287     36.4998     43.4867     82.8213
  1252.7500    177.7234     28.4831     35.9602     42.2743     86.0108
  1253.0000    177.7839     27.8471     35.1352     39.5572     91.0007
  1253.2500    177.8212     27.0755     34.0833     36.1040     93.7182
  1253.5000    177.8306     26.1282     32.8448     32.9282     96.1466
  1253.7500    177.8113     25.0007     31.4368     30.7151     96.8060
  1254.0000    177.7662     23.7297     29.8613     29.6138     97.2378
  1254.2500    177.7013     22.3762     28.1232     29.3455     97.6960
  1254.5000    177.6249     21.0069     26.2478     29.3926     98.9851
  1254.7500    177.5470     19.6833     24.2892     29.1854    100.0457
  1255.0000    177.4783     18.4566     22.3252     28.2920    101.6691
  1255.2500    177.4283     17.3645     20.4408     26.5542    103.1079
  1255.5000    177.4041     16.4278     18.7103     24.0880    106.7155
  1255.7500    177.4093     15.6491     17.1854     21.1749    110.1538
  1256.0000    177.4428     15.0132     15.8926     18.1581    116.2235
  1256.2500    177.4997     14.4885     14.8357     15.3821    120.7365
  1256.5000    177.5716     14.0325     14.0018     13.1374    128.4499
  1256.7500    177.6481     13.6011     13.3659     11.6150    133.9004
  1257.0000    177.7175     13.1605     12.8943     10.9286    140.5952
  1257.2500    177.7696     12.6964     12.5472     11.1757    142.8593
  1257.5000    177.7971     12.2152     12.2802     12.4102    142.3801
  1257.7500    177.7980     11.7369     12.0489     14.4705    139.9576
  1258.0000    177.7754     11.2858     11.8143     16.8063    133.8938
  1258.2500    177.7377     10.8835     11.5500     18.5667    128.2995
  1258.5000    177.6962     10.5445     11.2464     19.0186    118.4157
  1258.7500    177.6632     10.2750     10.9105     17.9930    112.4203
  1259.0000    177.6506     10.0717     10.5601     15.9510    108.1468
  1259.2500    177.6678      9.9224     10.2162     13.6402    110.0734
  1259.5000    177.7215      9.8076      9.8963     11.6843    119.8857
  1259.7500    177.8132      9.7038      9.6107     10.3845    128.9841
  1260.0000    177.9392      9.5891      9.3622      9.7336    141.5982
  1260.2500    178.0895      9.4482      9.1478      9.5383    147.1934
  1260.5000    178.2492      9.2755      8.9614      9.5651    150.3076
  1260.7500    178.4006      9.0747      8.7957      9.6465    149.5099
  1261.0000    178.5262      8.8559      8.6440      9.7072    146.3466
  1261.2500    178.6104      8.6325      8.5014      9.7325    144.5249
  1261.5000    178.6412      8.4174      8.3647      9.7344    144.1347
  1261.7500    178.6106      8.2212      8.2321      9.7335    145.5550
  1262.0000    178.5145      8.0505      8.1033      9.7414    149.0270
  1262.2500    178.3533      7.9077      7.9783      9.7396    151.4614
  1262.5000    178.1323      7.7916      7.8581      9.6824    154.7328
  1262.7500    177.8609      7.6986      7.7439      9.5360    156.6587
  1263.0000    177.5520      7.6237      7.6372      9.3145    158.8901
  1263.2500    177.2203      7.5610      7.5396      9.0708    159.5356
  1263.5000    176.8807      7.5050      7.4524      8.8531    159.2031
  1263.7500    176.5480      7.4503      7.3763      8.6818    158.9550
  1264.0000    176.2367      7.3929      7.3108      8.5632    160.3196
  1264.2500    175.9617      7.3301      7.2545      8.5056    162.4405
  1264.5000    175.7386      7.2611      7.2050      8.5142    165.5437
  1264.7500    175.5823      7.1877      7.1589      8.5775    166.4229
  1265.0000    175.5056      7.1130      7.1129      8.6654    165.8184
  1265.2500    175.5159      7.0403      7.0640      8.7408    164.9708
  1265.5000    175.6127      6.9720      7.0103      8.7708    164.5666
  1265.7500    175.7860      6.9089      6.9513      8.7368    165.2772
  1266.0000    176.0164      6.8512      6.8876      8.6401    167.4727
  1266.2500    176.2777      6.7991      6.8212      8.5020    168.9961
  1266.5000    176.5397      6.7529      6.7546      8.3569    169.9247
  1266.7500    176.7730      6.7133      6.6903      8.2429    169.2252
  1267.0000    176.9531      6.6807      6.6308      8.1906    167.0966
  1267.2500    177.0636      6.6562      6.5785      8.2119    166.1571
  1267.5000    177.0975      6.6422      6.5354      8.2910    166.7884
  1267.7500    177.0570      6.6419      6.5043      8.3864    168.0836
  1268.0000    176.9503      6.6586      6.4880      8.4435    169.0483
  1268.2500    176.7901      6.6939      6.4905      8.4149    168.0759
  1268.5000    176.5909      6.7464      6.5160      8.2835    164.7063
  1268.7500    176.3692      6.8110      6.5682      8.0873    162.4396
  1269.0000    176.1433      6.8805      6.6498      7.9370    160.9492
  1269.2500    175.9331      6.9470      6.7605      8.0216    161.4096
  1269.5000    175.7586      7.0047      6.8963      8.5817    162.6109
  1269.7500    175.6375      7.0514      7.0488      9.7969    162.0649
  1270.0000    175.5822      7.0883      7.2055     11.5714    156.8134
  1270.2500    175.5966      7.1194      7.3521     13.3819    150.2052
  1270.5000    175.6754      7.1491      7.4756     14.4681    137.9616
  1270.7500    175.8036      7.1814      7.5674     14.3546    130.3427
