~Version Information
 VERS.                                  2.0 : CWLS LAS VERSION
 WRAP.                                   NO : WRAPING MODE
 SWARE .                 MController 2.5.0J : SOFTWARE VERSION
~Well Information
 WELL.                      Robinson 15-12V : WELL
 COMP.                Petrogulf Corporation : COMPANY
 FLD.                      Purgatoire River : FIELD
 LOC.                SW/NW Sec 15 T33S R67W : LOCATION
 DATE.                             09/10/05 : DATE(S) LOGGED
 SRVC.       BLANCO Geological Services LLC : SERVICE COMPANY
 STAT.                                   CO : STATE
 CNTY.                           Las Animas : COUNTY
 CTRY.                                  USA : COUNTRY
 API.                       05-071-08308-00 : API NUMBER
 STRT.FT                              52.00 : START DEPTH
 STOP.FT                            2041.00 : STOP DEPTH
 STEP.FT                               1.00 : DEPTH INCREMENT
 NULL.                                -9999 : NULL VALUE
~Curve information
 DEPTH.FT                                   :
 ROP.MIN/FT                                 :
 GAS.UNITS                                  :
~ASCII Log data
# ...
      1852.0         0.27       1077.7 
      1853.0         0.33       1075.4 
      1854.0         0.23       1072.6 
      1855.0         0.20       1070.7 
      1856.0         0.32       1069.4 
      1857.0         0.27       1067.2 
      1858.0         0.27       1064.7 
      1859.0         0.27       1062.1 
      1860.0         0.33       1059.9 
      1861.0         0.33       1046.2 
      1862.0         2.38       1663.2 
      1863.0         0.37       1786.1 
      1864.0         0.33       1777.2 
      1865.0         0.30       1636.3 
      1866.0         0.27       1507.1 
      1867.0         0.20       1410.6 
      1868.0         0.53       1351.3 
      1869.0         0.33       1186.5 
      1870.0         0.28       1118.9 
      1871.0         0.27       1150.3 
      1872.0         0.27       1173.8 
      1873.0         0.23       1184.0 
      1874.0         0.30       1185.3 
      1875.0         0.30       1176.1 
      1876.0         0.30       1163.0 
      1877.0         0.27       1151.3 
      1878.0         0.33       1138.6 
      1879.0         0.23       1117.3 
      1880.0         0.23       1105.6 
      1881.0         0.17       1096.7 
      1882.0         0.10       1094.8 
      1883.0         0.12       1092.3 
      1884.0         0.13       1088.8 
      1885.0         0.27       1082.7 
      1886.0         0.27       1087.5 
      1887.0         0.27       1111.3 
      1888.0         0.23       1128.4 
      1889.0         0.20       1136.1 
      1890.0         0.23       1141.8 
      1891.0         0.20       1153.5 
      1892.0         2.98       1549.3 
      1893.0         0.30       1551.2 
      1894.0         0.30       1485.5 
      1895.0         0.27       1423.0 
      1896.0         0.13       1403.9 
      1897.0         0.17       1395.7 
      1898.0         0.27       1389.0 
      1899.0         0.52       1404.9 
      1900.0         0.27       1426.2 
      1901.0         0.23       1412.8 
      1902.0         0.27       1343.6 
      1903.0         0.27       1277.6 
      1904.0         0.27       1257.9 
      1905.0         0.27       1262.1 
      1906.0         0.27       1273.5 
      1907.0         0.30       1274.1 
      1908.0         0.30       1271.3 
      1909.0         0.27       1264.3 
      1910.0         0.27       1254.4 
      1911.0         0.28       1241.8 
      1912.0         0.27       1223.7 
      1913.0         0.23       1202.4 
      1914.0         0.27       1189.4 
      1915.0         0.27       1182.4 
      1916.0         0.23       1173.8 
      1917.0         0.27       1165.3 
      1918.0         0.23       1158.6 
      1919.0         0.23       1150.3 
      1920.0         0.23       1144.3 
      1921.0         0.27       1139.6 
      1922.0         3.15       1674.0 
      1923.0         0.43       1648.6 
      1924.0         0.35       1471.2 
      1925.0         0.33       1429.6 
      1926.0         0.40       1426.2 
      1927.0         0.30       1389.3 
      1928.0         0.30       1347.8 
      1929.0         0.27       1304.3 
      1930.0         0.30       1270.0 
      1931.0         0.30       1254.1 
      1932.0         0.23       1249.7 
      1933.0         0.27       1242.1 
      1934.0         0.27       1229.1 
      1935.0         0.27       1223.3 
      1936.0         0.32       1218.0 
      1937.0         0.30       1209.4 
      1938.0         0.27       1198.0 
      1939.0         0.30       1191.9 
      1940.0         0.27       1188.1 
      1941.0         0.33       1185.6 
      1942.0         0.30       1180.8 
      1943.0         0.33       1175.4 
      1944.0         0.33       1165.9 
      1945.0         0.33       1163.0 
      1946.0         0.28       1157.3 
      1947.0         0.37       1151.3 
      1948.0         0.30       1143.4 
      1949.0         0.33       1138.9 
      1950.0         0.30       1131.9 
      1951.0         0.40       1122.4 
      1952.0         3.55       1576.3 
      1953.0         0.53       1585.2 
      1954.0         0.47       1552.2 
      1955.0         0.45       1591.5 
      1956.0         0.43       1590.6 
      1957.0         0.37       1549.0 
      1958.0         0.40       1497.6 
      1959.0         0.43       1450.3 
      1960.0         0.47       1426.8 
      1961.0         0.33       1419.2 
      1962.0         0.45       1403.9 
      1963.0         0.40       1384.3 
      1964.0         0.47       1360.5 
      1965.0         0.87       1321.1 
      1966.0         0.43       1259.2 
      1967.0         0.33       1173.5 
      1968.0         0.30       1145.9 
      1969.0         0.38       1179.9 
      1970.0         0.37       1201.8 
      1971.0         0.33       1220.8 
      1972.0         0.27       1231.6 
      1973.0         0.33       1243.3 
      1974.0         0.33       1249.4 
      1975.0         0.33       1261.7 
      1976.0         0.33       1273.2 
      1977.0         0.40       1276.3 
      1978.0         0.37       1276.7 
      1979.0         0.38       1285.2 
      1980.0         0.37       1286.5 
      1981.0         0.37       1283.3 
      1982.0         3.02       1934.9 
      1983.0         0.57       2084.7 
      1984.0         0.47       2089.5 
      1985.0         0.47       2012.7 
      1986.0         0.53       1854.9 
      1987.0         0.55       1703.9 
      1988.0         0.50       1640.4 
      1989.0         0.53       1619.8 
      1990.0         0.53       1548.7 
      1991.0         0.57       1490.3 
      1992.0         0.50       1429.0 
      1993.0         0.62       1383.3 
      1994.0         0.53       1333.2 
      1995.0         0.53       1322.1 
      1996.0         0.57       1308.4 
      1997.0         0.57       1283.3 
      1998.0         0.67       1276.3 
      1999.0         0.65       1255.7 
      2000.0         0.67       1248.4 
      2001.0         0.83       1244.3 
      2002.0         0.90       1227.5 
      2003.0         0.50       1214.8 
      2004.0         0.38       1195.7 
      2005.0         0.33       1200.5 
      2006.0         0.33       1212.9 
      2007.0         0.30       1226.2 
      2008.0         0.30       1243.0 
      2009.0         0.27       1256.4 
      2010.0         0.30       1271.6 
      2011.0         0.43       1281.1 
      2012.0         3.48       2266.6 
      2013.0         0.50       2049.5 
      2014.0         0.48       2060.0 
      2015.0         0.67       2012.4 
      2016.0         0.47       1854.9 
      2017.0         0.67       1841.3 
      2018.0         0.47       1737.5 
      2019.0         0.60       1653.4 
      2020.0         0.55       1544.9 
      2021.0         0.60       1471.2 
      2022.0         0.57       1424.6 
      2023.0         0.43       1389.0 
      2024.0         0.53       1360.8 
      2025.0         0.40       1329.4 
      2026.0         0.38       1308.7 
      2027.0         0.60       1292.2 
      2028.0         0.57       1267.5 
      2029.0         0.33       1270.6 
      2030.0         0.60       1272.9 
      2031.0         0.43       1276.7 
      2032.0         0.50       1287.1 
      2033.0         0.38       1289.0 
      2034.0         0.53       1288.4 
      2035.0         0.43       1287.1 
      2036.0         0.47       1309.7 
      2037.0         0.43       1311.3 
      2038.0         0.50       1306.2 
      2039.0         0.33       1295.7 
      2040.0         0.45       1297.9 
      2041.0         0.57       1300.8 
