~Version Information
VERS.                      2.0: CWLS Log ASCII Standard - VERSION 2.0
WRAP.                       NO: One line per depth step
~Well Information Block
STRT.FT                 0.0000: 
STOP.FT              2430.7500: 
STEP.FT                 0.2500: 
NULL.                -999.2500: 
COMP.          Petrogulf Corporation: COMPANY
WELL.             Leier 17-42V: WELL
FLD.           Purgatorie River: FIELD
LOC.           2309' FNL & 1062' FEL: LOCATION
PROV.                 Colorado: PROVINCE
CNTY.               Las Animas: COUNTRY
SRVC.                Patterson: SERVICE COMPANY
DATE.          Thu Oct 06 10:18:00 2005: LOG DATE
UWI.                          : UNIQUE WELL ID
~Curve Information Block
DEPT.FT            0 000 00 00: Depth
CCL.                          : Casing Collar Locator
TT3.usec                      : CBL 3' Travel Time
AMP3.mV                       : CBL 3' Amplitude
GR.GAPI                       : Gamma Ray
~Parameter Information Block
~A  Depth       CCL         TT3         AMP3         GR     
# ...
  1608.0000      0.0000    755.2413      2.2092    143.2456
  1608.2500      0.0000    763.4468      2.3853    140.4432
  1608.5000      0.0000    788.0083      2.5234    133.4263
  1608.7500      0.0000    828.0640      2.6449    123.6421
  1609.0000      0.0000    856.0132      2.7700    114.1410
  1609.2500      0.0000    849.8717      2.8787    108.0730
  1609.5000      2.0000    813.4869      2.9338    107.1370
  1609.7500     -2.0000    767.6932      2.9333    110.6185
  1610.0000      0.0000    733.1049      2.8992    115.7137
  1610.2500      0.0000    714.1888      2.8312    119.2010
  1610.5000      0.0000    702.1461      2.7385    119.3361
  1610.7500      0.0000    692.2656      2.6643    116.4805
  1611.0000      0.0000    688.5594      2.6098    112.0734
  1611.2500      0.0000    694.4887      2.5311    107.2555
  1611.5000      0.0000    706.6469      2.4251    102.6810
  1611.7500      0.0000    718.4578      2.3224     99.1704
  1612.0000      0.0000    726.5872      2.2355     97.6669
  1612.2500      0.0000    729.7200      2.1465     98.3810
  1612.5000      0.0000    725.0988      2.0387    100.5528
  1612.7500      0.0000    714.2141      1.9421    103.2023
  1613.0000      0.0000    704.5897      1.9123    105.6216
  1613.2500      0.0000    697.9071      1.9608    107.0322
  1613.5000      0.0000    689.6395      2.0468    106.4332
  1613.7500      0.0000    681.2747      2.1262    103.4582
  1614.0000      0.0000    678.6691      2.1809     99.1961
  1614.2500      0.0000    683.1598      2.2159     95.6446
  1614.5000      0.0000    691.8159      2.2592     94.2659
  1614.7500      0.0000    703.5007      2.3383     95.1322
  1615.0000      0.0000    718.4939      2.4419     97.1846
  1615.2500      0.0000    730.7504      2.5365     99.0858
  1615.5000      0.0000    729.2849      2.6079    100.1820
  1615.7500      0.0000    712.8548      2.6576    101.0195
  1616.0000      0.0000    696.0792      2.6874    102.7005
  1616.2500      0.0000    693.0336      2.7001    105.3761
  1616.5000      0.0000    699.8848      2.7028    107.4356
  1616.7500      0.0000    704.5627      2.7013    106.5203
  1617.0000      0.0000    706.6899      2.7008    101.6046
  1617.2500      0.0000    715.5549      2.7080     94.1366
  1617.5000      0.0000    735.5557      2.7056     87.1751
  1617.7500      0.0000    758.7823      2.6602     83.5130
  1618.0000      0.0000    769.3859      2.5765     84.3786
  1618.2500      0.0000    761.2271      2.4945     89.1466
  1618.5000      0.0000    745.5914      2.4391     95.6875
  1618.7500      0.0000    733.0402      2.4019    101.3702
  1619.0000      0.0000    722.9205      2.3471    104.6824
  1619.2500      0.0000    713.1450      2.2497    106.3115
  1619.5000      0.0000    705.3118      2.1363    108.3743
  1619.7500      0.0000    700.6129      2.0502    112.4591
  1620.0000      0.0000    698.1323      1.9991    118.5721
  1620.2500      0.0000    696.5226      1.9552    125.6441
  1620.5000      0.0000    695.0938      1.8971    132.4204
  1620.7500      0.0000    693.9442      1.8502    137.8647
  1621.0000      0.0000    693.4518      1.8451    141.3004
  1621.2500      0.0000    693.6240      1.8665    142.6773
  1621.5000      0.0000    694.1199      1.8915    142.8008
  1621.7500      0.0000    694.5783      1.9182    143.0148
  1622.0000      0.0000    694.7780      1.9355    144.2975
  1622.2500      0.0000    694.7219      1.9227    146.5204
  1622.5000      0.0000    694.6189      1.8823    148.7841
  1622.7500      0.0000    694.6636      1.8507    150.4565
  1623.0000      0.0000    694.8358      1.8583    151.5625
  1623.2500      0.0000    695.0087      1.8871    152.2655
  1623.5000      0.0000    695.1468      1.9034    152.3218
  1623.7500      0.0000    695.3137      1.8979    150.8481
  1624.0000      0.0000    695.5757      1.8753    146.3285
  1624.2500      0.0000    695.9028      1.8496    137.3593
  1624.5000      0.0000    696.2643      1.8425    124.2888
  1624.7500      0.0000    696.7144      1.8722    110.1098
  1625.0000      0.0000    697.2084      1.9375     98.9801
  1625.2500      0.0000    697.6196      2.0026     93.5557
  1625.5000      0.0000    697.9648      2.0301     93.8364
  1625.7500      0.0000    698.4379      2.0224     98.2050
  1626.0000      0.0000    699.3251      1.9963    104.9451
  1626.2500      0.0000    701.1357      1.9552    112.7137
  1626.5000      0.0000    705.3856      1.9061    120.2402
  1626.7500      0.0000    715.0186      1.8695    126.2828
  1627.0000      0.0000    731.1226      1.8633    129.9999
  1627.2500      0.0000    746.6104      1.8886    131.1312
  1627.5000      0.0000    748.7791      1.9292    129.8837
  1627.7500      0.0000    734.7642      1.9717    127.0496
  1628.0000      0.0000    716.2169      2.0186    124.1973
  1628.2500      0.0000    703.6664      2.0663    123.1765
  1628.5000      0.0000    696.8077      2.1018    125.0526
  1628.7500      0.0000    690.0460      2.1267    129.3944
  1629.0000      0.0000    679.8600      2.1506    134.4921
  1629.2500      0.0000    668.7958      2.1759    138.1729
  1629.5000      0.0000    663.8400      2.2015    138.5208
  1629.7500      0.0000    668.8093      2.2245    134.4519
  1630.0000      0.0000    679.9657      2.2462    126.5167
  1630.2500      0.0000    691.1212      2.2712    117.1879
  1630.5000      0.0000    700.9680      2.3045    109.4172
  1630.7500      0.0000    712.5086      2.3519    104.3076
  1631.0000      0.0000    727.2224      2.4024    100.4558
  1631.2500      0.0000    742.5779      2.4281     95.8387
  1631.5000      0.0000    753.0726      2.4239     90.1378
  1631.7500      0.0000    752.8047      2.4094     85.0571
  1632.0000      0.0000    740.2155      2.3901     82.6014
  1632.2500      0.0000    719.6628      2.3544     83.3855
  1632.5000      0.0000    697.6930      2.3026     86.5004
  1632.7500      0.0000    679.2982      2.2547     90.3813
  1633.0000      0.0000    665.6363      2.2284     93.5867
  1633.2500      0.0000    657.3813      2.2221     95.3685
  1633.5000      0.0000    659.6466      2.2221     95.8734
  1633.7500      0.0000    674.5469      2.2141     95.4863
  1634.0000      0.0000    693.9990      2.1951     93.9234
  1634.2500      0.0000    708.0279      2.1756     90.5332
  1634.5000      0.0000    714.1526      2.1598     85.7218
  1634.7500      0.0000    715.4852      2.1466     81.5217
  1635.0000      0.0000    715.1161      2.1408     80.3144
  1635.2500      0.0000    714.7607      2.1449     83.0618
  1635.5000      0.0000    716.1915      2.1519     88.7267
  1635.7500      0.0000    721.4007      2.1473     95.0366
  1636.0000      0.0000    729.3950      2.1185     99.8323
  1636.2500      0.0000    733.4680      2.0753    102.1206
  1636.5000      0.0000    727.2958      2.0407    102.1674
  1636.7500      0.0000    713.6603      2.0221    100.9894
  1637.0000      0.0000    700.2150      2.0080    100.1217
  1637.2500      0.0000    689.0546      1.9787    101.3376
  1637.5000      0.0000    677.1210      1.9272    105.4415
  1637.7500      0.0000    664.1436      1.8646    111.0230
  1638.0000      0.0000    654.1003      1.8008    114.9636
  1638.2500      0.0000    650.1317      1.7441    114.5607
  1638.5000      0.0000    653.0623      1.7184    109.2891
  1638.7500      0.0000    662.5783      1.7500    100.8725
  1639.0000      0.0000    676.0316      1.8430     91.9510
  1639.2500      0.0000    690.2327      1.9770     84.5010
  1639.5000      0.0000    705.6115      2.1187     79.1455
  1639.7500      0.0000    721.0306      2.2247     75.5481
  1640.0000      0.0000    726.8924      2.2492     73.1702
  1640.2500      0.0000    717.2191      2.1861     71.7593
  1640.5000      0.0000    702.7697      2.0891     71.4714
  1640.7500      0.0000    697.3398      2.0194     72.6634
  1641.0000      0.0000    701.8619      1.9942     75.4760
  1641.2500      0.0000    708.9852      2.0023     79.5363
