~Version Information
VERS.                      2.0: CWLS Log ASCII Standard - VERSION 2.0
WRAP.                       NO: One line per depth step
~Well Information Block
STRT.FT               780.0000: 
STOP.FT              2866.2000: 
STEP.FT                 0.1000: 
NULL.                -999.2500: 
COMP.          Pioneer Natural Resources: COMPANY
WELL.            Sebring 42-29: WELL
FLD.           Purgatoire River: FIELD
LOC.           1751' FNL & 584' FEL--: LOCATION
PROV.                 Colorado: PROVINCE
CNTY.               Las Animas: COUNTRY
SRVC.                Patterson: SERVICE COMPANY
DATE.          Mon Aug 15 07:11:37 2005: LOG DATE
UWI.           05 071 08293 00: UNIQUE WELL ID
~Curve Information Block
DEPT.FT            0 000 00 00: Depth
DCAL.in                       : CDL Caliper
RHOB.g/cc                     : CDL Bulk Density
RHOC.g/cc                     : CDL Density Correction
DPOR.pu                       : CDL Density Porosity
NPOR.pu                       : Neutron Porosity
GR.GAPI                       : Gamma Ray
~Parameter Information Block
~A  Depth       DCAL        RHOB        RHOC        DPOR        NPOR         GR     
# ...
  2152.8000      8.0996      2.5343      0.0415      7.0151     18.0364     40.9137
  2152.9000      8.0996      2.5352      0.0409      6.9599     18.1800     38.5511
  2153.0000      8.1026      2.5381      0.0680      6.7823     19.5755     39.9848
  2153.1000      8.1026      2.5357      0.0257      6.9303     21.4554     41.9765
  2153.2000      8.1026      2.5281      0.0588      7.3851     22.5906     39.7233
  2153.3000      8.1038      2.5269      0.0054      7.4619     22.2444     35.4194
  2153.4000      8.1038      2.5397      0.0559      6.6867     21.0963     33.4072
  2153.5000      8.1062      2.5486      0.0788      6.1464     20.5677     35.8811
  2153.6000      8.1062      2.5363      0.0094      6.8929     21.1662     41.2520
  2153.7000      8.1062      2.5211      0.0393      7.8149     22.0371     44.3894
  2153.8000      8.1142      2.5299      0.0440      7.2792     22.1792     42.8315
  2153.9000      8.1142      2.5632      0.0672      5.2626     21.8029     39.7036
  2154.0000      8.1254      2.5947      0.0901      3.3499     21.9032     38.4297
  2154.1000      8.1254      2.5969      0.1166      3.2169     22.4171     40.5715
  2154.2000      8.1254      2.5707      0.0648      4.8074     22.6696     45.4922
  2154.3000      8.1309      2.5438      0.0575      6.4387     22.8212     50.3128
  2154.4000      8.1309      2.5395      0.0647      6.6954     22.8906     52.3342
  2154.5000      8.1312      2.5571      0.0363      5.6298     22.4435     49.9254
  2154.6000      8.1312      2.5774      0.0432      4.4022     21.5842     45.3569
  2154.7000      8.1312      2.5875      0.0623      3.7891     20.8092     42.8501
  2154.8000      8.1323      2.5856      0.1052      3.9034     20.3945     44.1429
  2154.9000      8.1323      2.5694      0.0652      4.8861     20.2575     46.9685
  2155.0000      8.1344      2.5450      0.0611      6.3639     20.2035     46.4274
  2155.1000      8.1344      2.5273      0.0286      7.4377     20.0656     41.7127
  2155.2000      8.1344      2.5252      0.0615      7.5631     19.8055     37.9722
  2155.3000      8.1340      2.5307      0.0602      7.2285     19.7700     39.3535
  2155.4000      8.1340      2.5274      0.0646      7.4279     20.4011     44.2745
  2155.5000      8.1332      2.5173      0.0135      8.0408     21.3126     49.0449
  2155.6000      8.1332      2.5211      0.0434      7.8134     21.6265     51.9528
  2155.7000      8.1332      2.5480      0.0484      6.1824     21.3085     52.9904
  2155.8000      8.1346      2.5903      0.0826      3.6202     20.9185     52.8152
  2155.9000      8.1346      2.6409      0.1015      0.5539     20.5881     53.7605
  2156.0000      8.1378      2.6897      0.1533     -2.4037     20.2752     59.3338
  2156.1000      8.1378      2.7090      0.1538     -3.5753     20.2070     68.1814
  2156.2000      8.1378      2.6858      0.1071     -2.1697     20.5350     74.0958
  2156.3000      8.1426      2.6480      0.0719      0.1205     20.8440     74.5725
  2156.4000      8.1426      2.6228      0.0530      1.6461     20.8456     74.5189
  2156.5000      8.1459      2.6129      0.0221      2.2507     20.7178     77.5253
  2156.6000      8.1459      2.6207      0.0180      1.7758     20.5964     80.4732
  2156.7000      8.1459      2.6467      0.0349      0.2018     20.3926     79.5808
  2156.8000      8.1464      2.6709      0.1170     -1.2650     19.8109     76.9537
  2156.9000      8.1464      2.6735      0.1048     -1.4259     18.9654     75.0351
  2157.0000      8.1461      2.6581      0.0753     -0.4889     18.3809     72.6025
  2157.1000      8.1461      2.6399      0.0576      0.6111     18.1450     69.4739
  2157.2000      8.1461      2.6277      0.0674      1.3521     17.8746     67.0433
  2157.3000      8.1469      2.6184      0.0582      1.9140     17.4608     66.5254
  2157.4000      8.1469      2.6074      0.0376      2.5810     17.0377     67.2859
  2157.5000      8.1491      2.5915      0.0622      3.5450     16.7149     66.0096
  2157.6000      8.1491      2.5734      0.0282      4.6429     16.5829     63.8786
  2157.7000      8.1491      2.5692      0.0215      4.8989     16.6443     65.0332
  2157.8000      8.1526      2.5884      0.0153      3.7346     16.7836     67.0148
  2157.9000      8.1526      2.6170      0.0570      2.0015     16.8944     66.2222
  2158.0000      8.1560      2.6377      0.0570      0.7428     17.0447     64.9319
  2158.1000      8.1560      2.6519     -0.0082     -0.1170     17.2043     65.9217
  2158.2000      8.1560      2.6587      0.0596     -0.5281     17.0050     69.0089
  2158.3000      8.1566      2.6500      0.0321     -0.0020     16.3918     71.9897
  2158.4000      8.1566      2.6345      0.0336      0.9393     15.9795     72.0702
  2158.5000      8.1556      2.6165      0.0612      2.0289     16.1499     70.3772
  2158.6000      8.1556      2.5965      0.0199      3.2446     16.6895     68.8879
  2158.7000      8.1556      2.5981     -0.0159      3.1446     17.3783     68.1847
  2158.8000      8.1559      2.6287      0.0465      1.2922     17.9942     71.6324
  2158.9000      8.1559      2.6546      0.0854     -0.2766     18.3762     80.1786
  2159.0000      8.1560      2.6552      0.0591     -0.3145     18.6636     88.5218
  2159.1000      8.1560      2.6513      0.0535     -0.0790     19.2541     92.7380
  2159.2000      8.1560      2.6601      0.0609     -0.6129     20.1643     91.5935
  2159.3000      8.1547      2.6633      0.1207     -0.8042     20.5020     88.1593
  2159.4000      8.1547      2.6426      0.0256      0.4511     20.0316     88.0360
  2159.5000      8.1532      2.6160     -0.0094      2.0586     19.6508     92.2213
  2159.6000      8.1532      2.6058      0.0277      2.6760     19.9168     98.8607
  2159.7000      8.1532      2.6033      0.0460      2.8292     20.7592    104.0446
  2159.8000      8.1594      2.5918      0.0376      3.5273     21.8495    104.1008
  2159.9000      8.1594      2.5761     -0.0091      4.4810     22.6811    102.5279
  2160.0000      8.1737      2.5714     -0.0178      4.7659     23.1767    107.6379
  2160.1000      8.1737      2.5743      0.0052      4.5877     23.7036    117.5302
  2160.2000      8.1737      2.5681      0.0205      4.9632     24.0451    121.7109
  2160.3000      8.1860      2.5490     -0.0307      6.1225     23.8993    120.7461
  2160.4000      8.1860      2.5239     -0.0193      7.6410     23.9478    123.2486
  2160.5000      8.1909      2.5002     -0.0258      9.0781     24.6963    130.6029
  2160.6000      8.1909      2.4904     -0.0097      9.6710     25.6889    137.6265
  2160.7000      8.1909      2.4977      0.0216      9.2285     26.5289    140.3399
  2160.8000      8.1920      2.5077      0.0082      8.6271     27.1537    141.4967
  2160.9000      8.1920      2.5009      0.0467      9.0372     27.5264    146.0633
  2161.0000      8.1919      2.4666      0.0249     11.1170     27.9402    152.1910
  2161.1000      8.1919      2.4203     -0.0603     13.9226     28.5352    154.1102
  2161.2000      8.1919      2.3902     -0.0059     15.7480     28.8794    152.8387
  2161.3000      8.1920      2.3743      0.0354     16.7086     28.8022    154.2402
  2161.4000      8.1920      2.3571      0.0201     17.7534     28.6368    160.7738
  2161.5000      8.1915      2.3553      0.0070     17.8587     28.4186    169.1285
  2161.6000      8.1915      2.3949      0.0591     15.4593     28.0059    173.0099
  2161.7000      8.1915      2.4614      0.1723     11.4309     27.5351    169.2746
  2161.8000      8.1909      2.5132      0.2025      8.2900     26.9228    164.2053
  2161.9000      8.1909      2.5312      0.1886      7.1982     26.0132    161.8140
  2162.0000      8.1931      2.5372      0.1762      6.8363     25.0047    160.0972
  2162.1000      8.1931      2.5575      0.2284      5.6073     24.1501    156.7249
  2162.2000      8.1931      2.5868      0.2762      3.8322     23.5646    150.5296
  2162.3000      8.1968      2.6114      0.2531      2.3376     23.1584    144.5865
