~Version Information
VERS.                      2.0: CWLS Log ASCII Standard - VERSION 2.0
WRAP.                       NO: One line per depth step
~Well Information Block
STRT.FT                -7.5000: 
STOP.FT              2226.0000: 
STEP.FT                 0.2500: 
NULL.                -999.2500: 
COMP.          Pioneer Natural Resources: COMPANY
WELL.              Tonto 42-23: WELL
FLD.           Purgatorie River: FIELD
LOC.           2217' FNL & 423' FEL----: LOCATION
PROV.                       CO: PROVINCE
CNTY.               Las Animas: COUNTRY
SRVC.          Patterson Wireline: SERVICE COMPANY
DATE.          Fri Apr 22 11:40:07 2005: LOG DATE
UWI.           05 071 08335 00: UNIQUE WELL ID
~Curve Information Block
DEPT.FT            0 000 00 00: Depth
CCL.                          : Casing Collar Locator
TT3.usec                      : CBL 3' Travel Time
AMP3.mV                       : CBL 3' Amplitude
GR.GAPI                       : Gamma Ray
~Parameter Information Block
~A  Depth       CCL         TT3         AMP3         GR     
# ...
  1902.0000      0.0000    689.1641      2.8612     73.2301
  1902.2500      0.0000    694.9669      2.8318     80.1731
  1902.5000      0.0000    698.5799      2.8182     86.1944
  1902.7500      0.0000    699.0613      2.8890     90.3312
  1903.0000      0.0000    696.1723      3.0697     92.4590
  1903.2500      0.0000    690.2803      3.3299     93.3944
  1903.5000      0.0000    682.6356      3.5934     94.5928
  1903.7500      0.0000    675.1157      3.7657     97.3454
  1904.0000      0.0000    669.2353      3.7693    101.8349
  1904.2500      0.0000    665.4421      3.5770    106.9000
  1904.5000      0.0000    663.2880      3.2399    110.8751
  1904.7500      0.0000    661.9780      2.8903    112.8163
  1905.0000      0.0000    660.7066      2.6774    113.0184
  1905.2500      0.0000    658.8495      2.6590    112.4613
  1905.5000      0.0000    656.3363      2.7471    111.7460
  1905.7500      0.0000    653.9943      2.7812    110.3824
  1906.0000      0.0000    653.1924      2.6724    107.1763
  1906.2500      0.0000    654.8162      2.4836    101.5921
  1906.5000      0.0000    658.7447      2.3657     94.7258
  1906.7500      0.0000    664.4713      2.4165     88.6969
  1907.0000      0.0000    671.7271      2.6096     85.2148
  1907.2500      0.0000    679.9780      2.8467     84.8956
  1907.5000      0.0000    687.5845      3.0414     87.7008
  1907.7500      0.0000    692.1178      3.1396     93.4969
  1908.0000      0.0000    691.8541      3.1113    101.7849
  1908.2500      0.0000    687.1041      2.9737    110.9243
  1908.5000      0.0000    680.2296      2.8125    118.3272
  1908.7500      0.0000    674.3241      2.7410    122.0376
  1909.0000      0.0000    671.4741      2.8182    121.8888
  1909.2500      0.0000    671.7362      2.9994    118.9278
  1909.5000      0.0000    673.3597      3.1578    114.2812
  1909.7500      0.0000    674.0451      3.1647    108.8390
  1910.0000      0.0000    672.4574      2.9736    103.4384
  1910.2500      0.0000    668.6662      2.6559     98.9490
  1910.5000      0.0000    663.0724      2.3652     96.3363
  1910.7500      0.0000    655.0565      2.2443     96.5436
  1911.0000      0.0000    642.8904      2.3290     99.9194
  1911.2500      0.0000    625.5817      2.5315    105.4759
  1911.5000      0.0000    605.5221      2.7193    110.8871
  1911.7500      0.0000    588.8782      2.8098    113.6899
  1912.0000      0.0000    581.6816      2.7980    112.8237
  1912.2500      0.0000    585.5788      2.7305    109.1933
  1912.5000      2.0000    598.2188      2.6765    105.0018
  1912.7500      2.0000    616.2225      2.7019    102.5017
  1913.0000      0.0000    636.4435      2.8406    102.7587
  1913.2500      0.0000    656.7267      3.0721    105.2412
  1913.5000      0.0000    676.7699      3.3167    108.5249
  1913.7500      0.0000    695.9750      3.4597    111.2248
  1914.0000      0.0000    710.4768      3.4172    112.3841
  1914.2500      0.0000    715.9938      3.2085    111.6726
  1914.5000      0.0000    714.2291      2.9569    109.5509
  1914.7500      0.0000    713.0212      2.7946    106.9949
  1915.0000      0.0000    718.9072      2.7667    104.9350
  1915.2500      0.0000    731.2439      2.8221    103.8217
  1915.5000      0.0000    743.6739      2.8725    103.4777
  1915.7500      0.0000    749.5840      2.8598    103.4395
  1916.0000      0.0000    746.3165      2.7878    103.5963
  1916.2500      0.0000    736.4220      2.7009    104.2977
  1916.5000      0.0000    725.7923      2.6386    105.7460
  1916.7500      0.0000    719.7554      2.6137    107.6193
  1917.0000      0.0000    719.7372      2.6275    109.3882
  1917.2500      0.0000    722.7198      2.6939    110.7267
  1917.5000      0.0000    723.5847      2.8376    111.4049
  1917.7500      0.0000    718.7355      3.0680    111.0953
  1918.0000      0.0000    708.1235      3.3513    109.6019
  1918.2500      0.0000    694.5233      3.6161    107.1143
  1918.5000      0.0000    681.8583      3.7989    104.0103
  1918.7500      0.0000    673.9385      3.8830    100.6208
  1919.0000      0.0000    672.2873      3.8890     97.3704
  1919.2500      0.0000    673.4625      3.8417     94.7235
  1919.5000      0.0000    670.5532      3.7619     92.6283
  1919.7500      0.0000    660.1201      3.6731     90.4727
  1920.0000      0.0000    647.0280      3.5950     88.0798
  1920.2500      0.0000    640.4692      3.5396     86.3056
  1920.5000      0.0000    645.7281      3.5281     86.0753
  1920.7500      0.0000    661.0145      3.5833     87.1793
  1921.0000      0.0000    681.1195      3.6930     88.5775
  1921.2500      0.0000    702.4636      3.7986     89.5904
  1921.5000      0.0000    724.0950      3.8290     90.2311
  1921.7500      0.0000    743.8870      3.7465     90.5999
  1922.0000      0.0000    755.4415      3.5771     90.5528
  1922.2500      0.0000    752.0170      3.4079     90.0274
  1922.5000      0.0000    734.2238      3.3329     89.5137
  1922.7500      0.0000    711.5524      3.3747     90.2564
  1923.0000      0.0000    694.7179      3.4615     93.9128
  1923.2500      0.0000    687.4219      3.4894    101.2813
  1923.5000      0.0000    686.3912      3.4066    110.8256
  1923.7500      0.0000    687.3634      3.2482    118.9258
  1924.0000      0.0000    689.1658      3.1049    122.4802
  1924.2500      0.0000    693.0930      3.0484    121.3164
  1924.5000      0.0000    700.5227      3.0726    117.7252
  1924.7500      0.0000    712.1430      3.1069    113.9668
  1925.0000      0.0000    727.9980      3.0940    110.7401
  1925.2500      0.0000    746.1977      3.0521    107.7492
  1925.5000      0.0000    762.0336      3.0527    104.8822
  1925.7500      0.0000    770.2158      3.1401    102.4566
  1926.0000      0.0000    768.4236      3.2820    100.8184
  1926.2500      0.0000    759.0093      3.3946    100.2953
  1926.5000      0.0000    747.6974      3.4168    101.4909
  1926.7500      0.0000    739.7413      3.3627    104.9825
  1927.0000      0.0000    735.8956      3.3038    110.3954
  1927.2500      0.0000    732.3169      3.2942    116.1451
  1927.5000      0.0000    725.1655      3.3165    120.4597
  1927.7500      0.0000    714.7344      3.3070    122.4977
  1928.0000      0.0000    704.7407      3.2255    122.4554
  1928.2500      0.0000    698.5986      3.0972    120.9783
  1928.5000      0.0000    696.9704      2.9939    118.6308
  1928.7500      0.0000    698.1411      2.9760    115.5486
  1929.0000      0.0000    699.8638      3.0450    111.6133
  1929.2500      0.0000    700.7596      3.1458    107.3029
  1929.5000      0.0000    700.4290      3.2206    104.0700
  1929.7500      0.0000    698.9470      3.2593    103.2437
  1930.0000      0.0000    696.6745      3.2953    104.6206
  1930.2500      0.0000    694.3965      3.3538    106.6152
  1930.5000      0.0000    692.9495      3.4194    107.7346
  1930.7500      0.0000    692.3192      3.4623    107.5986
  1931.0000      0.0000    691.4225      3.4874    106.8196
  1931.2500      0.0000    689.1239      3.5324    106.4307
  1931.5000      0.0000    685.1914      3.6137    107.3334
  1931.7500      0.0000    679.8943      3.6994    109.7864
  1932.0000      0.0000    672.6608      3.7517    113.2425
  1932.2500      0.0000    661.1870      3.7842    116.7953
  1932.5000      0.0000    642.3821      3.8508    119.6421
  1932.7500      0.0000    615.4578      3.9762    121.1296
  1933.0000      0.0000    584.4683      4.1185    121.0478
  1933.2500      0.0000    556.6213      4.2076    120.0839
  1933.5000      0.0000    537.1384      4.2043    119.1310
  1933.7500      0.0000    525.9385      4.1185    117.9673
  1934.0000      0.0000    519.1343      3.9934    115.6504
  1934.2500      0.0000    512.8885      3.8777    112.2826
  1934.5000      0.0000    505.7677      3.7935    109.0884
  1934.7500      0.0000    498.4826      3.7263    106.5812
  1935.0000      0.0000    492.3151      3.6552    103.7903
  1935.2500      0.0000    487.8986      3.5829     99.6083
