~Version Information
VERS.                      2.0: CWLS Log ASCII Standard - VERSION 2.0
WRAP.                       NO: One line per depth step
~Well Information Block
STRT.FT               260.0000: 
STOP.FT              2272.0000: 
STEP.FT                 0.2500: 
NULL.                -999.2500: 
COMP.          Pioneer Natural Resources: COMPANY
WELL.            Moo Moo 31-36: WELL
FLD.           Purgatoire River: FIELD
LOC.           612' FNL & 2326' FEL: LOCATION
PROV.                 Colorado: PROVINCE
CNTY.               Las Animas: COUNTRY
SRVC.                Patterson: SERVICE COMPANY
DATE.          Fri Jun 17 07:45:39 2005: LOG DATE
UWI.           05 071 08395 00: UNIQUE WELL ID
~Curve Information Block
DEPT.FT            0 000 00 00: Depth
DIR.Ohm-m                     : IEL Induction Resistivity
SN.Ohm-m                      : IEL Short Normal
SP.mV                         : IEL Spontaneous Potential
GR.GAPI                       : Gamma Ray
~Parameter Information Block
~A  Depth       DIR          SN          SP          GR     
# ...
  1298.5000     10.2361     13.1199    194.5466    156.8335
  1298.7500     10.4749     13.2447    194.3528    156.5091
  1299.0000     10.6989     13.3986    194.0942    151.3042
  1299.2500     10.8947     13.6386    193.7449    144.8250
  1299.5000     11.0556     13.9237    193.2948    132.1477
  1299.7500     11.1886     14.2462    192.7743    123.2494
  1300.0000     11.3147     14.6193    192.2452    112.2034
  1300.2500     11.4602     14.9373    191.7687    107.8329
  1300.5000     11.6456     15.0878    191.3802    106.9339
  1300.7500     11.8818     15.1900    191.0883    109.7425
  1301.0000     12.1731     15.4655    190.8875    116.8912
  1301.2500     12.5217     15.9178    190.7697    121.9270
  1301.5000     12.9255     16.3533    190.7199    127.3693
  1301.7500     13.3729     16.6357    190.7100    128.7760
  1302.0000     13.8404     16.7685    190.6998    127.6727
  1302.2500     14.2990     16.8455    190.6504    125.6919
  1302.5000     14.7264     17.0503    190.5373    123.1115
  1302.7500     15.1132     17.5840    190.3575    122.6768
  1303.0000     15.4603     18.4641    190.1248    123.9753
  1303.2500     15.7732     19.4692    189.8612    125.1609
  1303.5000     16.0630     20.3514    189.5910    125.6134
  1303.7500     16.3518     21.0134    189.3364    124.8030
  1304.0000     16.6699     21.4337    189.1089    122.9660
  1304.2500     17.0400     21.6274    188.9000    122.0280
  1304.5000     17.4602     21.7121    188.6884    121.2786
  1304.7500     17.9018     21.8253    188.4616    120.8381
  1305.0000     18.3297     22.0507    188.2312    119.5796
  1305.2500     18.7256     22.4645    188.0269    118.2468
  1305.5000     19.0886     23.0580    187.8788    115.9001
  1305.7500     19.4109     23.6133    187.7968    114.5130
  1306.0000     19.6564     23.8731    187.7581    113.3755
  1306.2500     19.7703     23.7735    187.7126    113.5105
  1306.5000     19.7202     23.4279    187.6084    115.2532
  1306.7500     19.5299     23.0166    187.4230    117.4498
  1307.0000     19.2731     22.6436    187.1733    122.0261
  1307.2500     19.0333     22.2395    186.8951    125.5147
  1307.5000     18.8680     21.7129    186.6140    130.4020
  1307.7500     18.7982     21.1566    186.3400    132.8486
  1308.0000     18.8172     20.7588    186.0866    134.3301
  1308.2500     18.9062     20.6024    185.8754    133.2361
  1308.5000     19.0448     20.6398    185.7111    127.8410
  1308.7500     19.2149     20.7786    185.5605    122.1647
  1309.0000     19.4013     20.9822    185.3741    112.8281
  1309.2500     19.5952     21.3004    185.1313    107.7372
  1309.5000     19.8010     21.8070    184.8561    103.7645
  1309.7500     20.0381     22.5364    184.5856    103.6911
  1310.0000     20.3295     23.4189    184.3340    106.0546
  1310.2500     20.6845     24.2947    184.0853    108.0553
  1310.5000     21.0889     25.0763    183.8114    110.1426
  1310.7500     21.5122     25.7835    183.4909    110.7343
  1311.0000     21.9282     26.3665    183.1201    110.9990
  1311.2500     22.3295     26.6407    182.7093    111.1132
  1311.5000     22.7220     26.4893    182.2734    111.2583
  1311.7500     23.1048     26.0862    181.8218    111.2086
  1312.0000     23.4579     25.7622    181.3587    110.8010
  1312.2500     23.7524     25.6480    180.8893    110.2794
  1312.5000     23.9768     25.6621    180.4247    108.9492
  1312.7500     24.1518     25.7390    179.9761    107.7134
  1313.0000     24.3190     25.8456    179.5472    106.0614
  1313.2500     24.5208     25.9466    179.1355    105.6442
  1313.5000     24.7893     26.0890    178.7394    105.8226
  1313.7500     25.1472     26.3823    178.3577    105.4167
  1314.0000     25.6089     26.8691    177.9818    102.1001
  1314.2500     26.1749     27.4937    177.5991     97.9934
  1314.5000     26.8316     28.1965    177.2069     90.9645
  1314.7500     27.5629     28.9951    176.8162     87.2153
  1315.0000     28.3683     29.9601    176.4328     84.1818
  1315.2500     29.2632     31.1259    176.0433     83.3375
  1315.5000     30.2525     32.4394    175.6308     81.7028
  1315.7500     31.2965     33.7787    175.1978     79.3411
  1316.0000     32.3017     34.9849    174.7552     73.7053
  1316.2500     33.1484     35.9381    174.2907     69.3692
  1316.5000     33.7361     36.6571    173.7705     63.9826
  1316.7500     34.0103     37.2503    173.1844     62.0034
  1317.0000     33.9590     37.7182    172.5791     61.9206
  1317.2500     33.5969     37.8617    172.0349     63.6945
  1317.5000     32.9502     37.4137    171.6105     69.0140
  1317.7500     32.0526     36.2837    171.3150     74.2638
  1318.0000     30.9552     34.7389    171.1297     83.6431
  1318.2500     29.7376     33.2298    171.0398     89.6409
  1318.5000     28.5040     31.9389    171.0309     96.3653
  1318.7500     27.3559     30.6571    171.0498     99.2399
  1319.0000     26.3579     29.1258    170.9844    102.7666
  1319.2500     25.5173     27.3435    170.7097    105.8326
  1319.5000     24.7877     25.5810    170.1730    112.5362
  1319.7500     24.0980     24.1736    169.4413    118.0509
  1320.0000     23.3945     23.2410    168.6694    126.2789
  1320.2500     22.6721     22.6246    168.0124    130.8014
  1320.5000     21.9655     22.1032    167.5393    135.1701
  1320.7500     21.3097     21.5811    167.1980    136.3412
  1321.0000     20.7073     21.1007    166.8579    136.1543
  1321.2500     20.1274     20.7351    166.4103    135.6235
  1321.5000     19.5348     20.4628    165.8576    135.7562
  1321.7500     18.9200     20.2129    165.3225    136.6533
  1322.0000     18.3074     19.9803    164.9694    137.9235
  1322.2500     17.7402     19.7620    164.8967    137.7915
  1322.5000     17.2586     19.4854    165.0729    136.2102
  1322.7500     16.8881     19.1028    165.3574    135.4082
  1323.0000     16.6376     18.6908    165.5825    136.6029
  1323.2500     16.5038     18.3893    165.6337    139.0883
  1323.5000     16.4759     18.2290    165.4697    143.5265
  1323.7500     16.5384     18.1275    165.0839    145.6160
  1324.0000     16.6726     18.0175    164.4689    146.4719
  1324.2500     16.8558     17.8966    163.6371    146.0058
  1324.5000     17.0619     17.8675    162.6597    144.9881
  1324.7500     17.2641     18.0721    161.6530    143.9727
  1325.0000     17.4395     18.5218    160.7079    140.0775
  1325.2500     17.5730     19.0905    159.8362    134.9457
  1325.5000     17.6549     19.6726    158.9911    124.1274
  1325.7500     17.6750     20.3104    158.1418    116.6015
  1326.0000     17.6178     21.1820    157.3332    108.1693
  1326.2500     17.4686     22.4283    156.6782    105.3056
  1326.5000     17.2254     23.9385    156.2852    104.2186
  1326.7500     16.9055     25.3245    156.1797    104.5436
  1327.0000     16.5369     26.1098    156.2781    105.7799
  1327.2500     16.1404     25.9559    156.4393    107.6561
  1327.5000     15.7216     24.8436    156.5739    114.0209
  1327.7500     15.2786     23.0850    156.7294    121.4346
  1328.0000     14.8165     21.1203    157.0515    136.5130
  1328.2500     14.3529     19.3161    157.6265    147.4341
  1328.5000     13.9112     17.8617    158.3616    161.4247
  1328.7500     13.5112     16.7489    159.0448    167.5791
  1329.0000     13.1652     15.8616    159.5094    171.2030
  1329.2500     12.8792     15.1231    159.7105    170.5781
  1329.5000     12.6554     14.5499    159.6629    167.6861
  1329.7500     12.4934     14.1778    159.3678    165.8071
  1330.0000     12.3927     14.0185    158.8262    163.3843
  1330.2500     12.3556     14.0921    158.0997    161.1470
  1330.5000     12.3881     14.3959    157.3368    154.9976
  1330.7500     12.4978     14.8160    156.7419    148.3347
  1331.0000     12.6888     15.2019    156.5192    134.2164
  1331.2500     12.9598     15.5495    156.8250    122.6076
  1331.5000     13.3067     15.9770    157.7307    104.5442
  1331.7500     13.7266     16.5728    159.2053     94.3835
