~Version Information
 VERS.                                  2.0 : CWLS LAS VERSION
 WRAP.                                   NO : WRAPING MODE
 SWARE .                 MController 2.5.0J : SOFTWARE VERSION
~Well Information
 WELL.                  Great Plains 22-21V : WELL
 COMP.                Petrogulf Corporation : COMPANY
 FLD.                      Purgatoire River : FIELD
 LOC.                NE/NW Sec 22 T33S R67W : LOCATION
 DATE.                          08/29-30/05 : DATE(S) LOGGED
 SRVC.       Blanco Geological Services LLC : SERVICE COMPANY
 STAT.                                   CO : STATE
 CNTY.                           Las Animas : COUNTY
 CTRY.                                  USA : COUNTRY
 API.                       05-071-08346-00 : API NUMBER
 STRT.FT                              -2.00 : START DEPTH
 STOP.FT                            2090.00 : STOP DEPTH
 STEP.FT                               1.00 : DEPTH INCREMENT
 NULL.                                -9999 : NULL VALUE
~Curve information
 DEPTH.FT                                   :
 ROP.MIN/FT                                 :
 GAS.UNITS                                  :
~ASCII Log data
        -2.0     -9999.00          4.0 
        -1.0         0.35          3.8 
         0.0         0.37          3.9 
         1.0         0.43          4.0 
         2.0         0.30          3.7 
         3.0         0.27          3.9 
         4.0         0.23          3.5 
         5.0         0.23          3.6 
         6.0         0.35          3.8 
         7.0         0.23          3.4 
         8.0         3.83          3.4 
         9.0         0.07          2.7 
        10.0         0.33          3.0 
        11.0         0.13          2.9 
        12.0         0.13          3.1 
        13.0         0.30          3.0 
        14.0         0.32          2.8 
        15.0         0.37          2.8 
        16.0         0.27          2.7 
        17.0         0.20          3.3 
        18.0         0.27          2.8 
        19.0         0.23          3.0 
        20.0         0.25          2.6 
        21.0         0.27          2.6 
        22.0         0.27          2.8 
        23.0         0.20          2.8 
        24.0         0.20          2.3 
        25.0         0.22          2.3 
        26.0         0.57          2.6 
        27.0         0.17          2.1 
        28.0         0.27          2.3 
        29.0         0.25          2.0 
        30.0         0.37          2.4 
        31.0         0.27          2.3 
        32.0         0.35          2.3 
        33.0         0.33          2.2 
        34.0         0.23          2.3 
        35.0         0.27          1.9 
        36.0         0.27          1.9 
        37.0         0.27          1.9 
        38.0         0.25          1.8 
        39.0         0.27          1.8 
        40.0         0.23          1.7 
        41.0         0.23          1.8 
        42.0         0.23          1.8 
        43.0         0.17          1.6 
        44.0         0.25          1.8 
        45.0         0.30          1.8 
        46.0         0.27          1.7 
        47.0         0.27          2.0 
        48.0         0.27          1.6 
        49.0         0.23          1.9 
        50.0         0.27          1.7 
        51.0         0.32          1.6 
        52.0         0.27          1.5 
        53.0         0.27          1.6 
        54.0         0.23          1.3 
        55.0         0.27          1.4 
        56.0         0.63          1.4 
        57.0         0.28          1.1 
        58.0         0.27          1.0 
        59.0         0.20          1.2 
        60.0         0.17          1.1 
        61.0         0.17          1.5 
        62.0         0.20          1.3 
        63.0         0.20          1.2 
        64.0         0.17          1.0 
        65.0         0.13          0.9 
        66.0         0.13          1.1 
        67.0         0.12          1.0 
        68.0         0.10          1.0 
        69.0         0.10          0.9 
        70.0         0.07          0.7 
        71.0         0.10          0.6 
        72.0         0.10          0.8 
        73.0         0.10          0.6 
        74.0         0.10          0.9 
        75.0         0.10          0.9 
        76.0         0.30          4.5 
        77.0         0.23          4.7 
        78.0         0.23          4.7 
        79.0         0.25          4.4 
        80.0         0.23          4.2 
        81.0         0.23          4.8 
        82.0         0.20          4.6 
        83.0         0.20          4.8 
        84.0         0.20          4.9 
        85.0         0.30          7.7 
        86.0         1.22        119.5 
        87.0         0.27         24.2 
        88.0         0.27         12.7 
        89.0         0.27          7.4 
        90.0         0.28          4.9 
        91.0         0.30          4.5 
        92.0         0.30          4.0 
        93.0         0.30          4.4 
        94.0         0.20          4.2 
        95.0         0.23          4.5 
        96.0         0.28          5.3 
        97.0         0.27          5.6 
        98.0         0.30          5.6 
        99.0         0.30          6.2 
       100.0         0.33          6.4 
       101.0         0.27          6.8 
       102.0         0.30          6.9 
       103.0         0.27          6.8 
       104.0         0.30          7.4 
       105.0         0.27          7.4 
       106.0         0.28          7.7 
       107.0         0.30          8.0 
       108.0         0.23          7.9 
       109.0         0.27          8.3 
       110.0         0.30          8.0 
       111.0         0.27          8.0 
       112.0         0.30          8.3 
       113.0         0.23          8.1 
       114.0         0.27          8.6 
       115.0         0.27          8.2 
       116.0         0.78          8.9 
       117.0         0.23          9.0 
       118.0         0.23          8.9 
       119.0         0.20          8.9 
       120.0         0.27          8.9 
       121.0         0.27          8.8 
       122.0         0.30          9.3 
       123.0         0.40          9.3 
       124.0         0.27          9.1 
       125.0         0.20          9.3 
       126.0         0.23          9.0 
       127.0         0.22          9.3 
       128.0         0.23          9.6 
       129.0         0.20          9.5 
       130.0         0.20          9.4 
       131.0         0.20          9.8 
       132.0         0.23          9.8 
       133.0         0.37          9.7 
       134.0         0.30          9.9 
       135.0         0.17          9.9 
       136.0         0.27          9.4 
       137.0         0.27         10.0 
       138.0         0.27         10.0 
       139.0         0.27         10.4 
       140.0         0.23         10.2 
       141.0         0.28         10.5 
       142.0         0.27         10.4 
       143.0         0.27         10.5 
       144.0         0.27         10.4 
       145.0         0.23         10.6 
       146.0         1.43         10.7 
       147.0         0.27         10.6 
       148.0         0.20         10.8 
       149.0         0.15         10.2 
       150.0         0.17         10.6 
       151.0         0.17         10.2 
       152.0         0.17         10.8 
       153.0         0.13         10.8 
       154.0         0.17         10.4 
       155.0         0.13         10.8 
       156.0         0.23         10.2 
       157.0         0.23         11.0 
       158.0         0.20         10.9 
       159.0         0.20         10.9 
       160.0         0.20         10.8 
       161.0         0.27         11.1 
       162.0         0.27         10.9 
       163.0         0.23         11.2 
       164.0         0.27         10.7 
       165.0         0.23         10.7 
       166.0         0.22         11.1 
       167.0         0.13         10.5 
       168.0         0.13         11.0 
       169.0         0.17         10.7 
       170.0         0.17         11.2 
       171.0         0.20         11.2 
       172.0         0.17         11.2 
       173.0         0.17         10.9 
       174.0         0.17         11.2 
       175.0         0.20         11.4 
       176.0         1.45         11.8 
       177.0         0.27         11.5 
       178.0         0.27         11.2 
       179.0         0.23         11.3 
       180.0         0.23         11.8 
       181.0         0.27         11.7 
       182.0         0.27         11.4 
       183.0         0.30         11.7 
       184.0         0.23         11.8 
       185.0         0.23         11.2 
       186.0         0.20         11.7 
       187.0         0.20         11.8 
       188.0         0.13         11.1 
       189.0         0.17         11.5 
       190.0         0.13         11.1 
       191.0         0.10         11.4 
       192.0         0.08         11.1 
       193.0         0.10         11.6 
       194.0         0.10         11.6 
       195.0         0.17         11.0 
       196.0         0.23         11.4 
       197.0         0.20         12.0 
