~Version Information
 VERS.                                  2.0 : CWLS LAS VERSION
 WRAP.                                   NO : WRAPING MODE
 SWARE .                 MController 2.5.0J : SOFTWARE VERSION
~Well Information
 WELL.            Rabbit Bush Federal 44-19 : WELL
 COMP.  Pioneer Natural Resources USA, Inc. : COMPANY
 FLD.                      Purgatoire River : FIELD
 LOC.              SE/SE  Sec 19 T32S  R66W : LOCATION
 DATE.                      8/24/06-8/25/06 : DATE(S) LOGGED
 SRVC.       BLANCO Geological Services LLC : SERVICE COMPANY
 STAT.                                   CO : STATE
 CNTY.                            Las Animas: COUNTY
 CTRY.                               U.S.A. : COUNTRY
 API.                       05-071-08149-00 : API NUMBER
 STRT.FT                             539.00 : START DEPTH
 STOP.FT                            2785.00 : STOP DEPTH
 STEP.FT                               1.00 : DEPTH INCREMENT
 NULL.                                -9999 : NULL VALUE
~Curve information
 DEPTH.FT                                   :
 ROP.MIN/FT                                 :
 GAS.UNITS                                  :
~ASCII Log data
# ...
      1339.0         0.17          9.7 
      1340.0         0.13          9.4 
      1341.0         0.13          8.4 
      1342.0         0.13          8.5 
      1343.0         0.20          8.9 
      1344.0         0.17          9.6 
      1345.0         0.27         10.8 
      1346.0         3.65         28.5 
      1347.0         0.37         12.2 
      1348.0         0.30         12.4 
      1349.0         0.27         12.6 
      1350.0         0.33         12.2 
      1351.0         0.38         12.3 
      1352.0         0.23         11.6 
      1353.0         0.27         10.6 
      1354.0         0.23         10.1 
      1355.0         0.27         10.1 
      1356.0         0.23          9.5 
      1357.0         0.23         10.4 
      1358.0         0.23         11.8 
      1359.0         0.23         11.8 
      1360.0         0.37         11.5 
      1361.0         0.43         10.8 
      1362.0         0.27         10.4 
      1363.0         0.25         10.7 
      1364.0         0.20          9.4 
      1365.0         0.20          8.5 
      1366.0         0.23          7.3 
      1367.0         0.27          6.4 
      1368.0         0.20          5.8 
      1369.0         0.20          6.3 
      1370.0         0.17          6.0 
      1371.0         0.17          6.3 
      1372.0         0.20          7.4 
      1373.0         0.20          8.0 
      1374.0         0.20          9.6 
      1375.0         0.20         11.7 
      1376.0         2.62         23.2 
      1377.0         0.30          9.1 
      1378.0         0.27          8.8 
      1379.0         0.27          9.0 
      1380.0         0.23          8.2 
      1381.0         0.27          8.1 
      1382.0         0.25          8.2 
      1383.0         0.27          8.4 
      1384.0         0.23          8.3 
      1385.0         0.23         10.0 
      1386.0         0.17         23.1 
      1387.0         0.23         43.8 
      1388.0         0.23         65.0 
      1389.0         0.20         70.3 
      1390.0         0.23         67.0 
      1391.0         0.20         46.8 
      1392.0         0.20         35.8 
      1393.0         0.20         29.8 
      1394.0         0.20         19.7 
      1395.0         0.17         17.6 
      1396.0         0.13         16.6 
      1397.0         0.10         16.7 
      1398.0         0.10         17.0 
      1399.0         0.07         17.0 
      1400.0         0.15         19.1 
      1401.0         0.10         21.1 
      1402.0         0.17         23.8 
      1403.0         0.13         26.2 
      1404.0         0.20         33.9 
      1405.0         0.17         37.9 
      1406.0         2.72         66.4 
      1407.0         0.30         29.7 
      1408.0         0.30         29.3 
      1409.0         0.27         26.1 
      1410.0         0.23         23.4 
      1411.0         0.23         20.8 
      1412.0         0.23         19.6 
      1413.0         0.23         19.4 
      1414.0         0.17         18.7 
      1415.0         0.10         17.5 
      1416.0         0.10         17.4 
      1417.0         0.17         16.6 
      1418.0         0.13         16.4 
      1419.0         0.20         16.3 
      1420.0         0.13         16.7 
      1421.0         0.17         16.8 
      1422.0         0.17         17.0 
      1423.0         0.22         16.7 
      1424.0         0.23         16.6 
      1425.0         0.27         16.4 
      1426.0         0.40         16.4 
      1427.0         0.30         13.5 
      1428.0         0.23         10.8 
      1429.0         0.23          9.5 
      1430.0         0.23          8.0 
      1431.0         0.23          8.6 
      1432.0         0.23          9.1 
      1433.0         0.27         10.7 
      1434.0         0.23         14.4 
      1435.0         0.23         21.8 
      1436.0         2.92         31.6 
      1437.0         0.33         16.9 
      1438.0         0.25         18.9 
      1439.0         0.33         20.2 
      1440.0         0.20         19.9 
      1441.0         0.20         20.4 
      1442.0         0.23         22.2 
      1443.0         0.20         22.4 
      1444.0         0.20         22.4 
      1445.0         0.17         22.0 
      1446.0         0.20         21.3 
      1447.0         0.17         20.9 
      1448.0         0.17         19.5 
      1449.0         0.17         18.6 
      1450.0         0.20         18.2 
      1451.0         0.17         17.6 
      1452.0         0.20         16.9 
      1453.0         0.27         16.1 
      1454.0         0.20         15.8 
      1455.0         0.35         15.8 
      1456.0         0.33         15.1 
      1457.0         0.50         14.5 
      1458.0         0.47          9.8 
      1459.0         0.40          7.8 
      1460.0         0.20          7.7 
      1461.0         0.20          8.1 
      1462.0         0.23         10.3 
      1463.0         0.20         12.1 
      1464.0         0.20         14.9 
      1465.0         0.17         18.7 
      1466.0         4.83         47.2 
      1467.0         0.33         13.2 
      1468.0         0.43         13.2 
      1469.0         0.30         12.8 
      1470.0         0.37         11.9 
      1471.0         0.37         11.8 
      1472.0         0.35         12.1 
      1473.0         0.43         12.0 
      1474.0         0.47         11.3 
      1475.0         0.40         10.9 
      1476.0         0.30         10.6 
      1477.0         0.17         11.0 
      1478.0         0.30         11.4 
      1479.0         0.27         11.8 
      1480.0         0.33         15.2 
      1481.0         0.30         16.7 
      1482.0         0.28         16.0 
      1483.0         0.27         14.4 
      1484.0         0.20         13.4 
      1485.0         0.20         12.7 
      1486.0         0.40         10.5 
      1487.0         0.20          7.4 
      1488.0         0.13          7.0 
      1489.0         0.10          7.3 
      1490.0         0.23          7.1 
      1491.0         0.23          7.7 
      1492.0         0.23          9.1 
      1493.0         0.23         12.1 
      1494.0         0.20         14.8 
      1495.0         0.27         21.0 
      1496.0         2.92         30.4 
      1497.0         0.40         11.9 
      1498.0         0.37         12.4 
      1499.0         0.32         12.9 
      1500.0         0.27         12.8 
      1501.0         0.40         12.8 
      1502.0         0.33         12.6 
      1503.0         0.27         12.7 
      1504.0         0.37         12.5 
      1505.0         0.30         12.3 
      1506.0         0.30         12.3 
      1507.0         0.30         11.6 
      1508.0         0.27         12.0 
      1509.0         0.27         11.2 
      1510.0         0.28         11.2 
      1511.0         0.27         10.7 
      1512.0         0.30         10.9 
      1513.0         0.30         10.9 
      1514.0         0.27         11.0 
      1515.0         0.30         10.1 
      1516.0         0.20          9.0 
      1517.0         0.27          7.9 
      1518.0         0.27          7.4 
      1519.0         0.27          7.1 
      1520.0         0.23          7.5 
      1521.0         0.23          7.8 
      1522.0         0.25          9.0 
      1523.0         0.27         13.3 
      1524.0         0.27         18.2 
      1525.0         0.13         25.8 
      1526.0         3.38         47.9 
      1527.0         0.30         15.7 
      1528.0         0.37         14.9 
      1529.0         0.23         14.0 
      1530.0         0.27         13.9 
      1531.0         0.30         13.8 
      1532.0         0.37         13.1 
      1533.0         0.37         12.6 
      1534.0         0.17         11.7 
      1535.0         0.28         11.7 
      1536.0         0.30         11.4 
      1537.0         0.27         11.4 
      1538.0         0.27         11.3 
