~Version Information
VERS.                      2.0: CWLS Log ASCII Standard - VERSION 2.0
WRAP.                       NO: One line per depth step
~Well Information Block
STRT.FT               970.5000: 
STOP.FT              2720.0000: 
STEP.FT                 0.1000: 
NULL.                -999.2500: 
COMP.          Petrogulf Corporation: COMPANY
WELL.             Burson 8-31V: WELL
FLD.           Purgatorie River: FIELD
LOC.           1113' FNL & 2152' FEL: LOCATION
CNTY.               Las Animas: COUNTY
SRVC.                         : SERVICE COMPANY
DATE.          Wed Nov 12 14:59:14 2003: LOG DATE
UWI.                          : UNIQUE WELL ID
STAT.                 Colorado: STATE
~Curve Information Block
DEPT.FT            0 000 00 00: Depth
DCAL.in                       : CDL Caliper
DPOR.pu                       : CDL Density Porosity
NEU.NAPI                      : Neutron
NPOR.pu                       : Neutron Porosity
RHOB.g/cc                     : CDL Bulk Density
RHOC.g/cc                     : CDL Density Correction
GR.GAPI                       : Gamma Ray
~Parameter Information Block
~A  Depth       DCAL        DPOR        NEU         NPOR        RHOB        RHOC         GR     
# ...
  1684.5000      8.0024     11.9003   1322.9003     14.7221      2.4536      0.0458     88.0724
  1684.6000      8.0024     11.1862   1330.1541     14.4136      2.4654      0.0767     88.0724
  1684.7000      8.0024      9.8042   1321.4469     14.7843      2.4882      0.0952     88.0724
  1684.8000      8.0118      9.1337   1310.9589     15.2372      2.4993      0.1370     81.0167
  1684.9000      8.0118      9.8758   1312.6411     15.1641      2.4870      0.0991     81.0167
  1685.0000      8.0327     11.4412   1319.5676     14.8650      2.4612      0.0663     81.7790
  1685.1000      8.0327     12.5182   1326.5171     14.5679      2.4434      0.0175     81.7790
  1685.2000      8.0327     12.7234   1334.0802     14.2479      2.4401      0.0992     81.7790
  1685.3000      8.0568     12.7124   1337.7167     14.0954      2.4402      0.0777     72.4654
  1685.4000      8.0568     12.6383   1331.0090     14.3774      2.4415      0.0670     72.4654
  1685.5000      8.0484     12.0895   1315.9707     15.0199      2.4505      0.0412     78.0103
  1685.6000      8.0484     11.3500   1306.0536     15.4512      2.4627      0.0983     78.0103
  1685.7000      8.0484     11.5565   1309.5350     15.2991      2.4593      0.0781     78.0103
  1685.8000      8.0446     12.7180   1318.9513     14.8915      2.4402      0.0517     88.3589
  1685.9000      8.0446     13.4551   1323.2151     14.7087      2.4280      0.0383     88.3589
  1686.0000      8.0483     13.2651   1317.7115     14.9448      2.4311      0.0419     79.6087
  1686.1000      8.0483     12.8252   1306.4901     15.4321      2.4384      0.0767     79.6087
  1686.2000      8.0483     12.6605   1299.0371     15.7599      2.4411      0.0653     79.6087
  1686.3000      8.0514     12.9201   1302.8602     15.5913      2.4368      0.0692     75.3276
  1686.4000      8.0514     13.7190   1312.8436     15.1553      2.4236      0.0526     75.3276
  1686.5000      8.0505     14.7680   1316.2429     15.0082      2.4063      0.0424     68.1102
  1686.6000      8.0505     15.3899   1311.0670     15.2324      2.3961      0.0862     68.1102
  1686.7000      8.0505     15.4022   1305.3356     15.4827      2.3959      0.0595     68.1102
  1686.8000      8.0565     15.3598   1302.0424     15.6273      2.3966      0.0594     65.9051
  1686.9000      8.0565     15.5318   1300.6433     15.6890      2.3937      0.0524     65.9051
  1687.0000      8.0690     15.2196   1301.0956     15.6690      2.3989     -0.0008     57.6560
  1687.1000      8.0690     14.5925   1301.3057     15.6598      2.4092      0.1297     57.6560
  1687.2000      8.0690     15.0328   1304.0135     15.5406      2.4020      0.0977     57.6560
  1687.3000      8.0761     15.6065   1312.3873     15.1751      2.3925      0.0202     75.9572
  1687.4000      8.0761     14.0502   1321.4036     14.7862      2.4182      0.0784     75.9572
  1687.5000      8.0833     11.4351   1325.4991     14.6112      2.4613      0.1518     65.9958
  1687.6000      8.0833     10.7876   1325.5582     14.6087      2.4720      0.1275     65.9958
  1687.7000      8.0833     12.2484   1326.6248     14.5633      2.4479      0.0493     65.9958
  1687.8000      8.0854     13.6940   1329.1355     14.4567      2.4240      0.0991     70.1589
  1687.9000      8.0854     14.0370   1328.7947     14.4711      2.4184      0.0587     70.1589
  1688.0000      8.0947     13.9205   1326.2494     14.5793      2.4203      0.0723     70.5072
  1688.1000      8.0947     14.6208   1326.1047     14.5854      2.4088      0.0758     70.5072
  1688.2000      8.0947     15.8699   1328.0964     14.5008      2.3881      0.0211     70.5072
  1688.3000      8.0953     15.7550   1329.5322     14.4399      2.3900      0.0114     66.3909
  1688.4000      8.0953     14.0659   1334.7561     14.2195      2.4179      0.1085     66.3909
  1688.5000      8.0963     12.7468   1340.2080     13.9913      2.4397      0.1012     73.6510
  1688.6000      8.0963     12.4429   1334.1976     14.2430      2.4447      0.1096     73.6510
  1688.7000      8.0963     12.3309   1321.5618     14.7794      2.4465      0.0862     73.6510
  1688.8000      8.0954     11.9058   1311.1522     15.2287      2.4536      0.0723     73.6503
  1688.9000      8.0954     11.0186   1301.6508     15.6446      2.4682      0.1062     73.6503
  1689.0000      8.1238      9.7863   1293.4069     16.0096      2.4885      0.1000     66.0896
  1689.1000      8.1238      8.8975   1288.9935     16.2067      2.5032      0.1426     66.0896
  1689.2000      8.1238      9.2325   1289.2948     16.1932      2.4977      0.0765     66.0896
  1689.3000      8.0920     10.5034   1288.9551     16.2084      2.4767      0.0316     69.0746
  1689.4000      8.0920     11.7401   1280.9724     16.5676      2.4563      0.0764     69.0746
  1689.5000      8.0667     12.9213   1272.5266     16.9516      2.4368      0.0851     75.8646
  1689.6000      8.0667     13.8576   1274.7417     16.8505      2.4214     -0.0238     75.8646
  1689.7000      8.0667     14.0730   1284.3285     16.4162      2.4178      0.0521     75.8646
  1689.8000      8.0534     13.5610   1291.0391     16.1152      2.4262      0.0225     66.0138
  1689.9000      8.0534     11.9277   1284.6680     16.4009      2.4532      0.0335     66.0138
  1690.0000      8.0354      9.7152   1267.9202     17.1627      2.4897      0.1017     70.5639
  1690.1000      8.0354      8.4902   1253.2437     17.8428      2.5099      0.0866     70.5639
  1690.2000      8.0354      8.7654   1250.2963     17.9807      2.5054      0.1099     70.5639
  1690.3000      8.0264      9.7400   1259.4387     17.5543      2.4893      0.0368     73.6500
  1690.4000      8.0264     10.0998   1268.4706     17.1374      2.4834      0.0292     73.6500
  1690.5000      8.0237      9.6237   1273.4227     16.9107      2.4912      0.0589     69.0811
  1690.6000      8.0237      9.2830   1278.2921     16.6891      2.4968      0.0809     69.0811
  1690.7000      8.0237      9.4315   1279.3953     16.6391      2.4944      0.0318     69.0811
  1690.8000      8.0300      9.7506   1273.7974     16.8936      2.4891      0.0920     70.9366
  1690.9000      8.0300      9.8234   1265.5449     17.2720      2.4879      0.0193     70.9366
  1691.0000      8.0266      9.4778   1259.6632     17.5439      2.4936      0.0943     89.7836
  1691.1000      8.0266      9.6938   1257.9722     17.6224      2.4901      0.0768     89.7836
  1691.2000      8.0266     11.0473   1258.7020     17.5885      2.4677      0.0397     89.7836
  1691.3000      8.0340     12.7704   1262.7830     17.3994      2.4393      0.0222     93.1883
  1691.4000      8.0340     13.5499   1273.9181     16.8881      2.4264     -0.0489     93.1883
  1691.5000      8.0330     12.3138   1288.9794     16.2073      2.4468      0.0357     91.3964
  1691.6000      8.0330     10.0097   1301.1016     15.6687      2.4848      0.0626     91.3964
  1691.7000      8.0330      8.8599   1304.4598     15.5211      2.5038      0.1028     91.3964
  1691.8000      8.0315      9.4839   1299.0131     15.7609      2.4935      0.0917     95.8752
  1691.9000      8.0315     10.6807   1293.0774     16.0243      2.4738      0.0534     95.8752
  1692.0000      8.0361     11.4555   1289.7416     16.1732      2.4610      0.0804     88.8945
  1692.1000      8.0361     11.5383   1287.5323     16.2722      2.4596      0.0124     88.8945
  1692.2000      8.0361     10.7659   1290.4828     16.1401      2.4724      0.0211     88.8945
  1692.3000      8.0386      9.7498   1295.5454     15.9145      2.4891      0.0426     79.3310
  1692.4000      8.0386      9.7143   1297.1593     15.8430      2.4897      0.1057     79.3310
  1692.5000      8.0461     10.5841   1298.7581     15.7722      2.4754      0.0200     84.0738
  1692.6000      8.0461     10.7876   1299.8014     15.7261      2.4720      0.0222     84.0738
  1692.7000      8.0461     10.0615   1297.4851     15.8285      2.4840      0.0866     84.0738
  1692.8000      8.0441      9.4699   1293.0554     16.0253      2.4937      0.0442     84.5614
