~Version Information
 VERS.                                  2.0 : CWLS LAS VERSION
 WRAP.                                   NO : WRAPING MODE
 SWARE .                 MController 2.5.0N : SOFTWARE VERSION
~Well Information
 WELL.                         Tomcat 32-10 : WELL
 COMP.    Pioneer Natural Resources USA Inc : COMPANY
 FLD.                      Purgatoire River : FIELD
 LOC.                SW/NE Sec 10 T33S R65W : LOCATION
 DATE.                              3/21/05 : DATE(S) LOGGED
 SRVC.       Blanco Geological Services LLC : SERVICE COMPANY
 STAT.                                   CO : STATE
 CNTY.                           Las Animas : COUNTY
 CTRY.                                  USA : COUNTRY
 API.                       05-071-08301-00 : API NUMBER
 STRT.FT                             356.00 : START DEPTH
 STOP.FT                             980.00 : STOP DEPTH
 STEP.FT                               1.00 : DEPTH INCREMENT
 NULL.                                -9999 : NULL VALUE
~Curve information
 DEPTH.FT                                   :
 ROP.MIN/FT                                 :
 GAS.UNITS                                  :
~ASCII Log data
# ...
       756.0         0.82        669.3 
       757.0         0.70        681.7 
       758.0         0.53        680.7 
       759.0         0.53        672.3 
       760.0         0.53        661.5 
       761.0         0.55        639.3 
       762.0         0.53        652.4 
       763.0         0.53        652.4 
       764.0         0.53        651.4 
       765.0         0.27        649.7 
       766.0         0.53        646.0 
       767.0         0.27        637.9 
       768.0         0.27        629.5 
       769.0         0.27        631.5 
       770.0         0.28        584.0 
       771.0         0.27        507.9 
       772.0         0.27        504.5 
       773.0         0.27        530.1 
       774.0         0.27        539.9 
       775.0         0.53        548.3 
       776.0         2.68       2640.6 
       777.0         0.53        794.9 
       778.0         0.27        753.5 
       779.0         0.27        735.0 
       780.0         0.53        908.5 
       781.0         0.53        864.0 
       782.0         0.12        804.7 
       783.0         0.53        806.4 
       784.0         0.37       1202.3 
       785.0         0.27       1266.6 
       786.0         0.60       1169.6 
       787.0         0.27        958.3 
       788.0         0.27        872.1 
       789.0         0.47        860.3 
       790.0         0.33        741.4 
       791.0         0.55        713.1 
       792.0         0.70        675.3 
       793.0         0.53        631.5 
       794.0         0.60        592.5 
       795.0         0.53        617.7 
       796.0         0.40        675.7 
       797.0         0.28        670.6 
       798.0         0.33        652.4 
       799.0         0.27        633.9 
       800.0         0.53        626.5 
       801.0         0.27        643.7 
       802.0         0.27        791.9 
       803.0         0.53        686.1 
       804.0         0.37        586.4 
       805.0         0.27        567.9 
       806.0         2.38       3299.2 
       807.0         0.37       1827.9 
       808.0         0.27       1298.3 
       809.0         0.27       1168.2 
       810.0         0.55       1077.3 
       811.0         0.27        901.1 
       812.0         0.33        872.4 
       813.0         0.53        844.5 
       814.0         0.27        777.4 
       815.0         0.53        758.6 
       816.0         0.40        681.4 
       817.0         0.53        704.0 
       818.0         0.55        819.5 
       819.0         0.27        808.4 
       820.0         0.13        808.4 
       821.0         0.27        789.6 
       822.0         0.27        772.4 
       823.0         0.27        766.3 
       824.0         0.53        764.3 
       825.0         0.53        756.9 
       826.0         0.27        750.8 
       827.0         0.27        745.8 
       828.0         0.55        741.7 
       829.0         0.27        730.3 
       830.0         0.27        725.5 
       831.0         0.27        720.1 
       832.0         0.27        720.1 
       833.0         0.27        714.1 
       834.0         0.53        711.7 
       835.0         0.53        675.3 
       836.0         2.95       3094.0 
       837.0         0.53       1549.6 
       838.0         0.27       1112.7 
       839.0         0.55       1110.6 
       840.0         0.53       1029.1 
       841.0         0.47        923.6 
       842.0         0.53        836.4 
       843.0         0.27        754.8 
       844.0         0.27        746.4 
       845.0         0.60        743.1 
       846.0         0.55        721.8 
       847.0         0.53        704.0 
       848.0         0.53        695.9 
       849.0         0.53        689.2 
       850.0         0.27        678.7 
       851.0         0.53        686.1 
       852.0         0.27        687.5 
       853.0         0.53        689.2 
       854.0         0.55        676.0 
       855.0         0.27        665.2 
       856.0         0.47        667.3 
       857.0         0.53        672.0 
       858.0         0.53        672.3 
       859.0         0.53        664.6 
       860.0         0.55        661.5 
       861.0         0.27        653.8 
       862.0         0.53        653.1 
       863.0         0.53        587.1 
       864.0         0.37        486.7 
       865.0         0.27        495.8 
       866.0         2.58       3326.5 
       867.0         0.53       1149.7 
       868.0         0.53       1031.8 
       869.0         0.53        889.6 
       870.0         0.55        823.9 
       871.0         0.27        765.3 
       872.0         0.53        737.0 
       873.0         0.27        767.0 
       874.0         0.27        766.3 
       875.0         0.53        746.4 
       876.0         0.53        716.8 
       877.0         0.27        663.5 
       878.0         0.65        676.7 
       879.0         0.53        664.6 
       880.0         0.53        675.7 
       881.0         0.27        672.0 
       882.0         0.53        667.9 
       883.0         0.53        650.1 
       884.0         0.53        639.3 
       885.0         0.17        638.6 
       886.0         0.55        636.6 
       887.0         0.53        643.7 
       888.0         0.27        639.3 
       889.0         0.53        629.5 
       890.0         0.27        624.8 
       891.0         0.53        623.1 
       892.0         0.53        619.7 
       893.0         0.27        633.9 
       894.0         0.55        622.4 
       895.0         0.27        474.2 
       896.0         3.05        507.2 
       897.0         0.60       3474.1 
       898.0         0.63       2296.6 
       899.0         0.37       1125.8 
       900.0         0.43        985.0 
       901.0         0.53        840.8 
       902.0         0.45        786.2 
       903.0         0.50        704.6 
       904.0         0.57        679.4 
       905.0         0.53        651.8 
       906.0         0.50        620.8 
       907.0         0.50        655.1 
       908.0         0.30        648.4 
       909.0         0.55        644.7 
       910.0         0.37        609.3 
       911.0         0.53        616.7 
       912.0         0.30        616.7 
       913.0         0.53        623.8 
       914.0         0.20        627.8 
       915.0         0.53        624.8 
       916.0         0.27        611.7 
       917.0         0.55        613.0 
       918.0         0.27        611.0 
       919.0         0.53        617.1 
       920.0         0.63        619.1 
       921.0         0.57        627.2 
       922.0         0.53        629.5 
       923.0         0.50        626.8 
       924.0         0.42        565.8 
       925.0         0.53        475.9 
       926.0         2.57       3031.0 
       927.0         0.22       2331.6 
       928.0         0.27       2089.4 
       929.0         0.60       1066.8 
       930.0         0.47        986.3 
       931.0         0.37        904.8 
       932.0         0.37        856.3 
       933.0         0.53        767.3 
       934.0         0.30        702.6 
       935.0         0.45        716.1 
       936.0         0.53        703.6 
       937.0         0.53        669.9 
       938.0         0.47        645.0 
       939.0         0.53        628.2 
       940.0         0.27        632.2 
       941.0         0.37        632.5 
       942.0         0.27        624.8 
       943.0         0.32        623.8 
       944.0         0.27        621.1 
       945.0         0.40        620.4 
       946.0         0.37        614.7 
       947.0         0.33        613.7 
       948.0         0.53        615.7 
       949.0         0.13        615.7 
       950.0         0.70        616.7 
       951.0         0.27        619.4 
       952.0         0.42        622.1 
       953.0         0.23        546.6 
       954.0         0.53        470.5 
       955.0         1.33        491.4 
