~Version Information
VERS.                      2.0: CWLS Log ASCII Standard - VERSION 2.0
WRAP.                       NO: One line per depth step
~Well Information Block
STRT.FT               475.0000: 
STOP.FT              2336.7500: 
STEP.FT                 0.2500: 
NULL.                -999.2500: 
COMP.          Pioneer Natural Resources: COMPANY
WELL.              Bobsy 34-11: WELL
FLD.           Purgatoire River: FIELD
LOC.           1937' FEL & 451' FSL----: LOCATION
PROV.                 Colorado: PROVINCE
CNTY.               Las Animas: COUNTRY
SRVC.                Patterson: SERVICE COMPANY
DATE.          Fri Apr 08 05:21:25 2005: LOG DATE
UWI.           05 071 08330 00: UNIQUE WELL ID
~Curve Information Block
DEPT.FT            0 000 00 00: Depth
SN.Ohm-m                      : IEL Short Normal
SP.mV                         : IEL Spontaneous Potential
DIR.Ohm-m                     : IEL Induction Resistivity
GR.GAPI                       : Gamma Ray
~Parameter Information Block
~A  Depth        SN          SP         DIR          GR     
# ...
   609.0000   2000.0000   2000.0000     21.2138     91.1683
   609.2500   2000.0000   2000.0000     20.6910     95.0655
   609.5000   2000.0000   2000.0000     20.1992    100.1372
   609.7500   2000.0000   2000.0000     19.7448    102.5728
   610.0000   2000.0000   2000.0000     19.3336    103.9018
   610.2500   2000.0000   2000.0000     18.9762    102.9139
   610.5000   2000.0000   2000.0000     18.6900     99.2674
   610.7500   2000.0000   2000.0000     18.4971     96.3782
   611.0000   2000.0000   2000.0000     18.4207     92.9738
   611.2500   2000.0000   2000.0000     18.4809     91.7788
   611.5000   2000.0000   2000.0000     18.6934     91.5215
   611.7500   2000.0000   2000.0000     19.0672     92.0576
   612.0000   2000.0000   2000.0000     19.6029     93.3343
   612.2500   2000.0000   2000.0000     20.2916     94.2493
   612.5000   2000.0000   2000.0000     21.1140     95.4549
   612.7500   2000.0000   2000.0000     22.0402     96.0327
   613.0000   2000.0000   2000.0000     23.0312     96.3516
   613.2500   2000.0000   2000.0000     24.0421     96.1096
   613.5000   2000.0000   2000.0000     25.0277     95.2082
   613.7500   2000.0000   2000.0000     25.9440     94.6011
   614.0000   2000.0000   2000.0000     26.7458     94.5430
   614.2500   2000.0000   2000.0000     27.3895     95.4153
   614.5000   2000.0000   2000.0000     27.8460     97.8003
   614.7500   2000.0000   2000.0000     28.1185     99.3901
   615.0000   2000.0000   2000.0000     28.2450    100.3726
   615.2500   2000.0000   2000.0000     28.2829     99.7744
   615.5000   2000.0000   2000.0000     28.2867     97.7681
   615.7500   2000.0000   2000.0000     28.2906     96.5711
   616.0000   2000.0000   2000.0000     28.2970     95.9944
   616.2500   2000.0000   2000.0000     28.2752     96.2162
   616.5000   2000.0000   2000.0000     28.1794     95.9517
   616.7500   2000.0000   2000.0000     27.9809     94.4976
   617.0000   2000.0000   2000.0000     27.6917     90.0120
   617.2500   2000.0000   2000.0000     27.3580     86.0020
   617.5000   2000.0000   2000.0000     27.0288     79.9835
   617.7500   2000.0000   2000.0000     26.7291     76.7318
   618.0000   2000.0000   2000.0000     26.4518     73.3589
   618.2500   2000.0000   2000.0000     26.1719     71.7831
   618.5000   2000.0000   2000.0000     25.8681     69.6788
   618.7500   2000.0000   2000.0000     25.5375     68.2407
   619.0000   2000.0000   2000.0000     25.1955     66.0356
   619.2500   2000.0000   2000.0000     24.8638     64.6207
   619.5000   2000.0000   2000.0000     24.5583     62.9482
   619.7500   2000.0000   2000.0000     24.2869     62.4787
   620.0000   2000.0000   2000.0000     24.0546     63.1939
   620.2500   2000.0000   2000.0000     23.8708     64.5925
   620.5000   2000.0000   2000.0000     23.7535     67.5713
   620.7500   2000.0000   2000.0000     23.7291     69.7126
   621.0000   2000.0000   2000.0000     23.8197     72.4255
   621.2500   2000.0000   2000.0000     24.0167     73.6759
   621.5000   2000.0000   2000.0000     24.2558     75.1740
   621.7500   2000.0000   2000.0000     24.4213     76.7849
   622.0000   2000.0000   2000.0000     24.3989     81.9863
   622.2500   2000.0000   2000.0000     24.1545     87.9343
   622.5000   2000.0000   2000.0000     23.7655     99.8326
   622.7500   2000.0000   2000.0000     23.3724    108.3090
   623.0000   2000.0000   2000.0000     23.0903    118.9271
   623.2500   2000.0000   2000.0000     22.9493    123.4855
   623.5000   2000.0000   2000.0000     22.8915    126.3228
   623.7500   2000.0000   2000.0000     22.8222    126.1373
   624.0000   2000.0000   2000.0000     22.6862    123.8882
   624.2500   2000.0000   2000.0000     22.5134    121.4587
   624.5000   2000.0000   2000.0000     22.3950    116.6705
   624.7500   2000.0000   2000.0000     22.4182    112.8354
   625.0000   2000.0000   2000.0000     22.6187    106.6230
   625.2500   2000.0000   2000.0000     22.9770    102.7394
   625.5000   2000.0000   2000.0000     23.4438     98.3738
   625.7500   2000.0000   2000.0000     23.9717     96.6331
   626.0000   2000.0000   2000.0000     24.5315     95.0030
   626.2500   2000.0000   2000.0000     25.1089     93.9337
   626.5000   2000.0000   2000.0000     25.6891     92.0638
   626.7500   2000.0000   2000.0000     26.2423     90.9790
   627.0000   2000.0000   2000.0000     26.7232     90.1789
   627.2500   2000.0000   2000.0000     27.0853     90.1469
   627.5000   2000.0000   2000.0000     27.2986     90.1190
   627.7500   2000.0000   2000.0000     27.3608     89.6019
   628.0000   2000.0000   2000.0000     27.2975     87.5231
   628.2500   2000.0000   2000.0000     27.1600     85.1708
   628.5000   2000.0000   2000.0000     27.0184     80.4113
   628.7500   2000.0000   2000.0000     26.9482     76.8960
   629.0000   2000.0000   2000.0000     27.0155     72.4813
   629.2500   2000.0000   2000.0000     27.2646     70.8215
   629.5000   2000.0000   2000.0000     27.7088     70.4231
   629.7500   2000.0000   2000.0000     28.3155     71.0158
   630.0000   2000.0000   2000.0000     28.9864     72.0708
   630.2500   2000.0000   2000.0000     29.5455     72.6273
   630.5000   2000.0000   2000.0000     29.7741     73.7896
   630.7500   2000.0000   2000.0000     29.5127     75.4258
   631.0000   2000.0000   2000.0000     28.7743     80.0824
   631.2500   2000.0000   2000.0000     27.7542     84.7940
   631.5000   2000.0000   2000.0000     26.7120     93.6702
   631.7500   2000.0000   2000.0000     25.8362    100.0135
   632.0000   2000.0000   2000.0000     25.1884    108.6093
   632.2500   2000.0000   2000.0000     24.7237    113.0824
   632.5000   2000.0000   2000.0000     24.3434    117.5006
   632.7500   2000.0000   2000.0000     23.9483    118.8993
   633.0000   2000.0000   2000.0000     23.4730    118.7890
   633.2500   2000.0000   2000.0000     22.8985    117.4653
   633.5000   2000.0000   2000.0000     22.2432    114.3120
   633.7500   2000.0000   2000.0000     21.5466    111.9784
   634.0000   2000.0000   2000.0000     20.8517    109.3744
   634.2500   2000.0000   2000.0000     20.1912    109.1053
   634.5000   2000.0000   2000.0000     19.5802    111.8451
   634.7500   2000.0000   2000.0000     19.0160    115.5142
   635.0000   2000.0000   2000.0000     18.4881    122.0606
   635.2500   2000.0000   2000.0000     17.9893    125.9869
   635.5000   2000.0000   2000.0000     17.5203    130.1801
   635.7500   2000.0000   2000.0000     17.0864    131.9279
   636.0000   2000.0000   2000.0000     16.6929    133.8328
   636.2500   2000.0000   2000.0000     16.3456    135.1353
   636.5000   2000.0000   2000.0000     16.0541    137.4145
   636.7500   2000.0000   2000.0000     15.8312    138.7867
   637.0000   2000.0000   2000.0000     15.6858    139.3509
   637.2500   2000.0000   2000.0000     15.6149    138.1736
   637.5000   2000.0000   2000.0000     15.6005    134.4651
   637.7500   2000.0000   2000.0000     15.6141    131.6322
   638.0000   2000.0000   2000.0000     15.6274    128.4052
   638.2500   2000.0000   2000.0000     15.6237    127.2895
   638.5000   2000.0000   2000.0000     15.6021    126.9022
   638.7500   2000.0000   2000.0000     15.5742    127.1621
   639.0000   2000.0000   2000.0000     15.5581    127.7989
   639.2500   2000.0000   2000.0000     15.5746    128.1205
   639.5000   2000.0000   2000.0000     15.6467    127.9724
   639.7500   2000.0000   2000.0000     15.7980    127.1535
   640.0000   2000.0000   2000.0000     16.0478    124.4714
   640.2500   2000.0000   2000.0000     16.4056    121.7524
   640.5000   2000.0000   2000.0000     16.8704    116.8692
   640.7500   2000.0000   2000.0000     17.4350    113.5480
   641.0000   2000.0000   2000.0000     18.0944    109.0232
   641.2500   2000.0000   2000.0000     18.8519    106.3452
   641.5000   2000.0000   2000.0000     19.7151    102.5615
   641.7500   2000.0000   2000.0000     20.6859    100.1111
   642.0000   2000.0000   2000.0000     21.7532     96.9100
   642.2500   2000.0000   2000.0000     22.8959     95.4368
