~Version Information
VERS.                      2.0: CWLS Log ASCII Standard - VERSION 2.0
WRAP.                       NO: One line per depth step
~Well Information Block
STRT.FT               554.0000: 
STOP.FT              1002.0000: 
STEP.FT                 0.1000: 
NULL.                -999.2500: 
COMP.          Pioneer Natural Resources: COMPANY
WELL.          Rising Star 22-11: WELL
FLD.           Purgatoire River: FIELD
LOC.           2152' FNL & 2105' FWL: LOCATION
PROV.                 Colorado: PROVINCE
CNTY.               Las Animas: COUNTRY
SRVC.                Patterson: SERVICE COMPANY
DATE.          Mon Apr 11 16:46:53 2005: LOG DATE
UWI.           05 071 08354 00: UNIQUE WELL ID
~Curve Information Block
DEPT.FT            0 000 00 00: Depth
DCAL.in                       : CDL Caliper
RHOB.g/cc                     : CDL Bulk Density
RHOC.g/cc                     : CDL Density Correction
DPOR.pu                       : CDL Density Porosity
GR.GAPI                       : Gamma Ray
NPOR.pu                       : Neutron Porosity
~Parameter Information Block
~A  Depth       DCAL        RHOB        RHOC        DPOR         GR         NPOR    
# ...
   755.6000      7.9193      2.5270      0.0906      7.4561     99.9354     18.8094
   755.7000      7.9193      2.5149      0.0973      8.1877     97.8691     19.4246
   755.8000      7.9171      2.4912      0.0747      9.6220     93.4534     20.0827
   755.9000      7.9171      2.4767     -0.0284     10.5049     95.1043     20.3278
   756.0000      7.9171      2.4852      0.0554      9.9900    102.1012     20.5261
   756.1000      7.9171      2.4981      0.0623      9.2047    108.5338     21.0300
   756.2000      7.9171      2.4934      0.0683      9.4881    111.2502     21.4585
   756.3000      7.9187      2.4769      0.0439     10.4882    110.2653     21.6446
   756.4000      7.9187      2.4698      0.0185     10.9199    107.7659     21.8070
   756.5000      7.9135      2.4781      0.0690     10.4170    104.7446     21.8622
   756.6000      7.9135      2.4926      0.0376      9.5387    102.1771     21.6854
   756.7000      7.9135      2.5025      0.0579      8.9389    101.3219     21.3975
   756.8000      7.9174      2.4975      0.0275      9.2417    100.0791     21.1713
   756.9000      7.9174      2.4828      0.0484     10.1324     96.1390     21.1368
   757.0000      7.9194      2.4817     -0.0217     10.2015     93.4103     21.2398
   757.1000      7.9194      2.5016      0.0511      8.9911     94.8935     21.4507
   757.2000      7.9194      2.5128      0.0616      8.3151     98.1884     21.7461
   757.3000      7.9298      2.5013      0.0013      9.0121    101.3531     22.0675
   757.4000      7.9298      2.4897      0.0260      9.7144    104.3941     22.3790
   757.5000      7.9328      2.4895      0.0347      9.7261    108.1781     22.5790
   757.6000      7.9328      2.4983      0.0190      9.1919    110.7361     22.5235
   757.7000      7.9328      2.5137      0.0552      8.2627    108.7156     22.2999
   757.8000      7.9411      2.5310      0.0524      7.2117    103.5526     22.2511
   757.9000      7.9411      2.5516      0.0816      5.9666     98.2783     22.4646
   758.0000      7.9406      2.5703      0.1044      4.8330     95.7869     22.6596
   758.1000      7.9406      2.5747      0.0697      4.5629     96.8326     22.8486
   758.2000      7.9406      2.5695      0.0883      4.8784     98.1996     23.2656
   758.3000      7.9403      2.5704      0.0819      4.8246     98.6378     23.6211
   758.4000      7.9403      2.5807      0.0703      4.2009     99.1717     23.5778
   758.5000      7.9263      2.5872      0.1045      3.8034     97.4363     23.1591
   758.6000      7.9263      2.5708      0.0778      4.8000     92.4249     22.7348
   758.7000      7.9263      2.5292      0.0294      7.3187     87.8929     22.6881
   758.8000      7.9273      2.4849     -0.0207     10.0083     86.1452     22.8770
   758.9000      7.9273      2.4580     -0.0106     11.6385     87.2631     22.9766
   759.0000      7.9286      2.4540     -0.0407     11.8759     91.1825     22.9241
   759.1000      7.9286      2.4657      0.0219     11.1711     95.7188     22.7307
   759.2000      7.9286      2.4736      0.0667     10.6935     97.6359     22.4504
   759.3000      7.9281      2.4756      0.0126     10.5715     96.4567     22.1197
   759.4000      7.9281      2.4921      0.0060      9.5718     93.5068     21.9827
   759.5000      7.9229      2.5228      0.0861      7.7090     92.2982     22.3084
   759.6000      7.9229      2.5404      0.0829      6.6424     95.4586     22.7783
   759.7000      7.9229      2.5292      0.0386      7.3203     99.4874     22.8293
   759.8000      7.9183      2.5023      0.0532      8.9522    101.1196     22.3576
   759.9000      7.9183      2.4846     -0.0348     10.0257    101.0054     21.8616
   760.0000      7.9196      2.4782      0.0973     10.4095     99.1104     21.9528
   760.1000      7.9196      2.4655      0.0321     11.1823     97.3616     22.5670
   760.2000      7.9196      2.4563     -0.0480     11.7399     98.0007     23.0199
   760.3000      7.9194      2.4648      0.0387     11.2262     98.3102     23.0796
   760.4000      7.9194      2.4809      0.0216     10.2487     98.6332     23.0214
   760.5000      7.9181      2.5008      0.0603      9.0416    102.8686     22.7832
   760.6000      7.9181      2.5197      0.0653      7.8983    106.7750     22.1812
   760.7000      7.9181      2.5230      0.0805      7.6984    104.5435     21.6629
   760.8000      7.9277      2.5079      0.0671      8.6095     99.8761     21.6699
   760.9000      7.9277      2.4813      0.0724     10.2240     98.1644     21.7919
   761.0000      7.9229      2.4544      0.0321     11.8518     99.4129     21.6716
   761.1000      7.9229      2.4493      0.0482     12.1609     99.6933     21.5878
   761.2000      7.9229      2.4792      0.0732     10.3517     95.8534     21.7321
   761.3000      7.9142      2.5306      0.1177      7.2366     91.5174     21.8841
   761.4000      7.9142      2.5764      0.1248      4.4634     91.9755     21.7105
   761.5000      7.8893      2.5967      0.1576      3.2288     95.3461     21.3660
   761.6000      7.8893      2.5929      0.1271      3.4629     96.6021     21.2299
   761.7000      7.8893      2.5844      0.1304      3.9744     96.4554     21.2320
   761.8000      7.8868      2.5809      0.1763      4.1861     99.8056     21.2515
   761.9000      7.8868      2.5688      0.1664      4.9205    106.0418     21.3245
   762.0000      7.8857      2.5401      0.0663      6.6626    109.2585     21.4500
   762.1000      7.8857      2.5055      0.0956      8.7582    107.6030     21.5885
   762.2000      7.8857      2.4779     -0.0200     10.4283    104.5698     21.7661
   762.3000      7.8852      2.4655      0.0284     11.1828    104.8916     21.9371
   762.4000      7.8852      2.4700      0.0037     10.9073    110.6703     21.8125
   762.5000      7.8989      2.4892     -0.0103      9.7448    118.5442     21.3336
   762.6000      7.8989      2.5072      0.0459      8.6557    122.2622     20.8846
   762.7000      7.8989      2.5111      0.0160      8.4173    120.5249     20.7698
   762.8000      7.9243      2.5126      0.0235      8.3263    117.3408     20.9195
   762.9000      7.9243      2.5112      0.0701      8.4119    116.1108     21.2660
   763.0000      7.9263      2.4917      0.0323      9.5941    116.8215     21.8740
   763.1000      7.9263      2.4606      0.0315     11.4766    114.8554     22.5854
   763.2000      7.9263      2.4401      0.0318     12.7189    109.9457     22.8445
   763.3000      7.9214      2.4434      0.0281     12.5195    107.4247     22.5061
   763.4000      7.9214      2.4714      0.0049     10.8251    109.4383     22.1116
   763.5000      7.9266      2.5123      0.0633      8.3468    113.3388     21.7997
   763.6000      7.9266      2.5406      0.0816      6.6297    116.0275     21.4101
   763.7000      7.9266      2.5371      0.0869      6.8443    117.0809     21.2306
   763.8000      7.9266      2.5032      0.1056      8.8954    117.2134     21.5289
   763.9000      7.9266      2.4647      0.0289     11.2298    116.6008     21.9720
   764.0000      7.9261      2.4604     -0.0124     11.4925    116.6993     22.0573
   764.1000      7.9261      2.4990      0.0514      9.1539    115.9241     22.0061
   764.2000      7.9261      2.5349      0.1238      6.9768    110.7216     22.4343
   764.3000      7.9164      2.5293      0.0680      7.3159    104.7271     23.0362
   764.4000      7.9164      2.5131      0.0303      8.2953    102.4926     23.2113
   764.5000      7.9164      2.5311      0.0736      7.2067    103.8502     23.1568
   764.6000      7.9164      2.5733      0.0755      4.6499    105.3735     22.9990
   764.7000      7.9164      2.6030      0.1097      2.8467    103.0432     22.5259
   764.8000      7.9267      2.6043      0.0492      2.7703     97.4420     22.0502
   764.9000      7.9267      2.5862      0.0612      3.8637     94.1825     21.8395
   765.0000      7.9282      2.5561      0.0957      5.6885     93.9250     21.5840
   765.1000      7.9282      2.5189      0.0086      7.9437     92.4476     21.0984
