~Version Information
VERS.                      2.0: CWLS Log ASCII Standard - VERSION 2.0
WRAP.                       NO: One line per depth step
~Well Information Block
STRT.FT              2983.0000: 
STOP.FT              3214.7500: 
STEP.FT                 0.0500: 
NULL.                -999.2500: 
COMP.          Pioner Natural Resources: COMPANY
WELL.              Vespar 43-7: WELL
FLD.           Purgatoire River: FIELD
LOC.           2338' FSL & 1141' FEL------: LOCATION
PROV.                 Colorado: PROVINCE
CNTY.               Las Animas: COUNTRY
SRVC.                         : SERVICE COMPANY
DATE.          Fri Apr 15 15:31:19 2005: LOG DATE
UWI.                          : UNIQUE WELL ID
~Curve Information Block
DEPT.FT            0 000 00 00: Depth
GR.GAPI                       : Gamma Ray
CCL.                          : Casing Collar Locator
TT3.usec                      : CBL 3' Travel Time
AMP3.mV                       : CBL 3' Amplitude
AMP5.mV                       : CBL 5' Amplitude
~Parameter Information Block
~A  Depth        GR         CCL         TT3         AMP3        AMP5    
# ...
  3027.8000     78.1387      0.0000    733.3619     20.0765      9.6064
  3027.8500     78.1387      0.0000    733.3619     20.0765      9.6064
  3027.9000     78.1387      0.0000    733.3619     20.0765      9.6064
  3027.9500     78.1387      0.0000    733.3619     20.0765      9.6064
  3028.0000     69.2084      0.0000    743.6385     18.8540      9.0176
  3028.0500     69.2084      0.0000    743.6385     18.8540      9.0176
  3028.1000     69.2084      0.0000    743.6385     18.8540      9.0176
  3028.1500     69.2084      0.0000    743.6385     18.8540      9.0176
  3028.2000     69.2084      0.0000    743.6385     18.8540      9.0176
  3028.2500     61.7630      0.0000    742.6791     18.0423      8.5846
  3028.3000     61.7630      0.0000    742.6791     18.0423      8.5846
  3028.3500     61.7630      0.0000    742.6791     18.0423      8.5846
  3028.4000     61.7630      0.0000    742.6791     18.0423      8.5846
  3028.4500     61.7630      0.0000    742.6791     18.0423      8.5846
  3028.5000     56.5113      0.0000    733.4185     17.6555      8.2466
  3028.5500     56.5113      0.0000    733.4185     17.6555      8.2466
  3028.6000     56.5113      0.0000    733.4185     17.6555      8.2466
  3028.6500     56.5113      0.0000    733.4185     17.6555      8.2466
  3028.7000     56.5113      0.0000    733.4185     17.6555      8.2466
  3028.7500     54.0718      0.0000    717.6235     17.6970      7.9144
  3028.8000     54.0718      0.0000    717.6235     17.6970      7.9144
  3028.8500     54.0718      0.0000    717.6235     17.6970      7.9144
  3028.9000     54.0718      0.0000    717.6235     17.6970      7.9144
  3028.9500     54.0718      0.0000    717.6235     17.6970      7.9144
  3029.0000     54.9539      0.0000    699.4105     18.0965      7.5230
  3029.0500     54.9539      0.0000    699.4105     18.0965      7.5230
  3029.1000     54.9539      0.0000    699.4105     18.0965      7.5230
  3029.1500     54.9539      0.0000    699.4105     18.0965      7.5230
  3029.2000     54.9539      0.0000    699.4105     18.0965      7.5230
  3029.2500     59.2551      0.0000    682.8866     18.7038      7.0782
  3029.3000     59.2551      0.0000    682.8866     18.7038      7.0782
  3029.3500     59.2551      0.0000    682.8866     18.7038      7.0782
  3029.4000     59.2551      0.0000    682.8866     18.7038      7.0782
  3029.4500     59.2551      0.0000    682.8866     18.7038      7.0782
  3029.5000     66.2206      0.0000    664.7834     19.3722      6.6537
  3029.5500     66.2206      0.0000    664.7834     19.3722      6.6537
  3029.6000     66.2206      0.0000    664.7834     19.3722      6.6537
  3029.6500     66.2206      0.0000    664.7834     19.3722      6.6537
  3029.7000     66.2206      0.0000    664.7834     19.3722      6.6537
  3029.7500     74.1284      0.0000    632.9001     20.0612      6.3259
  3029.8000     74.1284      0.0000    632.9001     20.0612      6.3259
  3029.8500     74.1284      0.0000    632.9001     20.0612      6.3259
  3029.9000     74.1284      0.0000    632.9001     20.0612      6.3259
  3029.9500     74.1284      0.0000    632.9001     20.0612      6.3259
  3030.0000     80.8979      0.0000    577.1234     20.8413      6.1010
  3030.0500     80.8979      0.0000    577.1234     20.8413      6.1010
  3030.1000     80.8979      0.0000    577.1234     20.8413      6.1010
  3030.1500     80.8979      0.0000    577.1234     20.8413      6.1010
  3030.2000     80.8979      0.0000    577.1234     20.8413      6.1010
  3030.2500     85.3294      0.0000    502.6101     21.7850      5.9117
  3030.3000     85.3294      0.0000    502.6101     21.7850      5.9117
  3030.3500     85.3294      0.0000    502.6101     21.7850      5.9117
  3030.4000     85.3294      0.0000    502.6101     21.7850      5.9117
  3030.4500     85.3294      0.0000    502.6101     21.7850      5.9117
  3030.5000     87.8873      0.0000    429.7898     22.8389      5.6900
  3030.5500     87.8873      0.0000    429.7898     22.8389      5.6900
  3030.6000     87.8873      0.0000    429.7898     22.8389      5.6900
  3030.6500     87.8873      0.0000    429.7898     22.8389      5.6900
  3030.7000     87.8873      0.0000    429.7898     22.8389      5.6900
  3030.7500     89.7934      0.0000    381.9941     23.7775      5.4371
  3030.8000     89.7934      0.0000    381.9941     23.7775      5.4371
  3030.8500     89.7934      0.0000    381.9941     23.7775      5.4371
  3030.9000     89.7934      0.0000    381.9941     23.7775      5.4371
  3030.9500     89.7934      0.0000    381.9941     23.7775      5.4371
  3031.0000     91.2537      0.0000    374.3486     24.2762      5.2226
  3031.0500     91.2537      0.0000    374.3486     24.2762      5.2226
  3031.1000     91.2537      0.0000    374.3486     24.2762      5.2226
  3031.1500     91.2537      0.0000    374.3486     24.2762      5.2226
  3031.2000     91.2537      0.0000    374.3486     24.2762      5.2226
  3031.2500     91.2954      0.0000    410.1384     24.0750      5.1279
  3031.3000     91.2954      0.0000    410.1384     24.0750      5.1279
  3031.3500     91.2954      0.0000    410.1384     24.0750      5.1279
  3031.4000     91.2954      0.0000    410.1384     24.0750      5.1279
  3031.4500     91.2954      0.0000    410.1384     24.0750      5.1279
  3031.5000     89.5527      0.0000    479.8016     23.1270      5.1944
  3031.5500     89.5527      0.0000    479.8016     23.1270      5.1944
  3031.6000     89.5527      0.0000    479.8016     23.1270      5.1944
  3031.6500     89.5527      0.0000    479.8016     23.1270      5.1944
  3031.7000     89.5527      0.0000    479.8016     23.1270      5.1944
  3031.7500     87.2595      0.0000    561.4894     21.6208      5.4131
  3031.8000     87.2595      0.0000    561.4894     21.6208      5.4131
  3031.8500     87.2595      0.0000    561.4894     21.6208      5.4131
  3031.9000     87.2595      0.0000    561.4894     21.6208      5.4131
  3031.9500     87.2595      0.0000    561.4894     21.6208      5.4131
  3032.0000     85.9290      0.0000    628.3303     19.8871      5.7447
  3032.0500     85.9290      0.0000    628.3303     19.8871      5.7447
  3032.1000     85.9290      0.0000    628.3303     19.8871      5.7447
  3032.1500     85.9290      0.0000    628.3303     19.8871      5.7447
  3032.2000     85.9290      0.0000    628.3303     19.8871      5.7447
  3032.2500     85.7429      0.0000    660.1952     18.2868      6.1407
  3032.3000     85.7429      0.0000    660.1952     18.2868      6.1407
  3032.3500     85.7429      0.0000    660.1952     18.2868      6.1407
  3032.4000     85.7429      0.0000    660.1952     18.2868      6.1407
  3032.4500     85.7429      0.0000    660.1952     18.2868      6.1407
  3032.5000     85.8338      0.0000    650.7357     17.1335      6.5470
  3032.5500     85.8338      0.0000    650.7357     17.1335      6.5470
  3032.6000     85.8338      0.0000    650.7357     17.1335      6.5470
  3032.6500     85.8338      0.0000    650.7357     17.1335      6.5470
  3032.7000     85.8338      0.0000    650.7357     17.1335      6.5470
  3032.7500     85.7336      0.0000    606.9105     16.6348      6.8967
  3032.8000     85.7336      0.0000    606.9105     16.6348      6.8967
  3032.8500     85.7336      0.0000    606.9105     16.6348      6.8967
  3032.9000     85.7336      0.0000    606.9105     16.6348      6.8967
  3032.9500     85.7336      0.0000    606.9105     16.6348      6.8967
  3033.0000     85.9592      0.0000    544.5440     16.8518      7.1129
  3033.0500     85.9592      0.0000    544.5440     16.8518      7.1129
  3033.1000     85.9592      0.0000    544.5440     16.8518      7.1129
  3033.1500     85.9592      0.0000    544.5440     16.8518      7.1129
  3033.2000     85.9592      0.0000    544.5440     16.8518      7.1129
  3033.2500     87.2881      0.0000    480.9293     17.6966      7.1329
  3033.3000     87.2881      0.0000    480.9293     17.6966      7.1329
  3033.3500     87.2881      0.0000    480.9293     17.6966      7.1329
