~Version Information
VERS.                      2.0: CWLS Log ASCII Standard - VERSION 2.0
WRAP.                       NO: One line per depth step
~Well Information Block
STRT.FT                -2.7500: 
STOP.FT              2141.2500: 
STEP.FT                 0.2500: 
NULL.                -999.2500: 
COMP.          Pioneer Nautural Resources: COMPANY
WELL.             Enzo 43-8 Tr: WELL
FLD.           Purgatorie River: FIELD
LOC.           2303' FSL & 604' FEL--: LOCATION
PROV.                       CO: PROVINCE
CNTY.               Las Animas: COUNTRY
SRVC.                         : SERVICE COMPANY
DATE.          Thu Nov 04 09:01:55 2004: LOG DATE
UWI.            05-071-08213  : UNIQUE WELL ID
~Curve Information Block
DEPT.FT            0 000 00 00: Depth
GR.GAPI                       : Gamma Ray
CCL.                          : Casing Collar Locator
TT3.usec                      : CBL 3' Travel Time
AMP3.mV                       : CBL 3' Amplitude
~Parameter Information Block
~A  Depth        GR         CCL         TT3         AMP3    
# ...
   131.2500     41.5317      0.0000    894.9225      8.6486
   131.5000     42.8909      0.0000    888.0856      8.8342
   131.7500     42.7125      0.0000    883.2615      9.0532
   132.0000     40.7320      0.0000    877.3470      9.2540
   132.2500     37.4488      0.0000    869.0911      9.3873
   132.5000     34.1146      0.0000    862.9620      9.4361
   132.7500     32.0176      0.0000    865.2760      9.4204
   133.0000     31.6428      0.0000    876.6639      9.3796
   133.2500     32.6919      0.0000    890.3508      9.3497
   133.5000     34.7140      0.0000    897.6708      9.3426
   133.7500     37.3307      0.0000    894.0031      9.3401
   134.0000     39.9180      0.0000    880.5250      9.3128
   134.2500     41.5613      0.0000    862.6190      9.2470
   134.5000     41.7318      0.0000    846.8109      9.1515
   134.7500     41.0622      0.0000    837.9483      9.0387
   135.0000     41.3481      0.0000    838.1942      8.9136
   135.2500     44.5342      0.0000    847.5088      8.7790
   135.5000     51.0779      0.0000    863.8002      8.6412
   135.7500     59.0063      0.0000    882.8368      8.5034
   136.0000     65.3845      0.0000    899.6718      8.3625
   136.2500     69.2834      0.0000    911.2023      8.2117
   136.5000     72.4370      0.0000    917.3258      8.0482
   136.7500     76.5256      0.0000    919.7315      7.8847
   137.0000     80.9943      0.0000    919.9392      7.7516
   137.2500     84.2216      0.0000    918.1584      7.6791
   137.5000     85.6660      0.0000    913.2599      7.6728
   137.7500     86.0099      0.0000    903.8771      7.7101
   138.0000     85.9009      0.0000    890.4485      7.7607
   138.2500     85.3157      0.0000    876.4359      7.8066
   138.5000     83.9995      0.0000    866.2727      7.8441
   138.7500     82.0869      0.0000    861.2961      7.8752
   139.0000     80.0863      0.0000    858.8870      7.8982
   139.2500     78.2866      0.0000    856.5613      7.9021
   139.5000     76.4032      0.0000    855.5207      7.8690
   139.7500     73.9825      0.0000    859.0100      7.7951
   140.0000     71.1491      0.0000    868.3942      7.7084
   140.2500     68.7234      0.0000    881.8429      7.6560
   140.5000     67.3820      0.0000    895.8587      7.6699
   140.7500     66.8084      0.0000    907.3314      7.7481
   141.0000     65.8815      0.0000    914.8280      7.8609
   141.2500     63.6709      0.0000    918.7250      7.9683
   141.5000     60.1768      0.0000    920.3253      8.0415
   141.7500     56.2598      0.0000    920.8413      8.0746
   142.0000     52.9489      0.0000    920.9706      8.0770
   142.2500     50.8083      0.0000    920.9961      8.0567
   142.5000     50.0570      0.0000    920.9990      8.0167
   142.7500     51.2251      0.0000    920.9933      7.9622
   143.0000     55.1945      0.0000    920.9662      7.9079
   143.2500     62.1437      0.0000    920.8661      7.8745
   143.5000     70.5885      0.0000    920.5877      7.8739
   143.7500     77.8357      0.0000    920.0109      7.8906
   144.0000     81.6232      0.0000    919.1522      7.8790
   144.2500     81.4942      0.0000    918.3115      7.7909
   144.5000     78.8321      0.0000    917.9535      7.6127
   144.7500     75.6645      0.0000    918.3115      7.3819
   145.0000     73.2689      0.0000    919.1522      7.1642
   145.2500     71.6722      0.0000    920.0109      7.0105
   145.5000     70.2986      0.0000    920.5877      6.9323
   145.7500     69.0484      0.0000    920.8661      6.9065
   146.0000     68.6984      0.0000    920.9662      6.8957
   146.2500     70.2106      0.0000    920.9933      6.8717
   146.5000     73.7915      0.0000    920.9990      6.8327
   146.7500     78.8214      0.0000    921.0000      6.8022
   147.0000     84.4133      0.0000    921.0000      6.8055
   147.2500     89.3447      0.0000    921.0000      6.8493
   147.5000     91.6845      0.0000    920.9961      6.9217
   147.7500     89.6986      0.0000    920.9747      7.0057
   148.0000     83.6756      0.0000    920.8713      7.0818
   148.2500     76.3065      0.0000    920.4912      7.1237
   148.5000     70.8814      0.0000    919.4291      7.1153
   148.7500     69.0106      0.0000    917.2168      7.0753
   149.0000     69.8749      0.0000    913.8561      7.0356
   149.2500     71.3487      0.0000    910.3055      6.9849
   149.5000     71.6853      0.0000    907.9570      6.8767
   149.7500     70.3826      0.0000    907.2716      6.7024
   150.0000     68.0403      0.0000    907.4208      6.5143
   150.2500     65.7639      0.0000    907.6940      6.3674
   150.5000     64.5313      2.0000    908.5610      6.2751
   150.7500     64.8476      0.0000    910.6072      6.2160
   151.0000     66.9078      0.0000    912.8599      6.1543
   151.2500     70.8279      0.0000    912.6000      6.0618
   151.5000     76.5093      0.0000    906.5693      5.9495
   151.7500     83.4049      0.0000    892.7708      5.8822
   152.0000     90.5793      0.0000    872.6059      5.9449
   152.2500     96.8697      0.0000    851.5311      6.1843
   152.5000    101.2005      0.0000    835.8446      6.5690
   152.7500    103.1369      0.0000    827.6921      7.0017
   153.0000    102.9708      0.0000    824.3412      7.3802
   153.2500    101.0277      0.0000    823.0506      7.6522
   153.5000     97.3876      0.0000    824.9451      7.8147
   153.7500     92.5507      0.0000    832.6595      7.8799
   154.0000     87.7180      0.0000    845.3242      7.8607
   154.2500     83.9298      0.0000    857.3999      7.7778
   154.5000     81.2602      0.0000    862.2717      7.6656
   154.7500     79.2153      0.0000    856.6447      7.5627
   155.0000     77.8315      0.0000    842.3260      7.5016
   155.2500     77.9817      0.0000    824.6948      7.5018
   155.5000     80.3954      0.0000    809.3109      7.5680
   155.7500     84.7010      0.0000    799.1830      7.6892
   156.0000     89.9150      0.0000    794.5454      7.8354
   156.2500     95.6188      0.0000    794.6963      7.9609
   156.5000    102.1102      0.0000    799.6397      8.0245
   156.7500    109.3679      0.0000    809.7949      8.0172
   157.0000    116.0374      0.0000    824.4438      7.9684
   157.2500    119.5872      0.0000    841.0222      7.9218
   157.5000    117.9741      0.0000    856.2104      7.9106
   157.7500    111.3872      0.0000    867.7141      7.9497
   158.0000    102.0973      0.0000    875.4390      8.0356
   158.2500     92.7879      0.0000    881.2418      8.1500
   158.5000     85.5203      0.0000    887.0610      8.2690
   158.7500     81.8579      0.0000    893.1917      8.3765
   159.0000     82.7131      0.0000    898.4520      8.4681
   159.2500     87.4083      0.0000    901.1445      8.5503
   159.5000     93.4678      0.0000    899.6469      8.6312
   159.7500     98.1402      0.0000    893.4323      8.7067
   160.0000    100.2976      0.0000    884.1308      8.7568
   160.2500    100.7673      0.0000    874.8447      8.7625
   160.5000    101.0583      0.0000    867.9895      8.7211
   160.7500    101.9382      0.0000    864.0574      8.6391
   161.0000    103.0142      0.0000    862.2161      8.5232
   161.2500    103.3250      0.0000    861.4667      8.3904
   161.5000    102.3078      0.0000    861.2044      8.2762
   161.7500    100.3194      0.0000    861.1809      8.2147
   162.0000     98.3425      0.0000    861.3714      8.2116
   162.2500     97.2724      0.0000    862.0196      8.2443
   162.5000     97.3371      0.0000    863.7990      8.2882
   162.7500     97.7667      0.0000    867.8288      8.3389
   163.0000     97.1920      0.0000    875.1421      8.4066
   163.2500     95.0652      0.0000    885.6287      8.4902
   163.5000     92.5766      0.0000    897.4219      8.5612
   163.7500     91.4888      0.0000    907.7629      8.5853
   164.0000     92.2438      0.0000    914.7319      8.5570
   164.2500     93.7335      0.0000    918.0640      8.5067
   164.5000     94.7001      0.0000    918.4706      8.4717
