~Version Information
VERS.                      2.0: CWLS Log ASCII Standard - VERSION 2.0
WRAP.                       NO: One line per depth step
~Well Information Block
STRT.FT                -9.0000: 
STOP.FT              2518.0000: 
STEP.FT                 0.2500: 
NULL.                -999.2500: 
COMP.          Petrogulf Corporation: COMPANY
WELL.            Montoya 7-12V: WELL
FLD.           Purgatorie River: FIELD
LOC.           1764' FNL & 728' FWL: LOCATION
CNTY.               Las Animas: COUNTY
SRVC.                         : SERVICE COMPANY
DATE.          Mon Mar 08 16:11:04 2004: LOG DATE
UWI.           05-071-07887-00: UNIQUE WELL ID
STAT.                 Colorado: STATE
~Curve Information Block
DEPT.FT            0 000 00 00: Depth
GR.GAPI                       : Gamma Ray
CCL.                          : Casing Collar Locator
TT3.usec                      : CBL 3' Travel Time
AMP3.mV                       : CBL 3' Amplitude
~Parameter Information Block
~A  Depth        GR         CCL         TT3         AMP3    
# ...
   661.0000     81.3543      0.0000    269.9980     76.5203
   661.2500     77.5156      0.0000    269.9923     76.6104
   661.5000     74.2609      0.0000    269.9640     76.7448
   661.7500     72.7940      0.0000    269.8907     76.8816
   662.0000     72.9227      0.0000    269.7870     76.9627
   662.2500     73.1753      0.0000    269.7340     76.9401
   662.5000     72.0752      0.0000    269.7870     76.8215
   662.7500     69.4073      0.0000    269.8907     76.6801
   663.0000     66.4302      0.0000    269.9640     76.5740
   663.2500     64.8880      0.0000    269.9924     76.5112
   663.5000     65.7042      0.0000    269.9990     76.5138
   663.7500     68.4887      0.0000    269.9999     76.5960
   664.0000     72.0810      0.0000    270.0000     76.7069
   664.2500     75.6012      0.0000    270.0000     76.8056
   664.5000     79.2730      0.0000    270.0000     76.8978
   664.7500     84.2450      0.0000    270.0000     76.9839
   665.0000     91.2783      0.0000    270.0000     77.0565
   665.2500     99.4901      0.0000    270.0000     77.0831
   665.5000    106.6662      0.0000    270.0000     77.0252
   665.7500    111.0273      0.0000    270.0000     76.9471
   666.0000    112.7790      0.0000    270.0000     76.9432
   666.2500    114.0175      0.0000    270.0000     76.9677
   666.5000    117.0933      0.0000    269.9999     76.9267
   666.7500    122.7384      0.0000    269.9990     76.8415
   667.0000    129.4610      0.0000    269.9924     76.8049
   667.2500    134.8063      0.0000    269.9640     76.8740
   667.5000    137.5066      0.0000    269.8907     77.0333
   667.7500    138.4487      0.0000    269.7870     77.2146
   668.0000    139.3395      0.0000    269.7339     77.3471
   668.2500    140.5078      0.0000    269.7860     77.3834
   668.5000    140.4329      0.0000    269.8831     77.3147
   668.7500    137.5601      0.0000    269.9280     77.1756
   669.0000    132.2183      0.0000    269.8831     77.0258
   669.2500    126.4578      0.0000    269.7860     76.9185
   669.5000    122.3809      0.0000    269.7339     76.8390
   669.7500    121.0561      0.0000    269.7860     76.7230
   670.0000    122.7114      0.0000    269.8831     76.5832
   670.2500    127.1844      0.0000    269.9280     76.4785
   670.5000    133.8346      0.0000    269.8831     76.3948
   670.7500    141.2258      0.0000    269.7859     76.3158
   671.0000    147.3327      0.0000    269.7328     76.2942
   671.2500    150.4968      0.0000    269.7784     76.3471
   671.5000    150.4469      0.0000    269.8471     76.4170
   671.7500    148.4884      0.0000    269.8187     76.4649
   672.0000    146.6277      0.0000    269.6701     76.4832
   672.2500    146.2485      0.0000    269.5200     76.4465
   672.5000    147.3753      0.0000    269.5200     76.3652
   672.7500    149.0523      0.0000    269.6701     76.3000
   673.0000    150.4363      0.0000    269.8187     76.2541
   673.2500    151.4540      0.0000    269.8471     76.1911
   673.5000    152.4482      0.0000    269.7783     76.1498
   673.7500    153.5849      0.0000    269.7319     76.1936
   674.0000    154.8939      0.0000    269.7794     76.2912
   674.2500    156.4049      0.0000    269.8547     76.3583
   674.5000    157.7058      0.0000    269.8547     76.4000
   674.7500    157.7185      0.0000    269.7794     76.5005
   675.0000    155.4696      0.0000    269.7319     76.6555
   675.2500    150.9276      0.0000    269.7783     76.7277
   675.5000    144.8536      0.0000    269.8471     76.6403
   675.7500    138.2835      0.0000    269.8187     76.5053
   676.0000    132.3966      0.0000    269.6700     76.4760
   676.2500    128.5285      0.0000    269.5190     76.5576
   676.5000    127.9202      0.0000    269.5134     76.6355
   676.7500    131.1037      0.0000    269.6417     76.6403
   677.0000    137.0970      0.0000    269.7453     76.5956
   677.2500    143.3281      0.0000    269.7433     76.5318
   677.5000    147.1316      0.0000    269.7243     76.4508
   677.7500    147.6458      0.0000    269.7773     76.3893
   678.0000    145.9555      0.0000    269.8470     76.4138
   678.2500    143.5670      0.0000    269.8187     76.5174
   678.5000    141.2070      0.0000    269.6700     76.6200
   678.7500    138.7034      0.0000    269.5190     76.6783
   679.0000    135.4899      0.0000    269.5134     76.7039
   679.2500    131.5560      0.0000    269.6417     76.7088
   679.5000    128.1848      0.0000    269.7452     76.7050
   679.7500    127.2168      0.0000    269.7423     76.6953
   680.0000    129.1996      0.0000    269.7168     76.6531
   680.2500    132.4989      0.0000    269.7422     76.5637
   680.5000    134.4317      0.0000    269.7442     76.4497
   680.7500    133.3322      0.0000    269.6344     76.3240
   681.0000    129.6734      0.0000    269.4810     76.1264
   681.2500    125.4330      0.0000    269.4392     75.6585
   681.5000    122.5032      0.0000    269.6173     74.3755
   681.7500    121.5080      0.0000    270.1490     71.4187
   682.0000    121.5618      0.0000    271.1974     66.8028
   682.2500    120.9989      0.0000    272.6701     62.1916
   682.5000    118.9282      0.0000    274.1413     59.0749
   682.7500    116.4158      0.0000    275.2191     57.4691
   683.0000    115.7969      0.0000    275.8388     56.9833
   683.2500    118.4893     -5.0000    276.1483     57.2027
   683.5000    123.5840     -5.0000    276.2613     57.5750
   683.7500    128.7720      0.0000    276.2397     57.7245
   684.0000    132.5056      0.0000    276.1781     57.3550
   684.2500    134.9589      0.0000    276.1046     56.2257
   684.5000    137.0637      0.0000    275.8795     54.8175
   684.7500    139.2152      0.0000    275.3143     54.9262
   685.0000    140.9844      0.0000    274.3379     58.2911
   685.2500    141.5024      0.0000    273.0780     64.0223
   685.5000    139.9068      0.0000    271.8102     69.3341
   685.7500    135.9476      0.0000    270.7609     72.7515
   686.0000    130.5591      0.0000    270.0187     74.5228
   686.2500    125.6454      0.0000    269.6073     75.2755
   686.5000    123.0156      0.0000    269.5028     75.5287
   686.7500    123.3309      0.0000    269.5695     75.5712
   687.0000    125.8783      0.0000    269.6332     75.5134
   687.2500    129.2168      0.0000    269.6469     75.4480
   687.5000    132.1496      0.0000    269.6331     75.4367
   687.7500    134.3349      0.0000    269.5671     75.4723
   688.0000    136.1208      0.0000    269.4839     75.5206
   688.2500    137.7716      0.0000    269.5059     75.5500
   688.5000    138.8256      0.0000    269.6406     75.5479
   688.7500    138.3740      0.0000    269.7442     75.5161
   689.0000    136.0252      0.0000    269.7358     75.4605
   689.2500    132.3746      0.0000    269.6894     75.4145
   689.5000    128.4274      0.0000    269.6765     75.4176
   689.7500    124.7913      0.0000    269.6766     75.4531
   690.0000    121.4532      0.0000    269.6904     75.4815
   690.2500    118.1876      0.0000    269.7433     75.5014
   690.5000    115.4342      0.0000    269.7793     75.5170
   690.7500    115.0268      0.0000    269.7433     75.5205
   691.0000    119.5163      0.0000    269.6904     75.5336
   691.2500    129.7879      0.0000    269.6766     75.5896
   691.5000    143.0702      0.0000    269.6766     75.6719
   691.7500    153.9207      0.0000    269.6904     75.7156
   692.0000    157.7873      0.0000    269.7434     75.6884
   692.2500    153.7805      0.0000    269.7803     75.6330
   692.5000    144.4305      0.0000    269.7509     75.6007
   692.7500    133.5447      0.0000    269.7264     75.6126
   693.0000    124.2952      0.0000    269.7859     75.6710
   693.2500    118.4300      0.0000    269.8895     75.7440
   693.5000    116.4297      0.0000    269.9564     75.7982
   693.7500    117.9080      0.0000    269.9563     75.8391
   694.0000    121.6473      0.0000    269.8886     75.8632
   694.2500    125.7677      0.0000    269.7794     75.8429
