~Version Information
VERS.                      2.0: CWLS Log ASCII Standard - VERSION 2.0
WRAP.                       NO: One line per depth step
~Well Information Block
STRT.FT               946.8000: 
STOP.FT              2134.5000: 
STEP.FT                 0.1000: 
NULL.                -999.2500: 
COMP.          Petrogulf Corporation: COMPANY
WELL.             Valejo 8-12R: WELL
FLD.           Purgatorie River: FIELD
LOC.           1351'' FNL & 1562' FWL: LOCATION
CNTY.               Las Animas: COUNTY
SRVC.                         : SERVICE COMPANY
DATE.          Wed Apr 28 13:22:45 2004: LOG DATE
UWI.           05 071 08038 00: UNIQUE WELL ID
STAT.                 Colorado: STATE
~Curve Information Block
DEPT.FT            0 000 00 00: Depth
DCAL.in                       : CDL Caliper
RHOB.g/cc                     : CDL Bulk Density
RHOC.g/cc                     : CDL Density Correction
DPOR.pu                       : CDL Density Porosity
NPOR.pu                       : Neutron Porosity
GR.GAPI                       : Gamma Ray
~Parameter Information Block
~A  Depth       DCAL        RHOB        RHOC        DPOR        NPOR         GR     
# ...
  2022.0000      7.8334      2.6065      0.0491      2.6364     25.0143    130.9758
  2022.1000      7.8334      2.6350      0.0643      0.9094     25.2582    132.6393
  2022.2000      7.8334      2.6736      0.0818     -1.4284     25.8679    137.7934
  2022.3000      7.8423      2.6987      0.1411     -2.9535     26.3144    138.6485
  2022.4000      7.8423      2.6965      0.0854     -2.8169     26.1500    131.5380
  2022.5000      7.8337      2.6841      0.0246     -2.0641     25.9619    123.6078
  2022.6000      7.8337      2.6807      0.0941     -1.8612     26.3964    121.6968
  2022.7000      7.8337      2.6821      0.0679     -1.9430     26.9380    122.8037
  2022.8000      7.8336      2.6863      0.0328     -2.1982     26.8321    122.6872
  2022.9000      7.8336      2.6912      0.0643     -2.4982     26.1636    119.5534
  2023.0000      7.8333      2.6834      0.0297     -2.0221     25.4494    116.3480
  2023.1000      7.8333      2.6620      0.0146     -0.7284     24.7764    116.6705
  2023.2000      7.8333      2.6384      0.0101      0.7043     24.1543    116.7622
  2023.3000      7.8310      2.6203      0.0004      1.7976     23.7988    113.8560
  2023.4000      7.8310      2.6163      0.0147      2.0454     23.7114    109.7312
  2023.5000      7.8364      2.6266      0.0605      1.4175     23.6549    103.9302
  2023.6000      7.8364      2.6404      0.0349      0.5848     23.4501     96.9151
  2023.7000      7.8364      2.6501      0.0813     -0.0058     23.0574     92.8563
  2023.8000      7.8290      2.6578      0.0536     -0.4709     22.6576     91.5261
  2023.9000      7.8290      2.6697      0.0813     -1.1957     22.5230     89.2093
  2024.0000      7.8322      2.6807      0.1083     -1.8600     22.3321     84.3999
  2024.1000      7.8322      2.6826      0.0354     -1.9776     21.4466     78.5207
  2024.2000      7.8322      2.6758      0.0740     -1.5643     19.9937     74.8657
  2024.3000      7.8323      2.6521      0.0387     -0.1295     18.7679     71.5732
  2024.4000      7.8323      2.6146     -0.0189      2.1429     18.1001     64.5369
  2024.5000      7.8326      2.5805      0.0011      4.2111     17.8697     57.9203
  2024.6000      7.8326      2.5526     -0.0333      5.9049     17.9830     57.9223
  2024.7000      7.8326      2.5384     -0.0558      6.7613     18.1548     62.4385
  2024.8000      7.8317      2.5504      0.0140      6.0381     18.1756     66.0546
  2024.9000      7.8317      2.5740      0.0342      4.6053     18.1049     65.5825
  2025.0000      7.8332      2.5847      0.0386      3.9550     17.8160     61.8165
  2025.1000      7.8332      2.5817      0.0106      4.1391     17.2587     57.2242
  2025.2000      7.8332      2.5782      0.0668      4.3510     16.7438     53.3780
  2025.3000      7.8320      2.5743      0.0444      4.5885     16.5259     50.7240
  2025.4000      7.8320      2.5665      0.0571      5.0621     16.5972     50.3120
  2025.5000      7.8345      2.5596      0.0305      5.4796     16.6286     52.4581
  2025.6000      7.8345      2.5646      0.0003      5.1748     16.2817     55.8697
  2025.7000      7.8345      2.5853      0.0522      3.9201     15.8871     58.1115
  2025.8000      7.8318      2.6096      0.0613      2.4490     15.9084     58.4940
  2025.9000      7.8318      2.6214      0.0852      1.7330     16.1350     58.8745
  2026.0000      7.8307      2.6119      0.0870      2.3076     16.1349     58.6470
  2026.1000      7.8307      2.5960      0.0327      3.2709     16.0356     57.8616
  2026.2000      7.8307      2.5945      0.0570      3.3626     16.3419     59.6015
  2026.3000      7.8226      2.6001      0.0709      3.0255     17.0584     63.1806
  2026.4000      7.8226      2.6023      0.0272      2.8885     17.6242     66.9592
  2026.5000      7.8316      2.6054      0.0591      2.7007     17.9157     70.0409
  2026.6000      7.8316      2.6070      0.0565      2.6044     18.3367     71.1095
  2026.7000      7.8316      2.6081      0.0282      2.5416     18.7826     71.0825
  2026.8000      7.8335      2.6194      0.0500      1.8543     18.9898     72.0485
  2026.9000      7.8335      2.6325      0.0735      1.0612     19.1571     75.2710
  2027.0000      7.8325      2.6257      0.0557      1.4704     19.6740     82.0558
  2027.1000      7.8325      2.6018      0.0388      2.9187     20.5686     91.0900
  2027.2000      7.8325      2.5776      0.0292      4.3898     21.2801     97.1339
  2027.3000      7.8341      2.5677     -0.0259      4.9852     21.3215     98.2381
  2027.4000      7.8341      2.5820      0.0621      4.1213     20.8480     95.1395
  2027.5000      7.8335      2.6054      0.0635      2.7019     20.2671     89.2802
  2027.6000      7.8335      2.6167      0.0713      2.0187     19.7688     84.4158
  2027.7000      7.8335      2.6154      0.0563      2.0997     19.3902     85.5236
  2027.8000      7.8362      2.6102      0.0719      2.4136     19.0989     91.6349
  2027.9000      7.8362      2.6013      0.0711      2.9531     18.9127     92.6430
  2028.0000      7.8343      2.5858      0.0418      3.8901     18.7818     85.4938
  2028.1000      7.8343      2.5681      0.0278      4.9657     18.6782     78.1176
  2028.2000      7.8343      2.5494      0.0593      6.0960     18.5118     76.4203
  2028.3000      7.8360      2.5297      0.0280      7.2935     18.1644     82.2018
  2028.4000      7.8360      2.5209      0.0088      7.8230     17.9179     90.2795
  2028.5000      7.8352      2.5272      0.0495      7.4405     18.0380     89.5017
  2028.6000      7.8352      2.5368      0.0379      6.8607     18.1210     79.4380
  2028.7000      7.8352      2.5466      0.0330      6.2640     17.6888     71.0134
  2028.8000      7.8206      2.5557      0.0640      5.7126     17.1706     70.2760
  2028.9000      7.8206      2.5554      0.0042      5.7353     17.3736     75.1985
  2029.0000      7.8035      2.5407      0.0730      6.6227     18.0511     79.9428
  2029.1000      7.8035      2.5164      0.0151      8.0951     18.1594     79.6886
  2029.2000      7.8035      2.4986      0.0328      9.1777     17.2118     72.7984
  2029.3000      7.8292      2.4987      0.0152      9.1708     15.8683     60.7528
  2029.4000      7.8292      2.5076      0.0962      8.6314     15.1873     49.4510
  2029.5000      7.8335      2.5054      0.0567      8.7637     15.3538     44.4104
  2029.6000      7.8335      2.4921      0.0606      9.5706     15.6371     44.5635
  2029.7000      7.8335      2.4808      0.0503     10.2527     15.3760     46.1816
  2029.8000      7.8321      2.4789      0.0257     10.3686     14.6236     49.9605
  2029.9000      7.8321      2.4878      0.0530      9.8302     13.7917     54.9026
  2030.0000      7.8315      2.4978      0.0701      9.2256     13.1094     56.1416
  2030.1000      7.8315      2.4973      0.0375      9.2573     12.6811     54.0726
  2030.2000      7.8315      2.4906      0.0398      9.6587     12.6356     52.9121
  2030.3000      7.8358      2.4899      0.0665      9.7037     12.8514     52.6340
  2030.4000      7.8358      2.4916      0.0956      9.6004     12.9993     51.2759
  2030.5000      7.8220      2.4858      0.0278      9.9519     13.0685     49.1695
  2030.6000      7.8220      2.4819      0.0242     10.1863     13.2208     48.1697
  2030.7000      7.8220      2.4874      0.0737      9.8540     13.4100     49.1649
  2030.8000      7.8154      2.4907      0.0911      9.6543     13.6498     50.0992
  2030.9000      7.8154      2.4892      0.0446      9.7431     13.9877     49.9668
  2031.0000      7.8137      2.4924      0.0585      9.5521     14.1387     48.9757
  2031.1000      7.8137      2.4981      0.0799      9.2042     13.8256     46.0278
  2031.2000      7.8137      2.5070      0.0452      8.6694     13.2259     43.2223
  2031.3000      7.8156      2.5227      0.0815      7.7140     12.8643     43.3856
  2031.4000      7.8156      2.5290      0.1143      7.3304     12.9315     43.8107
  2031.5000      7.8209      2.5124      0.0747      8.3374     13.0419     42.7685
