~Version Information
VERS.                      2.0: CWLS Log ASCII Standard - VERSION 2.0
WRAP.                       NO: One line per depth step
~Well Information Block
STRT.FT               454.0000: 
STOP.FT              1389.0000: 
STEP.FT                 0.1000: 
NULL.                -999.2500: 
COMP.          Pioneer Natural Resources: COMPANY
WELL.          Lorencito 6-3-34-66: WELL
FLD.           Purgatoire River: FIELD
LOC.           2545' FNL & 1914' FWL: LOCATION
STAT.                 Colorado: State
CNTY.               Las Animas: COUNTY
CTRY. USA : Country
SECT. 3 : Section
TOWN. 34S : Township
RANG. 66W : Range
SRVC.                Patterson: SERVICE COMPANY
DATE.          Mon Sep 12 07:20:37 2005: LOG DATE
API.        05 071 08369 00: UNIQUE WELL ID
~Curve Information Block
DEPT.FT            0 000 00 00: Depth
DCAL.in                       : CDL Caliper
RHOB.g/cc                     : CDL Bulk Density
RHOC.g/cc                     : CDL Density Correction
DPOR.pu                       : CDL Density Porosity
GR.GAPI                       : Gamma Ray
NPOR.pu                       : Neutron Porosity
~Parameter Information Block
~A  Depth       DCAL        RHOB        RHOC        DPOR         GR         NPOR    
# ...
  1193.2000      8.0532      2.5837      0.0451      4.0172     45.3558     16.9223
  1193.3000      8.0553      2.5864      0.0665      3.8555     47.4551     16.6273
  1193.4000      8.0553      2.5740      0.0280      4.6085     50.8518     16.2593
  1193.5000      8.0696      2.5544      0.0296      5.7954     51.2740     16.1759
  1193.6000      8.0696      2.5438      0.0270      6.4350     50.6918     16.3300
  1193.7000      8.0696      2.5485      0.0388      6.1508     53.9568     16.5170
  1193.8000      8.0220      2.5602      0.0542      5.4423     58.0348     16.8667
  1193.9000      8.0220      2.5636      0.0846      5.2335     61.8967     17.7394
  1194.0000      8.0330      2.5536      0.0670      5.8428     68.5601     19.0087
  1194.1000      8.0330      2.5427      0.0505      6.5004     77.1694     20.3071
  1194.2000      8.0330      2.5448      0.0530      6.3733     84.3169     21.5529
  1194.3000      8.0273      2.5483      0.1131      6.1612     88.9607     22.8458
  1194.4000      8.0273      2.5241      0.0921      7.6294     94.0497     23.8617
  1194.5000      7.9950      2.4716      0.0748     10.8100    101.9552     24.1351
  1194.6000      7.9950      2.4237      0.0123     13.7143    109.0628     23.9679
  1194.7000      7.9950      2.4051     -0.0017     14.8421    113.1585     23.9840
  1194.8000      7.9577      2.4124      0.0451     14.3983    116.7688     23.9891
  1194.9000      7.9577      2.4335      0.0061     13.1185    119.9891     23.5085
  1195.0000      8.0274      2.4579      0.0833     11.6418    120.8408     23.2279
  1195.1000      8.0274      2.4755      0.0378     10.5781    120.6958     23.6883
  1195.2000      8.0274      2.4859      0.0931      9.9472    119.1888     24.2504
  1195.3000      8.0592      2.4954      0.0224      9.3668    114.2939     24.7762
  1195.4000      8.0592      2.5113      0.0540      8.4080    109.4333     25.9288
  1195.5000      8.0707      2.5223      0.0859      7.7395    109.0147     27.4759
  1195.6000      8.0707      2.5111      0.0769      8.4153    109.9414     28.2777
  1195.7000      8.0707      2.4865      0.0610      9.9065    108.1414     27.8039
  1195.8000      8.1134      2.4737      0.0196     10.6855    104.4831     26.5993
  1195.9000      8.1134      2.4864      0.0001      9.9165    103.3883     25.2037
  1196.0000      8.1142      2.5096      0.0345      8.5070    107.4544     23.9773
  1196.1000      8.1142      2.5173      0.0221      8.0411    114.1746     23.2830
  1196.2000      8.1142      2.5043      0.0165      8.8277    120.9770     22.8134
  1196.3000      8.0687      2.4883     -0.0471      9.7986    123.4749     22.1494
  1196.4000      8.0687      2.4877      0.0006      9.8378    118.2928     21.3827
  1196.5000      8.0502      2.5054      0.0087      8.7618    111.5702     20.9379
  1196.6000      8.0502      2.5311      0.0376      7.2080    110.2769     21.0705
  1196.7000      8.0502      2.5475      0.0635      6.2127    112.2321     21.5145
  1196.8000      8.0643      2.5481      0.0084      6.1782    113.5061     21.7365
  1196.9000      8.0643      2.5356      0.0900      6.9341    112.3734     21.6193
  1197.0000      8.0528      2.5137     -0.0120      8.2629    104.9910     21.8079
  1197.1000      8.0528      2.4959      0.0080      9.3387     92.5737     22.5455
  1197.2000      8.0528      2.4844      0.0322     10.0358     82.1460     23.1241
  1197.3000      8.0664      2.4690      0.0108     10.9710     80.3330     23.1923
  1197.4000      8.0664      2.4597     -0.0279     11.5339     88.1624     23.3733
  1197.5000      8.0791      2.4719      0.0084     10.7945     97.7647     24.2631
  1197.6000      8.0791      2.4899      0.0460      9.7036    101.1829     25.2814
  1197.7000      8.0791      2.4902      0.0237      9.6847    100.0517     25.4804
  1197.8000      8.0863      2.4753      0.0072     10.5860    100.1006     24.9000
  1197.9000      8.0863      2.4675      0.0098     11.0611    102.7727     24.3531
  1198.0000      8.0348      2.4819      0.0221     10.1864    104.5791     24.5612
  1198.1000      8.0348      2.5065      0.0660      8.6991    101.2187     25.5575
  1198.2000      8.0348      2.5225      0.0611      7.7247     96.6853     26.8341
  1198.3000      8.0496      2.5351      0.0495      6.9618     97.5203     27.2666
  1198.4000      8.0496      2.5501      0.0683      6.0539     98.2705     26.0265
  1198.5000      8.0487      2.5518      0.0881      5.9498     94.3634     24.1923
  1198.6000      8.0487      2.5289      0.0662      7.3410     92.9351     23.1698
  1198.7000      8.0487      2.4947      0.0438      9.4092     98.0642     23.1362
  1198.8000      8.0023      2.4765      0.0511     10.5169    104.5006     23.7104
  1198.9000      8.0023      2.4892      0.0606      9.7425    108.2806     24.4185
  1199.0000      8.0128      2.5203      0.0745      7.8609    109.0270     25.0110
  1199.1000      8.0128      2.5434      0.1070      6.4634    104.9870     25.6316
  1199.2000      8.0128      2.5478      0.0772      6.1941     97.8240     26.0929
  1199.3000      8.0058      2.5472      0.0664      6.2300     92.7230     25.8859
  1199.4000      8.0058      2.5565      0.0705      5.6692     92.1334     25.0917
  1199.5000      7.9740      2.5731      0.1230      4.6604     92.6248     24.0967
  1199.6000      7.9740      2.5860      0.0792      3.8772     90.5132     22.8172
  1199.7000      7.9740      2.5847      0.1030      3.9583     89.1785     21.8310
  1199.8000      8.0009      2.5639      0.0509      5.2178     92.1022     22.0381
  1199.9000      8.0009      2.5382      0.0414      6.7763     95.1926     22.6321
  1200.0000      8.0222      2.5228      0.0536      7.7082     96.2353     22.6684
  1200.1000      8.0222      2.5183      0.0038      7.9837     96.0891     22.3055
  1200.2000      8.0222      2.5229      0.0099      7.7014     91.9568     21.7512
  1200.3000      8.0640      2.5278      0.0654      7.4090     84.3601     21.5258
  1200.4000      8.0640      2.5269      0.0053      7.4626     79.2074     21.8611
  1200.5000      8.0706      2.5268      0.0679      7.4688     78.4985     22.5156
  1200.6000      8.0706      2.5320      0.0306      7.1517     81.0138     23.1726
  1200.7000      8.0706      2.5443      0.0106      6.4036     86.0585     23.2033
  1200.8000      8.1083      2.5515      0.0859      5.9716     90.3770     22.6748
  1200.9000      8.1083      2.5434      0.0537      6.4624     92.6223     22.2458
  1201.0000      8.0747      2.5364      0.0779      6.8877     95.8401     21.8388
  1201.1000      8.0747      2.5471      0.0530      6.2383     97.4579     21.4562
  1201.2000      8.0747      2.5636      0.1132      5.2347     93.5248     21.6760
  1201.3000      8.0424      2.5595      0.1190      5.4848     87.5367     22.3309
  1201.4000      8.0424      2.5344      0.0600      7.0038     82.5823     22.3192
  1201.5000      8.0411      2.5135      0.0391      8.2727     78.0818     21.8289
  1201.6000      8.0411      2.5094      0.0088      8.5241     75.5694     22.0089
  1201.7000      8.0411      2.5081      0.0298      8.6023     75.1754     22.7920
  1201.8000      8.0298      2.4861      0.0471      9.9307     74.6967     23.3868
  1201.9000      8.0298      2.4409      0.0424     12.6727     74.6674     23.6818
  1202.0000      8.0554      2.3907      0.0200     15.7179     77.3744     24.1204
  1202.1000      8.0554      2.3443      0.0080     18.5297     82.3218     24.7651
  1202.2000      8.0554      2.2903      0.0096     21.8005     84.2257     25.0204
  1202.3000      8.0417      2.2272     -0.0217     25.6262     81.8759     24.8803
  1202.4000      8.0417      2.1785     -0.0221     28.5783     78.9476     25.0127
  1202.5000      8.0411      2.1575      0.0348     29.8466     76.9197     25.5776
  1202.6000      8.0411      2.1375      0.1568     31.0617     76.7891     26.7419
  1202.7000      8.0411      2.0866      0.0749     34.1445     77.7068     28.5792
