~Version Information
VERS.                      2.0: CWLS Log ASCII Standard - VERSION 2.0
WRAP.                       NO: One line per depth step
~Well Information Block
STRT.FT               -11.2500: 
STOP.FT              1597.0000: 
STEP.FT                 0.2500: 
NULL.                -999.2500: 
COMP.          Petrogulf Corporation: COMPANY
WELL.          Great Plains 22-21R: WELL
FLD.           Purgatorie River: FIELD
LOC.           73' FNL & 1992' FWL--: LOCATION
PROV.                       CO: PROVINCE
CNTY.               Las Animas: COUNTRY
SRVC.          Patterson Wireline: SERVICE COMPANY
DATE.          Fri Sep 09 09:02:35 2005: LOG DATE
UWI.           05 071 08343 00: UNIQUE WELL ID
~Curve Information Block
DEPT.FT            0 000 00 00: Depth
CCL.                          : Casing Collar Locator
TT3.usec                      : CBL 3' Travel Time
AMP3.mV                       : CBL 3' Amplitude
GR.GAPI                       : Gamma Ray
~Parameter Information Block
~A  Depth       CCL         TT3         AMP3         GR     
# ...
   725.7500      0.0000    557.5728     16.1572     69.0001
   726.0000      0.0000    546.9615     15.6488     74.0178
   726.2500      0.0000    538.7690     15.2181     80.6436
   726.5000      0.0000    551.1425     14.8216     88.1979
   726.7500      0.0000    597.4064     14.4175     96.7994
   727.0000      0.0000    668.3891     14.0044    107.0527
   727.2500      0.0000    738.6859     13.6153    118.8147
   727.5000      0.0000    787.3163     13.2860    130.5523
   727.7500      0.0000    810.1032     13.0366    139.6313
   728.0000      0.0000    816.2786     12.8712    143.2013
   728.2500      0.0000    817.9795     12.7832    139.7799
   728.5000      0.0000    822.2111     12.7590    130.8583
   728.7500      0.0000    829.0788     12.7836    120.6787
   729.0000      0.0000    835.2090     12.8372    113.7856
   729.2500      0.0000    838.0474     12.8927    112.5248
   729.5000      0.0000    837.6201     12.9230    116.3479
   729.7500      0.0000    835.8186     12.9193    122.7421
   730.0000      0.0000    834.8546     12.9011    128.8371
   730.2500      0.0000    835.7994     12.9029    132.9025
   730.5000      0.0000    838.0948     12.9414    134.6942
   730.7500      0.0000    840.4249     12.9894    134.3184
   731.0000      0.0000    841.9412     12.9908    131.3092
   731.2500      0.0000    842.5973     12.9098    125.5469
   731.5000      0.0000    842.7249     12.7664    118.5700
   731.7500      0.0000    842.6236     12.6225    112.7858
   732.0000      0.0000    842.4696     12.5336    109.3258
   732.2500      0.0000    842.3632     12.5133    107.5802
   732.5000      0.0000    842.3563     12.5375    106.8424
   732.7500      0.0000    842.4630     12.5736    107.4231
   733.0000      0.0000    842.6710     12.6045    109.8894
   733.2500      0.0000    842.9672     12.6300    113.9590
   733.5000      0.0000    843.3624     12.6516    118.4867
   733.7500      0.0000    844.0068     12.6557    122.1226
   734.0000      0.0000    845.4073     12.6152    123.8334
   734.2500      0.0000    848.6217     12.5110    123.2800
   734.5000      0.0000    854.8231     12.3478    120.8901
   734.7500      0.0000    863.7267     12.1410    117.2958
   735.0000      0.0000    871.9020     11.8870    112.9854
   735.2500      0.0000    873.5316     11.5530    109.0130
   735.5000      0.0000    863.8817     11.0920    107.2535
   735.7500      0.0000    842.0563     10.4734    108.7505
   736.0000      0.0000    811.3672      9.7214    112.1422
   736.2500      0.0000    779.3204      8.9372    114.8190
   736.5000      0.0000    756.4792      8.2563    115.5033
   736.7500      0.0000    750.9177      7.7625    114.8913
   737.0000      0.0000    761.6301      7.4501    114.0495
   737.2500      0.0000    779.1336      7.2696    113.1995
   737.5000      0.0000    793.5869      7.1809    112.1057
   737.7500     -2.0000    802.1179      7.1599    110.7583
   738.0000      0.0000    809.3029      7.1874    109.3782
   738.2500      0.0000    821.4101      7.2568    108.4741
   738.5000      0.0000    838.7131      7.4034    109.2934
   738.7500      0.0000    852.6088      7.7184    113.1918
   739.0000      0.0000    852.4055      8.2955    119.5575
   739.2500      0.0000    836.3004      9.1205    125.1894
   739.5000      0.0000    813.7515     10.0248    127.0670
   739.7500      0.0000    796.3062     10.7954    125.4449
   740.0000      0.0000    788.0467     11.3296    123.3723
   740.2500      0.0000    785.1951     11.6669    123.6550
   740.5000      0.0000    782.2808     11.9029    127.0457
   740.7500      0.0000    777.0151     12.1106    132.6685
   741.0000      0.0000    770.3979     12.3202    138.9686
   741.2500      0.0000    764.2450     12.5377    144.1699
   741.5000      0.0000    759.7040     12.7700    146.5415
   741.7500      0.0000    757.7249     13.0274    144.8231
   742.0000      0.0000    759.5372     13.3031    138.8668
   742.2500      0.0000    765.5186     13.5607    130.0463
   742.5000      0.0000    773.6487     13.7545    120.5842
   742.7500      0.0000    780.2898     13.8489    112.1457
   743.0000      0.0000    783.6167     13.8107    105.4192
   743.2500      0.0000    785.4827     13.5953    101.0716
   743.5000      0.0000    788.4802     13.1595    100.2589
   743.7500      0.0000    792.0090     12.4858    103.6171
   744.0000      0.0000    792.9135     11.5906    110.0829
   744.2500      0.0000    789.2277     10.5270    117.2017
   744.5000      0.0000    781.8353      9.3876    122.7096
   744.7500      0.0000    773.0300      8.2852    125.7926
   745.0000      0.0000    764.5485      7.3002    126.8323
   745.2500      0.0000    756.6755      6.4448    126.0164
   745.5000      0.0000    748.4447      5.6874    122.5691
   745.7500      0.0000    738.5961      5.0059    115.5616
   746.0000      0.0000    726.4890      4.4085    105.1980
   746.2500      0.0000    712.0618      3.9115     92.9943
   746.5000      0.0000    695.5215      3.5171     80.8773
   746.7500      0.0000    678.0948      3.2158     70.3542
   747.0000      0.0000    663.1218      2.9997     62.2184
   747.2500      0.0000    655.3185      2.8679     56.5711
   747.5000      0.0000    658.0223      2.8207     53.2655
   747.7500      0.0000    670.6720      2.8541     52.7283
   748.0000      0.0000    688.7027      2.9635     56.1706
   748.2500      0.0000    706.1091      3.1509     64.5565
   748.5000      0.0000    718.7561      3.4248     77.2928
   748.7500      0.0000    725.9881      3.7956     91.9812
   749.0000      0.0000    730.0726      4.2769    105.5509
   749.2500      0.0000    734.4110      4.8897    116.0066
   749.5000      0.0000    741.1247      5.6523    123.4053
   749.7500      0.0000    749.2893      6.5532    128.9889
   750.0000      0.0000    756.1591      7.5335    133.3571
   750.2500      0.0000    760.7050      8.5050    135.7737
   750.5000      0.0000    764.6554      9.3960    135.2141
   750.7500      0.0000    769.1745     10.1810    131.5234
   751.0000      0.0000    772.3099     10.8702    125.2805
   751.2500      0.0000    771.6985     11.4712    117.1151
   751.5000      0.0000    768.5997     11.9670    107.8651
   751.7500      0.0000    766.7594     12.3267     99.1595
   752.0000      0.0000    767.8064     12.5352     92.9022
   752.2500      0.0000    770.0156     12.6104     89.8865
   752.5000      0.0000    771.2137     12.5984     89.5718
   752.7500      0.0000    770.9822     12.5537     91.3318
   753.0000      0.0000    770.0942     12.5139     94.9999
   753.2500      0.0000    769.2332     12.4877     99.7514
   753.5000      0.0000    768.6220     12.4683    103.4298
   753.7500      0.0000    768.2983     12.4551    103.9869
   754.0000      0.0000    768.4011     12.4526    101.5544
   754.2500      0.0000    769.2781     12.4534     98.7045
   754.5000      0.0000    771.2279     12.4383     98.6142
   754.7500      0.0000    773.9078     12.3977    102.7767
   755.0000      0.0000    776.1824     12.3445    110.0263
   755.2500      0.0000    777.2069     12.3030    117.4506
   755.5000      0.0000    777.6401     12.2968    122.1089
   755.7500      0.0000    778.7678     12.3429    122.2700
   756.0000      0.0000    780.2374     12.4411    118.0833
   756.2500      0.0000    779.9111     12.5622    111.7912
   756.5000      0.0000    776.7082     12.6620    106.9041
   756.7500      0.0000    772.9954     12.7147    106.1361
   757.0000      0.0000    773.3742     12.7292    109.4390
   757.2500      0.0000    780.7805     12.7257    113.9361
   757.5000      0.0000    793.4685     12.7038    116.0416
   757.7500      0.0000    805.5861     12.6342    114.0670
   758.0000      0.0000    810.6161     12.4695    109.3155
   758.2500      0.0000    804.5877     12.1593    104.9424
   758.5000      0.0000    787.0684     11.6653    103.4619
   758.7500      0.0000    760.8535     10.9773    104.8738
   759.0000      0.0000    731.4641     10.1238    107.0159
