~Version Information
 VERS.                                  2.0 : CWLS LAS VERSION
 WRAP.                                   NO : WRAPING MODE
 SWARE .                 MController 2.5.0I : SOFTWARE VERSION
~Well Information
 WELL.                        Montoya 7-21v : WELL
 COMP.                       Petrogulf Corp : COMPANY
 FLD.                      Purgatorie River : FIELD
 LOC.                 NE/NW Sec 7 T33S R67W : LOCATION
 DATE.                                  N/A : DATE(S) LOGGED
 SRVC.       Blanco Geological Services LLC : SERVICE COMPANY
 STAT.                                   CO : STATE
 CNTY.                           Las Animas : COUNTY
 CTRY.                                  USA : COUNTRY
 API.                       05-071-08018-00 : API NUMBER
 STRT.FT                             836.00 : START DEPTH
 STOP.FT                            2421.00 : STOP DEPTH
 STEP.FT                               1.00 : DEPTH INCREMENT
 NULL.                                -9999 : NULL VALUE
~Curve information
 DEPTH.FT                                   :
 ROP.MIN/FT                                 :
 GAS.UNITS                                  :
~ASCII Log data
# ...
      2236.0          0.4         27.1 
      2237.0          0.4         26.8 
      2238.0          0.3         26.7 
      2239.0          0.4         26.8 
      2240.0          0.4         27.0 
      2241.0          0.4         27.3 
      2242.0          0.3         29.7 
      2243.0          0.4         34.1 
      2244.0          0.3         34.0 
      2245.0          0.3         31.3 
      2246.0          0.3         29.9 
      2247.0          0.3         28.6 
      2248.0          0.3         27.7 
      2249.0          5.4        101.4 
      2250.0          0.3         75.2 
      2251.0          0.4         40.9 
      2252.0          0.3         19.2 
      2253.0          0.4         19.4 
      2254.0          0.4         23.9 
      2255.0          0.5         25.9 
      2256.0          0.5         28.2 
      2257.0          0.5         30.2 
      2258.0          0.4         31.6 
      2259.0          0.2         32.1 
      2260.0          0.2         32.3 
      2261.0          0.3         32.2 
      2262.0          0.4         32.6 
      2263.0          0.4         32.8 
      2264.0          0.4         38.6 
      2265.0          0.5         58.0 
      2266.0          0.4         54.9 
      2267.0          0.4         39.4 
      2268.0          0.4         32.5 
      2269.0          0.5         31.0 
      2270.0          0.4         31.0 
      2271.0          0.4         30.4 
      2272.0          0.5         29.4 
      2273.0          0.4         28.8 
      2274.0          0.4         28.3 
      2275.0          0.4         27.7 
      2276.0          0.4         27.3 
      2277.0          0.5         27.1 
      2278.0          0.5         26.9 
      2279.0          4.8        105.3 
      2280.0          0.1         94.8 
      2281.0          0.3         89.4 
      2282.0          0.5         51.2 
      2283.0          0.5         17.8 
      2284.0          0.5         20.4 
      2285.0          0.5         24.0 
      2286.0          0.6         25.5 
      2287.0          0.6         27.6 
      2288.0          0.7         30.5 
      2289.0          0.7         31.3 
      2290.0          0.6         31.3 
      2291.0          0.5         29.9 
      2292.0          0.5         28.6 
      2293.0          0.5         27.6 
      2294.0          0.4         26.4 
      2295.0          0.5         25.8 
      2296.0          0.5         24.5 
      2297.0          0.5         24.4 
      2298.0          0.5         24.6 
      2299.0          0.6         24.9 
      2300.0          0.8         25.0 
      2301.0          0.5         24.8 
      2302.0          0.4         24.5 
      2303.0          0.4         24.9 
      2304.0          0.3         24.7 
      2305.0          0.2         24.2 
      2306.0          0.2         24.1 
      2307.0          0.2         23.8 
      2308.0          0.1         23.8 
      2309.0          5.6        105.7 
      2310.0          0.3         95.0 
      2311.0          0.4         67.1 
      2312.0          0.4         31.1 
      2313.0          0.3         18.4 
      2314.0          0.2         20.7 
      2315.0          0.4         26.9 
      2316.0          0.4         29.0 
      2317.0          0.4         29.7 
      2318.0          0.4         36.5 
      2319.0          0.8         39.4 
      2320.0          0.8         35.8 
      2321.0          0.6         35.2 
      2322.0          0.4         35.1 
      2323.0          0.4         34.5 
      2324.0          0.4         33.7 
      2325.0          0.4         33.9 
      2326.0          0.4         31.2 
      2327.0          0.4         28.8 
      2328.0          0.4         27.5 
      2329.0          0.4         25.8 
      2330.0          0.5         25.3 
      2331.0          0.4         25.9 
      2332.0          0.4         27.0 
      2333.0          0.4         28.0 
      2334.0          0.5         28.7 
      2335.0          0.5         28.1 
      2336.0          0.4         27.2 
      2337.0          0.5         25.9 
      2338.0          0.5         24.8 
      2339.0          5.4        107.5 
      2340.0          0.3         90.6 
      2341.0          0.4         54.0 
      2342.0          0.4         20.8 
      2343.0          0.4         16.9 
      2344.0          0.5         27.2 
      2345.0          0.5         27.8 
      2346.0          0.5         27.2 
      2347.0          0.6         28.1 
      2348.0          0.6         29.7 
      2349.0          0.6         30.2 
      2350.0          0.4         29.7 
      2351.0          0.5         29.4 
      2352.0          0.5         28.9 
      2353.0          0.5         27.3 
      2354.0          0.4         26.4 
      2355.0          0.4         25.8 
      2356.0          0.4         25.2 
      2357.0          0.4         24.2 
      2358.0          0.4         24.2 
      2359.0          0.4         24.6 
      2360.0          0.5         25.4 
      2361.0          0.4         25.3 
      2362.0          0.5         25.8 
      2363.0          0.5         25.5 
      2364.0          0.5         25.4 
      2365.0          0.4         24.9 
      2366.0          0.5         24.1 
      2367.0          0.6         23.9 
      2368.0          0.6         24.4 
      2369.0          5.5        101.3 
      2370.0          0.2         78.9 
      2371.0          0.4         53.3 
      2372.0          0.4         21.8 
      2373.0          0.4         16.9 
      2374.0          0.4         22.6 
      2375.0          0.6         24.5 
      2376.0          0.4         25.5 
      2377.0          0.4         26.7 
      2378.0          0.5         28.2 
      2379.0          0.6         28.4 
      2380.0          0.5         27.7 
      2381.0          0.5         27.7 
      2382.0          0.5         27.4 
      2383.0          0.6         26.9 
      2384.0          0.7         25.4 
      2385.0          0.7         24.4 
      2386.0          0.6         24.1 
      2387.0          0.5         23.9 
      2388.0          0.5         24.0 
      2389.0          0.5         24.6 
      2390.0          0.5         24.7 
      2391.0          0.5         24.7 
      2392.0          0.4         24.3 
      2393.0          0.5         24.0 
      2394.0          0.4         23.6 
      2395.0          0.5         23.7 
      2396.0          0.4         23.6 
      2397.0          0.5         23.9 
      2398.0          0.5         24.1 
      2399.0          5.6        113.8 
      2400.0          0.3         93.6 
      2401.0          0.4         50.4 
      2402.0          0.4         19.8 
      2403.0          0.4         15.4 
      2404.0          0.4         23.9 
      2405.0          0.4         28.4 
      2406.0          0.4         28.4 
      2407.0          0.4         27.7 
      2408.0          0.4         28.4 
      2409.0          0.5         28.9 
      2410.0          0.4         28.5 
      2411.0          0.5         27.5 
      2412.0          0.5         26.9 
      2413.0          0.4         26.4 
      2414.0          0.5         26.2 
      2415.0          0.4         25.9 
      2416.0          0.6         25.1 
      2417.0          0.6         24.9 
      2418.0          0.6         23.8 
      2419.0          0.5         23.5 
      2420.0          0.4         23.5 
      2421.0         20.2         33.5 
