~Version Information
VERS.                      2.0: CWLS Log ASCII Standard - VERSION 2.0
WRAP.                       NO: One line per depth step
~Well Information Block
STRT.FT                 0.5000: 
STOP.FT              2744.2500: 
STEP.FT                 0.2500: 
NULL.                -999.2500: 
COMP.          Petrogulf Corporation: COMPANY
WELL.              Silva 1-43V: WELL
FLD.           Purgatoire River: FIELD
LOC.           2010' FSL & 614' FEL--: LOCATION
PROV.                 Colorado: PROVINCE
CNTY.               Las Animas: COUNTRY
SRVC.                Patterson: SERVICE COMPANY
DATE.          Mon Sep 12 10:37:12 2005: LOG DATE
UWI.           05 071 08371 00: UNIQUE WELL ID
~Curve Information Block
DEPT.FT            0 000 00 00: Depth
CCL.                          : Casing Collar Locator
TT3.usec                      : CBL 3' Travel Time
AMP3.mV                       : CBL 3' Amplitude
GR.GAPI                       : Gamma Ray
~Parameter Information Block
~A  Depth       CCL         TT3         AMP3         GR     
# ...
  1273.5000      0.0000    697.0566      4.8177     68.3557
  1273.7500      0.0000    698.6697      5.0429     67.9123
  1274.0000      0.0000    701.0469      5.2620     68.4835
  1274.2500      0.0000    703.2308      5.4592     69.8755
  1274.5000      0.0000    703.8738      5.6149     71.3954
  1274.7500      0.0000    702.8829      5.7113     72.7675
  1275.0000      0.0000    703.0054      5.7625     74.5804
  1275.2500      0.0000    710.0526      5.8299     77.8276
  1275.5000      0.0000    731.1362      5.9814     82.8466
  1275.7500      0.0000    770.4940      6.2255     88.5042
  1276.0000      0.0000    824.0605      6.4952     92.5589
  1276.2500      0.0000    878.5148      6.7040     93.2198
  1276.5000      0.0000    919.1677      6.8079     90.5887
  1276.7500      0.0000    939.6064      6.8126     86.6308
  1277.0000      0.0000    941.0237      6.7324     83.7440
  1277.2500      0.0000    923.7756      6.5620     83.1960
  1277.5000      0.0000    886.6218      6.2910     84.5653
  1277.7500      0.0000    835.6517      5.9341     86.3661
  1278.0000      0.0000    787.1909      5.5386     87.2765
  1278.2500      0.0000    757.8213      5.1651     87.1715
  1278.5000      0.0000    752.8840      4.8617     87.2097
  1278.7500      0.0000    764.1765      4.6458     88.7643
  1279.0000      0.0000    776.7366      4.5040     92.0842
  1279.2500      0.0000    779.3077      4.4096     96.0769
  1279.5000      0.0000    770.9158      4.3437     99.4397
  1279.7500      0.0000    758.4009      4.3021    101.7825
  1280.0000      0.0000    748.5728      4.2812    103.5938
  1280.2500      0.0000    743.5497      4.2645    105.5581
  1280.5000      0.0000    741.7068      4.2288    108.4227
  1280.7500      0.0000    740.3768      4.1597    113.1544
  1281.0000      0.0000    737.3589      4.0585    120.2051
  1281.2500      0.0000    731.5961      3.9365    128.2791
  1281.5000      0.0000    723.8969      3.8097    134.4065
  1281.7500      0.0000    717.0451      3.7006    135.8297
  1282.0000      0.0000    714.3589      3.6353    131.9272
  1282.2500      0.0000    717.3676      3.6310    124.3596
  1282.5000      0.0000    724.7714      3.6870    115.7223
  1282.7500      0.0000    733.5851      3.7881    108.2934
  1283.0000      0.0000    740.8517      3.9176    103.6829
  1283.2500      0.0000    744.2186      4.0673    102.9286
  1283.5000      0.0000    742.0056      4.2377    106.2614
  1283.7500      0.0000    733.9950      4.4366    112.5393
  1284.0000      0.0000    722.0611      4.6781    119.2568
  1284.2500      0.0000    709.2381      4.9760    123.7271
  1284.5000      0.0000    698.1965      5.3289    124.6825
  1284.7500      0.0000    690.8705      5.7080    122.9218
  1285.0000      0.0000    688.8153      6.0651    120.4942
  1285.2500      0.0000    692.6917      6.3573    119.2141
  1285.5000      0.0000    701.1311      6.5692    119.4678
  1285.7500      0.0000    710.9084      6.7129    119.9733
  1286.0000      0.0000    718.9998      6.8105    118.9191
  1286.2500      0.0000    724.1229      6.8786    115.9766
  1286.5000      0.0000    725.8132      6.9274    113.2202
  1286.7500      0.0000    723.1114      6.9627    113.4598
  1287.0000      0.0000    715.6874      6.9836    117.4866
  1287.2500      0.0000    705.7115      6.9848    123.3754
  1287.5000      0.0000    696.8903      6.9658    128.5266
  1287.7500      0.0000    691.3140      6.9371    131.7557
  1288.0000      0.0000    688.1350      6.9122    133.4604
  1288.2500      0.0000    685.4189      6.9009    134.9040
  1288.5000      0.0000    682.3585      6.9100    137.8380
  1288.7500      0.0000    679.4152      6.9451    143.7190
  1289.0000      0.0000    677.2413      7.0082    152.0403
  1289.2500      0.0000    676.2380      7.0972    159.7016
  1289.5000      0.0000    677.0334      7.2103    163.0858
  1289.7500      0.0000    680.8330      7.3542    161.0907
  1290.0000      0.0000    688.7944      7.5418    155.7934
  1290.2500      0.0000    700.6399      7.7785    150.2591
  1290.5000      0.0000    713.9896      8.0466    146.0938
  1290.7500      0.0000    725.3764      8.3057    142.9505
  1291.0000      0.0000    731.8174      8.5087    139.8239
  1291.2500     -2.0000    731.6102      8.6276    136.5073
  1291.5000      0.0000    725.2129      8.6689    133.8337
  1291.7500      0.0000    716.5877      8.6708    132.6385
  1292.0000      0.0000    712.3820      8.6808    132.9583
  1292.2500      0.0000    717.5567      8.7326    134.5290
  1292.5000      0.0000    731.0726      8.8407    137.3525
  1292.7500      0.0000    746.2585      9.0125    141.0421
  1293.0000      0.0000    755.8571      9.2503    144.1952
  1293.2500      0.0000    757.1497      9.5268    145.3517
  1293.5000      0.0000    752.4770      9.7534    144.3402
  1293.7500      0.0000    745.4688      9.8121    142.0635
  1294.0000      0.0000    738.2386      9.6751    139.2673
  1294.2500      0.0000    733.1703      9.4946    136.0980
  1294.5000      0.0000    735.0222      9.5050    132.5709
  1294.7500      0.0000    746.9982      9.8085    128.7784
  1295.0000      0.0000    764.0780     10.3036    124.7577
  1295.2500      2.0000    774.7739     10.8155    120.7091
  1295.5000      0.0000    773.0571     11.2225    117.3710
  1295.7500      2.0000    766.3928     11.4753    115.7508
  1296.0000      0.0000    768.2910     11.5720    116.2964
  1296.2500      0.0000    783.6290     11.5296    118.5067
  1296.5000      0.0000    803.6496     11.3590    121.4744
  1296.7500      0.0000    814.7922     11.0747    124.5558
  1297.0000      0.0000    810.6589     10.7127    127.2638
  1297.2500      0.0000    795.6328     10.3042    128.8926
  1297.5000      0.0000    778.7953      9.8423    128.7812
  1297.7500      0.0000    765.9260      9.3206    126.8814
  1298.0000      0.0000    757.1314      8.7786    123.8860
  1298.2500      0.0000    750.5846      8.2703    120.9776
  1298.5000      0.0000    746.2074      7.8178    119.4044
  1298.7500      0.0000    744.3250      7.4292    119.9335
  1299.0000      0.0000    742.2964      7.1243    122.5503
  1299.2500      0.0000    735.6765      6.9128    126.5340
  1299.5000      0.0000    723.3438      6.7725    130.6432
  1299.7500      0.0000    709.5443      6.6681    133.5737
  1300.0000      0.0000    699.8889      6.5818    134.8699
  1300.2500      0.0000    696.2729      6.5169    135.2740
  1300.5000      0.0000    696.1898      6.4821    135.7474
  1300.7500      0.0000    696.1795      6.4789    136.3653
  1301.0000      0.0000    695.0540      6.5010    136.4209
  1301.2500      0.0000    693.8751      6.5412    135.2272
  1301.5000      0.0000    693.5594      6.5955    132.5892
  1301.7500      0.0000    693.2084      6.6637    129.0089
  1302.0000      0.0000    691.0410      6.7466    125.8574
  1302.2500      0.0000    686.5558      6.8405    124.9322
  1302.5000      0.0000    681.0569      6.9348    127.1259
  1302.7500      0.0000    676.0702      7.0164    131.3541
  1303.0000      0.0000    671.8679      7.0765    134.9646
  1303.2500      0.0000    667.6304      7.1138    135.3647
  1303.5000      0.0000    662.8523      7.1330    131.5352
  1303.7500      0.0000    658.6039      7.1388    124.3207
  1304.0000      0.0000    657.1865      7.1299    115.4926
  1304.2500      0.0000    659.9869      7.0988    106.6429
  1304.5000      0.0000    665.8965      7.0398     98.8857
  1304.7500      0.0000    672.6227      6.9585     93.0808
  1305.0000      0.0000    679.0301      6.8716     89.7727
  1305.2500      0.0000    684.7943      6.7970     88.9504
  1305.5000      0.0000    688.0386      6.7476     89.9847
  1305.7500      0.0000    685.5744      6.7324     91.5405
  1306.0000      0.0000    676.8014      6.7562     91.5617
  1306.2500      0.0000    666.0019      6.8104     87.9273
  1306.5000      0.0000    659.0395      6.8696     79.7468
  1306.7500      0.0000    658.2426      6.9054     68.3324
