~Version Information
VERS.                      2.0: CWLS Log ASCII Standard - VERSION 2.0
WRAP.                       NO: One line per depth step
~Well Information Block
STRT.FT               -10.0000: 
STOP.FT              2297.5000: 
STEP.FT                 0.2500: 
NULL.                -999.2500: 
COMP.          Pioneer Natural Resources: COMPANY
WELL.              Bobsy 34-11: WELL
FLD.           Purgatorie River: FIELD
LOC.           1937' FEL & 451' FSL----------: LOCATION
PROV.                       CO: PROVINCE
CNTY.               Las Animas: COUNTRY
SRVC.          Patterson Wireline: SERVICE COMPANY
DATE.          Mon Apr 18 09:37:11 2005: LOG DATE
UWI.           05 071 08330 00: UNIQUE WELL ID
~Curve Information Block
DEPT.FT            0 000 00 00: Depth
CCL.                          : Casing Collar Locator
TT3.usec                      : CBL 3' Travel Time
AMP3.mV                       : CBL 3' Amplitude
GR.GAPI                       : Gamma Ray
~Parameter Information Block
~A  Depth       CCL         TT3         AMP3         GR     
# ...
   593.0000      0.0000    714.4730      5.4219    104.7293
   593.2500      0.0000    706.4170      5.4099    104.0594
   593.5000      0.0000    696.8044      5.4416    103.8684
   593.7500      0.0000    688.7909      5.5104    105.4517
   594.0000      0.0000    687.0275      5.5974    109.6142
   594.2500      0.0000    693.7433      5.6802    115.7205
   594.5000      0.0000    706.0545      5.7394    121.9034
   594.7500      0.0000    718.4731      5.7569    126.0922
   595.0000      0.0000    727.4548      5.7143    127.1172
   595.2500      0.0000    732.8737      5.5949    125.2355
   595.5000      0.0000    736.6038      5.3899    121.6987
   595.7500      0.0000    741.3279      5.1109    117.8547
   596.0000      0.0000    750.2688      4.7987    114.5609
   596.2500      0.0000    766.0977      4.5189    112.1272
   596.5000      0.0000    788.3347      4.3406    110.5362
   596.7500      0.0000    811.5438      4.3089    109.7169
   597.0000      0.0000    827.1602      4.4242    109.7845
   597.2500      0.0000    828.3798      4.6388    111.0451
   597.5000      0.0000    814.1945      4.8802    113.6776
   597.7500      0.0000    789.5789      5.0887    117.3463
   598.0000      0.0000    761.9921      5.2418    121.0098
   598.2500      0.0000    736.9879      5.3482    123.2031
   598.5000      0.0000    716.2430      5.4250    122.9827
   598.7500      0.0000    698.7809      5.4783    120.9239
   599.0000      0.0000    683.2447      5.4979    118.8501
   599.2500      0.0000    669.3251      5.4599    118.1747
   599.5000      0.0000    658.1985      5.3341    118.6235
   599.7500      0.0000    652.0980      5.1020    118.7703
   600.0000      0.0000    653.0222      4.7825    117.5412
   600.2500      0.0000    661.3411      4.4448    114.9685
   600.5000      0.0000    675.2889      4.1848    111.7711
   600.7500      0.0000    691.5763      4.0768    108.6260
   601.0000      0.0000    706.7010      4.1362    105.8292
   601.2500      0.0000    718.2944      4.3221    103.3786
   601.5000      0.0000    725.9097      4.5667    101.1972
   601.7500      0.0000    730.9916      4.8072     99.2075
   602.0000      0.0000    736.4159      5.0045     97.2770
   602.2500      0.0000    745.8849      5.1477     95.3524
   602.5000      0.0000    762.4678      5.2465     93.6601
   602.7500      0.0000    785.9428      5.3143     92.4658
   603.0000      0.0000    810.8934      5.3539     91.6094
   603.2500      0.0000    828.3893      5.3516     90.7014
   603.5000      0.0000    831.0569      5.2830     89.7627
   603.7500      0.0000    817.8535      5.1285     89.2229
   604.0000      0.0000    794.9564      4.8965     89.2406
   604.2500      0.0000    772.0208      4.6460     89.2981
   604.5000      0.0000    756.8264      4.4765     88.5580
   604.7500      0.0000    752.3907      4.4672     86.5217
   605.0000      0.0000    757.3526      4.6073     83.3706
   605.2500      0.0000    767.4885      4.7865     80.0067
   605.5000      0.0000    777.4156      4.8622     77.8402
   605.7500      0.0000    782.8114      4.7484     77.9722
   606.0000      0.0000    782.1320      4.4616     79.9939
   606.2500      0.0000    776.5334      4.1009     81.7716
   606.5000      0.0000    768.4954      3.7818     80.9841
   606.7500      0.0000    760.4936      3.5745     77.0864
   607.0000      0.0000    754.3232      3.4877     71.7753
   607.2500      0.0000    750.7958      3.4916     67.7453
   607.5000      0.0000    749.3892      3.5476     66.9130
   607.7500      0.0000    748.4454      3.6272     69.3645
   608.0000      0.0000    746.4446      3.7211     73.6987
   608.2500      0.0000    743.0976      3.8376     78.2686
   608.5000      0.0000    738.9124      3.9930     82.0753
   608.7500      0.0000    734.0253      4.1959     84.6840
   609.0000      0.0000    728.0941      4.4354     85.8157
   609.2500      0.0000    721.4213      4.6805     85.5257
   609.5000      0.0000    715.7643      4.8909     84.7801
   609.7500      0.0000    713.5047      5.0293     85.1877
   610.0000      0.0000    715.7021      5.0706     87.5950
   610.2500      0.0000    721.1482      5.0102     91.1731
   610.5000      0.0000    727.6774      4.8664     94.2448
   610.7500      0.0000    734.5659      4.6720     95.7074
   611.0000      0.0000    743.6529      4.4645     95.4946
   611.2500      0.0000    757.9719      4.2876     94.2326
   611.5000      0.0000    778.7416      4.1953     92.7215
   611.7500      0.0000    803.1613      4.2274     91.5087
   612.0000      0.0000    825.1761      4.3620     90.9409
   612.2500      0.0000    839.1265      4.4995     91.4086
   612.5000      0.0000    843.7228      4.5263     92.9375
   612.7500      0.0000    843.1609      4.4123     94.6331
   613.0000      0.0000    843.8035      4.2372     95.2177
   613.2500      0.0000    848.7215      4.1169     94.1060
   613.5000      0.0000    855.3911      4.1094     91.6425
   613.7500      0.0000    858.9581      4.1911     88.6180
   614.0000      0.0000    857.0960      4.3053     86.0009
   614.2500      0.0000    851.3015      4.4195     84.8920
   614.5000      0.0000    844.5569      4.5402     86.1942
   614.7500      0.0000    839.3121      4.6878     89.9975
   615.0000      0.0000    837.3607      4.8677     95.1999
   615.2500      0.0000    839.4622      5.0611     99.8292
   615.5000      0.0000    844.3426      5.2319    101.9857
   615.7500      0.0000    849.3622      5.3370    100.6928
   616.0000      0.0000    852.6163      5.3400     95.9704
   616.2500      0.0000    853.8823      5.2330     88.4455
   616.5000      0.0000    853.7400      5.0592     79.3718
   616.7500      0.0000    852.4224      4.9115     70.8679
   617.0000      0.0000    849.4606      4.8892     65.1907
   617.2500      0.0000    843.9117      5.0328     63.0280
   617.5000      0.0000    834.7672      5.2953     62.7611
   617.7500      0.0000    821.7767      5.5754     61.9735
   618.0000      0.0000    806.5066      5.7781     59.6298
   618.2500      0.0000    792.3819      5.8455     56.5313
   618.5000      0.0000    783.1071      5.7578     54.0642
   618.7500      0.0000    781.1381      5.5436     53.1096
   619.0000      0.0000    786.9396      5.2877     53.8318
   619.2500      0.0000    797.9903      5.0978     55.7016
   619.5000      0.0000    808.8619      5.0435     57.6725
   619.7500      2.0000    814.3773      5.1200     58.9269
   620.0000      2.0000    812.9475      5.2625     59.5750
   620.2500      0.0000    806.3232      5.4004     60.3183
   620.5000      0.0000    797.6183      5.5078     61.4987
   620.7500      0.0000    790.4913      5.6005     62.8301
   621.0000      0.0000    788.2566      5.6839     64.0929
   621.2500      0.0000    792.0466      5.7238     65.9240
   621.5000      0.0000    800.1321      5.6828     69.8900
   621.7500      0.0000    809.3574      5.5636     77.5818
   622.0000      0.0000    817.0681      5.3947     89.1136
   622.2500      0.0000    822.1594      5.1924    102.2197
   622.5000      0.0000    825.0584      4.9603    113.1150
   622.7500      0.0000    827.1417      4.7188    118.7415
   623.0000      0.0000    830.0441      4.5161    118.5540
   623.2500      0.0000    834.9619      4.4048    114.3969
   623.5000      0.0000    841.9167      4.4077    108.7771
   623.7500      0.0000    849.5037      4.5092    103.2021
   624.0000      0.0000    855.7173      4.6709     97.9037
   624.2500      0.0000    859.2991      4.8572     92.6672
   624.5000      0.0000    860.3424      5.0507     87.5470
   624.7500      0.0000    859.8160      5.2518     82.8925
   625.0000      0.0000    858.7343      5.4605     79.1393
   625.2500      0.0000    857.6040      5.6513     76.7904
   625.5000      0.0000    856.1440      5.7700     76.3677
   625.7500      0.0000    853.2850      5.7659     78.0435
   626.0000      0.0000    847.7742      5.6392     81.2807
   626.2500      0.0000    839.3585      5.4525     84.9539
