~Version Information
VERS.                      2.0: CWLS Log ASCII Standard - VERSION 2.0
WRAP.                       NO: One line per depth step
~Well Information Block
STRT.FT               750.3000: 
STOP.FT              1254.0000: 
STEP.FT                 0.1000: 
NULL.                -999.2500: 
COMP.          Petrogulf Corporation: COMPANY
WELL.           Montoya 13-41V: WELL
FLD.           Purgatorie River: FIELD
LOC.           449' FNL & 891' FEL: LOCATION
CNTY.               Las Animas: COUNTY
SRVC.                         : SERVICE COMPANY
DATE.          Tue Aug 17 15:47:43 2004: LOG DATE
UWI.           05 071 08021 00: UNIQUE WELL ID
STAT.                 Colorado: STATE
~Curve Information Block
DEPT.FT            0 000 00 00: Depth
DCAL.in                       : CDL Caliper
RHOB.g/cc                     : CDL Bulk Density
RHOC.g/cc                     : CDL Density Correction
DPOR.pu                       : CDL Density Porosity
GR.GAPI                       : Gamma Ray
NPOR.pu                       : Neutron Porosity
~Parameter Information Block
~A  Depth       DCAL        RHOB        RHOC        DPOR         GR         NPOR    
# ...
  1211.1000      8.5696      1.8766     -0.0116     46.8744    118.8495     31.7624
  1211.2000      8.5696      1.7925      0.0367     51.9715    115.5772     31.0663
  1211.3000      8.2160      1.7382      0.0258     55.2605    110.9254     30.6152
  1211.4000      8.2160      1.7210     -0.0157     56.3022    105.3684     30.8757
  1211.5000      8.2438      1.7493      0.0730     54.5859    104.8144     31.7599
  1211.6000      8.2438      1.8079      0.1093     51.0354    110.0928     32.5206
  1211.7000      8.2438      1.8739      0.1404     47.0384    112.8597     32.6190
  1211.8000      8.1495      1.9351      0.1390     43.3283    114.2649     32.4968
  1211.9000      8.1495      1.9813      0.1856     40.5302    119.3957     32.5668
  1212.0000      8.1241      2.0023      0.1626     39.2553    123.4520     32.5470
  1212.1000      8.1241      2.0056      0.1149     39.0542    121.8959     32.1335
  1212.2000      8.1241      2.0137      0.0609     38.5645    117.0388     31.5921
  1212.3000      8.2033      2.0388      0.0671     37.0452    112.6101     31.5752
  1212.4000      8.2033      2.0770      0.0868     34.7269    112.2898     32.2186
  1212.5000      8.2288      2.1327      0.0996     31.3505    114.4548     32.6890
  1212.6000      8.2288      2.2122      0.2394     26.5318    113.5852     32.5468
  1212.7000      8.2288      2.2879      0.3748     21.9427    114.2748     32.3694
  1212.8000      8.3893      2.3184      0.3936     20.0947    122.2158     32.6867
  1212.9000      8.3893      2.2971      0.3369     21.3879    131.7293     33.4046
  1213.0000      8.6844      2.2509      0.2537     24.1871    133.7236     34.0840
  1213.1000      8.6844      2.2122      0.1539     26.5304    126.7035     34.0405
  1213.2000      8.6844      2.1978      0.1379     27.4064    116.8442     33.1361
  1213.3000      9.0889      2.2052      0.1289     26.9582    111.5158     32.2993
  1213.4000      9.0889      2.2290      0.1855     25.5167    117.0371     32.1622
  1213.5000      9.2513      2.2508      0.3221     24.1925    127.7525     32.3132
  1213.6000      9.2513      2.2366      0.3485     25.0569    131.2179     32.1395
  1213.7000      9.2513      2.1832      0.2950     28.2926    132.6772     31.5222
  1213.8000      9.7278      2.1342      0.2460     31.2582    141.6681     31.1684
  1213.9000      9.7278      2.1367      0.2709     31.1067    150.0406     31.7703
  1214.0000     10.4513      2.2003      0.3249     27.2537    149.2024     32.5024
  1214.1000     10.4513      2.2870      0.3668     21.9979    143.2103     32.3604
  1214.2000     10.4513      2.3459      0.3990     18.4286    138.2678     32.0535
  1214.3000     10.4041      2.3626      0.3618     17.4211    138.3003     32.5841
  1214.4000     10.4041      2.3485      0.3624     18.2704    139.8251     33.4302
  1214.5000      9.0611      2.3001      0.3530     21.2076    136.1715     33.5869
  1214.6000      9.0611      2.2042      0.2640     27.0207    131.9463     33.1962
  1214.7000      9.0611      2.0695      0.0993     35.1795    130.6760     32.8197
  1214.8000      8.5017      1.9297      0.0119     43.6529    125.3769     32.6109
  1214.9000      8.5017      1.8151     -0.0168     50.6018    113.0384     32.6636
  1215.0000      8.3766      1.7266     -0.0169     55.9659     97.2647     32.7042
  1215.1000      8.3766      1.6456     -0.0728     60.8725     82.7632     32.2536
  1215.2000      8.3766      1.5633     -0.0351     65.8631     73.5430     31.7527
  1215.3000      8.3640      1.4878     -0.0614     70.4389     69.8645     31.9628
  1215.4000      8.3640      1.4314     -0.0240     73.8572     67.3058     32.4501
  1215.5000      8.2800      1.3937     -0.0181     76.1406     64.6353     32.4234
  1215.6000      8.2800      1.3659      0.0035     77.8228     65.3764     32.3649
  1215.7000      8.2800      1.3499     -0.0210     78.7922     67.5800     32.5148
  1215.8000      8.2477      1.3682     -0.0369     77.6854     66.7239     32.0171
  1215.9000      8.2477      1.4430      0.0143     73.1538     65.8142     31.0433
  1216.0000      8.2506      1.5587      0.0755     66.1364     71.8930     30.7155
  1216.1000      8.2506      1.6767      0.1173     58.9879     83.2769     31.1569
  1216.2000      8.2506      1.7925      0.0806     51.9686     89.3709     31.5323
  1216.3000      8.3099      1.9236      0.1779     44.0229     88.9872     31.7922
  1216.4000      8.3099      2.0553      0.1915     36.0442     89.5253     32.3866
  1216.5000      8.3622      2.1627      0.2083     29.5331     94.3186     32.6334
  1216.6000      8.3622      2.2424      0.1918     24.7033     98.7222     31.7913
  1216.7000      8.3622      2.2956      0.1313     21.4803     98.2154     30.5140
  1216.8000      8.2418      2.3165      0.1310     20.2113     96.8461     29.7807
  1216.9000      8.2418      2.3027      0.0942     21.0473     98.2286     29.5965
  1217.0000      8.2603      2.2616      0.0532     23.5368    103.4570     29.4102
  1217.1000      8.2603      2.2034      0.0686     27.0668    111.0768     29.0931
  1217.2000      8.2603      2.1421      0.0165     30.7792    116.0681     28.7589
  1217.3000      8.2679      2.0979      0.0034     33.4592    114.8688     28.5520
  1217.4000      8.2679      2.0723      0.0553     35.0110    109.4452     28.6560
  1217.5000      8.3399      2.0617      0.0102     35.6541    106.6446     28.9917
  1217.6000      8.3399      2.0880      0.0670     34.0599    109.2147     29.3262
  1217.7000      8.3399      2.1603      0.2560     29.6807    114.3153     29.6443
  1217.8000      8.6697      2.2527      0.3531     24.0809    119.9443     29.9911
  1217.9000      8.6697      2.3386      0.3962     18.8713    123.0561     30.4969
  1218.0000      9.2712      2.3981      0.4395     15.2688    122.9343     31.1361
  1218.1000      9.2712      2.4207      0.3924     13.8968    124.1049     31.3235
  1218.2000      9.2712      2.4131      0.3747     14.3560    129.2414     30.9257
  1218.3000      9.6143      2.3793      0.3260     16.4072    134.3571     30.4696
  1218.4000      9.6143      2.3230      0.2921     19.8175    133.7165     30.3887
  1218.5000      9.8263      2.2603      0.2632     23.6160    126.9997     30.6635
  1218.6000      9.8263      2.2075      0.2331     26.8205    119.4649     31.1618
  1218.7000      9.8263      2.1730      0.2432     28.9074    118.7634     31.6529
  1218.8000     10.2238      2.1640      0.2544     29.4558    127.6262     31.7317
  1218.9000     10.2238      2.1862      0.2907     28.1067    135.9912     31.6981
  1219.0000     10.4342      2.2362      0.3165     25.0784    134.5705     32.1808
  1219.1000     10.4342      2.2959      0.3321     21.4594    124.6578     32.8696
  1219.2000     10.4342      2.3395      0.3765     18.8195    113.9135     32.8578
  1219.3000     10.1535      2.3494      0.3853     18.2172    113.3020     31.8887
  1219.4000     10.1535      2.3299      0.3685     19.4017    122.3489     30.8063
  1219.5000      9.6168      2.2980      0.3493     21.3321    129.8632     30.2062
  1219.6000      9.6168      2.2659      0.2944     23.2760    132.2118     29.6401
  1219.7000      9.6168      2.2360      0.2138     25.0908    135.2706     29.0083
  1219.8000      9.3812      2.2083      0.1641     26.7715    141.2007     28.7951
  1219.9000      9.3812      2.1898      0.1249     27.8917    144.0858     29.0299
  1220.0000      9.1140      2.1970      0.1616     27.4568    142.8784     29.3650
  1220.1000      9.1140      2.2386      0.2604     24.9354    142.2875     29.6659
  1220.2000      9.1140      2.2991      0.3660     21.2651    143.1290     29.9248
  1220.3000      9.3030      2.3552      0.3511     17.8659    144.5379     29.8799
  1220.4000      9.3030      2.3963      0.3535     15.3763    145.6473     29.2173
  1220.5000      9.2609      2.4234      0.3172     13.7321    145.0578     28.3907
  1220.6000      9.2609      2.4466      0.2843     12.3245    141.7134     28.1574
