~Version Information
VERS.                      2.0: CWLS Log ASCII Standard - VERSION 2.0
WRAP.                       NO: One line per depth step
~Well Information Block
STRT.FT                -3.0000: 
STOP.FT              1828.0000: 
STEP.FT                 0.2500: 
NULL.                -999.2500: 
COMP.          Pioneer Natural Resources: COMPANY
WELL.           Guajardo 24-16: WELL
FLD.           Purgatorie River: FIELD
LOC.           883' FSL & 2147' FWL--: LOCATION
PROV.                       CO: PROVINCE
CNTY.               Las Animas: COUNTRY
SRVC.          Patterson Wireline: SERVICE COMPANY
DATE.          Wed Aug 10 11:02:25 2005: LOG DATE
UWI.           05 071 08377 00: UNIQUE WELL ID
~Curve Information Block
DEPT.FT            0 000 00 00: Depth
CCL.                          : Casing Collar Locator
TT3.usec                      : CBL 3' Travel Time
AMP3.mV                       : CBL 3' Amplitude
GR.GAPI                       : Gamma Ray
~Parameter Information Block
~A  Depth       CCL         TT3         AMP3         GR     
# ...
   365.5000      0.0000    904.5535     12.5148     94.5684
   365.7500      0.0000    901.4813     12.4210     91.5136
   366.0000      0.0000    893.1415     12.2257     88.9264
   366.2500      0.0000    876.1124     11.8558     87.1313
   366.5000      0.0000    849.9105     11.2988     85.8915
   366.7500      0.0000    820.5803     10.6512     84.7818
   367.0000      0.0000    799.5674     10.0727     83.4924
   367.2500      0.0000    796.8496      9.6889     81.8757
   367.5000      0.0000    814.8218      9.5385     79.9775
   367.7500      0.0000    848.6760      9.5839     78.1420
   368.0000      1.0788    890.6888      9.7417     76.8440
   368.2500     -2.0000    933.1429      9.9229     76.2890
   368.5000     -2.0000    969.3026     10.0744     76.3035
   368.7500      1.5396    994.2022     10.1952     76.6612
   369.0000      0.0000   1004.6961     10.3312     77.3984
   369.2500      0.0000    998.7260     10.5601     78.6920
   369.5000      0.0000    977.0967     10.9552     80.3446
   369.7500      0.0000    947.3558     11.5250     81.5404
   370.0000      0.0000    922.4106     12.1843     81.4174
   370.2500      0.0000    912.4021     12.8010     79.9224
   370.5000      0.0000    918.4788     13.2716     77.7988
   370.7500      0.0000    933.7720     13.5582     75.7123
   371.0000      0.0000    948.0408     13.6807     73.7720
   371.2500      0.0000    952.7368     13.6922     71.9742
   371.5000      0.0000    945.6753     13.6482     70.4867
   371.7500      0.0000    931.8415     13.5851     69.3062
   372.0000      0.0000    918.4844     13.5190     68.2135
   372.2500      0.0000    909.4892     13.4578     67.0507
   372.5000      0.0000    904.4655     13.4098     65.5718
   372.7500      0.0000    901.5057     13.3837     63.4519
   373.0000      0.0000    899.4362     13.3840     61.1487
   373.2500      0.0000    897.8425     13.4056     60.3132
   373.5000      0.0000    896.1462     13.4327     62.5293
   373.7500      0.0000    893.3597     13.4482     67.7137
   374.0000      0.0000    888.5921     13.4459     74.0422
   374.2500      0.0000    881.6995     13.4314     79.2643
   374.5000      0.0000    873.6693     13.4119     82.0758
   374.7500      0.0000    866.2914     13.3890     82.6799
   375.0000      0.0000    861.0268     13.3615     82.1305
   375.2500      0.0000    858.1417     13.3294     80.9810
   375.5000      0.0000    856.9407     13.2957     78.9138
   375.7500      0.0000    856.5510     13.2631     76.0021
   376.0000      0.0000    856.4022     13.2303     73.7361
   376.2500      0.0000    856.2489     13.1922     74.0921
   376.5000      0.0000    856.0727     13.1455     77.6360
   376.7500      0.0000    856.0057     13.0936     82.8418
   377.0000      0.0000    856.4450     13.0442     87.1707
   377.2500      0.0000    858.5048     13.0055     88.7449
   377.5000      0.0000    864.6699     12.9849     87.4526
   377.7500      0.0000    878.6976     12.9859     85.0189
   378.0000      0.0000    903.1032     13.0055     84.0115
   378.2500      0.0000    935.1060     13.0356     86.1936
   378.5000      0.0000    965.7764     13.0658     91.2115
   378.7500      0.0000    985.5098     13.0811     96.7389
   379.0000      0.0000    990.8485     13.0619    100.2220
   379.2500      0.0000    985.3563     12.9954    100.7872
   379.5000      0.0000    975.5134     12.8865     99.6362
   379.7500      0.0000    967.8930     12.7564     98.8011
   380.0000      0.0000    968.7765     12.6305     99.5470
   380.2500      0.0000    982.0906     12.5265    101.7917
   380.5000      0.0000   1004.9458     12.4493    104.6314
   380.7500      0.0000   1026.5687     12.3926    106.9064
   381.0000      0.0000   1035.1318     12.3483    107.3781
   381.2500      0.0000   1027.8734     12.3168    105.3573
   381.5000      0.0000   1014.2316     12.3064    101.6722
   381.7500      0.0000   1006.7580     12.3223     98.2643
   382.0000      0.0000   1008.1670     12.3582     96.1855
   382.2500      0.0000   1009.8712     12.3985     94.5377
   382.5000      0.0000   1004.1042     12.4272     91.8349
   382.7500      0.0000    993.6399     12.4338     87.7883
   383.0000      0.0000    986.8657     12.4126     83.3835
   383.2500      0.0000    987.0541     12.3635     79.9744
   383.5000      0.0000    991.0672     12.2937     78.7944
   383.7500      0.0000    996.3424     12.2163     80.5667
   384.0000      0.0000   1003.8268     12.1431     84.7034
   384.2500      0.0000   1014.1630     12.0765     89.1159
   384.5000      0.0000   1025.0344     12.0079     91.5267
   384.7500      0.0000   1033.3158     11.9253     91.1615
   385.0000      0.0000   1037.5192     11.8247     89.0265
   385.2500      0.0000   1037.2328     11.7153     86.7300
   385.5000      0.0000   1032.1055     11.6170     85.3142
   385.7500      0.0000   1023.1385     11.5510     85.0675
   386.0000      0.0000   1014.1760     11.5330     85.9829
   386.2500      0.0000   1010.0481     11.5722     87.9155
   386.5000      0.0000   1012.2371     11.6709     90.2273
   386.7500      0.0000   1016.7028     11.8252     91.6257
   387.0000      0.0000   1016.7812     12.0238     90.9077
   387.2500      0.0000   1008.8707     12.2497     88.1293
   387.5000      0.0000    995.3972     12.4825     84.6387
   387.7500      0.0000    982.0734     12.7019     81.6823
   388.0000      0.0000    972.6844     12.8899     79.4879
   388.2500      0.0000    967.0925     13.0315     77.9144
   388.5000      0.0000    963.6162     13.1170     77.1994
   388.7500      0.0000    961.8108     13.1460     77.6551
   389.0000      0.0000    962.4027     13.1291     79.2259
   389.2500      0.0000    965.8094     13.0805     81.6479
   389.5000      0.0000    972.0090     13.0104     84.6941
   389.7500      0.0000    981.7136     12.9238     88.0843
   390.0000      0.0000    996.3758     12.8271     91.3428
   390.2500      0.0000   1016.0878     12.7298     93.9620
   390.5000      0.0000   1037.3997     12.6389     95.6774
   390.7500      0.0000   1054.3556     12.5541     96.3069
   391.0000      0.0000   1063.6571     12.4699     95.3689
   391.2500      0.0000   1069.1129     12.3811     92.3399
   391.5000      0.0000   1078.5887     12.2901     87.5620
   391.7500      0.0000   1095.5812     12.2084     82.7009
   392.0000      0.0000   1115.8217     12.1522     79.9619
   392.2500      0.0000   1132.5120     12.1335     80.6941
   392.5000      0.0000   1142.5100     12.1556     84.6981
   392.7500      0.0000   1146.9879     12.2143     90.6331
   393.0000      0.0000   1148.5092     12.3018     96.8840
   393.2500      0.0000   1148.8929     12.4099    102.0727
   393.5000      0.0000   1148.8885     12.5298    105.0953
   393.7500      0.0000   1148.4781     12.6509    105.3414
   394.0000      0.0000   1146.8342     12.7617    103.3064
   394.2500      0.0000   1141.9189     12.8528    100.5520
   394.5000      0.0000   1130.7225     12.9175     98.4766
   394.7500      0.0000   1111.6716     12.9498     97.2689
   395.0000      0.0000   1088.5168     12.9439     96.2913
   395.2500      0.0000   1070.9814     12.8981     95.0086
   395.5000      0.0000   1068.4020     12.8217     93.0203
   395.7500      0.0000   1081.3285     12.7346     89.6776
   396.0000      0.0000   1100.7568     12.6584     84.5262
   396.2500      0.0000   1115.8762     12.6047     78.1706
   396.5000      0.0000   1121.3252     12.5703     72.2240
   396.7500      0.0000   1117.9750     12.5416     68.3400
   397.0000      0.0000   1109.9208     12.5011     67.3004
   397.2500      0.0000   1101.7969     12.4342     68.5219
   397.5000      0.0000   1096.9391     12.3348     70.0921
   397.7500      0.0000   1095.9868     12.2101     69.6384
   398.0000      0.0000   1096.4392     12.0786     65.8547
   398.2500      0.0000   1093.8711     11.9628     59.5232
   398.5000      0.0000   1084.4749     11.8799     52.9183
   398.7500      0.0000   1067.2635     11.8371     48.0094
