~Version Information
VERS.                      2.0: CWLS Log ASCII Standard - VERSION 2.0
WRAP.                       NO: One line per depth step
~Well Information Block
STRT.FT               899.1000: 
STOP.FT              2501.5000: 
STEP.FT                 0.1000: 
NULL.                -999.2500: 
COMP.          Petrogulf Corporation: COMPANY
WELL.           Deremer 17-21V: WELL
FLD.           Purgatorie River: FIELD
LOC.           851' FNL & 963' FWL: LOCATION
CNTY.               Las Animas: COUNTY
SRVC.                         : SERVICE COMPANY
DATE.          Tue Nov 18 09:12:06 2003: LOG DATE
UWI.                          : UNIQUE WELL ID
STAT.                 Colorado: STATE
~Curve Information Block
DEPT.FT            0 000 00 00: Depth
DPOR.pu                       : CDL Density Porosity
NEU.NAPI                      : Neutron
NPOR.pu                       : Neutron Porosity
RHOB.g/cc                     : CDL Bulk Density
RHOC.g/cc                     : CDL Density Correction
GR.GAPI                       : Gamma Ray
DCAL.in                       : CDL Caliper
~Parameter Information Block
~A  Depth       DPOR        NEU         NPOR        RHOB        RHOC         GR         DCAL    
# ...
  1764.3000     11.1954   1416.0176     12.1926      2.4653      0.0767     43.8550      7.9301
  1764.4000     12.3306   1421.3344     11.9354      2.4465      0.1364     45.3948      7.9301
  1764.5000     14.2187   1421.2236     11.9408      2.4154      0.1286     46.8125      7.9314
  1764.6000     15.8309   1419.8181     12.0088      2.3888      0.0857     47.2635      7.9314
  1764.7000     16.1822   1418.8086     12.0576      2.3830      0.1071     47.5069      7.9314
  1764.8000     16.2781   1424.7474     11.7700      2.3814      0.1288     47.3463      7.9191
  1764.9000     16.9292   1430.9663     11.4678      2.3707      0.0880     46.7836      7.9191
  1765.0000     17.3677   1415.7965     12.2032      2.3634      0.1011     49.9366      7.9069
  1765.1000     16.6149   1389.2058     13.4792      2.3759      0.1162     55.1003      7.9069
  1765.2000     14.9375   1384.6537     13.6961      2.4035      0.1774     54.6928      7.9069
  1765.3000     13.4180   1405.3491     12.7065      2.4286      0.2042     51.7186      7.9007
  1765.4000     12.1513   1424.9065     11.7622      2.4495      0.1201     54.3751      7.9007
  1765.5000     10.9040   1427.9248     11.6157      2.4701      0.1697     59.9387      7.8905
  1765.6000     10.8896   1421.1809     11.9428      2.4703      0.2136     61.3402      7.8905
  1765.7000     12.7285   1413.5862     12.3099      2.4400      0.1790     58.1201      7.8905
  1765.8000     14.8566   1406.7159     12.6408      2.4049      0.0866     51.6242      7.8820
  1765.9000     15.8381   1401.1428     12.9084      2.3887      0.0902     45.8670      7.8820
  1766.0000     15.8068   1401.0311     12.9138      2.3892      0.1041     46.0839      7.8859
  1766.1000     15.6659   1403.0161     12.8186      2.3915      0.1422     50.5210      7.8859
  1766.2000     15.6151   1400.5026     12.9391      2.3924      0.0645     54.9814      7.8859
  1766.3000     15.0856   1396.0813     13.1509      2.4011      0.0478     58.7113      7.8957
  1766.4000     14.2452   1391.9296     13.3493      2.4150      0.0966     61.2075      7.8957
  1766.5000     13.9699   1387.9362     13.5398      2.4195      0.1059     60.9942      7.9098
  1766.6000     14.5762   1384.5217     13.7023      2.4095      0.1108     57.7411      7.9098
  1766.7000     15.2987   1381.7401     13.8346      2.3976      0.0727     53.6995      7.9098
  1766.8000     15.5138   1380.6808     13.8849      2.3940      0.0727     52.5585      7.9283
  1766.9000     15.5497   1379.2806     13.9514      2.3934      0.0620     53.1201      7.9283
  1767.0000     15.7757   1379.2809     13.9514      2.3897      0.0887     49.9328      7.9463
  1767.1000     15.9679   1387.0894     13.5801      2.3865      0.0202     46.1019      7.9463
  1767.2000     15.9217   1392.7045     13.3123      2.3873      0.0136     49.7979      7.9463
  1767.3000     16.1889   1385.1198     13.6739      2.3829      0.1009     58.1038      7.9572
  1767.4000     16.6973   1375.2083     14.1444      2.3745     -0.0020     62.7183      7.9572
  1767.5000     16.0476   1372.0632     14.2933      2.3852     -0.0003     62.6472      7.9461
  1767.6000     14.3761   1370.8583     14.3503      2.4128      0.0763     60.4291      7.9461
  1767.7000     13.7923   1368.6538     14.4545      2.4224      0.0906     57.8817      7.9461
  1767.8000     15.1378   1368.4901     14.4622      2.4002      0.0487     57.7797      7.9250
  1767.9000     17.3486   1373.5984     14.2207      2.3637      0.0616     60.7058      7.9250
  1768.0000     19.3010   1379.4346     13.9441      2.3315      0.0221     62.8788      7.9173
  1768.1000     19.9161   1379.4442     13.9436      2.3214     -0.0063     60.4255      7.9173
  1768.2000     18.3224   1381.3088     13.8551      2.3477      0.0039     55.0254      7.9173
  1768.3000     15.2885   1391.5967     13.3652      2.3977      0.0601     53.6256      7.9144
  1768.4000     13.2814   1403.2910     12.8054      2.4309      0.1490     57.6600      7.9144
  1768.5000     14.0303   1412.5531     12.3598      2.4185      0.1625     61.3323      7.9106
  1768.6000     16.4857   1417.6337     12.1145      2.3780      0.1223     59.4268      7.9106
  1768.7000     18.2937   1415.5426     12.2155      2.3482      0.0822     54.7868      7.9106
  1768.8000     18.2605   1406.0657     12.6721      2.3487      0.0934     55.7513      7.9065
  1768.9000     17.1349   1391.9907     13.3464      2.3673      0.1675     60.0765      7.9065
  1769.0000     16.4777   1379.0219     13.9636      2.3781      0.1593     60.2384      7.8954
  1769.1000     16.4916   1376.2324     14.0959      2.3779      0.0586     58.0006      7.8954
  1769.2000     16.2258   1388.8732     13.4951      2.3823      0.1411     55.7617      7.8954
  1769.3000     15.5354   1404.4048     12.7519      2.3937      0.1289     50.8966      7.8888
  1769.4000     15.0998   1406.8354     12.6351      2.4009      0.1849     46.1400      7.8888
  1769.5000     15.4986   1401.3549     12.8983      2.3943      0.1280     47.0482      7.8946
  1769.6000     16.2562   1400.2434     12.9516      2.3818      0.1233     51.4789      7.8946
  1769.7000     16.4232   1401.0343     12.9137      2.3790      0.1083     53.0226      7.8946
  1769.8000     15.6079   1400.5109     12.9388      2.3925      0.0891     50.9100      7.9038
  1769.9000     14.4729   1404.6191     12.7416      2.4112      0.1664     48.9810      7.9038
  1770.0000     14.1616   1414.4910     12.2663      2.4163      0.1636     50.0526      7.9133
  1770.1000     14.7230   1423.7427     11.8187      2.4071      0.1374     55.3817      7.9133
  1770.2000     15.4888   1427.0925     11.6561      2.3944      0.1638     63.0482      7.9133
  1770.3000     15.9203   1422.0444     11.9010      2.3873      0.0888     68.7304      7.9229
  1770.4000     16.0193   1411.4491     12.4130      2.3857      0.1541     69.2821      7.9229
  1770.5000     16.7209   1403.9819     12.7722      2.3741      0.1024     65.1084      7.9277
  1770.6000     18.5085   1401.9418     12.8701      2.3446      0.0800     60.5467      7.9277
  1770.7000     20.3699   1395.9547     13.1569      2.3139      0.0418     58.0977      7.9277
  1770.8000     20.5907   1385.7941     13.6418      2.3103      0.0111     54.8375      7.9285
  1770.9000     19.2973   1384.6208     13.6976      2.3316      0.1356     48.9771      7.9285
  1771.0000     18.3932   1392.4329     13.3253      2.3465      0.1373     44.0622      7.9298
  1771.1000     17.9966   1396.8652     13.1134      2.3531      0.1088     43.1458      7.9298
  1771.2000     17.1186   1393.7861     13.2606      2.3675      0.1848     45.8230      7.9298
  1771.3000     15.9902   1388.3274     13.5211      2.3862      0.1696     50.7453      7.9245
  1771.4000     14.7241   1383.0696     13.7714      2.4071      0.1517     58.2187      7.9245
  1771.5000     13.2444   1380.5332     13.8919      2.4315      0.2070     65.9575      7.9092
  1771.6000     12.1624   1383.5044     13.7507      2.4493      0.1989     66.8848      7.9092
  1771.7000     11.7528   1387.8098     13.5458      2.4561      0.1722     59.8170      7.9092
  1771.8000     11.7735   1392.1163     13.3404      2.4557      0.2195     53.3795      7.8995
  1771.9000     12.2175   1399.4784     12.9882      2.4484      0.1786     52.5722      7.8995
  1772.0000     13.5060   1405.5844     12.6952      2.4272      0.2035     53.6291      7.8993
  1772.1000     15.6939   1408.7820     12.5414      2.3911      0.0737     54.3182      7.8993
  1772.2000     17.7446   1414.3390     12.2736      2.3572      0.0260     54.7536      7.8993
  1772.3000     18.7698   1419.7606     12.0116      2.3403      0.0277     54.0112      7.9048
  1772.4000     18.6611   1418.1259     12.0907      2.3421      0.0253     52.5712      7.9048
  1772.5000     17.8988   1411.8961     12.3914      2.3547      0.0954     52.2992      7.9152
  1772.6000     17.5321   1407.9896     12.5796      2.3607      0.0724     52.1821      7.9152
