~Version Information
VERS.                      2.0: CWLS Log ASCII Standard - VERSION 2.0
WRAP.                       NO: One line per depth step
~Well Information Block
STRT.FT               360.0000: 
STOP.FT              1622.7500: 
STEP.FT                 0.2500: 
NULL.                -999.2500: 
COMP.          Pioneer Natural Resources: COMPANY
WELL.                Eric 42-9: WELL
FLD.           Purgatoire River: FIELD
LOC.           2050' FNL & 850' FEL: LOCATION
PROV.                 Colorado: PROVINCE
CNTY.               Las Animas: COUNTRY
SRVC.                Patterson: SERVICE COMPANY
DATE.          Sun Oct 31 17:26:46 2004: LOG DATE
UWI.           05 071 07999 00: UNIQUE WELL ID
~Curve Information Block
DEPT.FT            0 000 00 00: Depth
SN.Ohm-m                      : IEL Short Normal
SP.mV                         : IEL Spontaneous Potential
DIR.Ohm-m                     : IEL Induction Resistivity
GR.GAPI                       : Gamma Ray
~Parameter Information Block
~A  Depth        SN          SP         DIR          GR     
# ...
  1264.5000     16.1575    108.2679     12.2459     52.8617
  1264.7500     16.9846    108.7478     12.6738     55.9362
  1265.0000     17.3604    109.8042     12.7811     66.3836
  1265.2500     17.1484    111.2726     12.5051     75.7805
  1265.5000     16.4020    112.9477     11.8907     91.2731
  1265.7500     15.3033    114.6314     11.0646    101.5641
  1266.0000     14.0639    116.1711     10.1719    115.8552
  1266.2500     12.8597    117.4789      9.3267    124.1093
  1266.5000     11.8065    118.5317      8.5945    133.5078
  1266.7500     10.9523    119.3577      7.9992    137.1234
  1267.0000     10.2844    120.0147      7.5370    138.1123
  1267.2500      9.7523    120.5675      7.1896    136.2706
  1267.5000      9.2939    121.0673      6.9336    131.6175
  1267.7500      8.8565    121.5391      6.7461    128.5365
  1268.0000      8.4103    121.9782      6.6074    125.4077
  1268.2500      7.9530    122.3575      6.5012    124.2769
  1268.5000      7.5004    122.6411      6.4154    122.6337
  1268.7500      7.0755    122.7988      6.3432    120.8885
  1269.0000      6.7121    122.8162      6.2841    117.8522
  1269.2500      6.4675    122.6968      6.2438    116.5773
  1269.5000      6.4168    122.4599      6.2302    116.6356
  1269.7500      6.6155    122.1354      6.2508    117.4560
  1270.0000      7.0517    121.7580      6.3095    118.4965
  1270.2500      7.6332    121.3607      6.4067    118.7685
  1270.5000      8.2272    120.9673      6.5410    118.7012
  1270.7500      8.7221    120.5855      6.7126    118.2760
  1271.0000      9.0642    120.2042      6.9254    116.2896
  1271.2500      9.2724    119.7972      7.1889    113.5069
  1271.5000      9.4565    119.3335      7.5176    106.9938
  1271.7500      9.8193    118.7879      7.9317    101.8268
  1272.0000     10.6032    118.1486      8.4545     95.0599
  1272.2500     11.9863    117.4174      9.1072     92.3300
  1272.5000     13.9801    116.6052      9.8962     91.2695
  1272.7500     16.3935    115.7261     10.7978     91.7910
  1273.0000     18.8931    114.7961     11.7472     92.4404
  1273.2500     21.1400    113.8366     12.6442     92.0849
  1273.5000     22.9237    112.8793     13.3853     90.6427
  1273.7500     24.2171    111.9702     13.9069     89.8499
  1274.0000     25.1184    111.1696     14.2119     90.2208
  1274.2500     25.7318    110.5492     14.3564     91.7784
  1274.5000     26.0719    110.1850     14.4142     95.4554
  1274.7500     26.0539    110.1467     14.4408     98.0524
  1275.0000     25.5556    110.4813     14.4555    100.9930
  1275.2500     24.4939    111.1951     14.4381    102.0322
  1275.5000     22.8685    112.2419     14.3395    102.4234
  1275.7500     20.7689    113.5245     14.1076    102.1675
  1276.0000     18.3712    114.9138     13.7222    101.3476
  1276.2500     15.9324    116.2775     13.2172    100.7428
  1276.5000     13.7544    117.5078     12.6706    100.4182
  1276.7500     12.1184    118.5379     12.1698    101.0561
  1277.0000     11.2189    119.3417     11.7816    103.8480
  1277.2500     11.1207    119.9228     11.5399    106.9326
  1277.5000     11.7352    120.2983     11.4468    112.4977
  1277.7500     12.8260    120.4891     11.4790    115.7090
  1278.0000     14.0663    120.5176     11.5947    117.3880
  1278.2500     15.1433    120.4135     11.7442    115.4116
  1278.5000     15.8657    120.2199     11.8846    107.7883
  1278.7500     16.2166    119.9925     11.9929    100.7210
  1279.0000     16.3258    119.7912     12.0709     90.5749
  1279.2500     16.3786    119.6640     12.1382     86.4499
  1279.5000     16.5171    119.6353     12.2195     87.0466
  1279.7500     16.7824    119.7007     12.3325     91.9586
  1280.0000     17.1148    119.8327     12.4807    102.9205
  1280.2500     17.3971    119.9923     12.6528    109.9335
  1280.5000     17.5120    120.1415     12.8258    116.7530
  1280.7500     17.3934    120.2530     12.9687    118.5043
  1281.0000     17.0539    120.3158     13.0499    118.1527
  1281.2500     16.5788    120.3380     13.0511    116.6362
  1281.5000     16.0867    120.3444     12.9805    112.9575
  1281.7500     15.6778    120.3695     12.8742    109.9274
  1282.0000     15.4064    120.4457     12.7808    105.8629
  1282.2500     15.2879    120.5899     12.7404    104.3668
  1282.5000     15.3127    120.7951     12.7703    104.6340
  1282.7500     15.4510    121.0307     12.8641    106.2808
  1283.0000     15.6585    121.2511     12.9970    110.1729
  1283.2500     15.8910    121.4086     13.1356    113.2855
  1283.5000     16.1161    121.4638     13.2496    118.0066
  1283.7500     16.3166    121.3891     13.3244    120.5842
  1284.0000     16.4953    121.1673     13.3660    122.1661
  1284.2500     16.6838    120.7862     13.3973    120.9704
  1284.5000     16.9438    120.2371     13.4505    115.8014
  1284.7500     17.3453    119.5166     13.5623    110.9961
  1285.0000     17.9354    118.6316     13.7718    103.6088
  1285.2500     18.7188    117.6062     14.1156     99.0536
  1285.5000     19.6501    116.4861     14.6175     92.5250
  1285.7500     20.6320    115.3399     15.2717     88.1194
  1286.0000     21.5264    114.2547     16.0275     81.4981
  1286.2500     22.1932    113.3262     16.7855     77.4368
  1286.5000     22.5419    112.6434     17.4177     72.8257
  1286.7500     22.5642    112.2722     17.8098     71.3355
  1287.0000     22.3210    112.2417     17.9037     72.2663
  1287.2500     21.8993    112.5363     17.7093     75.2182
  1287.5000     21.3756    113.0956     17.2861     82.8392
  1287.7500     20.8018    113.8218     16.7145     89.3298
  1288.0000     20.2054    114.5943     16.0767     99.1794
  1288.2500     19.5999    115.2884     15.4464    104.6580
  1288.5000     19.0042    115.7959     14.8821    110.1237
  1288.7500     18.4546    116.0416     14.4213    111.8091
  1289.0000     18.0000    115.9935     14.0789    111.3916
  1289.2500     17.6898    115.6629     13.8526    109.1200
  1289.5000     17.5659    115.0953     13.7355    103.2818
  1289.7500     17.6566    114.3554     13.7291     98.6779
  1290.0000     17.9703    113.5109     13.8474     92.3849
  1290.2500     18.4883    112.6217     14.1075     89.0356
  1290.5000     19.1655    111.7353     14.5123     85.1823
  1290.7500     19.9421    110.8895     15.0389     83.3118
  1291.0000     20.7606    110.1166     15.6363     81.7557
  1291.2500     21.5707    109.4442     16.2350     81.7638
  1291.5000     22.3181    108.8938     16.7582     83.7255
  1291.7500     22.9322    108.4776     17.1301     86.4482
  1292.0000     23.3281    108.2014     17.2819     92.1235
  1292.2500     23.4216    108.0720     17.1642     96.0661
  1292.5000     23.1536    108.1063     16.7664    100.4621
  1292.7500     22.5186    108.3326     16.1269    101.9679
  1293.0000     21.5765    108.7794     15.3211    102.7692
  1293.2500     20.4234    109.4539     14.4347    102.9360
  1293.5000     19.1361    110.3228     13.5439    102.8077
  1293.7500     17.7471    111.3053     12.7093    102.0225
  1294.0000     16.2814    112.2869     11.9761     99.1554
  1294.2500     14.8149    113.1466     11.3736     96.4611
  1294.5000     13.4955    113.7875     10.9148     93.1340
  1294.7500     12.5071    114.1557     10.6003     92.5211
  1295.0000     12.0044    114.2404     10.4245     94.4286
  1295.2500     12.0566    114.0551     10.3805     96.8003
  1295.5000     12.6251    113.6088     10.4636     99.9908
  1295.7500     13.5916    112.8811     10.6726    100.9407
  1296.0000     14.8306    111.8144     11.0097     99.5990
  1296.2500     16.2872    110.3334     11.4805     96.5032
  1296.5000     18.0164    108.3864     12.0936     88.6781
  1296.7500     20.1764    105.9960     12.8630     82.0875
  1297.0000     22.9683    103.2973     13.8089     72.1623
  1297.2500     26.5062    100.5434     14.9544     66.5706
  1297.5000     30.6586     98.0702     16.3121     60.5474
  1297.7500     34.9775     96.2272     17.8553     57.8933
