~Version Information
VERS.                      2.0: CWLS Log ASCII Standard - VERSION 2.0
WRAP.                       NO: One line per depth step
~Well Information Block
STRT.FT               806.0000: 
STOP.FT              1812.2000: 
STEP.FT                 0.1000: 
NULL.                -999.2500: 
COMP.          Pioneer Natural Resources: COMPANY
WELL.            Hill 33-22 Tr: WELL
FLD.           Purgatoire River: FIELD
LOC.           1573' FSL & 1585' FEL: LOCATION
PROV.                 Colorado: PROVINCE
CNTY.               Las Animas: COUNTRY
SRVC.                Patterson: SERVICE COMPANY
DATE.          Thu Apr 14 12:25:33 2005: LOG DATE
UWI.           05 071 08316 00: UNIQUE WELL ID
~Curve Information Block
DEPT.FT            0 000 00 00: Depth
DCAL.in                       : CDL Caliper
RHOB.g/cc                     : CDL Bulk Density
RHOC.g/cc                     : CDL Density Correction
DPOR.pu                       : CDL Density Porosity
GR.GAPI                       : Gamma Ray
NPOR.pu                       : Neutron Porosity
~Parameter Information Block
~A  Depth       DCAL        RHOB        RHOC        DPOR         GR         NPOR    
# ...
  1266.8000      8.1691      2.6182      0.0517      1.9266    148.0636     28.5101
  1266.9000      8.1691      2.6206      0.0833      1.7844    150.7344     29.5689
  1267.0000      8.1062      2.6088      0.0122      2.4947    144.0368     30.6742
  1267.1000      8.1062      2.5948     -0.0342      3.3465    139.0844     30.3242
  1267.2000      8.1062      2.5865     -0.0479      3.8497    142.9993     28.7709
  1267.3000      8.1000      2.5810     -0.0540      4.1822    151.0692     27.8584
  1267.4000      8.1000      2.5738     -0.0008      4.6174    157.9644     27.9205
  1267.5000      8.1345      2.5593      0.0257      5.4960    162.8289     28.0165
  1267.6000      8.1345      2.5375      0.0131      6.8154    165.7253     27.6729
  1267.7000      8.1345      2.5218      0.0215      7.7727    162.5904     26.9007
  1267.8000      8.1515      2.5259     -0.0227      7.5197    151.9831     26.5453
  1267.9000      8.1515      2.5457      0.0115      6.3214    141.6188     27.2579
  1268.0000      8.1592      2.5584      0.0189      5.5543    136.9387     28.6582
  1268.1000      8.1592      2.5497      0.0290      6.0814    136.2772     30.3327
  1268.2000      8.1592      2.5236      0.0149      7.6596    137.6561     31.7277
  1268.3000      8.1443      2.4867      0.0332      9.8970    143.4250     31.6057
  1268.4000      8.1443      2.4444     -0.0122     12.4579    152.0432     30.1088
  1268.5000      8.1434      2.4068     -0.0131     14.7406    154.9945     29.3892
  1268.6000      8.1434      2.3891     -0.1059     15.8127    149.7292     30.3446
  1268.7000      8.1434      2.4046     -0.1005     14.8723    143.8434     31.4053
  1268.8000      8.1322      2.4371     -0.0163     12.9018    143.9931     31.1885
  1268.9000      8.1322      2.4618     -0.0156     11.4059    148.3594     30.1143
  1269.0000      8.1297      2.4811     -0.0054     10.2368    152.8372     29.2988
  1269.1000      8.1297      2.4932      0.0608      9.5016    154.3838     29.2384
  1269.2000      8.1297      2.4870      0.0342      9.8772    150.4763     30.0662
  1269.3000      8.1359      2.4693      0.0435     10.9505    144.6859     31.0917
  1269.4000      8.1359      2.4492      0.0130     12.1692    142.6934     31.2838
  1269.5000      8.1382      2.4241     -0.0068     13.6913    145.5373     30.8040
  1269.6000      8.1382      2.3932     -0.0256     15.5617    149.5065     30.0880
  1269.7000      8.1382      2.3685     -0.0647     17.0636    151.7141     29.1967
  1269.8000      8.1600      2.3532     -0.0342     17.9885    153.7452     28.6284
  1269.9000      8.1600      2.3246      0.0340     19.7223    155.9203     28.7946
  1270.0000      8.1982      2.2756     -0.0579     22.6932    157.6482     29.6459
  1270.1000      8.1982      2.2414     -0.0946     24.7611    157.9388     30.2526
  1270.2000      8.1982      2.2456     -0.0616     24.5085    157.0318     29.8071
  1270.3000      8.1882      2.2711     -0.0493     22.9643    157.1539     28.8379
  1270.4000      8.1882      2.2931      0.0188     21.6294    158.3611     28.2522
  1270.5000      8.1693      2.3073      0.0029     20.7716    160.4849     28.2763
  1270.6000      8.1693      2.3274      0.0463     19.5487    161.3928     28.7768
  1270.7000      8.1693      2.3567      0.0553     17.7750    158.3067     29.4640
  1270.8000      8.1931      2.3844      0.0762     16.0959    152.3562     29.9588
  1270.9000      8.1931      2.4052      0.0837     14.8363    147.4211     30.1948
  1271.0000      8.1863      2.4234      0.0303     13.7360    147.6714     30.0996
  1271.1000      8.1863      2.4480      0.0427     12.2440    152.7811     29.3303
  1271.2000      8.1863      2.4794      0.0355     10.3403    156.8811     28.4970
  1271.3000      8.1855      2.5081      0.0773      8.5981    158.1677     28.0003
  1271.4000      8.1855      2.5340      0.0227      7.0326    156.5991     27.2414
  1271.5000      8.1738      2.5682      0.0514      4.9596    150.5943     26.5861
  1271.6000      8.1738      2.6087      0.0790      2.5019    145.3563     27.0843
  1271.7000      8.1738      2.6374      0.0313      0.7666    145.6204     28.4999
  1271.8000      8.1275      2.6377      0.0750      0.7459    147.3298     29.4765
  1271.9000      8.1275      2.6116      0.0232      2.3281    147.1411     29.3835
  1272.0000      8.1274      2.5877      0.0153      3.7755    147.1928     28.9532
  1272.1000      8.1274      2.5805      0.0769      4.2118    150.0380     28.5753
  1272.2000      8.1274      2.5806     -0.0309      4.2087    151.7629     28.0801
  1272.3000      8.1225      2.5860      0.0378      3.8795    147.7262     27.7345
  1272.4000      8.1225      2.5853      0.0238      3.9197    142.4510     27.9017
  1272.5000      8.1238      2.5645      0.0077      5.1825    140.7170     28.6032
  1272.6000      8.1238      2.5351     -0.0274      6.9612    140.4652     29.1085
  1272.7000      8.1238      2.5200     -0.0342      7.8770    139.2021     28.6114
  1272.8000      8.1255      2.5281     -0.0572      7.3866    136.2318     27.6802
  1272.9000      8.1255      2.5442      0.0224      6.4145    133.2892     27.4406
  1273.0000      8.1252      2.5434     -0.0336      6.4591    134.0305     28.0574
  1273.1000      8.1252      2.5224     -0.0105      7.7348    137.3282     28.5591
  1273.2000      8.1252      2.4977     -0.0006      9.2275    137.5722     27.9436
  1273.3000      8.1195      2.4835      0.0112     10.0906    133.0733     27.0914
  1273.4000      8.1195      2.4891     -0.0137      9.7532    127.4684     27.1615
  1273.5000      8.1264      2.5185     -0.0157      7.9691    123.4098     27.5068
  1273.6000      8.1264      2.5580      0.0074      5.5756    121.3751     27.2790
  1273.7000      8.1264      2.5868      0.0600      3.8278    121.4908     27.0145
  1273.8000      8.1142      2.5890      0.0829      3.6940    120.2337     27.9416
  1273.9000      8.1142      2.5618      0.0280      5.3425    117.6536     29.8762
  1274.0000      8.0970      2.5342     -0.0482      7.0203    118.8312     30.7371
  1274.1000      8.0970      2.5395     -0.0040      6.6963    122.5723     29.6327
  1274.2000      8.0970      2.5622      0.0848      5.3232    124.0980     27.9369
  1274.3000      8.0963      2.5700      0.0448      4.8477    122.6187     26.8378
  1274.4000      8.0963      2.5736      0.0525      4.6276    119.3493     26.5995
  1274.5000      8.0938      2.5917      0.0759      3.5343    114.3736     27.0024
  1274.6000      8.0938      2.6166      0.1090      2.0272    108.1610     27.6992
  1274.7000      8.0938      2.6400      0.0987      0.6031    104.7949     27.9088
  1274.8000      8.0982      2.6673      0.1449     -1.0477    105.7238     27.2854
  1274.9000      8.0982      2.7050      0.0594     -3.3359    106.2867     26.7159
  1275.0000      8.1028      2.7398      0.1543     -5.4403    103.1413     26.5919
  1275.1000      8.1028      2.7382      0.1457     -5.3430     99.8278     26.5940
  1275.2000      8.1028      2.6970      0.0874     -2.8492    100.6929     26.8768
  1275.3000      8.0987      2.6588     -0.0090     -0.5335    103.5956     27.4855
  1275.4000      8.0987      2.6544      0.0086     -0.2681    105.2226     28.3691
  1275.5000      8.0759      2.6603      0.0063     -0.6226    107.8803     29.3508
  1275.6000      8.0759      2.6420     -0.0131      0.4826    112.7586     29.6355
  1275.7000      8.0759      2.6039     -0.0425      2.7949    116.3593     28.8566
  1275.8000      8.0898      2.5675     -0.0526      5.0001    117.9423     27.9450
  1275.9000      8.0898      2.5465     -0.0292      6.2757    120.6948     27.6356
  1276.0000      8.1454      2.5433      0.0187      6.4692    124.8734     27.7311
  1276.1000      8.1454      2.5413      0.0764      6.5873    125.6362     27.8953
  1276.2000      8.1454      2.5338     -0.0234      7.0441    121.5838     28.2045
  1276.3000      8.1546      2.5390     -0.0299      6.7293    119.0026     28.9247
