~Version Information
VERS.                      2.0: CWLS Log ASCII Standard - VERSION 2.0
WRAP.                       NO: One line per depth step
~Well Information Block
STRT.FT              2246.0000: 
STOP.FT              2472.6000: 
STEP.FT                 0.1000: 
NULL.                -999.2500: 
COMP.          Petrogulf Corporation: COMPANY
WELL.           Schedler 9-23V: WELL
FLD.           Purgatorie River: FIELD
LOC.           2185' FSL & 2328' FWL: LOCATION
CNTY.               Las Animas: COUNTY
SRVC.                         : SERVICE COMPANY
DATE.          Thu Jul 10 10:29:30 2003: LOG DATE
UWI.           05 071 07876 00: UNIQUE WELL ID
STAT.                 Colorado: STATE
~Curve Information Block
DEPT.FT            0 000 00 00: Depth
DCAL.in                       : CDL Caliper
RHOB.g/cc                     : CDL Bulk Density
RHOC.g/cc                     : CDL Density Correction
DPOR.pu                       : CDL Density Porosity
GR.GAPI                       : Gamma Ray
NPOR.pu                       : Neutron Porosity
~Parameter Information Block
~A  Depth       DCAL        RHOB        RHOC        DPOR         GR         NPOR    
# ...
  2255.6000   -999.2500   -999.2500   -999.2500   -999.2500     98.1232     25.5466
  2255.7000   -999.2500   -999.2500   -999.2500   -999.2500     97.7052     25.3846
  2255.8000   -999.2500   -999.2500   -999.2500   -999.2500     96.9961     25.1957
  2255.9000   -999.2500   -999.2500   -999.2500   -999.2500     95.9602     24.9870
  2256.0000   -999.2500   -999.2500   -999.2500   -999.2500     94.5968     24.7680
  2256.1000   -999.2500   -999.2500   -999.2500   -999.2500     92.9383     24.5509
  2256.2000   -999.2500   -999.2500   -999.2500   -999.2500     91.0438     24.3473
  2256.3000   -999.2500   -999.2500   -999.2500   -999.2500     88.9928     24.1671
  2256.4000   -999.2500   -999.2500   -999.2500   -999.2500     86.8759     24.0169
  2256.5000      7.9324   -999.2500   -999.2500   -999.2500     84.7870     23.8993
  2256.6000      7.9324   -999.2500   -999.2500   -999.2500     82.8175     23.8122
  2256.7000      7.9324   -999.2500   -999.2500   -999.2500     81.0512     23.7511
  2256.8000      7.9422   -999.2500   -999.2500   -999.2500     79.5609     23.7100
  2256.9000      7.9422   -999.2500   -999.2500   -999.2500     78.4055     23.6830
  2257.0000      7.9597   -999.2500   -999.2500   -999.2500     77.6256     23.6665
  2257.1000      7.9597   -999.2500   -999.2500   -999.2500     77.2408     23.6601
  2257.2000      7.9597   -999.2500   -999.2500   -999.2500     77.2480     23.6667
  2257.3000      7.9725   -999.2500   -999.2500   -999.2500     77.6210     23.6926
  2257.4000      7.9725   -999.2500   -999.2500   -999.2500     78.3116     23.7457
  2257.5000      7.9782   -999.2500      0.0892   -999.2500     79.2559     23.8348
  2257.6000      7.9782   -999.2500      0.0890   -999.2500     80.3795     23.9675
  2257.7000      7.9782   -999.2500      0.0894   -999.2500     81.6089     24.1489
  2257.8000      7.9846   -999.2500      0.0903   -999.2500     82.8733     24.3802
  2257.9000      7.9846   -999.2500      0.0917   -999.2500     84.1130     24.6583
  2258.0000      7.9932   -999.2500      0.0933   -999.2500     85.2786     24.9760
  2258.1000      7.9932   -999.2500      0.0948   -999.2500     86.3292     25.3226
  2258.2000      7.9932   -999.2500      0.0961   -999.2500     87.2274     25.6862
  2258.3000      7.9985   -999.2500      0.0968   -999.2500     87.9376     26.0556
  2258.4000      7.9985   -999.2500      0.0969   -999.2500     88.4222     26.4222
  2258.5000      8.0004   -999.2500      0.0963   -999.2500     88.6437     26.7808
  2258.6000      8.0004   -999.2500      0.0951   -999.2500     88.5683     27.1305
  2258.7000      8.0004   -999.2500      0.0935   -999.2500     88.1701     27.4736
  2258.8000      8.0013   -999.2500      0.0919   -999.2500     87.4392     27.8129
  2258.9000      8.0013   -999.2500      0.0906   -999.2500     86.3868     28.1508
  2259.0000      8.0015   -999.2500      0.0898   -999.2500     85.0476     28.4871
  2259.1000      8.0015   -999.2500      0.0898   -999.2500     83.4778     28.8176
  2259.2000      8.0015   -999.2500      0.0906   -999.2500     81.7530     29.1350
  2259.3000      8.0011   -999.2500      0.0923   -999.2500     79.9612     29.4301
  2259.4000      8.0011   -999.2500      0.0945   -999.2500     78.1921     29.6927
  2259.5000      8.0019      2.4164      0.0970     14.1578     76.5336     29.9136
  2259.6000      8.0019      2.4131      0.0994     14.3589     75.0600     30.0856
  2259.7000      8.0019      2.4107      0.1013     14.5030     73.8296     30.2039
  2259.8000      8.0041      2.4092      0.1025     14.5928     72.8792     30.2657
  2259.9000      8.0041      2.4086      0.1027     14.6325     72.2236     30.2699
  2260.0000      8.0061      2.4087      0.1017     14.6268     71.8562     30.2166
  2260.1000      8.0061      2.4094      0.0997     14.5815     71.7536     30.1077
  2260.2000      8.0061      2.4107      0.0969     14.5019     71.8765     29.9466
  2260.3000      8.0069      2.4125      0.0935     14.3937     72.1746     29.7398
  2260.4000      8.0069      2.4147      0.0898     14.2620     72.5918     29.4972
  2260.5000      8.0039      2.4172      0.0864     14.1116     73.0707     29.2322
  2260.6000      8.0039      2.4199      0.0834     13.9470     73.5580     28.9611
  2260.7000      8.0039      2.4227      0.0813     13.7729     74.0083     28.7020
  2260.8000      8.0001      2.4257      0.0802     13.5936     74.3867     28.4717
  2260.9000      8.0001      2.4287      0.0801     13.4139     74.6740     28.2841
  2261.0000      7.9988      2.4316      0.0810     13.2389     74.8657     28.1481
  2261.1000      7.9988      2.4343      0.0827     13.0741     74.9750     28.0667
  2261.2000      7.9988      2.4367      0.0850     12.9256     75.0281     28.0367
  2261.3000      7.9993      2.4388      0.0874     12.8000     75.0601     28.0503
  2261.4000      7.9993      2.4404      0.0897     12.7045     75.1150     28.0972
  2261.5000      8.0001      2.4413      0.0916     12.6464     75.2369     28.1658
  2261.6000      8.0001      2.4415      0.0929     12.6335     75.4651     28.2462
  2261.7000      8.0001      2.4409      0.0934     12.6734     75.8312     28.3306
  2261.8000      7.9998      2.4392      0.0931     12.7735     76.3519     28.4144
  2261.9000      7.9998      2.4365      0.0919     12.9406     77.0260     28.4948
  2262.0000      7.9996      2.4325      0.0900     13.1800     77.8337     28.5719
  2262.1000      7.9996      2.4273      0.0873     13.4953     78.7383     28.6463
  2262.2000      7.9996      2.4208      0.0840     13.8881     79.6863     28.7191
  2262.3000      8.0004      2.4131      0.0801     14.3563     80.6177     28.7920
  2262.4000      8.0004      2.4042      0.0757     14.8948     81.4702     28.8663
  2262.5000      8.0005      2.3943      0.0711     15.4943     82.1904     28.9438
  2262.6000      8.0005      2.3837      0.0663     16.1412     82.7411     29.0268
  2262.7000      8.0005      2.3725      0.0616     16.8184     83.1067     29.1176
  2262.8000      7.9992      2.3612      0.0576     17.5050     83.2975     29.2192
  2262.9000      7.9992      2.3501      0.0544     18.1779     83.3466     29.3350
  2263.0000      7.9963      2.3396      0.0526     18.8124     83.3090     29.4675
  2263.1000      7.9963      2.3302      0.0526     19.3840     83.2509     29.6189
  2263.2000      7.9963      2.3222      0.0546     19.8696     83.2422     29.7894
  2263.3000      7.9951      2.3159      0.0586     20.2490     83.3468     29.9768
  2263.4000      7.9951      2.3116      0.0646     20.5065     83.6112     30.1758
  2263.5000      8.0034      2.3096      0.0722     20.6310     84.0628     30.3784
  2263.6000      8.0034      2.3098      0.0809     20.6172     84.7012     30.5728
  2263.7000      8.0034      2.3123      0.0899     20.4656     85.5041     30.7462
  2263.8000      8.0197      2.3170      0.0988     20.1816     86.4292     30.8841
  2263.9000      8.0197      2.3237      0.1067     19.7757     87.4227     30.9741
  2264.0000      8.0300      2.3322      0.1134     19.2615     88.4297     31.0066
  2264.1000      8.0300      2.3422      0.1184     18.6555     89.3998     30.9763
  2264.2000      8.0300      2.3534      0.1218     17.9752     90.2946     30.8828
  2264.3000      8.0322      2.3656      0.1235     17.2385     91.0909     30.7313
  2264.4000      8.0322      2.3784      0.1240     16.4622     91.7809     30.5306
  2264.5000      8.0305      2.3916      0.1235     15.6617     92.3670     30.2918
  2264.6000      8.0305      2.4050      0.1225     14.8507     92.8595     30.0268
  2264.7000      8.0305      2.4183      0.1214     14.0403     93.2690     29.7464
  2264.8000      8.0282      2.4315      0.1204     13.2400     93.6035     29.4595
  2264.9000      8.0282      2.4445      0.1197     12.4571     93.8642     29.1720
  2265.0000      8.0273      2.4570      0.1194     11.6977     94.0430     28.8882
  2265.1000      8.0273      2.4690      0.1195     10.9668     94.1259     28.6111
