~Version Information
VERS.                      2.0: CWLS Log ASCII Standard - VERSION 2.0
WRAP.                       NO: One line per depth step
~Well Information Block
STRT.FT               698.9000: 
STOP.FT              2459.5000: 
STEP.FT                 0.1000: 
NULL.                -999.2500: 
COMP.          Petrogulf Corporation: COMPANY
WELL.             State 16-23V: WELL
FLD.           Purgatorie River: FIELD
LOC.           2414' FSL & 2215' FWL: LOCATION
PROV.                 Colorado: PROVINCE
CNTY.               Las Animas: COUNTRY
SRVC.                         : SERVICE COMPANY
DATE.          Mon Jun 09 12:47:39 2003: LOG DATE
UWI.           05 071 07865 00: UNIQUE WELL ID
~Curve Information Block
DEPT.FT            0 000 00 00: Depth
SP.mV                         : DIL Spontaneous Potential
RILD.Ohm-m                    : DIL Deep Resistivity
RILM.Ohm-m                    : DIL Medium Resistivity
RLL3.Ohm-m                    : DIL Shallow Resistivity
GR.GAPI                       : Gamma Ray
~Parameter Information Block
~A  Depth        SP         RILD        RILM        RLL3         GR     
# ...
  2322.9000     23.2564     10.4974     11.5114     15.4567     80.0341
  2323.0000     23.5491     10.3228     10.9160     15.0627     80.6702
  2323.1000     23.5491     10.3228     10.9160     15.0627     81.4065
  2323.2000     23.5491     10.3228     10.9160     15.0627     82.2056
  2323.3000     23.8915     10.1835     10.3477     14.2423     83.0155
  2323.4000     23.8915     10.1835     10.3477     14.2423     83.7769
  2323.5000     24.2870     10.0855      9.8501     13.2038     84.4252
  2323.6000     24.2870     10.0855      9.8501     13.2038     84.9030
  2323.7000     24.2870     10.0855      9.8501     13.2038     85.1649
  2323.8000     24.7219     10.0298      9.4497     12.1868     85.1834
  2323.9000     24.7219     10.0298      9.4497     12.1868     84.9535
  2324.0000     25.1708     10.0127      9.1554     11.4285     84.4892
  2324.1000     25.1708     10.0127      9.1554     11.4285     83.8188
  2324.2000     25.1708     10.0127      9.1554     11.4285     82.9810
  2324.3000     25.6076     10.0288      8.9649     11.0361     82.0180
  2324.4000     25.6076     10.0288      8.9649     11.0361     80.9681
  2324.5000     26.0021     10.0741      8.8753     10.8663     79.8686
  2324.6000     26.0021     10.0741      8.8753     10.8663     78.7513
  2324.7000     26.0021     10.0741      8.8753     10.8663     77.6457
  2324.8000     26.3206     10.1512      8.8906     10.7061     76.5791
  2324.9000     26.3206     10.1512      8.8906     10.7061     75.5792
  2325.0000     26.5458     10.2658      9.0231     10.5451     74.6732
  2325.1000     26.5458     10.2658      9.0231     10.5451     73.8884
  2325.2000     26.5458     10.2658      9.0231     10.5451     73.2498
  2325.3000     26.6911     10.4124      9.2878     10.5635     72.7816
  2325.4000     26.6911     10.4124      9.2878     10.5635     72.4976
  2325.5000     26.7923     10.5629      9.6926     10.9770     72.4009
  2325.6000     26.7923     10.5629      9.6926     10.9770     72.4791
  2325.7000     26.7923     10.5629      9.6926     10.9770     72.7040
  2325.8000     26.8860     10.6763     10.2248     11.9404     73.0300
  2325.9000     26.8860     10.6763     10.2248     11.9404     73.3965
  2326.0000     26.9907     10.7210     10.8353     13.4657     73.7377
  2326.1000     26.9907     10.7210     10.8353     13.4657     73.9867
  2326.2000     26.9907     10.7210     10.8353     13.4657     74.0906
  2326.3000     27.1056     10.6894     11.4320     15.3631     74.0143
  2326.4000     27.1056     10.6894     11.4320     15.3631     73.7422
  2326.5000     27.2246     10.5974     11.8983     17.2711     73.2819
  2326.6000     27.2246     10.5974     11.8983     17.2711     72.6597
  2326.7000     27.2246     10.5974     11.8983     17.2711     71.9153
  2326.8000     27.3425     10.4799     12.1347     18.8305     71.0955
  2326.9000     27.3425     10.4799     12.1347     18.8305     70.2532
  2327.0000     27.4398     10.3874     12.0977     19.8800     69.4405
  2327.1000     27.4398     10.3874     12.0977     19.8800     68.7099
  2327.2000     27.4398     10.3874     12.0977     19.8800     68.1117
  2327.3000     27.4809     10.3685     11.8196     20.3584     67.6922
  2327.4000     27.4809     10.3685     11.8196     20.3584     67.4904
  2327.5000     27.4371     10.4445     11.3942     20.0154     67.5359
  2327.6000     27.4371     10.4445     11.3942     20.0154     67.8478
  2327.7000     27.4371     10.4445     11.3942     20.0154     68.4294
  2327.8000     27.3041     10.5954     10.9337     18.5460     69.2705
  2327.9000     27.3041     10.5954     10.9337     18.5460     70.3466
  2328.0000     27.0998     10.7693     10.5253     16.1646     71.6219
  2328.1000     27.0998     10.7693     10.5253     16.1646     73.0501
  2328.2000     27.0998     10.7693     10.5253     16.1646     74.5757
  2328.3000     26.8564     10.9069     10.2127     13.7100     76.1402
  2328.4000     26.8564     10.9069     10.2127     13.7100     77.6821
  2328.5000     26.6153     10.9624      9.9963     11.9671     79.1457
  2328.6000     26.6153     10.9624      9.9963     11.9671     80.4799
  2328.7000     26.6153     10.9624      9.9963     11.9671     81.6483
  2328.8000     26.4147     10.9114      9.8454     11.1185     82.6282
  2328.9000     26.4147     10.9114      9.8454     11.1185     83.4156
  2329.0000     26.2769     10.7497      9.7186     10.9087     84.0214
  2329.1000     26.2769     10.7497      9.7186     10.9087     84.4701
  2329.2000     26.2769     10.7497      9.7186     10.9087     84.7941
  2329.3000     26.2078     10.4934      9.5841     11.0283     85.0296
  2329.4000     26.2078     10.4934      9.5841     11.0283     85.2075
  2329.5000     26.2016     10.1740      9.4320     11.2356     85.3540
  2329.6000     26.2016     10.1740      9.4320     11.2356     85.4859
  2329.7000     26.2016     10.1740      9.4320     11.2356     85.6105
  2329.8000     26.2371      9.8274      9.2733     11.3332     85.7277
  2329.9000     26.2371      9.8274      9.2733     11.3332     85.8339
  2330.0000     26.2790      9.4850      9.1283     11.2528     85.9255
  2330.1000     26.2790      9.4850      9.1283     11.2528     85.9987
  2330.2000     26.2790      9.4850      9.1283     11.2528     86.0520
  2330.3000     26.2881      9.1720      9.0133     11.1627     86.0830
  2330.4000     26.2881      9.1720      9.0133     11.1627     86.0866
  2330.5000     26.2356      8.9053      8.9308     11.3158     86.0512
  2330.6000     26.2356      8.9053      8.9308     11.3158     85.9576
  2330.7000     26.2356      8.9053      8.9308     11.3158     85.7767
  2330.8000     26.1111      8.6872      8.8655     11.7620     85.4737
  2330.9000     26.1111      8.6872      8.8655     11.7620     85.0160
  2331.0000     25.9219      8.5055      8.7913     12.3372     84.3767
  2331.1000     25.9219      8.5055      8.7913     12.3372     83.5473
  2331.2000     25.9219      8.5055      8.7913     12.3372     82.5388
  2331.3000     25.6875      8.3455      8.6858     12.8454     81.3862
  2331.4000     25.6875      8.3455      8.6858     12.8454     80.1470
  2331.5000     25.4313      8.2030      8.5417     13.1171     78.8917
  2331.6000     25.4313      8.2030      8.5417     13.1171     77.6950
  2331.7000     25.4313      8.2030      8.5417     13.1171     76.6270
  2331.8000     25.1637      8.0826      8.3659     13.0446     75.7432
  2331.9000     25.1637      8.0826      8.3659     13.0446     75.0786
  2332.0000     24.8777      7.9844      8.1730     12.6645     74.6473
  2332.1000     24.8777      7.9844      8.1730     12.6645     74.4424
  2332.2000     24.8777      7.9844      8.1730     12.6645     74.4460
  2332.3000     24.5648      7.9010      7.9781     12.1170     74.6330
  2332.4000     24.5648      7.9010      7.9781     12.1170     74.9766
  2332.5000     24.2334      7.8265      7.7912     11.5426     75.4554
  2332.6000     24.2334      7.8265      7.7912     11.5426     76.0524
  2332.7000     24.2334      7.8265      7.7912     11.5426     76.7523
  2332.8000     23.9068      7.7614      7.6152     11.0396     77.5372
  2332.9000     23.9068      7.7614      7.6152     11.0396     78.3837
  2333.0000     23.5968      7.7106      7.4487     10.6374     79.2553
  2333.1000     23.5968      7.7106      7.4487     10.6374     80.1047
  2333.2000     23.5968      7.7106      7.4487     10.6374     80.8738
  2333.3000     23.2880      7.6823      7.2917     10.2968     81.5031
  2333.4000     23.2880      7.6823      7.2917     10.2968     81.9383
  2333.5000     22.9634      7.6918      7.1489      9.9764     82.1416
  2333.6000     22.9634      7.6918      7.1489      9.9764     82.0954
  2333.7000     22.9634      7.6918      7.1489      9.9764     81.8081
  2333.8000     22.6322      7.7585      7.0296      9.7147     81.3114
  2333.9000     22.6322      7.7585      7.0296      9.7147     80.6558
  2334.0000     22.3121      7.8993      6.9470      9.6425     79.9049
