~Version Information
 VERS.                                  2.0 : CWLS LAS VERSION
 WRAP.                                   NO : WRAPING MODE
 SWARE .                 MController 2.5.0J : SOFTWARE VERSION
~Well Information
 WELL.                     Old Yeller 31-32 : WELL
 COMP.    Pioneer Natural Resources USA Inc : COMPANY
 FLD.                      Purgatoire River : FIELD
 LOC.                NW/NE Sec 32 T32S R67W : LOCATION
 DATE.                           8/23-28/05 : DATE(S) LOGGED
 SRVC.       BLANCO Geological Services LLC : SERVICE COMPANY
 STAT.                                   CO : STATE
 CNTY.                           Las Animas : COUNTY
 CTRY.                                  USA : COUNTRY
 API.                       05-071-08356-00 : API NUMBER
 STRT.FT                            1664.00 : START DEPTH
 STOP.FT                            2951.00 : STOP DEPTH
 STEP.FT                               1.00 : DEPTH INCREMENT
 NULL.                                -9999 : NULL VALUE
~Curve information
 DEPTH.FT                                   :
 ROP.MIN/FT                                 :
 GAS.UNITS                                  :
~ASCII Log data
# ...
      1864.0         0.90          6.1 
      1865.0         0.67          5.4 
      1866.0         0.68          4.4 
      1867.0         0.83          3.7 
      1868.0         1.03          2.4 
      1869.0         0.53          1.6 
      1870.0         0.35          1.6 
      1871.0         0.37          1.8 
      1872.0         0.80          1.6 
      1873.0         0.60          1.7 
      1874.0         0.63          2.0 
      1875.0         0.95          1.7 
      1876.0         0.73          2.3 
      1877.0         0.77          2.4 
      1878.0         0.63          2.3 
      1879.0         0.47          2.2 
      1880.0         0.62          2.3 
      1881.0         0.53          2.3 
      1882.0         0.83          1.9 
      1883.0         0.60          1.8 
      1884.0         0.80          1.4 
      1885.0         0.58          1.7 
      1886.0         0.40          1.4 
      1887.0         0.53          1.5 
      1888.0         0.53          1.7 
      1889.0         0.40          1.6 
      1890.0         0.40          1.4 
      1891.0         5.83        -11.2 
      1892.0         0.37        -11.2 
      1893.0         0.60        -11.1 
      1894.0         0.60        -11.3 
      1895.0         0.52        -11.3 
      1896.0         0.50        -11.2 
      1897.0         0.53        -11.1 
      1898.0         0.57        -11.3 
      1899.0         0.53        -11.2 
      1900.0         0.50        -11.2 
      1901.0         0.48        -11.2 
      1902.0         0.43        -11.3 
      1903.0         0.63        -11.2 
      1904.0         0.73        -11.2 
      1905.0         0.67        -11.3 
      1906.0         0.65        -11.2 
      1907.0         0.57        -11.1 
      1908.0         0.50        -11.3 
      1909.0         0.43        -11.2 
      1910.0         0.47        -11.3 
      1911.0         0.47        -11.2 
      1912.0         0.33        -11.1 
      1913.0         0.33        -11.3 
      1914.0         0.28        -11.2 
      1915.0         0.20        -11.2 
      1916.0         0.20        -11.2 
      1917.0         0.27        -11.3 
      1918.0         0.43        -11.2 
      1919.0         0.50        -11.3 
      1920.0         0.50        -11.2 
      1921.0         7.30        -11.2 
      1922.0         0.75        -11.1 
      1923.0         0.60        -11.3 
      1924.0         0.60        -11.2 
      1925.0         0.47        -11.2 
      1926.0         0.40        -11.2 
      1927.0         0.42        -11.3 
      1928.0         0.60        -11.3 
      1929.0         0.63        -11.3 
      1930.0         0.43        -11.3 
      1931.0         0.50        -11.3 
      1932.0         0.90        -11.3 
      1933.0         0.62        -11.3 
      1934.0         0.53        -11.2 
      1935.0         0.50        -11.1 
      1936.0         0.50        -11.2 
      1937.0         0.40        -11.3 
      1938.0         0.37        -11.4 
      1939.0         0.48        -11.3 
      1940.0         0.57        -11.2 
      1941.0         0.53        -11.2 
      1942.0         0.30        -11.2 
      1943.0         0.33        -11.3 
      1944.0         0.33        -11.3 
      1945.0         0.33        -11.3 
      1946.0         0.27        -11.3 
      1947.0         0.28        -11.3 
      1948.0         0.33        -11.2 
      1949.0         0.30        -11.3 
      1950.0         0.37        -11.2 
      1951.0         8.33        -11.3 
      1952.0         0.48        -11.3 
      1953.0         0.37        -11.3 
      1954.0         0.30        -11.3 
      1955.0         1.00        -11.3 
      1956.0         0.63        -11.3 
      1957.0         0.63        -11.3 
      1958.0         1.18        -11.2 
      1959.0         0.70        -11.3 
      1960.0         0.50        -11.3 
      1961.0         0.67        -11.1 
      1962.0         1.15        -11.3 
      1963.0         1.23        -11.3 
      1964.0         1.00        -11.3 
      1965.0         0.62        -11.3 
      1966.0         0.93        -11.2 
      1967.0         0.70        -11.2 
      1968.0         0.73        -11.2 
      1969.0         0.85        -11.1 
      1970.0         0.77        -11.3 
      1971.0         1.00        -11.3 
      1972.0         0.70        -11.3 
      1973.0         0.65        -11.3 
      1974.0         0.70        -11.3 
      1975.0         0.67        -11.3 
      1976.0         1.30        -11.2 
      1977.0         1.02        -11.2 
      1978.0         0.67        -11.3 
      1979.0         0.50        -11.2 
      1980.0         0.43        -11.3 
      1981.0         6.30        -11.2 
      1982.0         0.73        -11.3 
      1983.0         0.53        -11.3 
      1984.0         0.88        -11.2 
      1985.0         0.70        -11.3 
      1986.0         0.63        -11.3 
      1987.0         0.60        -11.2 
      1988.0         0.37        -11.3 
      1989.0         0.52        -11.3 
      1990.0         0.43        -11.3 
      1991.0         0.37        -11.2 
      1992.0         0.30        -11.2 
      1993.0         0.50        -11.3 
      1994.0         0.50        -11.3 
      1995.0         0.50        -11.2 
      1996.0         0.37        -11.3 
      1997.0         0.38        -11.1 
      1998.0         0.53        -11.3 
      1999.0         0.63        -11.2 
      2000.0         0.70        -11.3 
      2001.0         0.67        -11.3 
      2002.0         0.50        -11.2 
      2003.0         0.38        -11.3 
      2004.0         0.57        -11.3 
      2005.0         0.40        -11.1 
      2006.0         0.40        -11.2 
      2007.0         0.43        -11.3 
      2008.0         0.43        -11.3 
      2009.0         0.23        -11.2 
      2010.0         0.43        -11.3 
      2011.0         4.97        -11.3 
      2012.0         0.37        -11.3 
      2013.0         0.80        -11.3 
      2014.0         0.88        -11.3 
      2015.0         0.90        -11.3 
      2016.0         0.80        -11.3 
      2017.0         1.07        -11.3 
      2018.0         0.72        -11.3 
      2019.0         0.93        -11.3 
      2020.0         1.07        -11.2 
      2021.0         0.68        -11.1 
      2022.0         0.27        -11.2 
      2023.0         0.23        -11.2 
      2024.0         0.33        -11.3 
      2025.0         0.43        -11.3 
      2026.0         0.33        -11.3 
      2027.0         0.33        -11.3 
      2028.0         0.30        -11.3 
      2029.0         0.37        -11.3 
      2030.0         0.55        -11.3 
      2031.0         0.37        -11.2 
      2032.0         0.57        -11.3 
      2033.0         0.60        -11.3 
      2034.0         0.50        -11.3 
      2035.0         0.47        -11.3 
      2036.0         0.33        -11.2 
      2037.0         0.27        -11.3 
      2038.0         0.28        -11.2 
      2039.0         0.33        -11.2 
      2040.0         0.57        -11.2 
      2041.0         8.00        -11.3 
      2042.0         1.22        -11.3 
      2043.0         1.03        -11.2 
      2044.0         1.27        -11.3 
      2045.0         1.05        -11.3 
      2046.0         1.70        -11.2 
      2047.0         0.50        -11.3 
      2048.0         0.33        -11.3 
      2049.0         0.62        -11.3 
      2050.0         0.77        -11.3 
      2051.0         1.20        -11.3 
      2052.0         1.48        -11.3 
      2053.0         0.70        -11.3 
      2054.0         0.57        -11.3 
      2055.0         1.10        -11.3 
      2056.0         0.85        -11.2 
      2057.0         1.07        -11.3 
      2058.0         0.77        -11.1 
      2059.0         0.73        -11.1 
      2060.0         1.02        -11.3 
      2061.0         0.87        -11.2 
      2062.0         0.93        -11.2 
      2063.0         0.77        -11.1 
