~Version Information
VERS.                      2.0: CWLS Log ASCII Standard - VERSION 2.0
WRAP.                       NO: One line per depth step
~Well Information Block
STRT.FT               450.0000: 
STOP.FT              1739.2500: 
STEP.FT                 0.2500: 
NULL.                -999.2500: 
COMP.          Pioneer Natural Resources: COMPANY
WELL.            Harlee L 34-9: WELL
FLD.           Purgatoire River: FIELD
LOC.           600' FSL & 2125' FEL: LOCATION
PROV.                 Colorado: PROVINCE
CNTY.               Las Animas: COUNTRY
SRVC.                Patterson: SERVICE COMPANY
DATE.          Wed Jan 26 02:00:08 2005: LOG DATE
UWI.           05 071 08009 00: UNIQUE WELL ID
~Curve Information Block
DEPT.FT            0 000 00 00: Depth
SN.Ohm-m                      : IEL Short Normal
SP.mV                         : IEL Spontaneous Potential
DIR.Ohm-m                     : IEL Induction Resistivity
GR.GAPI                       : Gamma Ray
~Parameter Information Block
~A  Depth        SN          SP         DIR          GR     
# ...
   952.5000   2000.0000   2000.0000     17.0086    138.1671
   952.7500   2000.0000   2000.0000     17.2270    143.2996
   953.0000   2000.0000   2000.0000     17.4277    148.4332
   953.2500   2000.0000   2000.0000     17.6054    149.6865
   953.5000   2000.0000   2000.0000     17.7730    149.3508
   953.7500   2000.0000   2000.0000     17.9512    148.6926
   954.0000   2000.0000   2000.0000     18.1592    148.1013
   954.2500   2000.0000   2000.0000     18.4111    147.9288
   954.5000   2000.0000   2000.0000     18.7144    147.5033
   954.7500   2000.0000   2000.0000     19.0679    146.9077
   955.0000   2000.0000   2000.0000     19.4593    145.4320
   955.2500   2000.0000   2000.0000     19.8651    144.1391
   955.5000   2000.0000   2000.0000     20.2554    142.4064
   955.7500   2000.0000   2000.0000     20.6007    142.1395
   956.0000   2000.0000   2000.0000     20.8779    144.2302
   956.2500   2000.0000   2000.0000     21.0762    147.0716
   956.5000   2000.0000   2000.0000     21.2006    150.8145
   956.7500   2000.0000   2000.0000     21.2705    150.7570
   957.0000   2000.0000   2000.0000     21.3111    144.6119
   957.2500   2000.0000   2000.0000     21.3442    136.9884
   957.5000   2000.0000   2000.0000     21.3839    123.6404
   957.7500   2000.0000   2000.0000     21.4390    115.7719
   958.0000   2000.0000   2000.0000     21.5151    107.9715
   958.2500   2000.0000   2000.0000     21.6114    105.5218
   958.5000   2000.0000   2000.0000     21.7158    104.5867
   958.7500   2000.0000   2000.0000     21.8067    104.9613
   959.0000   2000.0000   2000.0000     21.8645    106.3535
   959.2500   2000.0000   2000.0000     21.8824    107.6264
   959.5000   2000.0000   2000.0000     21.8672    109.4115
   959.7500   2000.0000   2000.0000     21.8291    110.1097
   960.0000   2000.0000   2000.0000     21.7752    110.1816
   960.2500   2000.0000   2000.0000     21.7099    109.6895
   960.5000   2000.0000   2000.0000     21.6381    108.3084
   960.7500   2000.0000   2000.0000     21.5649    107.0108
   961.0000   2000.0000   2000.0000     21.4944    104.8691
   961.2500   2000.0000   2000.0000     21.4320    103.7039
   961.5000   2000.0000   2000.0000     21.3892    102.8355
   961.7500   2000.0000   2000.0000     21.3846    102.7373
   962.0000   2000.0000   2000.0000     21.4390    102.4609
   962.2500   2000.0000   2000.0000     21.5683    101.6196
   962.5000   2000.0000   2000.0000     21.7789     99.0126
   962.7500   2000.0000   2000.0000     22.0630     96.6768
   963.0000   2000.0000   2000.0000     22.3921     93.2902
   963.2500   2000.0000   2000.0000     22.7149     91.6281
   963.5000   2000.0000   2000.0000     22.9648     90.2724
   963.7500   2000.0000   2000.0000     23.0805     89.8605
   964.0000   2000.0000   2000.0000     23.0287     89.4594
   964.2500   2000.0000   2000.0000     22.8159     89.4027
   964.5000   2000.0000   2000.0000     22.4833     90.3961
   964.7500   2000.0000   2000.0000     22.0893     92.2424
   965.0000   2000.0000   2000.0000     21.6897     97.0498
   965.2500   2000.0000   2000.0000     21.3211    101.3247
   965.5000   2000.0000   2000.0000     20.9945    108.0681
   965.7500   2000.0000   2000.0000     20.7004    111.7829
   966.0000   2000.0000   2000.0000     20.4237    114.7342
   966.2500   2000.0000   2000.0000     20.1604    114.5607
   966.5000   2000.0000   2000.0000     19.9211    111.1879
   966.7500   2000.0000   2000.0000     19.7203    107.2334
   967.0000   2000.0000   2000.0000     19.5629     99.7529
   967.2500   2000.0000   2000.0000     19.4410     94.5530
   967.5000   2000.0000   2000.0000     19.3465     87.9907
   967.7500   2000.0000   2000.0000     19.2842     85.0460
   968.0000   2000.0000   2000.0000     19.2773     82.7424
   968.2500   2000.0000   2000.0000     19.3566     82.2176
   968.5000   2000.0000   2000.0000     19.5390     82.4643
   968.7500   2000.0000   2000.0000     19.8027     83.1633
   969.0000   2000.0000   2000.0000     20.0698     84.3384
   969.2500   2000.0000   2000.0000     20.2161     84.5416
   969.5000   2000.0000   2000.0000     20.1265     83.1817
   969.7500   2000.0000   2000.0000     19.7686     81.3430
   970.0000   2000.0000   2000.0000     19.2179     78.7217
   970.2500   2000.0000   2000.0000     18.6067     78.3061
   970.5000   2000.0000   2000.0000     18.0522     81.2753
   970.7500   2000.0000   2000.0000     17.6223     85.7659
   971.0000   2000.0000   2000.0000     17.3425     94.7650
   971.2500   2000.0000   2000.0000     17.2156    100.6059
   971.5000   2000.0000   2000.0000     17.2341    106.0519
   971.7500   2000.0000   2000.0000     17.3841    106.3846
   972.0000   2000.0000   2000.0000     17.6457    102.0867
   972.2500   2000.0000   2000.0000     17.9954     96.9422
   972.5000    648.4903   2000.0000     18.4110     87.5985
   972.7500    641.9802   2000.0000     18.8697     81.1676
   973.0000    624.9496   -296.8854     19.3439     72.6845
   973.2500    589.2350   -293.9225     19.7968     68.6590
   973.5000    528.5924   -289.0680     20.1910     66.0452
   973.7500    444.1368   -281.8438     20.5057     66.6515
   974.0000    346.1106   -272.0891     20.7476     70.4801
   974.2500    249.5497   -260.1436     20.9411     74.4038
   974.5000    167.3849   -246.8801     21.1050     81.1126
   974.7500    106.2036   -233.5260     21.2322     85.2974
   975.0000     66.1581   -221.3293     21.2831     89.7990
   975.2500     43.1932   -211.2157     21.1961     91.1340
   975.5000     31.6881   -203.5912     20.9200     90.6204
   975.7500     26.5689   -198.3527     20.4567     89.0239
   976.0000     24.3987   -195.0603     19.8834     85.8754
   976.2500     23.3846   -193.1565     19.3256     83.9676
   976.5000     22.8058   -192.1369     18.8995     82.3742
   976.7500     22.4310   -191.6302     18.6696     82.5025
   977.0000     22.1935   -191.4033     18.6424     84.3379
   977.2500     22.0668   -191.3278     18.7833     85.9991
   977.5000     22.0315   -191.3403     19.0391     87.4117
   977.7500     22.0627   -191.4111     19.3529     86.8229
   978.0000     22.1340   -191.5232     19.8025     83.3879
   978.2500     22.2311   -191.6634     20.1020     79.9155
   978.5000     22.3559   -191.8189     20.3683     74.4799
   978.7500     22.5094   -191.9795     20.6259     71.5606
   979.0000     22.6639   -192.1404     20.9158     68.7773
   979.2500     22.7558   -192.3053     21.2671     67.7027
   979.5000     22.7150   -192.4849     21.6680     66.6409
   979.7500     22.5188   -192.6929     22.0500     66.2350
   980.0000     22.2324   -192.9391     22.3042     66.1454
   980.2500     22.0054   -193.2233     22.3347     66.2968
   980.5000     22.0161   -193.5310     22.1230     66.5526
   980.7500     22.3878   -193.8349     21.7478     66.7569
   981.0000     23.1177   -194.1003     21.3348     67.2121
   981.2500     24.0596   -194.2948     20.9826    101.2456
   981.5000     24.9713   -194.3976     20.5617    101.3137
   981.7500     25.6126   -194.4059     20.4064    100.9071
   982.0000     25.8488   -194.3358     20.3418    100.0319
   982.2500     25.7026   -194.2185     20.3798     99.5498
   982.5000     25.3236   -194.0910     20.5333     99.1504
   982.7500     24.9018   -193.9870     20.7963     99.0289
   983.0000     24.5910   -193.9288     21.1456     98.8251
   983.2500     24.4769   -193.9249     21.5626     98.5748
   983.5000     24.5760   -193.9722     22.0476     98.0134
   983.7500     24.8473   -194.0630     22.6086     97.5210
   984.0000     25.2106   -194.1905     23.2353     96.5625
   984.2500     25.5764   -194.3503     23.8756     95.9504
   984.5000     25.8785   -194.5390     21.1374     96.0202
   984.7500     26.0948   -194.7489     21.4124     97.2940
   985.0000     26.2483   -194.9653     21.5025    100.9403
   985.2500     26.3877   -195.1675     21.4318    103.7019
   985.5000     26.5551   -195.3336     21.2808    106.4851
   985.7500     26.7580   -195.4463     21.1395    106.7468
