~Version Information
VERS.                      2.0: CWLS Log ASCII Standard - VERSION 2.0
WRAP.                       NO: One line per depth step
~Well Information Block
STRT.FT               258.0000: 
STOP.FT              1001.0000: 
STEP.FT                 0.2500: 
NULL.                -999.2500: 
COMP.          Pioneer Natural Resources: COMPANY
WELL.          Piggyback 33-25: WELL
FLD.           Purgatoire River: FIELD
LOC.           1600' FSL & 1800' FEL: LOCATION
PROV.                 Colorado: PROVINCE
CNTY.               Las Animas: COUNTRY
SRVC.                Patterson: SERVICE COMPANY
DATE.          Fri Apr 29 14:22:38 2005: LOG DATE
UWI.           05 071 08233 00: UNIQUE WELL ID
~Curve Information Block
DEPT.FT            0 000 00 00: Depth
SN.Ohm-m                      : IEL Short Normal
SP.mV                         : IEL Spontaneous Potential
DIR.Ohm-m                     : IEL Induction Resistivity
GR.GAPI                       : Gamma Ray
~Parameter Information Block
~A  Depth        SN          SP         DIR          GR     
# ...
   459.0000   2000.0000   2000.0000     14.3143    142.9035
   459.2500   2000.0000   2000.0000     14.1922    144.4881
   459.5000   2000.0000   2000.0000     14.1679    146.1620
   459.7500   2000.0000   2000.0000     14.2387    146.3367
   460.0000   2000.0000   2000.0000     14.4010    145.2224
   460.2500   2000.0000   2000.0000     14.6495    143.8649
   460.5000   2000.0000   2000.0000     14.9736    141.2530
   460.7500   2000.0000   2000.0000     15.3573    139.0203
   461.0000   2000.0000   2000.0000     15.7826    134.4961
   461.2500   2000.0000   2000.0000     16.2341    130.7816
   461.5000   2000.0000   2000.0000     16.7001    125.5525
   461.7500   2000.0000   2000.0000     17.1719    123.4486
   462.0000   2000.0000   2000.0000     17.6470    123.3092
   462.2500   2000.0000   2000.0000     18.1363    124.7259
   462.5000   2000.0000   2000.0000     18.6661    127.2995
   462.7500   2000.0000   2000.0000     19.2671    128.5336
   463.0000   2000.0000   2000.0000     19.9565    129.6548
   463.2500   2000.0000   2000.0000     20.7272    130.5898
   463.5000   2000.0000   2000.0000     21.5514    133.7615
   463.7500   2000.0000   2000.0000     22.3915    137.4690
   464.0000   2000.0000   2000.0000     23.2040    144.4153
   464.2500   2000.0000   2000.0000     23.9383    148.5332
   464.5000   2000.0000   2000.0000     24.5381    151.4686
   464.7500   2000.0000   2000.0000     24.9535    150.5568
   465.0000   2000.0000   2000.0000     25.1542    145.2771
   465.2500   2000.0000   2000.0000     25.1314    140.0585
   465.5000   2000.0000   2000.0000     24.8934    131.5813
   465.7500   2000.0000   2000.0000     24.4661    126.4097
   466.0000   2000.0000   2000.0000     23.8980    120.4822
   466.2500   2000.0000   2000.0000     23.2566    118.2991
   466.5000   2000.0000   2000.0000     22.6116    118.3824
   466.7500   2000.0000   2000.0000     22.0225    120.7144
   467.0000   2000.0000   2000.0000     21.5384    126.9380
   467.2500   2000.0000   2000.0000     21.1991    132.2130
   467.5000   2000.0000   2000.0000     21.0269    140.3852
   467.7500   2000.0000   2000.0000     21.0129    145.2673
   468.0000   2000.0000   2000.0000     21.1113    151.2632
   468.2500   2000.0000   2000.0000     21.2516    154.5271
   468.5000   2000.0000   2000.0000     21.3662    158.2343
   468.7500   2000.0000   2000.0000     21.4193    159.1510
   469.0000   2000.0000   2000.0000     21.4132    156.1382
   469.2500   2000.0000   2000.0000     21.3707    150.4244
   469.5000   2000.0000   2000.0000     21.3095    137.0403
   469.7500   2000.0000   2000.0000     21.2368    126.6901
   470.0000   2000.0000   2000.0000     21.1649    113.3556
   470.2500   2000.0000   2000.0000     21.1303    108.2141
   470.5000   2000.0000   2000.0000     21.1932    108.0855
   470.7500   2000.0000   2000.0000     21.4138    112.8273
   471.0000   2000.0000   2000.0000     21.8254    125.1067
   471.2500   2000.0000   2000.0000     22.4188    135.0418
   471.5000   2000.0000   2000.0000     23.1429    149.4375
   471.7500   2000.0000   2000.0000     23.9201    156.9171
   472.0000   2000.0000   2000.0000     24.6704    162.4759
   472.2500   2000.0000   2000.0000     25.3337    161.6953
   472.5000   2000.0000   2000.0000     25.8751    154.3957
   472.7500   2000.0000   2000.0000     26.2763    146.7306
   473.0000   2000.0000   2000.0000     26.5278    133.6812
   473.2500   2000.0000   2000.0000     26.6339    125.0047
   473.5000   2000.0000   2000.0000     26.6274    112.4879
   473.7500   2000.0000   2000.0000     26.5780    104.3118
   474.0000   2000.0000   2000.0000     26.5823     92.3252
   474.2500   2000.0000   2000.0000     26.7357     84.9554
   474.5000   2000.0000   2000.0000     27.0887     75.8720
   474.7500   2000.0000   2000.0000     27.6049     71.5317
   475.0000   2000.0000   2000.0000     28.1420     67.6644
   475.2500   2000.0000   2000.0000     28.4920     66.6648
   475.5000   2000.0000   2000.0000     28.4797     67.2317
   475.7500   2000.0000   2000.0000     28.0593     69.0285
   476.0000   2000.0000   2000.0000     27.3249     74.4574
   476.2500   2000.0000   2000.0000     26.4369     80.4158
   476.5000   2000.0000   2000.0000     25.5378     93.3708
   476.7500   2000.0000   2000.0000     24.7117    104.4118
   477.0000   2000.0000   2000.0000     23.9851    122.7137
   477.2500   2000.0000   2000.0000     23.3489    134.3168
   477.5000   2000.0000   2000.0000     22.7836    147.8858
   477.7500   2000.0000   2000.0000     22.2746    153.4938
   478.0000   2000.0000   2000.0000     21.8126    157.0440
   478.2500   2000.0000   2000.0000     21.3879    156.9373
   478.5000   2000.0000   2000.0000     20.9874    154.3656
   478.7500   2000.0000   2000.0000     20.5968    151.4820
   479.0000   2000.0000   2000.0000     20.2060    145.5538
   479.2500   2000.0000   2000.0000     19.8171    140.5143
   479.5000   2000.0000   2000.0000     19.4489    131.8423
   479.7500   2000.0000   2000.0000     19.1306    126.1163
   480.0000   2000.0000   2000.0000     18.8882    119.4114
   480.2500   2000.0000   2000.0000     18.7332    117.1698
   480.5000   2000.0000   2000.0000     18.6641    118.2720
   480.7500   2000.0000   2000.0000     18.6754    122.1465
   481.0000   2000.0000   2000.0000     18.7661    131.7847
   481.2500   2000.0000   2000.0000     18.9370    139.5782
   481.5000   2000.0000   2000.0000     19.1817    150.8118
   481.7500   2000.0000   2000.0000     19.4783    156.7771
   482.0000   2000.0000   2000.0000     19.7900    161.9954
   482.2500   2000.0000   2000.0000     20.0787    162.1492
   482.5000   2000.0000   2000.0000     20.3232    155.8047
   482.7500   2000.0000   2000.0000     20.5273    146.8687
   483.0000   2000.0000   2000.0000     20.7128    128.2000
   483.2500   2000.0000   2000.0000     20.9067    114.5086
   483.5000   2000.0000   2000.0000     21.1348     96.5699
   483.7500   2000.0000   2000.0000     21.4267     88.4664
   484.0000   2000.0000   2000.0000     21.8231     83.7508
   484.2500   2000.0000   2000.0000     22.3759     85.0335
   484.5000   2000.0000   2000.0000     23.1367     90.6886
   484.7500   2000.0000   2000.0000     24.1346     95.0513
   485.0000   2000.0000   2000.0000     25.3495    100.5969
   485.2500   2000.0000   2000.0000     26.6887    103.5948
   485.5000   2000.0000   2000.0000     27.9835    108.0789
   485.7500   2000.0000   2000.0000     29.0210    111.5424
   486.0000   2000.0000   2000.0000     29.6145    117.0105
   486.2500   2000.0000   2000.0000     29.6833    119.9367
   486.5000   2000.0000   2000.0000     29.2910    121.7806
   486.7500   2000.0000   2000.0000     28.6077    121.0494
   487.0000   2000.0000   2000.0000     27.8256    117.7843
   487.2500   2000.0000   2000.0000     27.0841    115.1603
   487.5000   2000.0000   2000.0000     26.4437    112.5591
   487.7500   2000.0000   2000.0000     25.9069    112.5904
   488.0000   2000.0000   2000.0000     25.4563    115.7865
   488.2500   2000.0000   2000.0000     25.0838    119.8619
   488.5000   2000.0000   2000.0000     24.7927    128.3442
   488.7500   2000.0000   2000.0000     24.5817    135.1338
   489.0000   2000.0000   2000.0000     24.4305    145.8618
   489.2500   2000.0000   2000.0000     24.3032    152.4311
   489.5000   2000.0000   2000.0000     24.1686    159.3953
   489.7500   2000.0000   2000.0000     24.0174    160.9164
   490.0000   2000.0000   2000.0000     23.8601    157.5412
   490.2500   2000.0000   2000.0000     23.7116    152.2315
   490.5000   2000.0000   2000.0000     23.5818    142.9471
   490.7500   2000.0000   2000.0000     23.4801    138.0280
   491.0000   2000.0000   2000.0000     23.4279    134.6181
   491.2500   2000.0000   2000.0000     23.4662    134.7198
   491.5000   2000.0000   2000.0000     23.6516    136.0516
   491.7500   2000.0000   2000.0000     24.0412    136.2259
   492.0000   2000.0000   2000.0000     24.6658    134.4812
   492.2500   2000.0000   2000.0000     25.5042    132.5382
