~Version Information
VERS.                      2.0: CWLS Log ASCII Standard - VERSION 2.0
WRAP.                       NO: One line per depth step
~Well Information Block
STRT.FT                -7.5000: 
STOP.FT              1716.7500: 
STEP.FT                 0.2500: 
NULL.                -999.2500: 
COMP.          Pioneer Natural Resources: COMPANY
WELL.          Lookout Point 31-23 Tr: WELL
FLD.           Purgatorie River: FIELD
LOC.           541' FNL & 1786' FEL--------: LOCATION
PROV.                       CO: PROVINCE
CNTY.               Las Animas: COUNTRY
SRVC.                         : SERVICE COMPANY
DATE.          Fri Jan 28 08:30:47 2005: LOG DATE
UWI.         005 071 08260 : UNIQUE WELL ID
~Curve Information Block
DEPT.FT            0 000 00 00: Depth
CCL.                          : Casing Collar Locator
TT3.usec                      : CBL 3' Travel Time
AMP3.mV                       : CBL 3' Amplitude
GR.GAPI                       : Gamma Ray
~Parameter Information Block
~A  Depth       CCL         TT3         AMP3         GR     
# ...
  1098.0000      0.0000    516.4867      5.8174    161.7563
  1098.2500      0.0000    567.6233      5.7962    152.1813
  1098.5000      0.0000    618.2413      5.7785    139.7039
  1098.7500      0.0000    657.1514      5.6850    127.9203
  1099.0000      0.0000    679.8943      5.4704    120.0448
  1099.2500      0.0000    689.5984      5.1784    117.4731
  1099.5000      0.0000    692.5693      4.9385    119.3328
  1099.7500      0.0000    693.9961      4.8900    123.1625
  1100.0000      0.0000    696.7761      5.0846    126.5911
  1100.2500      0.0000    702.1172      5.4431    128.7476
  1100.5000      0.0000    709.8711      5.8113    130.0956
  1100.7500      0.0000    718.5818      6.0687    131.1764
  1101.0000      0.0000    726.2092      6.1862    131.7967
  1101.2500      0.0000    731.4023      6.1954    131.4343
  1101.5000      0.0000    734.1539      6.1431    130.2510
  1101.7500      0.0000    735.3401      6.0852    129.3924
  1102.0000      0.0000    735.8324      6.0774    129.9483
  1102.2500      0.0000    736.0355      6.1322    131.8556
  1102.5000      0.0000    736.0036      6.1988    134.2391
  1102.7500      0.0000    735.7411      6.2018    136.5659
  1103.0000      0.0000    735.3283      6.1079    138.8830
  1103.2500      0.0000    734.8350      5.9533    141.1514
  1103.5000      0.0000    734.1868      5.7988    142.9208
  1103.7500      0.0000    733.1036      5.6606    143.6281
  1104.0000      0.0000    731.1992      5.5124    143.2033
  1104.2500      0.0000    728.3489      5.3490    142.7961
  1104.5000      0.0000    725.0566      5.1997    144.5680
  1104.7500      0.0000    722.2215      5.0679    149.5976
  1105.0000      0.0000    720.3335      4.9062    155.6830
  1105.2500      0.0000    718.9808      4.6716    158.3084
  1105.5000      0.0000    717.0211      4.3870    154.5650
  1105.7500      0.0000    713.0776      4.1426    145.8555
  1106.0000      0.0000    706.5550      4.0420    136.6429
  1106.2500      0.0000    699.0105      4.1285    131.0104
  1106.5000      0.0000    694.0636      4.3479    130.1288
  1106.7500      0.0000    694.9453      4.5886    132.0747
  1107.0000      0.0000    701.9385      4.7571    133.8127
  1107.2500      0.0000    712.1119      4.8150    133.8810
  1107.5000      0.0000    721.0073      4.7732    133.3704
  1107.7500      0.0000    724.2741      4.6805    134.2361
  1108.0000      2.0000    718.5525      4.6135    136.9490
  1108.2500      0.0000    702.4890      4.6584    140.1251
  1108.5000      0.0000    678.0857      4.8806    142.0998
  1108.7500      0.0000    650.6123      5.2815    142.1615
  1109.0000      0.0000    625.4674      5.7715    140.2886
  1109.2500      0.0000    603.7000      6.2146    136.6111
  1109.5000      0.0000    580.6037      6.5294    131.6044
  1109.7500      0.0000    550.7351      6.7320    126.2716
  1110.0000      0.0000    516.8947      6.8714    121.6011
  1110.2500      0.0000    493.5339      6.9514    117.9396
  1110.5000      0.0000    497.4074      6.9262    114.9460
  1110.7500      0.0000    531.9034      6.7563    112.0244
  1111.0000      0.0000    579.9910      6.4742    108.8917
  1111.2500      0.0000    613.3032      6.1939    105.9734
  1111.5000      0.0000    610.4505      6.0283    104.1462
  1111.7500      0.0000    570.7682      5.9957    103.8443
  1112.0000      0.0000    514.5954      6.0289    104.3755
  1112.2500      0.0000    470.2518      6.0565    104.2696
  1112.5000      0.0000    456.2828      6.0355    102.4807
  1112.7500      0.0000    471.4095      5.9320     99.3121
  1113.0000      0.0000    499.2444      5.7351     96.2691
  1113.2500      0.0000    523.4381      5.5001     95.2545
  1113.5000      0.0000    540.2036      5.3369     97.7999
  1113.7500      0.0000    557.7846      5.3265    104.3601
  1114.0000      0.0000    585.0333      5.4549    113.7951
  1114.2500      0.0000    621.4238      5.6461    123.7036
  1114.5000      0.0000    658.3163      5.8540    131.7755
  1114.7500      0.0000    688.3521      6.0932    137.0610
  1115.0000      0.0000    711.1623      6.3819    139.9652
  1115.2500      0.0000    730.3082      6.6838    141.3348
  1115.5000      0.0000    747.6179      6.9194    141.9083
  1115.7500      0.0000    761.5598      7.0279    142.3828
  1116.0000      0.0000    769.5201      7.0138    143.1807
  1116.2500      0.0000    770.4816      6.9225    143.9490
  1116.5000      0.0000    766.1113      6.7761    144.1062
  1116.7500      0.0000    759.9523      6.5557    144.3728
  1117.0000      0.0000    755.3792      6.2515    146.9963
  1117.2500      0.0000    754.0540      5.9015    153.7823
  1117.5000      0.0000    755.7990      5.5663    164.0791
  1117.7500      0.0000    758.9487      5.2809    174.7222
  1118.0000      0.0000    760.6852      5.0472    181.5679
  1118.2500      0.0000    758.5224      4.8660    181.5454
  1118.5000      0.0000    752.4664      4.7533    174.2399
  1118.7500      0.0000    745.1400      4.7136    161.8173
  1119.0000      0.0000    739.3843      4.7242    147.2766
  1119.2500      0.0000    736.2522      4.7728    132.8497
  1119.5000      0.0000    735.2820      4.8872    119.8886
  1119.7500      0.0000    735.9097      5.0992    109.5452
  1120.0000      0.0000    738.2333      5.3887    102.9797
  1120.2500      0.0000    742.5398      5.6913    100.9766
  1120.5000      0.0000    748.1663      5.9550    103.4957
  1120.7500      0.0000    753.1608      6.1692    109.4513
  1121.0000      0.0000    755.7930      6.3467    116.8406
  1121.2500      0.0000    756.5874      6.4999    123.3584
  1121.5000      0.0000    757.9474      6.6370    127.2430
  1121.7500      0.0000    760.9176      6.7638    127.9828
  1122.0000      0.0000    762.0470      6.8602    126.6363
  1122.2500      0.0000    753.4675      6.8599    125.4573
  1122.5000      0.0000    727.1470      6.6880    126.5021
  1122.7500      0.0000    681.4808      6.3428    129.8897
  1123.0000      0.0000    624.9193      5.9321    133.3490
  1123.2500      0.0000    571.7758      5.6139    133.9018
  1123.5000      0.0000    533.0247      5.4903    130.3654
  1123.7500      0.0000    510.8331      5.5470    124.3561
  1124.0000      0.0000    500.7462      5.6850    118.7888
  1124.2500      0.0000    497.0599      5.8144    115.3695
  1124.5000      0.0000    495.9872      5.9169    113.6268
  1124.7500      0.0000    495.8066      6.0257    112.1398
  1125.0000      0.0000    495.8270      6.1626    110.0264
  1125.2500      0.0000    495.5264      6.3055    107.0650
  1125.5000      0.0000    494.0411      6.4107    103.0931
  1125.7500      0.0000    490.1232      6.4606     98.1106
  1126.0000      0.0000    482.7937      6.4828     92.9474
  1126.2500      0.0000    472.4209      6.5132     89.2019
  1126.5000      0.0000    461.2341      6.5476     88.0397
  1126.7500      0.0000    452.7600      6.5395     89.0705
  1127.0000      0.0000    450.5133      6.4393     90.6406
  1127.2500      0.0000    456.1231      6.2356     91.3011
  1127.5000      0.0000    467.7311      5.9685     90.9150
  1127.7500      0.0000    480.7400      5.7134     90.3168
  1128.0000      0.0000    490.9830      5.5467     90.0750
  1128.2500      0.0000    497.1079      5.5080     89.8417
  1128.5000      0.0000    500.1082      5.5739     88.9645
  1128.7500      0.0000    501.5005      5.6662     87.5112
  1129.0000      0.0000    502.2528      5.7063     86.3100
  1129.2500      0.0000    502.8015      5.6697     85.9609
  1129.5000      0.0000    503.4107      5.5817     86.1587
  1129.7500      0.0000    504.4698      5.4785     86.2725
  1130.0000      0.0000    506.5483      5.4045     86.2360
  1130.2500      0.0000    510.1142      5.4290     86.3717
  1130.5000      0.0000    515.1071      5.6152     86.5718
  1130.7500      0.0000    520.7546      5.9529     86.2787
  1131.0000      0.0000    525.6041      6.3374     85.1914
  1131.2500      0.0000    527.2455      6.6287     83.6508
