~Version Information
VERS.                      2.0: CWLS Log ASCII Standard - VERSION 2.0
WRAP.                       NO: One line per depth step
~Well Information Block
STRT.FT               550.0000: 
STOP.FT              1577.7000: 
STEP.FT                 0.1000: 
NULL.                -999.2500: 
COMP.          Pioneer Natural Resources: COMPANY
WELL.          Kristin 22-23 Tr: WELL
FLD.           Purgatoire River: FIELD
LOC.           2273' FNL & 2029' FWL: LOCATION
PROV.                 Colorado: PROVINCE
CNTY.               Las Animas: COUNTRY
SRVC.                Patterson: SERVICE COMPANY
DATE.          Fri Jan 21 06:58:50 2005: LOG DATE
UWI.           05 071 08259 00: UNIQUE WELL ID
~Curve Information Block
DEPT.FT            0 000 00 00: Depth
DCAL.in                       : CDL Caliper
RHOB.g/cc                     : CDL Bulk Density
RHOC.g/cc                     : CDL Density Correction
DPOR.pu                       : CDL Density Porosity
NPOR.pu                       : Neutron Porosity
GR.GAPI                       : Gamma Ray
~Parameter Information Block
~A  Depth       DCAL        RHOB        RHOC        DPOR        NPOR         GR     
# ...
   953.2000      7.9388      2.7730      0.0713     -7.4562     19.9067     61.9918
   953.3000      7.9381      2.7719      0.0822     -7.3851     18.6131     60.7105
   953.4000      7.9381      2.7435      0.0218     -5.6697     16.6446     62.0353
   953.5000      7.9381      2.7112      0.0159     -3.7120     15.2232     66.7868
   953.6000      7.9381      2.6912      0.0286     -2.4979     14.7391     71.5602
   953.7000      7.9381      2.6783      0.0253     -1.7166     14.9083     73.7186
   953.8000      7.9383      2.6632      0.0568     -0.8019     15.1676     72.3206
   953.9000      7.9383      2.6520     -0.0068     -0.1196     15.4414     68.4493
   954.0000      7.9378      2.6561      0.0626     -0.3681     16.0935     66.2780
   954.1000      7.9378      2.6599      0.1120     -0.6006     16.9500     67.4521
   954.2000      7.9378      2.6443      0.0971      0.3471     17.6004     72.8718
   954.3000      7.9375      2.6257      0.0333      1.4737     18.0101     83.4969
   954.4000      7.9375      2.6312      0.0605      1.1387     17.8725     95.4312
   954.5000      7.9380      2.6548      0.1087     -0.2903     17.3056    100.9699
   954.6000      7.9380      2.6743      0.0863     -1.4745     17.2389     99.3245
   954.7000      7.9380      2.6784      0.1129     -1.7233     17.9737     96.3208
   954.8000      7.9370      2.6640      0.0664     -0.8460     18.9224     92.9830
   954.9000      7.9370      2.6458      0.0539      0.2544     19.7172     87.2055
   955.0000      7.9302      2.6379      0.0848      0.7303     20.3653     83.3318
   955.1000      7.9302      2.6274      0.0696      1.3709     20.7764     84.3856
   955.2000      7.9302      2.5970      0.0782      3.2099     20.8938     85.7430
   955.3000      7.9206      2.5652     -0.0173      5.1422     20.9238     85.2870
   955.4000      7.9206      2.5647     -0.0088      5.1698     21.3502     86.7099
   955.5000      7.9160      2.5844      0.1114      3.9738     22.6305     94.6165
   955.6000      7.9160      2.5868      0.0537      3.8309     24.2522    106.4818
   955.7000      7.9160      2.5599      0.0538      5.4628     25.2759    112.1710
   955.8000      7.9174      2.5204      0.0311      7.8527     25.8773    109.2959
   955.9000      7.9174      2.4936      0.0482      9.4802     26.6045    108.4946
   956.0000      7.9256      2.4857      0.0763      9.9576     27.2436    113.7785
   956.1000      7.9256      2.4859      0.0572      9.9457     27.4847    118.2856
   956.2000      7.9256      2.4875      0.0469      9.8493     27.5356    120.6668
   956.3000      7.9427      2.4905      0.0652      9.6656     27.5807    124.1157
   956.4000      7.9427      2.4944      0.1065      9.4325     27.2951    129.4631
   956.5000      7.9743      2.4965      0.0939      9.3024     26.6443    134.4357
   956.6000      7.9743      2.4991      0.0760      9.1444     26.2437    138.0197
   956.7000      7.9743      2.5059      0.1165      8.7317     26.4216    142.2188
   956.8000      8.0249      2.5155      0.1171      8.1533     27.1162    147.7718
   956.9000      8.0249      2.5238      0.1280      7.6513     28.2522    153.0342
   957.0000      8.0802      2.5265      0.1277      7.4841     29.2495    157.2653
   957.1000      8.0802      2.5260      0.1007      7.5142     29.3971    160.6714
   957.2000      8.0802      2.5219      0.1323      7.7618     29.1150    162.7348
   957.3000      8.1168      2.5032      0.1010      8.8968     29.2072    161.1127
   957.4000      8.1168      2.4716      0.0470     10.8128     29.8693    152.7562
   957.5000      8.1337      2.4345      0.0759     13.0602     31.0263    141.2324
   957.6000      8.1337      2.3849      0.0337     16.0669     32.1967    131.5537
   957.7000      8.1337      2.3107      0.0290     20.5666     32.8974    123.1788
   957.8000      8.1422      2.2046      0.0202     26.9916     33.5041    116.6762
   957.9000      8.1422      2.0771     -0.0549     34.7242     34.3570    113.3423
   958.0000      8.1568      1.9504     -0.0860     42.4008     34.9767    111.8743
   958.1000      8.1568      1.8366     -0.0822     49.2949     35.1205    107.2668
   958.2000      8.1568      1.7384     -0.1231     55.2466     35.0708     98.9060
   958.3000      8.2006      1.6649     -0.1395     59.7021     34.9159     93.2658
   958.4000      8.2006      1.6235     -0.1062     62.2145     34.8884     93.7956
   958.5000      8.2759      1.6112     -0.0742     62.9555     35.2523     98.3101
   958.6000      8.2759      1.6231      0.0353     62.2378     35.5804    104.7868
   958.7000      8.2759      1.6457      0.1376     60.8692     35.3619    109.6399
   958.8000      8.3544      1.6592      0.1834     60.0479     34.6821    106.9171
   958.9000      8.3544      1.6598      0.1546     60.0098     33.7742     97.5623
   959.0000      8.3618      1.6680      0.1175     59.5169     33.1411     89.6963
   959.1000      8.3618      1.7058      0.0909     57.2226     33.3093     85.1446
   959.2000      8.3618      1.7674      0.1207     53.4904     33.9658     81.9023
   959.3000      8.2969      1.8260      0.1035     49.9416     34.4642     81.3051
   959.4000      8.2969      1.8759      0.0877     46.9141     34.2828     80.7767
   959.5000      8.2432      1.9358      0.1282     43.2835     33.2486     79.6384
   959.6000      8.2432      2.0091      0.2388     38.8420     31.8814     83.0775
   959.7000      8.2432      2.0755      0.2759     34.8157     30.9002     91.4268
   959.8000      8.2134      2.1176      0.2281     32.2650     30.5865    100.3880
   959.9000      8.2134      2.1206      0.2355     32.0835     30.7358    106.3466
   960.0000      8.1954      2.0670      0.1768     35.3320     31.2042    108.9161
   960.1000      8.1954      1.9623      0.0453     41.6818     32.1066    110.9316
   960.2000      8.1954      1.8459     -0.0753     48.7319     33.2983    112.8853
   960.3000      8.1880      1.7645     -0.1220     53.6674     34.2870    113.5681
   960.4000      8.1880      1.7343     -0.0873     55.4994     34.8085    115.1268
   960.5000      8.1923      1.7408     -0.0542     55.1016     34.8222    120.2661
   960.6000      8.1923      1.7721     -0.0084     53.2041     34.1261    127.0517
   960.7000      8.1923      1.8314      0.0239     49.6124     32.5693    131.0151
   960.8000      8.1966      1.9172      0.1404     44.4128     30.9206    127.5549
   960.9000      8.1966      2.0148      0.1982     38.4966     30.3640    117.9635
   961.0000      8.1891      2.1148      0.2342     32.4353     30.5981    110.0098
   961.1000      8.1891      2.2135      0.2732     26.4556     30.7677    108.6273
   961.2000      8.1891      2.2995      0.2783     21.2436     30.7945    111.0721
   961.3000      8.1791      2.3625      0.2236     17.4260     30.9312    112.8157
   961.4000      8.1791      2.4036      0.1671     14.9321     31.2972    115.9064
   961.5000      8.1655      2.4282      0.1396     13.4418     31.5030    125.4280
   961.6000      8.1655      2.4340      0.1336     13.0919     31.0509    137.4212
   961.7000      8.1655      2.4203      0.1002     13.9204     30.1671    146.5595
   961.8000      8.1570      2.4052      0.0280     14.8357     29.7292    155.3728
   961.9000      8.1570      2.4097      0.0701     14.5651     29.8217    158.7802
   962.0000      8.1572      2.4318      0.0626     13.2223     29.6247    150.8474
   962.1000      8.1572      2.4501      0.1119     12.1153     28.7684    138.9982
   962.2000      8.1572      2.4498      0.0570     12.1329     27.8856    130.1792
   962.3000      8.1588      2.4442      0.0595     12.4712     27.2969    126.0054
   962.4000      8.1588      2.4485      0.0883     12.2127     26.6033    128.1938
   962.5000      8.1684      2.4622      0.0638     11.3843     25.9248    136.0490
   962.6000      8.1684      2.4856      0.0678      9.9651     25.5891    145.0387
   962.7000      8.1684      2.5128      0.0957      8.3136     25.5795    146.9699
