~Version Information
 VERS.                                  2.0 : CWLS LAS VERSION
 WRAP.                                   NO : WRAPING MODE
 SWARE .                 MController 2.5.0J : SOFTWARE VERSION
~Well Information
 WELL.                        Rancher 12-35 : WELL
 COMP.        Pioneer Natural Resources Inc : COMPANY
 FLD.                      PURGATOIRE RIVER : FIELD
 LOC.                    SW/NW 35 T32S R67W : LOCATION
 DATE.                             10/11/04 : DATE(S) LOGGED
 SRVC.       BLANCO GEOLOGICAL SERVICES LLC : SERVICE COMPANY
 STAT.                             COLORADO : STATE
 CNTY.                           LAS ANIMAS : COUNTY
 CTRY.                                  USA : COUNTRY
 API.                       05-071-08179-00 : API NUMBER
 STRT.FT                             449.00 : START DEPTH
 STOP.FT                            2520.00 : STOP DEPTH
 STEP.FT                               1.00 : DEPTH INCREMENT
 NULL.                                -9999 : NULL VALUE
~Curve information
 DEPTH.FT                                   :
 ROP.MIN/FT                                 :
 GAS.UNITS                                  :
~ASCII Log data
# ...
       849.0         0.17       2535.8 
       850.0         0.17       2249.1 
       851.0         0.20       2003.5 
       852.0         0.17       1880.8 
       853.0         0.20       1793.2 
       854.0         0.20       1733.9 
       855.0         0.13       1693.8 
       856.0         0.27       1596.5 
       857.0         0.23       1496.7 
       858.0         0.25       1419.6 
       859.0         0.27       1374.8 
       860.0         0.23       1341.1 
       861.0         0.20       1314.5 
       862.0         0.20       1299.3 
       863.0         0.23       1292.9 
       864.0         0.17       1286.5 
       865.0         0.23       1273.7 
       866.0         0.20       1259.9 
       867.0         0.27       1255.5 
       868.0         0.20       1249.4 
       869.0         0.20       1239.0 
       870.0         0.20       1223.2 
       871.0         0.27       6719.2 
       872.0         0.30       4156.3 
       873.0         0.33       2677.3 
       874.0         0.33       1877.8 
       875.0         0.23       1575.9 
       876.0         0.27       1374.4 
       877.0         0.25       1275.7 
       878.0         0.20       1276.1 
       879.0         0.10       1307.1 
       880.0         0.20       1357.9 
       881.0         0.17       1372.4 
       882.0         0.23       1367.4 
       883.0         0.20       1344.4 
       884.0         0.23       1285.5 
       885.0         0.17       1236.3 
       886.0         0.17       1189.1 
       887.0         0.17       1150.7 
       888.0         0.13       1125.5 
       889.0         0.07       1114.3 
       890.0         0.17       1086.7 
       891.0         0.17       1069.9 
       892.0         0.17       1057.4 
       893.0         0.20       1032.5 
       894.0         0.20        994.1 
       895.0         0.25        951.6 
       896.0         0.20        934.1 
       897.0         0.20        934.1 
       898.0         0.27        936.4 
       899.0         0.20        935.1 
       900.0         0.27       4408.0 
       901.0         0.20       5166.1 
       902.0         0.23       6079.1 
       903.0         0.27       7111.4 
       904.0         0.20       7600.6 
       905.0         0.17       7785.9 
       906.0         0.20       7494.8 
       907.0         0.27       5349.0 
       908.0         0.25       3510.5 
       909.0         0.20       2627.4 
       910.0         0.13       2231.2 
       911.0         0.20       1791.9 
       912.0         0.17       1547.3 
       913.0         0.10       1445.2 
       914.0         0.13       1344.1 
       915.0         0.20       1236.3 
       916.0         0.27       1129.8 
       917.0         0.20       1056.4 
       918.0         0.23        969.1 
       919.0         0.23        894.7 
       920.0         0.23        841.1 
       921.0         0.23        807.7 
       922.0         0.23        782.5 
       923.0         0.23        763.6 
       924.0         0.25        752.2 
       925.0         0.23        741.0 
       926.0         0.20        731.6 
       927.0         0.23        721.5 
       928.0         0.13        714.1 
       929.0         0.10        712.1 
       930.0         0.20       1608.3 
       931.0         0.23       2062.7 
       932.0         0.27       2679.3 
       933.0         0.17       2888.9 
       934.0         0.37       2507.5 
       935.0         0.23       1779.4 
       936.0         0.23       1335.0 
       937.0         0.20       1111.0 
       938.0         0.13       1013.6 
       939.0         0.10        955.3 
       940.0         0.13        885.2 
       941.0         0.20        801.3 
       942.0         0.20        747.1 
       943.0         0.20        703.3 
       944.0         0.22        666.6 
       945.0         0.20        623.5 
       946.0         0.20        588.1 
       947.0         0.20        567.9 
       948.0         0.20        558.8 
       949.0         0.17        556.4 
       950.0         0.17        556.7 
       951.0         0.20        551.4 
       952.0         0.17        541.9 
       953.0         0.20        526.8 
       954.0         0.17        517.7 
       955.0         0.20        502.5 
       956.0         0.17        491.4 
       957.0         0.17        477.9 
       958.0         0.20        474.2 
       959.0         0.13        469.1 
       960.0         0.20        465.1 
       961.0         0.27       2228.2 
       962.0         0.23       2194.1 
       963.0         0.23       1879.8 
       964.0         0.27       1472.5 
       965.0         0.27       1149.0 
       966.0         0.23        928.0 
       967.0         0.27        774.1 
       968.0         0.32        659.5 
       969.0         0.30        601.9 
       970.0         0.27        565.8 
       971.0         0.30        530.8 
       972.0         0.20        530.5 
       973.0         0.13        531.8 
       974.0         0.10        530.1 
       975.0         0.13        518.0 
       976.0         0.13        492.7 
       977.0         0.10        475.9 
       978.0         0.13        458.0 
       979.0         0.13        444.2 
       980.0         0.10        440.0 
       981.0         0.13        440.0 
       982.0         0.13        175.4 
       983.0         0.23        185.6 
       984.0         0.20        205.9 
       985.0         0.23        225.5 
       986.0         0.20        236.4 
       987.0         0.18        239.4 
       988.0         0.17        242.2 
       989.0         0.17        244.6 
       990.0         0.27        354.4 
       991.0         0.28       1115.0 
       992.0         0.27       1584.3 
       993.0         0.33       1981.9 
       994.0         0.20       1991.7 
       995.0         0.20       1732.2 
       996.0         0.20       1416.5 
       997.0         0.17       1236.3 
       998.0         0.17       1130.2 
       999.0         0.17       1060.8 
      1000.0         0.17       1009.9 
      1001.0         0.17        968.1 
      1002.0         0.13        938.5 
      1003.0         0.17        908.5 
      1004.0         0.13        891.3 
      1005.0         0.20        879.5 
      1006.0         0.13        879.8 
      1007.0         0.20        880.5 
      1008.0         0.17        893.3 
      1009.0         0.15        923.3 
      1010.0         0.17        976.2 
      1011.0         0.13       1015.3 
      1012.0         0.13       1053.0 
      1013.0         0.17       1090.4 
      1014.0         0.10       1108.3 
      1015.0         0.10       1121.4 
      1016.0         0.10       1133.5 
      1017.0         0.20       1151.7 
      1018.0         0.27       1173.0 
      1019.0         0.13       1182.4 
      1020.0         0.27       5920.4 
      1021.0         0.28       6062.3 
      1022.0         0.30       4870.3 
      1023.0         0.22       3673.9 
      1024.0         0.33       2656.4 
      1025.0         0.20       2271.6 
      1026.0         0.33       1938.1 
      1027.0         0.27       1776.4 
      1028.0         0.10       1729.2 
      1029.0         0.17       1655.8 
      1030.0         0.13       1595.1 
      1031.0         0.17       1537.2 
      1032.0         0.13       1506.5 
      1033.0         0.17       1484.6 
      1034.0         0.17       1463.4 
      1035.0         0.20       1438.1 
      1036.0         0.17       1407.8 
      1037.0         0.17       1361.3 
      1038.0         0.17       1313.8 
      1039.0         0.15       1284.1 
      1040.0         0.13       1272.7 
      1041.0         0.13       1273.0 
      1042.0         0.13       1281.8 
      1043.0         0.17       1295.9 
      1044.0         0.13       1301.7 
      1045.0         0.20       1297.3 
      1046.0         0.13       1278.8 
      1047.0         0.13       1262.9 
      1048.0         0.20       1256.9 
