~Version Information
VERS.                      2.0: CWLS Log ASCII Standard - VERSION 2.0
WRAP.                       NO: One line per depth step
~Well Information Block
STRT.FT               550.0000: 
STOP.FT              2359.0000: 
STEP.FT                 0.1000: 
NULL.                -999.2500: 
COMP.          Pioneer Natural Resources: COMPANY
WELL.              Whinny 42-2: WELL
FLD.           Purgatoire River: FIELD
LOC.           1836' FNL & 466' FEL: LOCATION
PROV.                 Colorado: PROVINCE
CNTY.               Las Animas: COUNTRY
SRVC.                Patterson: SERVICE COMPANY
DATE.          Mon Aug 22 07:28:42 2005: LOG DATE
UWI.           05 071 08406 00: UNIQUE WELL ID
~Curve Information Block
DEPT.FT            0 000 00 00: Depth
DCAL.in                       : CDL Caliper
RHOB.g/cc                     : CDL Bulk Density
RHOC.g/cc                     : CDL Density Correction
DPOR.pu                       : CDL Density Porosity
GR.GAPI                       : Gamma Ray
NPOR.pu                       : Neutron Porosity
~Parameter Information Block
~A  Depth       DCAL        RHOB        RHOC        DPOR         GR         NPOR    
# ...
  2105.2000      7.8876      2.5154      0.1175      8.1570    109.4459     24.6264
  2105.3000      7.8880      2.5027      0.0290      8.9263    120.3640     23.4425
  2105.4000      7.8880      2.4988      0.0059      9.1634    121.8220     23.0723
  2105.5000      7.8934      2.5190      0.0479      7.9390    115.7256     23.7524
  2105.6000      7.8934      2.5376      0.0834      6.8146    112.7274     24.7916
  2105.7000      7.8934      2.5306      0.0368      7.2339    114.4137     25.5841
  2105.8000      7.8948      2.5091      0.0720      8.5382    112.0808     25.9849
  2105.9000      7.8948      2.4959     -0.0136      9.3369    104.9864     25.8719
  2106.0000      7.9041      2.4979      0.0211      9.2154     97.9715     25.5987
  2106.1000      7.9041      2.5032      0.0560      8.8972     94.4500     25.4715
  2106.2000      7.9041      2.5113     -0.0248      8.4042     96.8955     25.4646
  2106.3000      7.9100      2.5311      0.0914      7.2050    101.1406     25.6888
  2106.4000      7.9100      2.5544      0.0426      5.7962    102.1696     26.1645
  2106.5000      7.9284      2.5712      0.0779      4.7757    102.5678     26.2540
  2106.6000      7.9284      2.5732      0.0737      4.6563    103.1032     25.5637
  2106.7000      7.9284      2.5590      0.0544      5.5125    102.8076     24.8095
  2106.8000      7.9595      2.5424      0.0227      6.5182    104.5087     24.7804
  2106.9000      7.9595      2.5370      0.0200      6.8470    105.2883     25.5506
  2107.0000      7.9645      2.5424      0.0516      6.5241    103.4010     26.7319
  2107.1000      7.9645      2.5449      0.0449      6.3699    105.1986     27.7826
  2107.2000      7.9645      2.5346      0.0695      6.9969    110.3341     27.9824
  2107.3000      7.9646      2.5120      0.0114      8.3632    110.8399     27.3096
  2107.4000      7.9646      2.4885      0.0310      9.7875    105.0056     26.8415
  2107.5000      7.9540      2.4767      0.0065     10.5032     96.9103     27.3151
  2107.6000      7.9540      2.4741      0.0253     10.6620     89.8106     28.0938
  2107.7000      7.9540      2.4702     -0.0004     10.8981     88.2527     27.9344
  2107.8000      7.9024      2.4685      0.0065     10.9991     94.8454     26.8359
  2107.9000      7.9024      2.4779      0.0627     10.4326    103.9188     26.0279
  2108.0000      7.8929      2.4970      0.0528      9.2707    105.1390     26.1627
  2108.1000      7.8929      2.5153      0.0980      8.1617     97.9494     26.7669
  2108.2000      7.8929      2.5220      0.0848      7.7560     94.5171     27.0393
  2108.3000      7.8946      2.5198      0.1010      7.8912    102.1571     26.4532
  2108.4000      7.8946      2.5209      0.0730      7.8249    113.0808     25.2181
  2108.5000      7.8775      2.5388      0.0688      6.7381    114.7282     24.0581
  2108.6000      7.8775      2.5714      0.0587      4.7643    108.7023     23.3599
  2108.7000      7.8775      2.5920      0.1074      3.5161    104.9535     23.3337
  2108.8000      7.8803      2.5828      0.0773      4.0745    105.5004     24.0453
  2108.9000      7.8803      2.5628      0.0822      5.2862    106.4540     25.0504
  2109.0000      7.8940      2.5531      0.0806      5.8725    106.6206     25.4586
  2109.1000      7.8940      2.5457      0.0934      6.3192    107.4877     25.0300
  2109.2000      7.8940      2.5217      0.0401      7.7757    108.4701     24.6148
  2109.3000      7.9058      2.4840     -0.0094     10.0626    109.4223     24.7340
  2109.4000      7.9058      2.4594      0.0012     11.5522    111.6790     25.0568
  2109.5000      7.9076      2.4609      0.0265     11.4620    114.1008     25.4496
  2109.6000      7.9076      2.4728      0.0211     10.7366    113.7772     25.7316
  2109.7000      7.9076      2.4793      0.0316     10.3449    108.6814     25.2475
  2109.8000      7.9185      2.4820     -0.0209     10.1838    102.0816     24.2414
  2109.9000      7.9185      2.4873      0.0348      9.8607     99.5462     23.8667
  2110.0000      7.9288      2.4952      0.0131      9.3839    100.0390     24.3572
  2110.1000      7.9288      2.5089      0.0502      8.5521     96.9089     24.5613
  2110.2000      7.9288      2.5316      0.1138      7.1781     90.7353     24.2710
  2110.3000      7.9283      2.5671      0.0843      5.0262     88.2838     24.2888
  2110.4000      7.9283      2.6137      0.1480      2.1991     89.5518     24.3309
  2110.5000      7.9077      2.6523      0.1620     -0.1387     90.5256     24.1703
  2110.6000      7.9077      2.6755      0.1696     -1.5443     93.5171     24.4495
  2110.7000      7.9077      2.6914      0.1423     -2.5070     96.7546     25.0465
  2110.8000      7.8728      2.6941      0.1296     -2.6722     90.6931     24.7299
  2110.9000      7.8728      2.6734      0.1137     -1.4162     77.6367     23.2098
  2111.0000      7.8832      2.6381      0.0898      0.7210     70.1039     21.6968
  2111.1000      7.8832      2.6141      0.0338      2.1756     69.3105     21.2417
  2111.2000      7.8832      2.6142      0.0595      2.1674     66.3647     21.7764
  2111.3000      7.8902      2.6137      0.0757      2.2029     62.3951     22.1763
  2111.4000      7.8902      2.5920      0.0081      3.5148     62.6968     22.2443
  2111.5000      7.8944      2.5698      0.0232      4.8622     65.8344     22.7644
  2111.6000      7.8944      2.5602      0.0811      5.4413     71.8040     23.4738
  2111.7000      7.8944      2.5556      0.0252      5.7217     80.7203     23.6311
  2111.8000      7.8792      2.5548      0.0581      5.7721     88.9461     23.3316
  2111.9000      7.8792      2.5497      0.0391      6.0803     93.6310     22.8111
  2112.0000      7.8665      2.5321      0.0136      7.1454     94.6285     22.4184
  2112.1000      7.8665      2.5107      0.0302      8.4408     95.6643     22.4924
  2112.2000      7.8665      2.5020      0.0044      8.9710     99.8436     22.4364
  2112.3000      7.8680      2.5130      0.0185      8.3051    101.9552     21.8245
  2112.4000      7.8680      2.5243      0.0484      7.6156     97.2073     21.1359
  2112.5000      7.8874      2.5131      0.0235      8.2949     91.5117     20.6750
  2112.6000      7.8874      2.4841     -0.0067     10.0537     91.1242     20.4350
  2112.7000      7.8874      2.4655     -0.0261     11.1801     91.5678     20.6859
  2112.8000      7.8965      2.4853     -0.0287      9.9807     89.6632     21.3031
  2112.9000      7.8965      2.5312      0.0445      7.1980     93.5066     21.8089
  2113.0000      7.9143      2.5628      0.0796      5.2842    105.0575     22.1810
  2113.1000      7.9143      2.5646      0.1204      5.1772    113.1262     22.1526
  2113.2000      7.9143      2.5489      0.0597      6.1288    111.7015     21.4467
  2113.3000      7.9222      2.5353     -0.0060      6.9503    106.3542     20.6738
  2113.4000      7.9222      2.5363      0.0386      6.8920    100.7605     20.3862
  2113.5000      7.9432      2.5496      0.0572      6.0877     95.4914     20.6121
  2113.6000      7.9432      2.5603      0.0940      5.4365     91.1511     21.1794
  2113.7000      7.9432      2.5510      0.0649      5.9973     86.5536     21.6793
  2113.8000      7.9188      2.5323      0.0171      7.1336     82.3177     21.7523
  2113.9000      7.9188      2.5336      0.0247      7.0544     81.9547     21.2735
  2114.0000      7.9108      2.5594      0.0471      5.4922     82.4970     20.5835
  2114.1000      7.9108      2.5891      0.0555      3.6928     79.7785     20.1872
  2114.2000      7.9108      2.6038      0.0901      2.7974     78.8772     20.0360
  2114.3000      7.9069      2.5949      0.0511      3.3365     82.8475     19.8064
  2114.4000      7.9069      2.5706      0.0331      4.8144     86.5116     19.5662
  2114.5000      7.9148      2.5537      0.0566      5.8343     86.3345     19.7124
  2114.6000      7.9148      2.5573      0.0338      5.6179     84.3941     19.9742
  2114.7000      7.9148      2.5672      0.0311      5.0204     82.3280     19.9800
