~Version Information
 VERS.                      2.0: CWLS Log ASCII Standard - VERSION 2.0
 WRAP.                       NO: One line per depth step
 ~Well Information Block
 STRT.FT               763.7500: 
 STOP.FT              2577.0000: 
 STEP.FT                 0.2500: 
 NULL.                -999.2500: 
 COMP.          Petrogulf Corporation: COMPANY
 WELL.               J&P 12-33V: WELL
 FLD.           Purgatorie River: FIELD
 LOC.           2005' FSL & 1928' FEL: LOCATION
 CNTY.               Las Animas: COUNTY
 SRVC.                         : SERVICE COMPANY
 DATE.          Sat Aug 28 09:00:36 2004: LOG DATE
 UWI.           05 071 08092 00: UNIQUE WELL ID
 STAT.                 Colorado: STATE
 PROV.                         :Province
 ~Curve Information Block
 DEPT.FT            0 000 00 00: Depth
 SP.mV                         : DIL Spontaneous Potential
 RILD.Ohm-m                    : DIL Deep Resistivity
 RILM.Ohm-m                    : DIL Medium Resistivity
 RLL3.Ohm-m                    : DIL Shallow Resistivity
 GR.GAPI                       : Gamma Ray
 ~Parameter Information Block
 ~A  Depth        SP         RILD        RILM        RLL3         GR     
# ...
  2191.7500     -4.5403     18.1404     20.8506     29.4264     70.0300
  2192.0000     -4.3706     18.1558     20.9473     35.2840     68.4530
  2192.2500     -4.1469     18.2050     21.0043     43.3133     64.7933
  2192.5000     -3.8943     18.3006     21.0005     52.3564     56.3609
  2192.7500     -3.6485     18.4466     20.9296     60.4039     50.3631
  2193.0000     -3.4500     18.6390     20.8042     65.2325     43.8397
  2193.2500     -3.3365     18.8738     20.6523     65.3491     42.2604
  2193.5000     -3.3353     19.1552     20.5110     60.6984     44.4309
  2193.7500     -3.4576     19.4979     20.4170     52.6908     48.5361
  2194.0000     -3.6959     19.9188     20.3998     43.5524     57.3403
  2194.2500     -4.0262     20.4229     20.4768     35.4037     63.6910
  2194.5000     -4.4130     20.9909     20.6522     29.5597     71.3468
  2194.7500     -4.8160     21.5750     20.9181     26.3214     74.1493
  2195.0000     -5.1977     22.1077     21.2563     25.2126     74.7336
  2195.2500     -5.5289     22.5189     21.6416     25.4098     73.4443
  2195.5000     -5.7919     22.7567     22.0455     26.1191     70.8761
  2195.7500     -5.9811     22.7986     22.4374     26.7959     69.7546
  2196.0000     -6.1002     22.6501     22.7856     27.2254     69.7808
  2196.2500     -6.1592     22.3347     23.0558     27.5085     70.6949
  2196.5000     -6.1703     21.8823     23.2091     27.9683     72.1696
  2196.7500     -6.1460     21.3237     23.2028     28.9732     72.4838
  2197.0000     -6.0972     20.6897     22.9954     30.7226     71.3180
  2197.2500     -6.0336     20.0123     22.5571     33.0813     69.5757
  2197.5000     -5.9635     19.3231     21.8815     35.5501     66.5346
  2197.7500     -5.8930     18.6491     20.9938     37.4028     65.0956
  2198.0000     -5.8258     18.0078     19.9483     37.9510     65.1533
  2198.2500     -5.7614     17.4059     18.8169     36.8217     67.0783
  2198.5000     -5.6949     16.8417     17.6732     34.1119     72.7552
  2198.7500     -5.6173     16.3099     16.5788     30.3354     78.0025
  2199.0000     -5.5176     15.8069     15.5767     26.1943     86.8208
  2199.2500     -5.3851     15.3318     14.6908     22.3129     92.4331
  2199.5000     -5.2136     14.8863     13.9299     19.0742     99.1940
  2199.7500     -5.0035     14.4739     13.2925     16.6052    102.2289
  2200.0000     -4.7637     14.1000     12.7713     14.8629    104.6296
  2200.2500     -4.5118     13.7732     12.3571     13.7356    105.2499
  2200.5000     -4.2719     13.5064     12.0416     13.1036    105.9531
  2200.7500     -4.0711     13.3173     11.8191     12.8553    106.7662
  2201.0000     -3.9345     13.2271     11.6876     12.8813    108.3101
  2201.2500     -3.8811     13.2591     11.6497     13.0710    109.1124
  2201.5000     -3.9201     13.4366     11.7124     13.3344    109.4768
  2201.7500     -4.0482     13.7798     11.8875     13.6535    109.0717
  2202.0000     -4.2505     14.3029     12.1911     14.1765    107.4660
  2202.2500     -4.5022     15.0100     12.6434     15.3626    105.8176
  2202.5000     -4.7723     15.8915     13.2687     18.1771    102.6275
  2202.7500     -5.0288     16.9224     14.0950     24.2816     99.7352
  2203.0000     -5.2429     18.0636     15.1527     36.0837     92.8925
  2203.2500     -5.3921     19.2683     16.4726     56.4433     85.8735
  2203.5000     -5.4618     20.4904     18.0808     87.8906     71.7225
  2203.7500     -5.4442     21.6924     19.9893    131.4615     60.9878
  2204.0000     -5.3373     22.8444     22.1795    186.0767     45.7855
  2204.2500     -5.1423     23.9138     24.5765    248.9950     37.6457
  2204.5000     -4.8627     24.8491     27.0186    317.6443     29.3475
  2204.7500     -4.5043     25.5701     29.2360    391.0912     26.0867
  2205.0000     -4.0759     25.9783     30.8719    468.5644     23.2384
  2205.2500     -3.5900     25.9904     31.5799    544.4740     21.9411
  2205.5000     -3.0642     25.5795     31.1740    604.0601     20.3041
  2205.7500     -2.5199     24.7987     29.7370    626.1705     19.5692
  2206.0000     -1.9814     23.7662     27.5862    594.6638     19.8959
  2206.2500     -1.4729     22.6233     25.1237    510.5706     21.8021
  2206.5000     -1.0153     21.4909     22.6902    394.0863     28.4112
  2206.7500     -0.6234     20.4448     20.5010    273.9760     35.6128
  2207.0000     -0.3043     19.5147     18.6553    173.2203     49.8443
  2207.2500     -0.0568     18.6974     17.1738    101.4535     60.6007
  2207.5000      0.1268     17.9739     16.0354     56.7686     76.7415
  2207.7500      0.2591     17.3247     15.2017     31.9595     86.4840
  2208.0000      0.3538     16.7384     14.6303     19.6673     97.7881
  2208.2500      0.4242     16.2162     14.2807     14.5407    102.1997
  2208.5000      0.4807     15.7694     14.1170     13.3212    103.6181
  2208.7500      0.5302     15.4153     14.1073     14.2179    101.7141
  2209.0000      0.5759     15.1705     14.2241     16.2977     96.7279
  2209.2500      0.6176     15.0451     14.4425     18.9664     93.2102
  2209.5000      0.6525     15.0393     14.7395     21.8257     88.8017
  2209.7500      0.6756     15.1431     15.0926     24.5375     86.5968
  2210.0000      0.6814     15.3375     15.4787     26.8360     84.4449
  2210.2500      0.6642     15.5974     15.8728     28.5571     83.9058
  2210.5000      0.6191     15.8942     16.2490     29.6412     84.5866
  2210.7500      0.5422     16.1980     16.5810     30.1052     85.8089
  2211.0000      0.4303     16.4803     16.8458     30.0085     87.6322
  2211.2500      0.2801     16.7164     17.0266     29.4282     87.9713
  2211.5000      0.0886     16.8901     17.1162     28.4452     86.5685
  2211.7500     -0.1462     16.9980     17.1180     27.1366     84.9373
  2212.0000     -0.4235     17.0520     17.0451     25.5791     83.1721
  2212.2500     -0.7375     17.0769     16.9177     23.8648     83.0217
  2212.5000     -1.0770     17.1029     16.7582     22.1169     84.2369
  2212.7500     -1.4270     17.1560     16.5883     20.4888     85.8530
  2213.0000     -1.7724     17.2495     16.4258     19.1454     89.5237
  2213.2500     -2.1046     17.3801     16.2828     18.2372     92.5135
  2213.5000     -2.4257     17.5301     16.1650     17.8727     96.1048
  2213.7500     -2.7511     17.6756     16.0730     18.0866     96.8116
  2214.0000     -3.1057     17.7972     16.0025     18.8054     95.1562
  2214.2500     -3.5173     17.8888     15.9468     19.8328     93.1662
  2214.5000     -4.0062     17.9590     15.8990     20.8909     90.3545
  2214.7500     -4.5769     18.0250     15.8534     21.7173     88.7200
  2215.0000     -5.2135     18.1028     15.8070     22.1693     86.1159
  2215.2500     -5.8811     18.1986     15.7604     22.2558     84.1848
  2215.5000     -6.5321     18.3052     15.7175     22.0732     81.5273
  2215.7500     -7.1157     18.4035     15.6846     21.7043     80.3851
  2216.0000     -7.5880     18.4683     15.6698     21.1746     80.1775
  2216.2500     -7.9193     18.4775     15.6817     20.4947     81.1004
  2216.5000     -8.0981     18.4206     15.7290     19.7345     83.7309
  2216.7500     -8.1316     18.3040     15.8193     19.0567     85.8983
  2217.0000     -8.0427     18.1506     15.9581     18.6848     88.7778
  2217.2500     -7.8656     17.9930     16.1484     18.8283     89.8369
  2217.5000     -7.6396     17.8649     16.3898     19.5954     89.4626
  2217.7500     -7.4040     17.7927     16.6777     20.9274     87.9212
  2218.0000     -7.1934     17.7907     17.0035     22.6056     84.3325
  2218.2500     -7.0334     17.8607     17.3545     24.3725     81.5960
  2218.5000     -6.9396     17.9954     17.7150     26.1134     77.5884
  2218.7500     -6.9167     18.1835     18.0671     27.9405     75.0282
  2219.0000     -6.9601     18.4145     18.3939     30.0474     71.0268
  2219.2500     -7.0579     18.6810     18.6820     32.4090     68.1909
  2219.5000     -7.1944     18.9772     18.9249     34.5950     64.2911
