~Version Information
 VERS.                                  2.0 : CWLS LAS VERSION
 WRAP.                                   NO : WRAPING MODE
 SWARE .                 MController 2.5.0E : SOFTWARE VERSION
~Well Information
 WELL.                       Montoya 12 44v : WELL
 COMP.                       Petrogulf Corp : COMPANY
 FLD.                      Purgatorie River : FIELD
 LOC.               SE/SE Sec 12 T33S R66W  : LOCATION
 DATE.                             8/7 8/04 : DATE(S) LOGGED
 SRVC.       Blanco Geological Services LLC : SERVICE COMPANY
 STAT.                                   CO : STATE
 CNTY.                           Las Animas : COUNTY
 CTRY.                                  USA : COUNTRY
 API.                       05 071 08094 00 : API NUMBER
 STRT.FT                             804.00 : START DEPTH
 STOP.FT                            2469.00 : STOP DEPTH
 STEP.FT                               1.00 : DEPTH INCREMENT
 NULL.                                 9999 : NULL VALUE
~Curve information
 DEPTH.FT                                   :
 ROP.MIN/FT                                 :
 GAS.UNITS                                  :
~ASCII Log data
# ...
     1204.00        0.100          2.1 
     1205.00        0.133          2.6 
     1206.00        0.133          2.7 
     1207.00        0.167          2.5 
     1208.00        0.100          2.7 
     1209.00        0.133          2.4 
     1210.00        0.133          1.9 
     1211.00        0.167          2.5 
     1212.00        0.167          2.6 
     1213.00        0.133          2.3 
     1214.00        0.133          2.2 
     1215.00        0.183          2.4 
     1216.00        0.167          2.7 
     1217.00        0.167          2.7 
     1218.00        0.200          2.7 
     1219.00        0.133          2.7 
     1220.00        0.167          2.5 
     1221.00        0.167          2.4 
     1222.00        0.167          1.9 
     1223.00        0.133          2.3 
     1224.00        0.100          2.0 
     1225.00        0.100          2.1 
     1226.00        0.067          2.0 
     1227.00        0.133          3.0 
     1228.00        0.300          3.0 
     1229.00        0.300          2.9 
     1230.00        2.617          3.1 
     1231.00        0.267          2.7 
     1232.00        0.167          2.5 
     1233.00        0.133          2.7 
     1234.00        0.300          2.7 
     1235.00        0.200          2.9 
     1236.00        0.267          2.8 
     1237.00        0.233          2.7 
     1238.00        0.250          2.7 
     1239.00        0.267          2.8 
     1240.00        0.200          2.4 
     1241.00        0.167          2.0 
     1242.00        0.100          2.5 
     1243.00        0.133          1.9 
     1244.00        0.100          2.6 
     1245.00        0.133          1.9 
     1246.00        0.100          2.2 
     1247.00        0.100          1.8 
     1248.00        0.133          2.2 
     1249.00        0.167          2.8 
     1250.00        0.200          2.2 
     1251.00        0.233          2.7 
     1252.00        0.267          2.8 
     1253.00        0.300          2.7 
     1254.00        0.233          2.6 
     1255.00        0.267          2.7 
     1256.00        0.250          2.3 
     1257.00        0.233          2.5 
     1258.00        0.233          2.6 
     1259.00        0.267          2.7 
     1260.00        3.250          3.1 
     1261.00        0.367          2.4 
     1262.00        0.367          2.0 
     1263.00        0.333          2.4 
     1264.00        0.400          2.4 
     1265.00        0.267          1.7 
     1266.00        0.267          1.6 
     1267.00        0.267          2.4 
     1268.00        0.283          2.4 
     1269.00        0.233          1.6 
     1270.00        0.300          2.2 
     1271.00        0.333          2.0 
     1272.00        0.267          2.5 
     1273.00        0.233          2.5 
     1274.00        0.200          2.6 
     1275.00        0.233          2.6 
     1276.00        0.200          2.5 
     1277.00        0.200          2.4 
     1278.00        0.233          2.6 
     1279.00        0.200          2.5 
     1280.00        0.233          2.4 
     1281.00        0.200          2.5 
     1282.00        0.283          2.4 
     1283.00        0.200          1.8 
     1284.00        0.200          2.2 
     1285.00        0.233          1.9 
     1286.00        0.233          2.3 
     1287.00        0.233          1.4 
     1288.00        0.233          2.1 
     1289.00        0.167          2.0 
     1290.00        2.717          2.5 
     1291.00        0.267          1.9 
     1292.00        0.233          1.8 
     1293.00        0.233          1.9 
     1294.00        0.267          1.9 
     1295.00        0.233          1.5 
     1296.00        0.167          1.6 
     1297.00        0.133          1.1 
     1298.00        0.167          1.8 
     1299.00        0.200          1.9 
     1300.00        0.200          1.5 
     1301.00        0.167          1.5 
     1302.00        0.217          1.8 
     1303.00        0.233          1.5 
     1304.00        0.267          1.7 
     1305.00        0.200          1.1 
     1306.00        0.167          1.6 
     1307.00        0.367          1.7 
     1308.00        0.367          1.5 
     1309.00        0.167          0.8 
     1310.00        0.167          0.9 
     1311.00        0.133          1.0 
     1312.00        0.233          1.7 
     1313.00        0.233          1.8 
     1314.00        0.200          1.3 
     1315.00        0.233          1.6 
     1316.00        0.233          1.7 
     1317.00        0.217          1.4 
     1318.00        0.233          1.6 
     1319.00        0.200          1.6 
     1320.00        3.283          1.8 
     1321.00        0.133          1.5 
     1322.00        0.300          1.9 
     1323.00        0.333          1.8 
     1324.00        0.333          1.7 
     1325.00        0.267          1.1 
     1326.00        0.300          1.7 
     1327.00        0.267          1.7 
     1328.00        0.267          1.3 
     1329.00        0.233          1.7 
     1330.00        0.233          1.5 
     1331.00        0.283          1.6 
     1332.00        0.233          1.7 
     1333.00        0.233          1.2 
     1334.00        0.233          1.3 
     1335.00        0.233          1.7 
     1336.00        0.267          1.6 
     1337.00        0.233          1.7 
     1338.00        0.233          1.1 
     1339.00        0.233          1.6 
     1340.00        0.233          1.3 
     1341.00        0.200          0.8 
     1342.00        0.200          1.8 
     1343.00        0.167          1.0 
     1344.00        0.200          1.2 
     1345.00        0.233          1.6 
     1346.00        0.250          1.0 
     1347.00        0.233          1.1 
     1348.00        0.267          1.3 
     1349.00        0.233          1.7 
     1350.00        4.117          2.1 
     1351.00        0.300          1.9 
     1352.00        0.300          2.0 
     1353.00        0.333          2.1 
     1354.00        0.333          2.0 
     1355.00        0.333          2.0 
     1356.00        0.317          1.5 
     1357.00        0.300          1.7 
     1358.00        0.267          1.8 
     1359.00        0.200          1.6 
     1360.00        0.233          1.7 
     1361.00        0.200          1.1 
     1362.00        0.233          1.7 
     1363.00        0.267          1.9 
     1364.00        0.233          1.2 
     1365.00        0.233          1.0 
     1366.00        0.267          2.0 
     1367.00        0.333          1.8 
     1368.00        0.300          2.0 
     1369.00        0.217          2.0 
     1370.00        0.167          1.7 
     1371.00        0.200          2.0 
     1372.00        0.200          1.6 
     1373.00        0.200          1.9 
     1374.00        0.200          1.9 
     1375.00        0.200          1.9 
     1376.00        0.167          1.8 
     1377.00        0.167          1.4 
     1378.00        0.200          1.9 
     1379.00        0.200          1.6 
     1380.00        3.117          2.2 
     1381.00        0.333          1.6 
     1382.00        0.333          2.0 
     1383.00        0.300          2.0 
     1384.00        0.367          2.1 
     1385.00        0.450          1.5 
     1386.00        0.400          1.9 
     1387.00        0.333          1.8 
     1388.00        0.200          1.9 
     1389.00        0.233          0.9 
     1390.00        0.267          1.2 
     1391.00        0.267          1.2 
     1392.00        0.200          1.0 
     1393.00        0.200          1.8 
     1394.00        0.200          1.4 
     1395.00        0.233          1.9 
     1396.00        0.300          1.5 
     1397.00        0.283          1.9 
     1398.00        0.333          1.8 
     1399.00        0.300          1.6 
     1400.00        0.233          1.9 
     1401.00        0.233          1.9 
     1402.00        0.200          1.8 
     1403.00        0.233          2.1 
